timestamp,noutputs,output[0],output[1],output[2],output[3],output[4],output[5],output[6],output[7],output[8],output[9],output[10],output[11],output[12],output[13],output[14],output[15]
686480000,6,1000.0,1000.0,1000.0,1000.0,1500.0,1500.0,nan,nan,nan,nan,nan,nan,nan,nan,nan,nan
686580000,6,1000.0,1000.0,1000.0,1000.0,1500.0,1500.0,nan,nan,nan,nan,nan,nan,nan,nan,nan,nan
686680000,6,1000.0,1000.0,1000.0,1000.0,1500.0,1500.0,nan,nan,nan,nan,nan,nan,nan,nan,nan,nan
686780000,6,1000.0,1000.0,1000.0,1000.0,1500.0,1500.0,nan,nan,nan,nan,nan,nan,nan,nan,nan,nan
686876000,6,1000.0,1000.0,1000.0,1000.0,1500.0,1500.0,nan,nan,nan,nan,nan,nan,nan,nan,nan,nan
686980000,6,1000.0,1000.0,1000.0,1000.0,1500.0,1500.0,nan,nan,nan,nan,nan,nan,nan,nan,nan,nan
687076000,6,1000.0,1000.0,1000.0,1000.0,1500.0,1500.0,nan,nan,nan,nan,nan,nan,nan,nan,nan,nan
687176000,6,1000.0,1000.0,1000.0,1000.0,1500.0,1500.0,nan,nan,nan,nan,nan,nan,nan,nan,nan,nan
687280000,6,1000.0,1000.0,1000.0,1000.0,1500.0,1500.0,nan,nan,nan,nan,nan,nan,nan,nan,nan,nan
687380000,6,1000.0,1000.0,1000.0,1000.0,1500.0,1500.0,nan,nan,nan,nan,nan,nan,nan,nan,nan,nan
687476000,6,1000.0,1000.0,1000.0,1000.0,1500.0,1500.0,nan,nan,nan,nan,nan,nan,nan,nan,nan,nan
687580000,6,1073.405,1168.5232,1111.3306,1127.2094,1500.0,1500.0,nan,nan,nan,nan,nan,nan,nan,nan,nan,nan
687680000,6,1104.1884,1194.6406,1109.8822,1189.2974,1500.0,1500.0,nan,nan,nan,nan,nan,nan,nan,nan,nan,nan
687780000,6,1176.2054,1253.2139,1184.3301,1246.8202,1500.0,1500.0,nan,nan,nan,nan,nan,nan,nan,nan,nan,nan
687876000,6,1248.9089,1313.3765,1248.86,1318.1306,1500.0,1500.0,nan,nan,nan,nan,nan,nan,nan,nan,nan,nan
687980000,6,1333.6978,1395.8383,1330.6598,1399.6162,1500.0,1500.0,nan,nan,nan,nan,nan,nan,nan,nan,nan,nan
688080000,6,1405.8169,1466.5719,1404.0615,1472.1035,1500.0,1500.0,nan,nan,nan,nan,nan,nan,nan,nan,nan,nan
688176000,6,1477.645,1539.7925,1474.0197,1543.1688,1500.0,1500.0,nan,nan,nan,nan,nan,nan,nan,nan,nan,nan
688276000,6,1554.1854,1604.4424,1549.9955,1611.6095,1500.0,1500.0,nan,nan,nan,nan,nan,nan,nan,nan,nan,nan
688376000,6,1616.2823,1602.8147,1622.3867,1599.7948,1500.0,1500.0,nan,nan,nan,nan,nan,nan,nan,nan,nan,nan
688476000,6,1614.9113,1607.4078,1613.9442,1605.2949,1500.0,1500.0,nan,nan,nan,nan,nan,nan,nan,nan,nan,nan
688576000,6,1612.444,1612.4421,1611.3964,1609.7014,1500.0,1500.0,nan,nan,nan,nan,nan,nan,nan,nan,nan,nan
688676000,6,1612.4553,1616.1399,1613.8562,1617.8572,1500.0,1500.0,nan,nan,nan,nan,nan,nan,nan,nan,nan,nan
688780000,6,1615.5269,1618.0077,1613.6923,1619.1582,1500.0,1500.0,nan,nan,nan,nan,nan,nan,nan,nan,nan,nan
688880000,6,1613.3167,1615.7184,1613.3972,1617.2314,1500.0,1500.0,nan,nan,nan,nan,nan,nan,nan,nan,nan,nan
688976000,6,1624.03,1625.369,1623.1241,1623.506,1500.0,1500.0,nan,nan,nan,nan,nan,nan,nan,nan,nan,nan
689080000,6,1622.6564,1623.3491,1626.6166,1620.1617,1500.0,1500.0,nan,nan,nan,nan,nan,nan,nan,nan,nan,nan
689176000,6,1621.0968,1627.8553,1623.3702,1625.1787,1500.0,1500.0,nan,nan,nan,nan,nan,nan,nan,nan,nan,nan
689280000,6,1622.5448,1623.0913,1623.3107,1624.0969,1500.0,1500.0,nan,nan,nan,nan,nan,nan,nan,nan,nan,nan
689376000,6,1629.3922,1631.426,1629.6725,1629.9158,1500.0,1500.0,nan,nan,nan,nan,nan,nan,nan,nan,nan,nan
689476000,6,1633.8865,1631.3047,1632.5947,1633.7836,1500.0,1500.0,nan,nan,nan,nan,nan,nan,nan,nan,nan,nan
689576000,6,1634.074,1631.1086,1633.7235,1630.3174,1500.0,1500.0,nan,nan,nan,nan,nan,nan,nan,nan,nan,nan
689676000,6,1625.8572,1628.5001,1626.7753,1629.368,1500.0,1500.0,nan,nan,nan,nan,nan,nan,nan,nan,nan,nan
689776000,6,1633.1067,1636.5397,1631.2821,1632.8354,1500.0,1500.0,nan,nan,nan,nan,nan,nan,nan,nan,nan,nan
689876000,6,1636.9978,1641.3688,1639.1722,1642.0433,1500.0,1500.0,nan,nan,nan,nan,nan,nan,nan,nan,nan,nan
689976000,6,1640.8218,1643.3441,1643.2728,1643.7538,1500.0,1500.0,nan,nan,nan,nan,nan,nan,nan,nan,nan,nan
690080000,6,1642.1257,1638.7113,1640.7141,1643.1125,1500.0,1500.0,nan,nan,nan,nan,nan,nan,nan,nan,nan,nan
690176000,6,1629.7035,1629.7075,1630.9385,1626.863,1500.0,1500.0,nan,nan,nan,nan,nan,nan,nan,nan,nan,nan
690280000,6,1533.4703,1528.8383,1527.431,1533.2188,1500.0,1500.0,nan,nan,nan,nan,nan,nan,nan,nan,nan,nan
690376000,6,1561.3486,1562.3008,1561.1022,1563.5338,1500.0,1500.0,nan,nan,nan,nan,nan,nan,nan,nan,nan,nan
690476000,6,1570.978,1569.7074,1569.7537,1568.9921,1500.0,1500.0,nan,nan,nan,nan,nan,nan,nan,nan,nan,nan
690576000,6,1566.9985,1570.1725,1566.5178,1568.5796,1500.0,1500.0,nan,nan,nan,nan,nan,nan,nan,nan,nan,nan
690676000,6,1566.3984,1566.0522,1564.9282,1568.206,1500.0,1500.0,nan,nan,nan,nan,nan,nan,nan,nan,nan,nan
690776000,6,1571.3007,1575.9403,1573.0577,1574.5999,1500.0,1500.0,nan,nan,nan,nan,nan,nan,nan,nan,nan,nan
690876000,6,1573.701,1574.5422,1572.5011,1575.5258,1500.0,1500.0,nan,nan,nan,nan,nan,nan,nan,nan,nan,nan
690976000,6,1574.4226,1572.2354,1572.2338,1571.562,1500.0,1500.0,nan,nan,nan,nan,nan,nan,nan,nan,nan,nan
691076000,6,1572.7062,1573.1013,1573.6565,1573.9714,1500.0,1500.0,nan,nan,nan,nan,nan,nan,nan,nan,nan,nan
691176000,6,1571.3634,1571.9773,1573.9725,1570.2074,1500.0,1500.0,nan,nan,nan,nan,nan,nan,nan,nan,nan,nan
691276000,6,1581.3519,1579.2495,1581.9493,1578.1147,1500.0,1500.0,nan,nan,nan,nan,nan,nan,nan,nan,nan,nan
691376000,6,1580.5703,1581.2634,1580.1426,1581.4578,1500.0,1500.0,nan,nan,nan,nan,nan,nan,nan,nan,nan,nan
691476000,6,1576.9365,1578.4797,1579.0049,1578.7465,1500.0,1500.0,nan,nan,nan,nan,nan,nan,nan,nan,nan,nan
691580000,6,1575.8843,1573.0642,1574.4637,1574.3584,1500.0,1500.0,nan,nan,nan,nan,nan,nan,nan,nan,nan,nan
691676000,6,1579.6085,1574.472,1576.2601,1575.1493,1500.0,1500.0,nan,nan,nan,nan,nan,nan,nan,nan,nan,nan
691780000,6,1581.8536,1583.7711,1581.1605,1583.6588,1500.0,1500.0,nan,nan,nan,nan,nan,nan,nan,nan,nan,nan
691876000,6,1578.8414,1580.6396,1576.4125,1580.4442,1500.0,1500.0,nan,nan,nan,nan,nan,nan,nan,nan,nan,nan
691980000,6,1578.9768,1580.0626,1580.5352,1579.9059,1500.0,1500.0,nan,nan,nan,nan,nan,nan,nan,nan,nan,nan
692076000,6,1573.0426,1577.2537,1576.7386,1576.6067,1500.0,1500.0,nan,nan,nan,nan,nan,nan,nan,nan,nan,nan
692176000,6,1579.2543,1586.5764,1581.5104,1585.012,1500.0,1500.0,nan,nan,nan,nan,nan,nan,nan,nan,nan,nan
692280000,6,1585.3198,1584.0212,1586.4336,1583.3435,1500.0,1500.0,nan,nan,nan,nan,nan,nan,nan,nan,nan,nan
692376000,6,1582.0897,1578.6733,1583.7592,1580.5385,1500.0,1500.0,nan,nan,nan,nan,nan,nan,nan,nan,nan,nan
692480000,6,1580.7891,1583.1041,1581.2703,1580.6987,1500.0,1500.0,nan,nan,nan,nan,nan,nan,nan,nan,nan,nan
692580000,6,1578.6528,1580.0123,1578.1823,1575.9465,1500.0,1500.0,nan,nan,nan,nan,nan,nan,nan,nan,nan,nan
692676000,6,1587.0922,1584.2654,1587.6027,1584.7975,1500.0,1500.0,nan,nan,nan,nan,nan,nan,nan,nan,nan,nan
692776000,6,1583.4891,1580.3042,1580.8029,1581.1525,1500.0,1500.0,nan,nan,nan,nan,nan,nan,nan,nan,nan,nan
692876000,6,1583.2954,1582.7771,1585.1279,1582.0106,1500.0,1500.0,nan,nan,nan,nan,nan,nan,nan,nan,nan,nan
692976000,6,1574.4888,1581.3026,1577.4072,1582.1953,1500.0,1500.0,nan,nan,nan,nan,nan,nan,nan,nan,nan,nan
693076000,6,1581.6691,1580.2268,1581.1672,1578.2815,1500.0,1500.0,nan,nan,nan,nan,nan,nan,nan,nan,nan,nan
693180000,6,1591.251,1585.314,1588.8186,1589.6884,1500.0,1500.0,nan,nan,nan,nan,nan,nan,nan,nan,nan,nan
693280000,6,1587.4374,1587.8474,1588.7903,1588.8627,1500.0,1500.0,nan,nan,nan,nan,nan,nan,nan,nan,nan,nan
693380000,6,1585.1685,1584.0708,1582.5796,1584.4802,1500.0,1500.0,nan,nan,nan,nan,nan,nan,nan,nan,nan,nan
693476000,6,1585.9896,1584.8967,1585.6678,1586.1132,1500.0,1500.0,nan,nan,nan,nan,nan,nan,nan,nan,nan,nan
693576000,6,1578.5933,1580.6399,1579.2767,1579.0322,1500.0,1500.0,nan,nan,nan,nan,nan,nan,nan,nan,nan,nan
693680000,6,1581.9403,1577.5925,1581.9192,1577.631,1500.0,1500.0,nan,nan,nan,nan,nan,nan,nan,nan,nan,nan
693776000,6,1587.1812,1587.8555,1587.0112,1586.1467,1500.0,1500.0,nan,nan,nan,nan,nan,nan,nan,nan,nan,nan
693880000,6,1589.4137,1586.4231,1587.404,1588.9268,1500.0,1500.0,nan,nan,nan,nan,nan,nan,nan,nan,nan,nan
693980000,6,1586.512,1585.1881,1588.4768,1583.453,1500.0,1500.0,nan,nan,nan,nan,nan,nan,nan,nan,nan,nan
694080000,6,1582.031,1578.7584,1579.1975,1578.8032,1500.0,1500.0,nan,nan,nan,nan,nan,nan,nan,nan,nan,nan
694176000,6,1582.6852,1587.3984,1586.16,1584.7909,1500.0,1500.0,nan,nan,nan,nan,nan,nan,nan,nan,nan,nan
694276000,6,1590.3671,1585.7306,1589.8303,1586.6007,1500.0,1500.0,nan,nan,nan,nan,nan,nan,nan,nan,nan,nan
694376000,6,1586.5177,1581.8588,1587.2914,1581.3792,1500.0,1500.0,nan,nan,nan,nan,nan,nan,nan,nan,nan,nan
694476000,6,1577.6888,1582.0201,1576.8574,1581.392,1500.0,1500.0,nan,nan,nan,nan,nan,nan,nan,nan,nan,nan
694576000,6,1582.2881,1576.7277,1578.5648,1580.4302,1500.0,1500.0,nan,nan,nan,nan,nan,nan,nan,nan,nan,nan
694676000,6,1577.5869,1576.8752,1576.195,1577.6918,1500.0,1500.0,nan,nan,nan,nan,nan,nan,nan,nan,nan,nan
694780000,6,1565.2567,1557.3364,1565.1426,1559.4507,1500.0,1500.0,nan,nan,nan,nan,nan,nan,nan,nan,nan,nan
694880000,6,1566.5089,1565.2449,1566.507,1567.2772,1500.0,1500.0,nan,nan,nan,nan,nan,nan,nan,nan,nan,nan
694976000,6,1565.2795,1562.3196,1565.8995,1561.6218,1500.0,1500.0,nan,nan,nan,nan,nan,nan,nan,nan,nan,nan
695080000,6,1563.8295,1565.8234,1567.2408,1562.8217,1500.0,1500.0,nan,nan,nan,nan,nan,nan,nan,nan,nan,nan
695176000,6,1568.317,1567.7867,1568.2678,1563.2666,1500.0,1500.0,nan,nan,nan,nan,nan,nan,nan,nan,nan,nan
695280000,6,1564.1646,1570.1641,1565.9569,1566.7966,1500.0,1500.0,nan,nan,nan,nan,nan,nan,nan,nan,nan,nan
695376000,6,1564.3402,1566.7921,1565.4596,1567.0382,1500.0,1500.0,nan,nan,nan,nan,nan,nan,nan,nan,nan,nan
695476000,6,1563.7443,1562.3501,1562.5194,1564.5691,1500.0,1500.0,nan,nan,nan,nan,nan,nan,nan,nan,nan,nan
695580000,6,1563.4127,1558.9836,1563.5122,1562.9429,1500.0,1500.0,nan,nan,nan,nan,nan,nan,nan,nan,nan,nan
695676000,6,1567.9729,1568.1208,1567.9562,1567.8087,1500.0,1500.0,nan,nan,nan,nan,nan,nan,nan,nan,nan,nan
695780000,6,1568.241,1565.4768,1566.9469,1563.2223,1500.0,1500.0,nan,nan,nan,nan,nan,nan,nan,nan,nan,nan
695876000,6,1568.8589,1566.4194,1569.6633,1570.2745,1500.0,1500.0,nan,nan,nan,nan,nan,nan,nan,nan,nan,nan
695976000,6,1564.9359,1568.4617,1566.8739,1565.697,1500.0,1500.0,nan,nan,nan,nan,nan,nan,nan,nan,nan,nan
696080000,6,1566.6615,1565.1656,1567.4023,1567.978,1500.0,1500.0,nan,nan,nan,nan,nan,nan,nan,nan,nan,nan
696180000,6,1564.8096,1565.3179,1569.8881,1563.7756,1500.0,1500.0,nan,nan,nan,nan,nan,nan,nan,nan,nan,nan
696280000,6,1563.8236,1570.6019,1562.6353,1567.0085,1500.0,1500.0,nan,nan,nan,nan,nan,nan,nan,nan,nan,nan
696376000,6,1567.9155,1566.1472,1568.8033,1565.7665,1500.0,1500.0,nan,nan,nan,nan,nan,nan,nan,nan,nan,nan
696476000,6,1566.6499,1564.187,1563.2593,1566.2522,1500.0,1500.0,nan,nan,nan,nan,nan,nan,nan,nan,nan,nan
696580000,6,1568.9247,1566.6577,1569.7744,1566.1519,1500.0,1500.0,nan,nan,nan,nan,nan,nan,nan,nan,nan,nan
696676000,6,1566.7003,1563.8918,1567.0424,1565.801,1500.0,1500.0,nan,nan,nan,nan,nan,nan,nan,nan,nan,nan
696780000,6,1565.5475,1563.469,1563.8771,1567.9474,1500.0,1500.0,nan,nan,nan,nan,nan,nan,nan,nan,nan,nan
696876000,6,1565.4705,1564.7524,1565.067,1562.673,1500.0,1500.0,nan,nan,nan,nan,nan,nan,nan,nan,nan,nan
696976000,6,1565.0408,1562.7408,1566.0363,1563.1859,1500.0,1500.0,nan,nan,nan,nan,nan,nan,nan,nan,nan,nan
697076000,6,1566.2356,1565.8796,1565.5728,1567.041,1500.0,1500.0,nan,nan,nan,nan,nan,nan,nan,nan,nan,nan
697180000,6,1563.6641,1562.8123,1567.7942,1560.9929,1500.0,1500.0,nan,nan,nan,nan,nan,nan,nan,nan,nan,nan
697280000,6,1562.1655,1563.3922,1562.3263,1564.593,1500.0,1500.0,nan,nan,nan,nan,nan,nan,nan,nan,nan,nan
697376000,6,1565.3654,1566.7439,1569.6151,1565.8518,1500.0,1500.0,nan,nan,nan,nan,nan,nan,nan,nan,nan,nan
697480000,6,1564.5953,1567.0778,1562.8932,1567.7993,1500.0,1500.0,nan,nan,nan,nan,nan,nan,nan,nan,nan,nan
697576000,6,1561.9175,1567.321,1565.5557,1562.7969,1500.0,1500.0,nan,nan,nan,nan,nan,nan,nan,nan,nan,nan
697680000,6,1564.688,1561.3455,1561.681,1562.0568,1500.0,1500.0,nan,nan,nan,nan,nan,nan,nan,nan,nan,nan
697776000,6,1564.2712,1563.933,1562.734,1567.494,1500.0,1500.0,nan,nan,nan,nan,nan,nan,nan,nan,nan,nan
697876000,6,1565.1265,1564.8419,1564.4778,1563.9307,1500.0,1500.0,nan,nan,nan,nan,nan,nan,nan,nan,nan,nan
697976000,6,1563.7251,1566.1189,1562.6382,1564.8936,1500.0,1500.0,nan,nan,nan,nan,nan,nan,nan,nan,nan,nan
698076000,6,1564.9658,1561.1146,1562.7932,1566.0975,1500.0,1500.0,nan,nan,nan,nan,nan,nan,nan,nan,nan,nan
698176000,6,1564.8424,1566.8607,1566.4453,1566.7837,1500.0,1500.0,nan,nan,nan,nan,nan,nan,nan,nan,nan,nan
698280000,6,1565.118,1567.1398,1565.9185,1566.9932,1500.0,1500.0,nan,nan,nan,nan,nan,nan,nan,nan,nan,nan
698376000,6,1561.3821,1566.3679,1561.7662,1565.9622,1500.0,1500.0,nan,nan,nan,nan,nan,nan,nan,nan,nan,nan
698476000,6,1567.3873,1565.4408,1569.6763,1563.9808,1500.0,1500.0,nan,nan,nan,nan,nan,nan,nan,nan,nan,nan
698576000,6,1562.684,1566.9285,1566.5815,1565.5729,1500.0,1500.0,nan,nan,nan,nan,nan,nan,nan,nan,nan,nan
698676000,6,1564.7383,1565.6304,1565.9004,1564.1,1500.0,1500.0,nan,nan,nan,nan,nan,nan,nan,nan,nan,nan
698780000,6,1564.5314,1568.4188,1565.0641,1568.2587,1500.0,1500.0,nan,nan,nan,nan,nan,nan,nan,nan,nan,nan
698876000,6,1569.9437,1565.3229,1566.7021,1567.8048,1500.0,1500.0,nan,nan,nan,nan,nan,nan,nan,nan,nan,nan
698980000,6,1565.6636,1562.761,1561.3682,1564.6395,1500.0,1500.0,nan,nan,nan,nan,nan,nan,nan,nan,nan,nan
699076000,6,1564.5422,1562.8938,1565.6698,1563.2433,1500.0,1500.0,nan,nan,nan,nan,nan,nan,nan,nan,nan,nan
699176000,6,1563.251,1562.1838,1562.295,1564.9156,1500.0,1500.0,nan,nan,nan,nan,nan,nan,nan,nan,nan,nan
699276000,6,1566.406,1562.2843,1564.1709,1563.6005,1500.0,1500.0,nan,nan,nan,nan,nan,nan,nan,nan,nan,nan
699376000,6,1565.5944,1565.1859,1567.2826,1564.7471,1500.0,1500.0,nan,nan,nan,nan,nan,nan,nan,nan,nan,nan
699480000,6,1567.023,1562.8207,1563.1865,1566.1163,1500.0,1500.0,nan,nan,nan,nan,nan,nan,nan,nan,nan,nan
699576000,6,1565.008,1564.4677,1564.4124,1562.3217,1500.0,1500.0,nan,nan,nan,nan,nan,nan,nan,nan,nan,nan
699680000,6,1565.0492,1561.9556,1563.7656,1563.6022,1500.0,1500.0,nan,nan,nan,nan,nan,nan,nan,nan,nan,nan
699780000,6,1564.9923,1564.0608,1564.976,1562.0327,1500.0,1500.0,nan,nan,nan,nan,nan,nan,nan,nan,nan,nan
699876000,6,1565.6466,1563.8776,1566.2759,1563.555,1500.0,1500.0,nan,nan,nan,nan,nan,nan,nan,nan,nan,nan
699980000,6,1563.7382,1565.3394,1563.1239,1563.6758,1500.0,1500.0,nan,nan,nan,nan,nan,nan,nan,nan,nan,nan
700080000,6,1561.2792,1566.991,1563.6711,1564.9119,1500.0,1500.0,nan,nan,nan,nan,nan,nan,nan,nan,nan,nan
700180000,6,1563.9954,1563.9114,1565.7935,1562.4766,1500.0,1500.0,nan,nan,nan,nan,nan,nan,nan,nan,nan,nan
700276000,6,1563.3076,1564.0804,1565.724,1561.3284,1500.0,1500.0,nan,nan,nan,nan,nan,nan,nan,nan,nan,nan
700376000,6,1565.8456,1562.8989,1563.3231,1564.9968,1500.0,1500.0,nan,nan,nan,nan,nan,nan,nan,nan,nan,nan
700480000,6,1562.6489,1564.7755,1563.9192,1564.9532,1500.0,1500.0,nan,nan,nan,nan,nan,nan,nan,nan,nan,nan
700576000,6,1564.3198,1561.2399,1563.8188,1562.2504,1500.0,1500.0,nan,nan,nan,nan,nan,nan,nan,nan,nan,nan
700680000,6,1560.7522,1563.3688,1562.1216,1562.064,1500.0,1500.0,nan,nan,nan,nan,nan,nan,nan,nan,nan,nan
700780000,6,1564.4404,1563.1694,1560.25,1562.9177,1500.0,1500.0,nan,nan,nan,nan,nan,nan,nan,nan,nan,nan
700876000,6,1560.5242,1563.2875,1564.3883,1561.6084,1500.0,1500.0,nan,nan,nan,nan,nan,nan,nan,nan,nan,nan
700976000,6,1561.8295,1561.6416,1563.7065,1563.5446,1500.0,1500.0,nan,nan,nan,nan,nan,nan,nan,nan,nan,nan
701080000,6,1562.9392,1560.3281,1565.1388,1560.842,1500.0,1500.0,nan,nan,nan,nan,nan,nan,nan,nan,nan,nan
701176000,6,1561.0327,1563.5762,1561.9968,1562.9006,1500.0,1500.0,nan,nan,nan,nan,nan,nan,nan,nan,nan,nan
701280000,6,1563.888,1564.5752,1566.7277,1563.1139,1500.0,1500.0,nan,nan,nan,nan,nan,nan,nan,nan,nan,nan
701376000,6,1563.4825,1566.0796,1561.8223,1562.4946,1500.0,1500.0,nan,nan,nan,nan,nan,nan,nan,nan,nan,nan
701480000,6,1566.3982,1563.344,1566.9885,1560.5381,1500.0,1500.0,nan,nan,nan,nan,nan,nan,nan,nan,nan,nan
701580000,6,1564.6802,1565.357,1563.5396,1564.6862,1500.0,1500.0,nan,nan,nan,nan,nan,nan,nan,nan,nan,nan
701676000,6,1560.8104,1564.9851,1566.0795,1563.7279,1500.0,1500.0,nan,nan,nan,nan,nan,nan,nan,nan,nan,nan
701776000,6,1564.4333,1559.9584,1563.392,1563.3798,1500.0,1500.0,nan,nan,nan,nan,nan,nan,nan,nan,nan,nan
701880000,6,1563.6731,1564.2301,1562.9504,1564.5975,1500.0,1500.0,nan,nan,nan,nan,nan,nan,nan,nan,nan,nan
701976000,6,1561.9924,1562.2595,1564.7065,1561.013,1500.0,1500.0,nan,nan,nan,nan,nan,nan,nan,nan,nan,nan
702080000,6,1563.1077,1561.5348,1567.0869,1558.1959,1500.0,1500.0,nan,nan,nan,nan,nan,nan,nan,nan,nan,nan
702176000,6,1560.179,1565.7141,1563.3866,1563.873,1500.0,1500.0,nan,nan,nan,nan,nan,nan,nan,nan,nan,nan
702276000,6,1562.0934,1564.3938,1564.3829,1559.693,1500.0,1500.0,nan,nan,nan,nan,nan,nan,nan,nan,nan,nan
702376000,6,1564.9982,1563.6324,1564.6663,1561.2578,1500.0,1500.0,nan,nan,nan,nan,nan,nan,nan,nan,nan,nan
702476000,6,1562.3485,1564.2324,1563.5493,1563.7607,1500.0,1500.0,nan,nan,nan,nan,nan,nan,nan,nan,nan,nan
702580000,6,1564.0778,1566.1976,1564.0072,1565.7694,1500.0,1500.0,nan,nan,nan,nan,nan,nan,nan,nan,nan,nan
702676000,6,1562.4229,1562.5261,1562.1176,1562.8265,1500.0,1500.0,nan,nan,nan,nan,nan,nan,nan,nan,nan,nan
702780000,6,1563.123,1563.1858,1565.0576,1563.0612,1500.0,1500.0,nan,nan,nan,nan,nan,nan,nan,nan,nan,nan
702880000,6,1564.1442,1564.106,1562.2174,1562.009,1500.0,1500.0,nan,nan,nan,nan,nan,nan,nan,nan,nan,nan
702980000,6,1564.8693,1561.5083,1563.3821,1564.5875,1500.0,1500.0,nan,nan,nan,nan,nan,nan,nan,nan,nan,nan
703076000,6,1565.0663,1561.8175,1563.4758,1564.2123,1500.0,1500.0,nan,nan,nan,nan,nan,nan,nan,nan,nan,nan
703176000,6,1563.6101,1562.0836,1565.5674,1558.8993,1500.0,1500.0,nan,nan,nan,nan,nan,nan,nan,nan,nan,nan
703276000,6,1562.1006,1565.1025,1563.4266,1563.9749,1500.0,1500.0,nan,nan,nan,nan,nan,nan,nan,nan,nan,nan
703376000,6,1562.7188,1564.291,1562.5869,1563.2562,1500.0,1500.0,nan,nan,nan,nan,nan,nan,nan,nan,nan,nan
703480000,6,1565.1173,1562.7491,1565.2877,1561.2769,1500.0,1500.0,nan,nan,nan,nan,nan,nan,nan,nan,nan,nan
703580000,6,1561.8293,1563.1392,1562.9972,1564.3264,1500.0,1500.0,nan,nan,nan,nan,nan,nan,nan,nan,nan,nan
703676000,6,1563.22,1563.0928,1563.4244,1564.2274,1500.0,1500.0,nan,nan,nan,nan,nan,nan,nan,nan,nan,nan
703776000,6,1561.468,1563.1345,1559.8911,1564.4489,1500.0,1500.0,nan,nan,nan,nan,nan,nan,nan,nan,nan,nan
703876000,6,1561.8181,1562.3241,1561.3566,1560.3325,1500.0,1500.0,nan,nan,nan,nan,nan,nan,nan,nan,nan,nan
703976000,6,1561.7572,1561.5851,1563.1932,1562.3258,1500.0,1500.0,nan,nan,nan,nan,nan,nan,nan,nan,nan,nan
704076000,6,1560.8632,1562.3234,1563.5671,1564.1151,1500.0,1500.0,nan,nan,nan,nan,nan,nan,nan,nan,nan,nan
704176000,6,1561.7041,1564.3667,1563.001,1560.1753,1500.0,1500.0,nan,nan,nan,nan,nan,nan,nan,nan,nan,nan
704276000,6,1562.8589,1564.3853,1564.1498,1561.1707,1500.0,1500.0,nan,nan,nan,nan,nan,nan,nan,nan,nan,nan
704376000,6,1561.7708,1562.3313,1562.0743,1561.1165,1500.0,1500.0,nan,nan,nan,nan,nan,nan,nan,nan,nan,nan
704476000,6,1563.2816,1562.684,1565.6156,1559.9204,1500.0,1500.0,nan,nan,nan,nan,nan,nan,nan,nan,nan,nan
704576000,6,1563.1484,1561.497,1566.9896,1560.2275,1500.0,1500.0,nan,nan,nan,nan,nan,nan,nan,nan,nan,nan
704676000,6,1566.0386,1564.6099,1562.974,1565.1477,1500.0,1500.0,nan,nan,nan,nan,nan,nan,nan,nan,nan,nan
704780000,6,1562.9856,1564.0939,1565.7976,1560.4934,1500.0,1500.0,nan,nan,nan,nan,nan,nan,nan,nan,nan,nan
704880000,6,1564.4879,1561.1609,1562.3365,1563.464,1500.0,1500.0,nan,nan,nan,nan,nan,nan,nan,nan,nan,nan
704980000,6,1562.3778,1562.2373,1562.635,1562.8921,1500.0,1500.0,nan,nan,nan,nan,nan,nan,nan,nan,nan,nan
705080000,6,1563.1041,1562.6268,1560.6112,1565.8759,1500.0,1500.0,nan,nan,nan,nan,nan,nan,nan,nan,nan,nan
705176000,6,1564.2634,1561.2944,1563.5046,1561.8048,1500.0,1500.0,nan,nan,nan,nan,nan,nan,nan,nan,nan,nan
705276000,6,1561.6882,1562.7728,1559.8121,1564.1979,1500.0,1500.0,nan,nan,nan,nan,nan,nan,nan,nan,nan,nan
705376000,6,1566.066,1563.8082,1565.7988,1562.3949,1500.0,1500.0,nan,nan,nan,nan,nan,nan,nan,nan,nan,nan
705476000,6,1562.0739,1560.928,1561.87,1564.6603,1500.0,1500.0,nan,nan,nan,nan,nan,nan,nan,nan,nan,nan
705576000,6,1564.8096,1562.1039,1563.5999,1564.6918,1500.0,1500.0,nan,nan,nan,nan,nan,nan,nan,nan,nan,nan
705680000,6,1561.8915,1562.9172,1564.1733,1561.1627,1500.0,1500.0,nan,nan,nan,nan,nan,nan,nan,nan,nan,nan
705776000,6,1563.4135,1563.7264,1561.7374,1563.4689,1500.0,1500.0,nan,nan,nan,nan,nan,nan,nan,nan,nan,nan
705880000,6,1563.3911,1564.8922,1565.3608,1565.7428,1500.0,1500.0,nan,nan,nan,nan,nan,nan,nan,nan,nan,nan
705976000,6,1564.5076,1565.3405,1564.1359,1564.145,1500.0,1500.0,nan,nan,nan,nan,nan,nan,nan,nan,nan,nan
706076000,6,1564.3546,1560.6932,1563.0288,1561.828,1500.0,1500.0,nan,nan,nan,nan,nan,nan,nan,nan,nan,nan
706176000,6,1561.9855,1563.5856,1561.5625,1563.5868,1500.0,1500.0,nan,nan,nan,nan,nan,nan,nan,nan,nan,nan
706276000,6,1567.3297,1559.0629,1568.3796,1561.172,1500.0,1500.0,nan,nan,nan,nan,nan,nan,nan,nan,nan,nan
706376000,6,1562.3217,1561.3997,1563.2098,1563.2155,1500.0,1500.0,nan,nan,nan,nan,nan,nan,nan,nan,nan,nan
706480000,6,1563.4957,1565.9348,1563.1912,1564.1992,1500.0,1500.0,nan,nan,nan,nan,nan,nan,nan,nan,nan,nan
706580000,6,1564.4419,1561.2555,1564.9271,1564.0525,1500.0,1500.0,nan,nan,nan,nan,nan,nan,nan,nan,nan,nan
706676000,6,1564.5117,1565.1748,1564.1313,1564.207,1500.0,1500.0,nan,nan,nan,nan,nan,nan,nan,nan,nan,nan
706776000,6,1562.2667,1564.919,1563.1765,1565.1294,1500.0,1500.0,nan,nan,nan,nan,nan,nan,nan,nan,nan,nan
706876000,6,1563.6982,1563.213,1565.4882,1561.9634,1500.0,1500.0,nan,nan,nan,nan,nan,nan,nan,nan,nan,nan
706980000,6,1563.6786,1564.2134,1563.1382,1563.5465,1500.0,1500.0,nan,nan,nan,nan,nan,nan,nan,nan,nan,nan
707076000,6,1565.4254,1560.017,1561.2412,1566.0306,1500.0,1500.0,nan,nan,nan,nan,nan,nan,nan,nan,nan,nan
707176000,6,1564.6,1564.8091,1565.5045,1560.4253,1500.0,1500.0,nan,nan,nan,nan,nan,nan,nan,nan,nan,nan
707276000,6,1563.9208,1563.9528,1563.6821,1565.615,1500.0,1500.0,nan,nan,nan,nan,nan,nan,nan,nan,nan,nan
707380000,6,1562.3545,1561.6656,1563.6621,1562.3193,1500.0,1500.0,nan,nan,nan,nan,nan,nan,nan,nan,nan,nan
707480000,6,1562.9825,1562.753,1563.2393,1564.7725,1500.0,1500.0,nan,nan,nan,nan,nan,nan,nan,nan,nan,nan
707580000,6,1563.2645,1563.2252,1563.443,1563.1641,1500.0,1500.0,nan,nan,nan,nan,nan,nan,nan,nan,nan,nan
707680000,6,1566.6837,1561.2133,1565.7896,1564.5374,1500.0,1500.0,nan,nan,nan,nan,nan,nan,nan,nan,nan,nan
707776000,6,1564.6262,1561.9515,1563.087,1563.2639,1500.0,1500.0,nan,nan,nan,nan,nan,nan,nan,nan,nan,nan
707876000,6,1560.9672,1565.5747,1563.0259,1560.5468,1500.0,1500.0,nan,nan,nan,nan,nan,nan,nan,nan,nan,nan
707976000,6,1565.9132,1562.1958,1564.0209,1562.6934,1500.0,1500.0,nan,nan,nan,nan,nan,nan,nan,nan,nan,nan
708076000,6,1565.9221,1563.1865,1565.9867,1560.8647,1500.0,1500.0,nan,nan,nan,nan,nan,nan,nan,nan,nan,nan
708180000,6,1561.3677,1563.3206,1562.2107,1561.08,1500.0,1500.0,nan,nan,nan,nan,nan,nan,nan,nan,nan,nan
708276000,6,1562.137,1564.2114,1562.0212,1565.3909,1500.0,1500.0,nan,nan,nan,nan,nan,nan,nan,nan,nan,nan
708376000,6,1564.8755,1565.6017,1564.5024,1562.4762,1500.0,1500.0,nan,nan,nan,nan,nan,nan,nan,nan,nan,nan
708476000,6,1561.7942,1563.74,1563.7502,1564.3282,1500.0,1500.0,nan,nan,nan,nan,nan,nan,nan,nan,nan,nan
708580000,6,1564.823,1561.4135,1564.067,1562.9822,1500.0,1500.0,nan,nan,nan,nan,nan,nan,nan,nan,nan,nan
708680000,6,1564.0251,1562.9169,1563.0978,1561.7596,1500.0,1500.0,nan,nan,nan,nan,nan,nan,nan,nan,nan,nan
708780000,6,1561.8964,1560.6367,1563.2797,1562.2004,1500.0,1500.0,nan,nan,nan,nan,nan,nan,nan,nan,nan,nan
708876000,6,1561.406,1567.5625,1560.7284,1567.563,1500.0,1500.0,nan,nan,nan,nan,nan,nan,nan,nan,nan,nan
708976000,6,1564.6366,1563.4955,1564.8994,1563.5186,1500.0,1500.0,nan,nan,nan,nan,nan,nan,nan,nan,nan,nan
709076000,6,1560.2197,1562.1252,1561.5869,1564.9814,1500.0,1500.0,nan,nan,nan,nan,nan,nan,nan,nan,nan,nan
709176000,6,1563.9733,1565.8445,1561.6473,1565.0638,1500.0,1500.0,nan,nan,nan,nan,nan,nan,nan,nan,nan,nan
709280000,6,1561.741,1562.0175,1562.9578,1560.8064,1500.0,1500.0,nan,nan,nan,nan,nan,nan,nan,nan,nan,nan
709376000,6,1563.5499,1563.1495,1561.1365,1564.8947,1500.0,1500.0,nan,nan,nan,nan,nan,nan,nan,nan,nan,nan
709480000,6,1563.9221,1561.7225,1562.3063,1563.7206,1500.0,1500.0,nan,nan,nan,nan,nan,nan,nan,nan,nan,nan
709576000,6,1562.7887,1561.2853,1564.4458,1562.8197,1500.0,1500.0,nan,nan,nan,nan,nan,nan,nan,nan,nan,nan
709676000,6,1562.4304,1565.8895,1562.9993,1563.5441,1500.0,1500.0,nan,nan,nan,nan,nan,nan,nan,nan,nan,nan
709780000,6,1561.5454,1563.6923,1561.7828,1561.4392,1500.0,1500.0,nan,nan,nan,nan,nan,nan,nan,nan,nan,nan
709880000,6,1563.3881,1562.5919,1563.0825,1564.0095,1500.0,1500.0,nan,nan,nan,nan,nan,nan,nan,nan,nan,nan
709980000,6,1562.0061,1563.029,1562.8802,1562.3838,1500.0,1500.0,nan,nan,nan,nan,nan,nan,nan,nan,nan,nan
710076000,6,1563.6727,1564.523,1564.9312,1565.213,1500.0,1500.0,nan,nan,nan,nan,nan,nan,nan,nan,nan,nan
710176000,6,1562.8396,1565.0869,1564.1669,1564.3535,1500.0,1500.0,nan,nan,nan,nan,nan,nan,nan,nan,nan,nan
710276000,6,1561.8738,1564.6187,1560.6287,1563.4685,1500.0,1500.0,nan,nan,nan,nan,nan,nan,nan,nan,nan,nan
710380000,6,1561.2173,1565.5017,1560.0613,1564.5189,1500.0,1500.0,nan,nan,nan,nan,nan,nan,nan,nan,nan,nan
710476000,6,1561.307,1561.9731,1562.9802,1561.6896,1500.0,1500.0,nan,nan,nan,nan,nan,nan,nan,nan,nan,nan
710576000,6,1564.5302,1561.946,1562.6378,1563.5465,1500.0,1500.0,nan,nan,nan,nan,nan,nan,nan,nan,nan,nan
710680000,6,1563.4006,1563.9952,1563.431,1564.6948,1500.0,1500.0,nan,nan,nan,nan,nan,nan,nan,nan,nan,nan
710776000,6,1563.678,1561.5895,1563.7195,1562.4956,1500.0,1500.0,nan,nan,nan,nan,nan,nan,nan,nan,nan,nan
710876000,6,1563.2992,1559.7639,1562.878,1560.935,1500.0,1500.0,nan,nan,nan,nan,nan,nan,nan,nan,nan,nan
710980000,6,1563.6555,1562.2782,1565.9624,1562.0204,1500.0,1500.0,nan,nan,nan,nan,nan,nan,nan,nan,nan,nan
711080000,6,1565.0243,1564.5787,1563.257,1563.608,1500.0,1500.0,nan,nan,nan,nan,nan,nan,nan,nan,nan,nan
711176000,6,1559.9312,1563.541,1560.9342,1560.4788,1500.0,1500.0,nan,nan,nan,nan,nan,nan,nan,nan,nan,nan
711280000,6,1562.7561,1563.9844,1564.2222,1561.9811,1500.0,1500.0,nan,nan,nan,nan,nan,nan,nan,nan,nan,nan
711376000,6,1564.3083,1564.2289,1565.3346,1564.6124,1500.0,1500.0,nan,nan,nan,nan,nan,nan,nan,nan,nan,nan
711476000,6,1565.7037,1562.6232,1564.0017,1561.0776,1500.0,1500.0,nan,nan,nan,nan,nan,nan,nan,nan,nan,nan
711580000,6,1564.5253,1564.0437,1567.6709,1560.2489,1500.0,1500.0,nan,nan,nan,nan,nan,nan,nan,nan,nan,nan
711680000,6,1562.1191,1564.1516,1560.9135,1568.0656,1500.0,1500.0,nan,nan,nan,nan,nan,nan,nan,nan,nan,nan
711776000,6,1562.2094,1563.9242,1558.316,1565.5775,1500.0,1500.0,nan,nan,nan,nan,nan,nan,nan,nan,nan,nan
711876000,6,1562.5769,1565.0797,1560.2936,1565.2001,1500.0,1500.0,nan,nan,nan,nan,nan,nan,nan,nan,nan,nan
711976000,6,1561.9493,1567.7273,1565.2998,1564.9924,1500.0,1500.0,nan,nan,nan,nan,nan,nan,nan,nan,nan,nan
712076000,6,1565.2842,1563.4766,1565.4457,1561.7314,1500.0,1500.0,nan,nan,nan,nan,nan,nan,nan,nan,nan,nan
712180000,6,1564.2225,1563.8862,1563.142,1562.983,1500.0,1500.0,nan,nan,nan,nan,nan,nan,nan,nan,nan,nan
712276000,6,1564.2477,1565.5063,1565.0677,1564.2526,1500.0,1500.0,nan,nan,nan,nan,nan,nan,nan,nan,nan,nan
712376000,6,1564.1832,1563.965,1561.323,1563.9427,1500.0,1500.0,nan,nan,nan,nan,nan,nan,nan,nan,nan,nan
712476000,6,1563.8545,1562.3112,1563.3418,1562.0112,1500.0,1500.0,nan,nan,nan,nan,nan,nan,nan,nan,nan,nan
712576000,6,1565.6672,1566.8672,1563.1791,1567.9877,1500.0,1500.0,nan,nan,nan,nan,nan,nan,nan,nan,nan,nan
712676000,6,1561.5146,1566.61,1561.9532,1563.7983,1500.0,1500.0,nan,nan,nan,nan,nan,nan,nan,nan,nan,nan
712780000,6,1563.0337,1566.0894,1563.7764,1562.8741,1500.0,1500.0,nan,nan,nan,nan,nan,nan,nan,nan,nan,nan
712876000,6,1560.7869,1564.8323,1561.8444,1563.1456,1500.0,1500.0,nan,nan,nan,nan,nan,nan,nan,nan,nan,nan
712980000,6,1566.3767,1561.8041,1569.2194,1560.5842,1500.0,1500.0,nan,nan,nan,nan,nan,nan,nan,nan,nan,nan
713076000,6,1563.6952,1563.4778,1561.8704,1562.7915,1500.0,1500.0,nan,nan,nan,nan,nan,nan,nan,nan,nan,nan
713176000,6,1562.2136,1563.5681,1562.3558,1564.0748,1500.0,1500.0,nan,nan,nan,nan,nan,nan,nan,nan,nan,nan
713276000,6,1561.8353,1566.9777,1562.6787,1566.5299,1500.0,1500.0,nan,nan,nan,nan,nan,nan,nan,nan,nan,nan
713380000,6,1565.9005,1561.4379,1564.6503,1562.3296,1500.0,1500.0,nan,nan,nan,nan,nan,nan,nan,nan,nan,nan
713476000,6,1562.0026,1565.1194,1562.4304,1561.4705,1500.0,1500.0,nan,nan,nan,nan,nan,nan,nan,nan,nan,nan
713580000,6,1031.831,1000.0,1777.5941,2000.0,1500.0,1500.0,nan,nan,nan,nan,nan,nan,nan,nan,nan,nan
713676000,6,1275.9595,1125.0427,1737.1161,1720.4973,1500.0,1500.0,nan,nan,nan,nan,nan,nan,nan,nan,nan,nan
713780000,6,1448.0303,1402.4932,1576.7563,1512.4266,1500.0,1500.0,nan,nan,nan,nan,nan,nan,nan,nan,nan,nan
713876000,6,1599.5059,1590.6396,1593.6558,1593.0632,1500.0,1500.0,nan,nan,nan,nan,nan,nan,nan,nan,nan,nan
713980000,6,1577.641,1584.1302,1525.7908,1587.596,1500.0,1500.0,nan,nan,nan,nan,nan,nan,nan,nan,nan,nan
714080000,6,1571.312,1581.7375,1535.3569,1565.2173,1500.0,1500.0,nan,nan,nan,nan,nan,nan,nan,nan,nan,nan
714180000,6,1582.2703,1583.1154,1552.9891,1565.7932,1500.0,1500.0,nan,nan,nan,nan,nan,nan,nan,nan,nan,nan
714280000,6,1579.219,1583.2014,1557.2681,1564.2288,1500.0,1500.0,nan,nan,nan,nan,nan,nan,nan,nan,nan,nan
714380000,6,1573.3119,1578.6338,1559.9235,1566.4991,1500.0,1500.0,nan,nan,nan,nan,nan,nan,nan,nan,nan,nan
714480000,6,1572.2487,1580.6425,1561.772,1568.6088,1500.0,1500.0,nan,nan,nan,nan,nan,nan,nan,nan,nan,nan
714580000,6,1570.8699,1576.5135,1561.2795,1569.1084,1500.0,1500.0,nan,nan,nan,nan,nan,nan,nan,nan,nan,nan
714680000,6,1569.755,1577.6538,1564.7568,1573.6316,1500.0,1500.0,nan,nan,nan,nan,nan,nan,nan,nan,nan,nan
714780000,6,1570.4193,1578.2556,1563.57,1576.265,1500.0,1500.0,nan,nan,nan,nan,nan,nan,nan,nan,nan,nan
714876000,6,1568.5687,1579.9755,1566.3191,1574.6306,1500.0,1500.0,nan,nan,nan,nan,nan,nan,nan,nan,nan,nan
714976000,6,1566.6393,1579.4575,1564.9176,1572.0198,1500.0,1500.0,nan,nan,nan,nan,nan,nan,nan,nan,nan,nan
715076000,6,1571.2537,1576.6996,1567.4993,1574.9723,1500.0,1500.0,nan,nan,nan,nan,nan,nan,nan,nan,nan,nan
715176000,6,1567.1587,1580.0529,1568.5281,1575.3103,1500.0,1500.0,nan,nan,nan,nan,nan,nan,nan,nan,nan,nan
715276000,6,1569.0487,1578.0652,1568.0348,1574.4137,1500.0,1500.0,nan,nan,nan,nan,nan,nan,nan,nan,nan,nan
715380000,6,1571.8138,1575.9922,1566.8746,1580.3013,1500.0,1500.0,nan,nan,nan,nan,nan,nan,nan,nan,nan,nan
715480000,6,1572.1414,1578.108,1570.9431,1576.5688,1500.0,1500.0,nan,nan,nan,nan,nan,nan,nan,nan,nan,nan
715576000,6,1568.0557,1581.3773,1567.5745,1580.4445,1500.0,1500.0,nan,nan,nan,nan,nan,nan,nan,nan,nan,nan
715676000,6,1565.0725,1582.5908,1566.9678,1579.0773,1500.0,1500.0,nan,nan,nan,nan,nan,nan,nan,nan,nan,nan
715780000,6,1569.055,1579.5134,1572.1757,1577.3169,1500.0,1500.0,nan,nan,nan,nan,nan,nan,nan,nan,nan,nan
715876000,6,1571.2205,1580.5886,1571.4684,1578.2925,1500.0,1500.0,nan,nan,nan,nan,nan,nan,nan,nan,nan,nan
715980000,6,1570.6232,1581.6019,1572.3472,1580.4174,1500.0,1500.0,nan,nan,nan,nan,nan,nan,nan,nan,nan,nan
716076000,6,1571.3984,1583.1747,1570.6298,1583.8538,1500.0,1500.0,nan,nan,nan,nan,nan,nan,nan,nan,nan,nan
716180000,6,1570.9412,1582.972,1569.1285,1584.4841,1500.0,1500.0,nan,nan,nan,nan,nan,nan,nan,nan,nan,nan
716276000,6,1570.1089,1585.0637,1572.6709,1583.4924,1500.0,1500.0,nan,nan,nan,nan,nan,nan,nan,nan,nan,nan
716376000,6,1574.3121,1586.1404,1571.9685,1584.676,1500.0,1500.0,nan,nan,nan,nan,nan,nan,nan,nan,nan,nan
716476000,6,1570.8794,1588.4526,1574.219,1584.5208,1500.0,1500.0,nan,nan,nan,nan,nan,nan,nan,nan,nan,nan
716576000,6,1569.0858,1587.551,1570.2231,1589.0747,1500.0,1500.0,nan,nan,nan,nan,nan,nan,nan,nan,nan,nan
716676000,6,1575.5732,1586.5989,1575.9907,1583.338,1500.0,1500.0,nan,nan,nan,nan,nan,nan,nan,nan,nan,nan
716776000,6,1567.4844,1591.428,1571.918,1585.958,1500.0,1500.0,nan,nan,nan,nan,nan,nan,nan,nan,nan,nan
716876000,6,1572.7402,1591.3713,1575.642,1588.94,1500.0,1500.0,nan,nan,nan,nan,nan,nan,nan,nan,nan,nan
716980000,6,1577.1128,1592.1396,1577.8746,1592.7007,1500.0,1500.0,nan,nan,nan,nan,nan,nan,nan,nan,nan,nan
717076000,6,1572.8904,1596.1628,1576.4581,1591.2246,1500.0,1500.0,nan,nan,nan,nan,nan,nan,nan,nan,nan,nan
717176000,6,1575.5714,1592.5275,1577.9993,1594.1538,1500.0,1500.0,nan,nan,nan,nan,nan,nan,nan,nan,nan,nan
717276000,6,1576.5242,1595.1934,1576.7938,1594.3169,1500.0,1500.0,nan,nan,nan,nan,nan,nan,nan,nan,nan,nan
717376000,6,1576.0369,1595.8541,1575.7212,1598.0804,1500.0,1500.0,nan,nan,nan,nan,nan,nan,nan,nan,nan,nan
717476000,6,1577.0898,1593.8811,1577.551,1596.36,1500.0,1500.0,nan,nan,nan,nan,nan,nan,nan,nan,nan,nan
717580000,6,1578.881,1598.507,1578.7467,1597.4504,1500.0,1500.0,nan,nan,nan,nan,nan,nan,nan,nan,nan,nan
717676000,6,1577.1954,1600.0746,1580.3254,1598.507,1500.0,1500.0,nan,nan,nan,nan,nan,nan,nan,nan,nan,nan
717776000,6,1579.617,1599.5896,1580.4373,1602.0016,1500.0,1500.0,nan,nan,nan,nan,nan,nan,nan,nan,nan,nan
717880000,6,1576.5703,1606.7441,1577.3711,1606.9426,1500.0,1500.0,nan,nan,nan,nan,nan,nan,nan,nan,nan,nan
717976000,6,1580.2206,1606.8359,1582.7004,1602.0857,1500.0,1500.0,nan,nan,nan,nan,nan,nan,nan,nan,nan,nan
718080000,6,1586.499,1602.7935,1586.5631,1603.6924,1500.0,1500.0,nan,nan,nan,nan,nan,nan,nan,nan,nan,nan
718176000,6,1580.473,1608.2603,1584.0387,1606.4677,1500.0,1500.0,nan,nan,nan,nan,nan,nan,nan,nan,nan,nan
718280000,6,1583.759,1611.4758,1584.8987,1612.8672,1500.0,1500.0,nan,nan,nan,nan,nan,nan,nan,nan,nan,nan
718380000,6,1584.411,1612.903,1586.7382,1609.5481,1500.0,1500.0,nan,nan,nan,nan,nan,nan,nan,nan,nan,nan
718476000,6,1585.1215,1616.5211,1585.972,1615.4076,1500.0,1500.0,nan,nan,nan,nan,nan,nan,nan,nan,nan,nan
718576000,6,1587.9243,1618.3091,1592.7754,1611.9736,1500.0,1500.0,nan,nan,nan,nan,nan,nan,nan,nan,nan,nan
718676000,6,1585.6847,1621.9094,1590.2122,1620.0276,1500.0,1500.0,nan,nan,nan,nan,nan,nan,nan,nan,nan,nan
718776000,6,1588.1351,1626.1539,1590.1448,1622.6122,1500.0,1500.0,nan,nan,nan,nan,nan,nan,nan,nan,nan,nan
718876000,6,1595.0032,1623.4235,1594.1805,1623.5009,1500.0,1500.0,nan,nan,nan,nan,nan,nan,nan,nan,nan,nan
718976000,6,1589.3733,1630.5117,1596.5157,1627.7657,1500.0,1500.0,nan,nan,nan,nan,nan,nan,nan,nan,nan,nan
719080000,6,1598.3822,1630.0789,1601.7437,1629.5485,1500.0,1500.0,nan,nan,nan,nan,nan,nan,nan,nan,nan,nan
719176000,6,1598.8575,1636.0885,1600.9244,1633.1362,1500.0,1500.0,nan,nan,nan,nan,nan,nan,nan,nan,nan,nan
719276000,6,1597.2156,1640.3484,1599.3057,1640.9059,1500.0,1500.0,nan,nan,nan,nan,nan,nan,nan,nan,nan,nan
719376000,6,1601.7292,1643.7585,1607.0482,1640.121,1500.0,1500.0,nan,nan,nan,nan,nan,nan,nan,nan,nan,nan
719476000,6,1604.4529,1642.783,1609.6382,1642.2002,1500.0,1500.0,nan,nan,nan,nan,nan,nan,nan,nan,nan,nan
719580000,6,1604.0146,1648.2904,1606.2572,1646.8733,1500.0,1500.0,nan,nan,nan,nan,nan,nan,nan,nan,nan,nan
719680000,6,1610.9153,1651.569,1611.5774,1653.9003,1500.0,1500.0,nan,nan,nan,nan,nan,nan,nan,nan,nan,nan
719776000,6,1614.7982,1656.4283,1615.9487,1656.2906,1500.0,1500.0,nan,nan,nan,nan,nan,nan,nan,nan,nan,nan
719876000,6,1619.0035,1661.5995,1619.506,1663.8866,1500.0,1500.0,nan,nan,nan,nan,nan,nan,nan,nan,nan,nan
719976000,6,1621.1127,1665.24,1623.7264,1662.9655,1500.0,1500.0,nan,nan,nan,nan,nan,nan,nan,nan,nan,nan
720076000,6,1620.8546,1672.6146,1624.4421,1671.4518,1500.0,1500.0,nan,nan,nan,nan,nan,nan,nan,nan,nan,nan
720176000,6,1626.161,1677.5094,1628.1226,1676.7412,1500.0,1500.0,nan,nan,nan,nan,nan,nan,nan,nan,nan,nan
720280000,6,1631.802,1682.3491,1634.2607,1681.5133,1500.0,1500.0,nan,nan,nan,nan,nan,nan,nan,nan,nan,nan
720376000,6,1635.7622,1688.9281,1637.8503,1689.4408,1500.0,1500.0,nan,nan,nan,nan,nan,nan,nan,nan,nan,nan
720480000,6,1639.0387,1693.4368,1641.0333,1694.4307,1500.0,1500.0,nan,nan,nan,nan,nan,nan,nan,nan,nan,nan
720580000,6,1641.9479,1703.8245,1648.3616,1702.92,1500.0,1500.0,nan,nan,nan,nan,nan,nan,nan,nan,nan,nan
720676000,6,1647.635,1703.3959,1652.2031,1704.5377,1500.0,1500.0,nan,nan,nan,nan,nan,nan,nan,nan,nan,nan
720780000,6,1651.5305,1681.3765,1657.8925,1681.6017,1500.0,1500.0,nan,nan,nan,nan,nan,nan,nan,nan,nan,nan
720876000,6,1646.1292,1702.0917,1651.5856,1701.7408,1500.0,1500.0,nan,nan,nan,nan,nan,nan,nan,nan,nan,nan
720976000,6,1637.2153,1715.5284,1644.2625,1715.0532,1500.0,1500.0,nan,nan,nan,nan,nan,nan,nan,nan,nan,nan
721080000,6,1632.271,1716.2428,1632.8618,1716.853,1500.0,1500.0,nan,nan,nan,nan,nan,nan,nan,nan,nan,nan
721176000,6,1633.9136,1710.3313,1637.4803,1712.5725,1500.0,1500.0,nan,nan,nan,nan,nan,nan,nan,nan,nan,nan
721276000,6,1636.0792,1704.1284,1640.288,1705.4427,1500.0,1500.0,nan,nan,nan,nan,nan,nan,nan,nan,nan,nan
721376000,6,1638.723,1702.3965,1645.2655,1699.6387,1500.0,1500.0,nan,nan,nan,nan,nan,nan,nan,nan,nan,nan
721480000,6,1638.9127,1703.9996,1644.554,1702.2058,1500.0,1500.0,nan,nan,nan,nan,nan,nan,nan,nan,nan,nan
721576000,6,1639.7957,1707.3754,1642.7703,1707.794,1500.0,1500.0,nan,nan,nan,nan,nan,nan,nan,nan,nan,nan
721680000,6,1638.3728,1707.0636,1639.4856,1707.7944,1500.0,1500.0,nan,nan,nan,nan,nan,nan,nan,nan,nan,nan
721776000,6,1636.287,1706.68,1645.5912,1707.18,1500.0,1500.0,nan,nan,nan,nan,nan,nan,nan,nan,nan,nan
721880000,6,1642.9081,1705.6243,1645.816,1706.2599,1500.0,1500.0,nan,nan,nan,nan,nan,nan,nan,nan,nan,nan
721980000,6,1635.1335,1708.771,1641.2362,1707.4207,1500.0,1500.0,nan,nan,nan,nan,nan,nan,nan,nan,nan,nan
722076000,6,1641.2192,1705.7656,1643.616,1705.6864,1500.0,1500.0,nan,nan,nan,nan,nan,nan,nan,nan,nan,nan
722180000,6,1639.8617,1707.3285,1644.127,1709.7382,1500.0,1500.0,nan,nan,nan,nan,nan,nan,nan,nan,nan,nan
722276000,6,1639.821,1709.162,1647.2576,1708.5732,1500.0,1500.0,nan,nan,nan,nan,nan,nan,nan,nan,nan,nan
722380000,6,1639.5516,1712.3638,1642.9366,1710.6674,1500.0,1500.0,nan,nan,nan,nan,nan,nan,nan,nan,nan,nan
722476000,6,1638.4548,1713.0762,1644.464,1710.0134,1500.0,1500.0,nan,nan,nan,nan,nan,nan,nan,nan,nan,nan
722580000,6,1638.6559,1710.1282,1644.2319,1711.1997,1500.0,1500.0,nan,nan,nan,nan,nan,nan,nan,nan,nan,nan
722680000,6,1641.3214,1708.2532,1644.5743,1708.7399,1500.0,1500.0,nan,nan,nan,nan,nan,nan,nan,nan,nan,nan
722776000,6,1640.8829,1708.6277,1647.1334,1712.0085,1500.0,1500.0,nan,nan,nan,nan,nan,nan,nan,nan,nan,nan
722876000,6,1640.0724,1709.7045,1645.447,1706.5027,1500.0,1500.0,nan,nan,nan,nan,nan,nan,nan,nan,nan,nan
722976000,6,1640.8857,1711.3783,1646.01,1710.3218,1500.0,1500.0,nan,nan,nan,nan,nan,nan,nan,nan,nan,nan
723080000,6,1640.9122,1711.2509,1643.6487,1712.3657,1500.0,1500.0,nan,nan,nan,nan,nan,nan,nan,nan,nan,nan
723180000,6,1643.5404,1710.7854,1647.158,1711.4402,1500.0,1500.0,nan,nan,nan,nan,nan,nan,nan,nan,nan,nan
723276000,6,1644.1393,1708.8384,1647.5414,1713.5864,1500.0,1500.0,nan,nan,nan,nan,nan,nan,nan,nan,nan,nan
723376000,6,1644.5387,1715.1453,1645.1573,1714.6349,1500.0,1500.0,nan,nan,nan,nan,nan,nan,nan,nan,nan,nan
723480000,6,1644.1763,1714.9509,1649.0533,1711.8223,1500.0,1500.0,nan,nan,nan,nan,nan,nan,nan,nan,nan,nan
723580000,6,1644.1569,1714.3301,1647.3513,1713.998,1500.0,1500.0,nan,nan,nan,nan,nan,nan,nan,nan,nan,nan
723676000,6,1644.1123,1714.5287,1648.3086,1713.5942,1500.0,1500.0,nan,nan,nan,nan,nan,nan,nan,nan,nan,nan
723776000,6,1645.7231,1714.5431,1649.0084,1714.0151,1500.0,1500.0,nan,nan,nan,nan,nan,nan,nan,nan,nan,nan
723880000,6,1638.7814,1716.4581,1645.7803,1717.816,1500.0,1500.0,nan,nan,nan,nan,nan,nan,nan,nan,nan,nan
723980000,6,1642.6676,1714.5485,1645.0776,1713.6024,1500.0,1500.0,nan,nan,nan,nan,nan,nan,nan,nan,nan,nan
724076000,6,1645.9454,1712.4995,1651.0763,1713.9901,1500.0,1500.0,nan,nan,nan,nan,nan,nan,nan,nan,nan,nan
724176000,6,1645.6838,1714.0625,1649.0674,1716.9368,1500.0,1500.0,nan,nan,nan,nan,nan,nan,nan,nan,nan,nan
724276000,6,1646.9072,1713.7815,1648.2804,1715.8453,1500.0,1500.0,nan,nan,nan,nan,nan,nan,nan,nan,nan,nan
724376000,6,1646.9053,1717.1836,1650.6167,1716.225,1500.0,1500.0,nan,nan,nan,nan,nan,nan,nan,nan,nan,nan
724480000,6,1643.0945,1718.5177,1649.2471,1714.4912,1500.0,1500.0,nan,nan,nan,nan,nan,nan,nan,nan,nan,nan
724576000,6,1646.1923,1717.4652,1649.3904,1717.2803,1500.0,1500.0,nan,nan,nan,nan,nan,nan,nan,nan,nan,nan
724676000,6,1646.0396,1716.1589,1650.585,1717.2659,1500.0,1500.0,nan,nan,nan,nan,nan,nan,nan,nan,nan,nan
724776000,6,1648.1516,1717.2505,1651.7568,1716.0999,1500.0,1500.0,nan,nan,nan,nan,nan,nan,nan,nan,nan,nan
724880000,6,1647.7616,1716.1123,1649.8539,1717.7471,1500.0,1500.0,nan,nan,nan,nan,nan,nan,nan,nan,nan,nan
724976000,6,1646.7163,1715.2654,1650.4332,1718.659,1500.0,1500.0,nan,nan,nan,nan,nan,nan,nan,nan,nan,nan
725076000,6,1644.709,1717.6992,1649.366,1718.6104,1500.0,1500.0,nan,nan,nan,nan,nan,nan,nan,nan,nan,nan
725176000,6,1643.9691,1718.7332,1650.5051,1717.0359,1500.0,1500.0,nan,nan,nan,nan,nan,nan,nan,nan,nan,nan
725276000,6,1648.3914,1717.7338,1649.0093,1715.755,1500.0,1500.0,nan,nan,nan,nan,nan,nan,nan,nan,nan,nan
725376000,6,1646.9502,1716.9033,1649.165,1719.3904,1500.0,1500.0,nan,nan,nan,nan,nan,nan,nan,nan,nan,nan
725476000,6,1646.7078,1715.7692,1649.2228,1716.4102,1500.0,1500.0,nan,nan,nan,nan,nan,nan,nan,nan,nan,nan
725576000,6,1646.7539,1720.7268,1649.097,1719.243,1500.0,1500.0,nan,nan,nan,nan,nan,nan,nan,nan,nan,nan
725676000,6,1647.6825,1718.9761,1653.152,1718.6458,1500.0,1500.0,nan,nan,nan,nan,nan,nan,nan,nan,nan,nan
725776000,6,1645.988,1719.3544,1646.9613,1719.3975,1500.0,1500.0,nan,nan,nan,nan,nan,nan,nan,nan,nan,nan
725876000,6,1647.1946,1718.6359,1651.5781,1718.9657,1500.0,1500.0,nan,nan,nan,nan,nan,nan,nan,nan,nan,nan
725980000,6,1648.8843,1719.7847,1652.1473,1720.5018,1500.0,1500.0,nan,nan,nan,nan,nan,nan,nan,nan,nan,nan
726076000,6,1651.4015,1721.1724,1652.8853,1719.3154,1500.0,1500.0,nan,nan,nan,nan,nan,nan,nan,nan,nan,nan
726176000,6,1644.8026,1721.1411,1649.1755,1720.7504,1500.0,1500.0,nan,nan,nan,nan,nan,nan,nan,nan,nan,nan
726280000,6,1649.7599,1719.0734,1649.7511,1720.0474,1500.0,1500.0,nan,nan,nan,nan,nan,nan,nan,nan,nan,nan
726380000,6,1646.9011,1722.3738,1653.015,1721.3279,1500.0,1500.0,nan,nan,nan,nan,nan,nan,nan,nan,nan,nan
726480000,6,1647.1345,1720.3008,1650.2792,1720.1398,1500.0,1500.0,nan,nan,nan,nan,nan,nan,nan,nan,nan,nan
726576000,6,1646.7535,1719.583,1652.354,1720.6625,1500.0,1500.0,nan,nan,nan,nan,nan,nan,nan,nan,nan,nan
726680000,6,1647.225,1722.1425,1651.6385,1721.4766,1500.0,1500.0,nan,nan,nan,nan,nan,nan,nan,nan,nan,nan
726776000,6,1648.2758,1721.683,1651.7577,1719.1929,1500.0,1500.0,nan,nan,nan,nan,nan,nan,nan,nan,nan,nan
726876000,6,1649.6139,1722.3368,1655.3475,1718.2544,1500.0,1500.0,nan,nan,nan,nan,nan,nan,nan,nan,nan,nan
726976000,6,1645.8501,1724.0757,1652.5674,1720.8416,1500.0,1500.0,nan,nan,nan,nan,nan,nan,nan,nan,nan,nan
727080000,6,1646.7,1722.9547,1650.1001,1724.7583,1500.0,1500.0,nan,nan,nan,nan,nan,nan,nan,nan,nan,nan
727176000,6,1648.8108,1721.1667,1651.0991,1722.4479,1500.0,1500.0,nan,nan,nan,nan,nan,nan,nan,nan,nan,nan
727276000,6,1648.3367,1722.0454,1652.4402,1723.5098,1500.0,1500.0,nan,nan,nan,nan,nan,nan,nan,nan,nan,nan
727376000,6,1651.3607,1722.3575,1656.1792,1723.2379,1500.0,1500.0,nan,nan,nan,nan,nan,nan,nan,nan,nan,nan
727476000,6,1648.2513,1723.303,1653.8135,1724.5453,1500.0,1500.0,nan,nan,nan,nan,nan,nan,nan,nan,nan,nan
727580000,6,1649.5435,1723.6455,1652.6046,1724.9811,1500.0,1500.0,nan,nan,nan,nan,nan,nan,nan,nan,nan,nan
727676000,6,1650.3,1724.2637,1654.6729,1722.7788,1500.0,1500.0,nan,nan,nan,nan,nan,nan,nan,nan,nan,nan
727780000,6,1648.1986,1722.9688,1652.0283,1722.4794,1500.0,1500.0,nan,nan,nan,nan,nan,nan,nan,nan,nan,nan
727876000,6,1650.3152,1724.7997,1653.6288,1723.1117,1500.0,1500.0,nan,nan,nan,nan,nan,nan,nan,nan,nan,nan
727976000,6,1653.5593,1720.8654,1657.2996,1722.8696,1500.0,1500.0,nan,nan,nan,nan,nan,nan,nan,nan,nan,nan
728080000,6,1652.0199,1722.7941,1655.7239,1723.0308,1500.0,1500.0,nan,nan,nan,nan,nan,nan,nan,nan,nan,nan
728180000,6,1650.4073,1723.6147,1655.1008,1725.8652,1500.0,1500.0,nan,nan,nan,nan,nan,nan,nan,nan,nan,nan
728276000,6,1651.2767,1726.066,1653.2753,1727.205,1500.0,1500.0,nan,nan,nan,nan,nan,nan,nan,nan,nan,nan
728380000,6,1651.4587,1725.9248,1656.3368,1727.0078,1500.0,1500.0,nan,nan,nan,nan,nan,nan,nan,nan,nan,nan
728476000,6,1653.044,1729.3495,1654.8613,1728.292,1500.0,1500.0,nan,nan,nan,nan,nan,nan,nan,nan,nan,nan
728580000,6,1650.8274,1725.1503,1654.0327,1724.3182,1500.0,1500.0,nan,nan,nan,nan,nan,nan,nan,nan,nan,nan
728676000,6,1652.8439,1721.8335,1655.544,1720.1777,1500.0,1500.0,nan,nan,nan,nan,nan,nan,nan,nan,nan,nan
728776000,6,1652.5029,1724.9995,1656.8833,1724.385,1500.0,1500.0,nan,nan,nan,nan,nan,nan,nan,nan,nan,nan
728880000,6,1654.2924,1726.2684,1656.613,1727.7461,1500.0,1500.0,nan,nan,nan,nan,nan,nan,nan,nan,nan,nan
728976000,6,1658.582,1708.093,1662.1858,1707.0522,1500.0,1500.0,nan,nan,nan,nan,nan,nan,nan,nan,nan,nan
729076000,6,1656.6875,1686.2936,1664.4918,1686.6173,1500.0,1500.0,nan,nan,nan,nan,nan,nan,nan,nan,nan,nan
729176000,6,1640.2847,1712.3083,1645.0625,1712.0664,1500.0,1500.0,nan,nan,nan,nan,nan,nan,nan,nan,nan,nan
729280000,6,1616.5773,1721.2732,1618.0375,1720.4531,1500.0,1500.0,nan,nan,nan,nan,nan,nan,nan,nan,nan,nan
729380000,6,1613.7466,1702.5221,1617.5653,1700.3636,1500.0,1500.0,nan,nan,nan,nan,nan,nan,nan,nan,nan,nan
729480000,6,1613.4073,1686.345,1615.2883,1686.1108,1500.0,1500.0,nan,nan,nan,nan,nan,nan,nan,nan,nan,nan
729576000,6,1614.8306,1676.8997,1619.4863,1674.0708,1500.0,1500.0,nan,nan,nan,nan,nan,nan,nan,nan,nan,nan
729680000,6,1610.0686,1677.6401,1611.2573,1677.5366,1500.0,1500.0,nan,nan,nan,nan,nan,nan,nan,nan,nan,nan
729776000,6,1608.1256,1669.955,1610.1455,1669.427,1500.0,1500.0,nan,nan,nan,nan,nan,nan,nan,nan,nan,nan
729880000,6,1607.6233,1664.1106,1606.5144,1663.5718,1500.0,1500.0,nan,nan,nan,nan,nan,nan,nan,nan,nan,nan
729976000,6,1601.5251,1659.0084,1603.5952,1661.415,1500.0,1500.0,nan,nan,nan,nan,nan,nan,nan,nan,nan,nan
730076000,6,1595.4086,1660.8625,1596.3751,1661.1555,1500.0,1500.0,nan,nan,nan,nan,nan,nan,nan,nan,nan,nan
730176000,6,1595.9281,1652.8212,1600.3928,1649.2391,1500.0,1500.0,nan,nan,nan,nan,nan,nan,nan,nan,nan,nan
730276000,6,1594.8855,1644.8516,1595.5964,1643.4192,1500.0,1500.0,nan,nan,nan,nan,nan,nan,nan,nan,nan,nan
730376000,6,1591.9114,1643.6641,1592.2917,1644.4381,1500.0,1500.0,nan,nan,nan,nan,nan,nan,nan,nan,nan,nan
730476000,6,1591.5011,1634.4838,1596.5349,1632.8643,1500.0,1500.0,nan,nan,nan,nan,nan,nan,nan,nan,nan,nan
730580000,6,1584.8218,1636.9105,1585.3156,1637.1095,1500.0,1500.0,nan,nan,nan,nan,nan,nan,nan,nan,nan,nan
730676000,6,1586.8986,1628.8416,1589.4327,1626.3788,1500.0,1500.0,nan,nan,nan,nan,nan,nan,nan,nan,nan,nan
730776000,6,1586.1372,1626.6224,1588.7994,1623.8817,1500.0,1500.0,nan,nan,nan,nan,nan,nan,nan,nan,nan,nan
730876000,6,1581.1284,1618.0825,1579.4813,1620.3292,1500.0,1500.0,nan,nan,nan,nan,nan,nan,nan,nan,nan,nan
730980000,6,1583.5048,1620.961,1586.9133,1616.8772,1500.0,1500.0,nan,nan,nan,nan,nan,nan,nan,nan,nan,nan
731076000,6,1578.268,1622.2449,1577.7145,1620.6827,1500.0,1500.0,nan,nan,nan,nan,nan,nan,nan,nan,nan,nan
731176000,6,1579.4856,1615.4664,1580.1594,1615.6289,1500.0,1500.0,nan,nan,nan,nan,nan,nan,nan,nan,nan,nan
731276000,6,1580.137,1610.2473,1578.5491,1609.1703,1500.0,1500.0,nan,nan,nan,nan,nan,nan,nan,nan,nan,nan
731376000,6,1572.7843,1610.6665,1579.8816,1605.0632,1500.0,1500.0,nan,nan,nan,nan,nan,nan,nan,nan,nan,nan
731480000,6,1574.8726,1611.3577,1577.187,1605.501,1500.0,1500.0,nan,nan,nan,nan,nan,nan,nan,nan,nan,nan
731580000,6,1573.9623,1607.8549,1573.5734,1608.2104,1500.0,1500.0,nan,nan,nan,nan,nan,nan,nan,nan,nan,nan
731680000,6,1575.9546,1600.0383,1576.6982,1602.6956,1500.0,1500.0,nan,nan,nan,nan,nan,nan,nan,nan,nan,nan
731776000,6,1574.5135,1599.6407,1576.5198,1599.8488,1500.0,1500.0,nan,nan,nan,nan,nan,nan,nan,nan,nan,nan
731880000,6,1568.7319,1602.3685,1572.633,1599.759,1500.0,1500.0,nan,nan,nan,nan,nan,nan,nan,nan,nan,nan
731976000,6,1571.2921,1600.5873,1570.1304,1600.6396,1500.0,1500.0,nan,nan,nan,nan,nan,nan,nan,nan,nan,nan
732076000,6,1571.9493,1597.6752,1574.8389,1594.9073,1500.0,1500.0,nan,nan,nan,nan,nan,nan,nan,nan,nan,nan
732176000,6,1582.2903,1605.0859,1596.729,1585.9717,1500.0,1500.0,nan,nan,nan,nan,nan,nan,nan,nan,nan,nan
732276000,6,1958.311,1247.4448,1287.4967,1809.8326,1500.0,1500.0,nan,nan,nan,nan,nan,nan,nan,nan,nan,nan
732376000,6,1335.926,1627.8824,1566.6454,1483.7924,1500.0,1500.0,nan,nan,nan,nan,nan,nan,nan,nan,nan,nan
732476000,6,1428.9017,1674.295,1602.339,1519.1974,1500.0,1500.0,nan,nan,nan,nan,nan,nan,nan,nan,nan,nan
732580000,6,1602.6935,1585.9688,1577.6339,1597.8584,1500.0,1500.0,nan,nan,nan,nan,nan,nan,nan,nan,nan,nan
732676000,6,1606.467,1557.6086,1564.8975,1603.1744,1500.0,1500.0,nan,nan,nan,nan,nan,nan,nan,nan,nan,nan
732776000,6,1589.8335,1558.1874,1562.2172,1593.5348,1500.0,1500.0,nan,nan,nan,nan,nan,nan,nan,nan,nan,nan
732880000,6,1580.1254,1570.3966,1564.9265,1590.7087,1500.0,1500.0,nan,nan,nan,nan,nan,nan,nan,nan,nan,nan
732976000,6,1575.6676,1575.6,1569.6959,1581.1388,1500.0,1500.0,nan,nan,nan,nan,nan,nan,nan,nan,nan,nan
733080000,6,1576.6289,1575.001,1569.2683,1579.4215,1500.0,1500.0,nan,nan,nan,nan,nan,nan,nan,nan,nan,nan
733180000,6,1578.1454,1574.7416,1570.6823,1575.9272,1500.0,1500.0,nan,nan,nan,nan,nan,nan,nan,nan,nan,nan
733280000,6,1578.6792,1573.3909,1568.3486,1581.0874,1500.0,1500.0,nan,nan,nan,nan,nan,nan,nan,nan,nan,nan
733376000,6,1575.7842,1574.7297,1567.407,1580.3994,1500.0,1500.0,nan,nan,nan,nan,nan,nan,nan,nan,nan,nan
733476000,6,1577.8785,1574.5728,1571.005,1579.4684,1500.0,1500.0,nan,nan,nan,nan,nan,nan,nan,nan,nan,nan
733580000,6,1580.5891,1574.4102,1570.2646,1582.4772,1500.0,1500.0,nan,nan,nan,nan,nan,nan,nan,nan,nan,nan
733676000,6,1576.8204,1574.5874,1569.6272,1577.5914,1500.0,1500.0,nan,nan,nan,nan,nan,nan,nan,nan,nan,nan
733780000,6,1580.4014,1573.1565,1568.1793,1581.2882,1500.0,1500.0,nan,nan,nan,nan,nan,nan,nan,nan,nan,nan
733876000,6,1579.2036,1576.4813,1570.8489,1579.5802,1500.0,1500.0,nan,nan,nan,nan,nan,nan,nan,nan,nan,nan
733976000,6,1579.7092,1573.083,1572.3427,1576.4509,1500.0,1500.0,nan,nan,nan,nan,nan,nan,nan,nan,nan,nan
734076000,6,1581.619,1572.0299,1573.9939,1577.4729,1500.0,1500.0,nan,nan,nan,nan,nan,nan,nan,nan,nan,nan
734180000,6,1579.3685,1572.5767,1569.5741,1582.4072,1500.0,1500.0,nan,nan,nan,nan,nan,nan,nan,nan,nan,nan
734280000,6,1580.217,1573.0367,1571.0112,1580.8638,1500.0,1500.0,nan,nan,nan,nan,nan,nan,nan,nan,nan,nan
734380000,6,1577.7175,1574.0999,1570.4937,1580.5593,1500.0,1500.0,nan,nan,nan,nan,nan,nan,nan,nan,nan,nan
734476000,6,1582.3859,1573.6016,1571.8518,1580.4053,1500.0,1500.0,nan,nan,nan,nan,nan,nan,nan,nan,nan,nan
734576000,6,1578.3613,1571.8075,1569.4149,1579.5161,1500.0,1500.0,nan,nan,nan,nan,nan,nan,nan,nan,nan,nan
734680000,6,1578.1968,1573.8345,1569.1208,1579.5952,1500.0,1500.0,nan,nan,nan,nan,nan,nan,nan,nan,nan,nan
734776000,6,1579.1609,1571.3813,1570.5988,1576.4984,1500.0,1500.0,nan,nan,nan,nan,nan,nan,nan,nan,nan,nan
734880000,6,1580.3217,1573.8463,1570.9662,1579.9846,1500.0,1500.0,nan,nan,nan,nan,nan,nan,nan,nan,nan,nan
734976000,6,1583.0137,1573.4603,1573.2344,1579.3379,1500.0,1500.0,nan,nan,nan,nan,nan,nan,nan,nan,nan,nan
735076000,6,1580.7029,1572.3354,1570.9188,1576.5403,1500.0,1500.0,nan,nan,nan,nan,nan,nan,nan,nan,nan,nan
735176000,6,1583.7019,1572.7882,1570.4899,1578.8674,1500.0,1500.0,nan,nan,nan,nan,nan,nan,nan,nan,nan,nan
735276000,6,1581.1788,1569.5989,1573.1249,1578.2688,1500.0,1500.0,nan,nan,nan,nan,nan,nan,nan,nan,nan,nan
735376000,6,1581.9576,1572.613,1572.6162,1579.0842,1500.0,1500.0,nan,nan,nan,nan,nan,nan,nan,nan,nan,nan
735476000,6,1582.8741,1573.8541,1572.7649,1578.0033,1500.0,1500.0,nan,nan,nan,nan,nan,nan,nan,nan,nan,nan
735576000,6,1581.2006,1576.304,1571.6312,1580.7356,1500.0,1500.0,nan,nan,nan,nan,nan,nan,nan,nan,nan,nan
735676000,6,1582.593,1571.5475,1571.4332,1578.5815,1500.0,1500.0,nan,nan,nan,nan,nan,nan,nan,nan,nan,nan
735776000,6,1578.7115,1574.9723,1567.3027,1580.1508,1500.0,1500.0,nan,nan,nan,nan,nan,nan,nan,nan,nan,nan
735876000,6,1578.7424,1573.2367,1573.8766,1576.1403,1500.0,1500.0,nan,nan,nan,nan,nan,nan,nan,nan,nan,nan
735976000,6,1579.5493,1574.0548,1574.1156,1578.0483,1500.0,1500.0,nan,nan,nan,nan,nan,nan,nan,nan,nan,nan
736076000,6,1580.2229,1572.4532,1572.4457,1582.6154,1500.0,1500.0,nan,nan,nan,nan,nan,nan,nan,nan,nan,nan
736180000,6,1581.7783,1570.9895,1569.4906,1581.063,1500.0,1500.0,nan,nan,nan,nan,nan,nan,nan,nan,nan,nan
736276000,6,1582.158,1570.3245,1571.442,1578.2903,1500.0,1500.0,nan,nan,nan,nan,nan,nan,nan,nan,nan,nan
736376000,6,1577.5364,1577.0737,1568.7775,1581.9874,1500.0,1500.0,nan,nan,nan,nan,nan,nan,nan,nan,nan,nan
736476000,6,1581.7784,1570.5187,1570.7255,1576.9193,1500.0,1500.0,nan,nan,nan,nan,nan,nan,nan,nan,nan,nan
736580000,6,1580.1844,1572.6141,1570.3739,1578.8743,1500.0,1500.0,nan,nan,nan,nan,nan,nan,nan,nan,nan,nan
736676000,6,1581.0714,1574.5546,1574.1506,1579.9398,1500.0,1500.0,nan,nan,nan,nan,nan,nan,nan,nan,nan,nan
736776000,6,1579.7522,1575.6884,1567.8445,1582.4463,1500.0,1500.0,nan,nan,nan,nan,nan,nan,nan,nan,nan,nan
736876000,6,1582.6614,1571.6921,1571.4056,1579.7715,1500.0,1500.0,nan,nan,nan,nan,nan,nan,nan,nan,nan,nan
736980000,6,1582.9446,1572.3523,1572.3575,1578.892,1500.0,1500.0,nan,nan,nan,nan,nan,nan,nan,nan,nan,nan
737080000,6,1581.0706,1571.873,1573.6832,1575.9318,1500.0,1500.0,nan,nan,nan,nan,nan,nan,nan,nan,nan,nan
737176000,6,1580.6635,1576.0316,1572.0759,1580.8634,1500.0,1500.0,nan,nan,nan,nan,nan,nan,nan,nan,nan,nan
737280000,6,1582.9708,1574.4382,1571.2953,1581.342,1500.0,1500.0,nan,nan,nan,nan,nan,nan,nan,nan,nan,nan
737376000,6,1579.9717,1573.3159,1569.9382,1581.3599,1500.0,1500.0,nan,nan,nan,nan,nan,nan,nan,nan,nan,nan
737476000,6,1580.1302,1575.5,1570.9658,1582.9612,1500.0,1500.0,nan,nan,nan,nan,nan,nan,nan,nan,nan,nan
737576000,6,1582.7422,1573.7227,1571.0778,1578.4308,1500.0,1500.0,nan,nan,nan,nan,nan,nan,nan,nan,nan,nan
737676000,6,1582.5433,1572.7876,1572.6447,1582.5122,1500.0,1500.0,nan,nan,nan,nan,nan,nan,nan,nan,nan,nan
737780000,6,1584.5381,1572.2947,1570.5413,1582.4982,1500.0,1500.0,nan,nan,nan,nan,nan,nan,nan,nan,nan,nan
737876000,6,1580.7816,1574.83,1573.2703,1579.334,1500.0,1500.0,nan,nan,nan,nan,nan,nan,nan,nan,nan,nan
737976000,6,1579.464,1574.7059,1570.5122,1580.1082,1500.0,1500.0,nan,nan,nan,nan,nan,nan,nan,nan,nan,nan
738076000,6,1584.5359,1573.3229,1573.1609,1579.9125,1500.0,1500.0,nan,nan,nan,nan,nan,nan,nan,nan,nan,nan
738180000,6,1581.2208,1571.5903,1570.5726,1579.6683,1500.0,1500.0,nan,nan,nan,nan,nan,nan,nan,nan,nan,nan
738276000,6,1582.6996,1572.295,1568.2585,1584.5516,1500.0,1500.0,nan,nan,nan,nan,nan,nan,nan,nan,nan,nan
738380000,6,1582.2104,1575.1458,1573.1656,1581.5841,1500.0,1500.0,nan,nan,nan,nan,nan,nan,nan,nan,nan,nan
738476000,6,1581.9788,1572.3031,1568.5927,1581.6509,1500.0,1500.0,nan,nan,nan,nan,nan,nan,nan,nan,nan,nan
738576000,6,1580.6863,1574.7439,1570.8594,1582.1471,1500.0,1500.0,nan,nan,nan,nan,nan,nan,nan,nan,nan,nan
738680000,6,1585.3862,1572.5133,1573.2717,1580.6603,1500.0,1500.0,nan,nan,nan,nan,nan,nan,nan,nan,nan,nan
738776000,6,1585.3385,1573.5415,1575.5702,1581.7494,1500.0,1500.0,nan,nan,nan,nan,nan,nan,nan,nan,nan,nan
738880000,6,1583.5507,1570.1274,1572.927,1581.1147,1500.0,1500.0,nan,nan,nan,nan,nan,nan,nan,nan,nan,nan
738976000,6,1581.8616,1577.5707,1572.021,1583.8212,1500.0,1500.0,nan,nan,nan,nan,nan,nan,nan,nan,nan,nan
739080000,6,1582.9185,1571.4529,1570.4163,1581.897,1500.0,1500.0,nan,nan,nan,nan,nan,nan,nan,nan,nan,nan
739176000,6,1582.6637,1572.7433,1572.2931,1579.8855,1500.0,1500.0,nan,nan,nan,nan,nan,nan,nan,nan,nan,nan
739276000,6,1582.0157,1574.3687,1573.8538,1580.0148,1500.0,1500.0,nan,nan,nan,nan,nan,nan,nan,nan,nan,nan
739380000,6,1583.9891,1571.1661,1570.1855,1580.434,1500.0,1500.0,nan,nan,nan,nan,nan,nan,nan,nan,nan,nan
739476000,6,1583.1931,1574.0502,1569.4375,1583.8964,1500.0,1500.0,nan,nan,nan,nan,nan,nan,nan,nan,nan,nan
739576000,6,1584.8728,1573.7676,1572.4636,1580.2013,1500.0,1500.0,nan,nan,nan,nan,nan,nan,nan,nan,nan,nan
739676000,6,1583.8405,1572.1096,1573.3345,1580.1741,1500.0,1500.0,nan,nan,nan,nan,nan,nan,nan,nan,nan,nan
739776000,6,1584.745,1572.0282,1571.2223,1582.767,1500.0,1500.0,nan,nan,nan,nan,nan,nan,nan,nan,nan,nan
739876000,6,1586.152,1571.8337,1573.1458,1578.9109,1500.0,1500.0,nan,nan,nan,nan,nan,nan,nan,nan,nan,nan
739976000,6,1583.6335,1572.9681,1571.4209,1580.0233,1500.0,1500.0,nan,nan,nan,nan,nan,nan,nan,nan,nan,nan
740076000,6,1583.6417,1574.517,1573.5881,1582.8569,1500.0,1500.0,nan,nan,nan,nan,nan,nan,nan,nan,nan,nan
740176000,6,1581.582,1574.8981,1572.4502,1583.62,1500.0,1500.0,nan,nan,nan,nan,nan,nan,nan,nan,nan,nan
740280000,6,1584.5011,1574.6094,1571.3287,1582.705,1500.0,1500.0,nan,nan,nan,nan,nan,nan,nan,nan,nan,nan
740376000,6,1586.2554,1574.5492,1575.0619,1582.9033,1500.0,1500.0,nan,nan,nan,nan,nan,nan,nan,nan,nan,nan
740476000,6,1585.82,1571.2037,1573.7788,1583.2767,1500.0,1500.0,nan,nan,nan,nan,nan,nan,nan,nan,nan,nan
740580000,6,1582.8898,1575.7767,1570.4453,1585.2981,1500.0,1500.0,nan,nan,nan,nan,nan,nan,nan,nan,nan,nan
740680000,6,1585.0177,1576.6796,1576.3125,1579.5133,1500.0,1500.0,nan,nan,nan,nan,nan,nan,nan,nan,nan,nan
740780000,6,1582.5273,1575.2312,1569.8448,1584.5406,1500.0,1500.0,nan,nan,nan,nan,nan,nan,nan,nan,nan,nan
740876000,6,1583.651,1575.6498,1573.3043,1579.1127,1500.0,1500.0,nan,nan,nan,nan,nan,nan,nan,nan,nan,nan
740976000,6,1584.4716,1576.3088,1573.763,1582.5531,1500.0,1500.0,nan,nan,nan,nan,nan,nan,nan,nan,nan,nan
741076000,6,1584.4565,1575.2046,1574.744,1582.61,1500.0,1500.0,nan,nan,nan,nan,nan,nan,nan,nan,nan,nan
741180000,6,1589.3444,1572.3323,1570.9408,1584.8457,1500.0,1500.0,nan,nan,nan,nan,nan,nan,nan,nan,nan,nan
741276000,6,1586.7439,1575.6907,1574.2434,1586.2037,1500.0,1500.0,nan,nan,nan,nan,nan,nan,nan,nan,nan,nan
741376000,6,1585.9606,1574.8372,1573.667,1583.6279,1500.0,1500.0,nan,nan,nan,nan,nan,nan,nan,nan,nan,nan
741476000,6,1586.5696,1574.9459,1573.2927,1584.845,1500.0,1500.0,nan,nan,nan,nan,nan,nan,nan,nan,nan,nan
741580000,6,1585.0757,1575.6803,1572.9135,1586.0544,1500.0,1500.0,nan,nan,nan,nan,nan,nan,nan,nan,nan,nan
741676000,6,1584.9899,1578.3613,1571.913,1587.6953,1500.0,1500.0,nan,nan,nan,nan,nan,nan,nan,nan,nan,nan
741780000,6,1584.2155,1576.1481,1573.0586,1585.6006,1500.0,1500.0,nan,nan,nan,nan,nan,nan,nan,nan,nan,nan
741876000,6,1587.722,1574.0459,1573.725,1583.0743,1500.0,1500.0,nan,nan,nan,nan,nan,nan,nan,nan,nan,nan
741980000,6,1587.3599,1577.681,1574.3179,1581.9747,1500.0,1500.0,nan,nan,nan,nan,nan,nan,nan,nan,nan,nan
742080000,6,1585.0337,1578.5428,1575.5667,1584.1726,1500.0,1500.0,nan,nan,nan,nan,nan,nan,nan,nan,nan,nan
742180000,6,1588.3564,1576.7178,1573.0602,1586.1549,1500.0,1500.0,nan,nan,nan,nan,nan,nan,nan,nan,nan,nan
742280000,6,1586.9768,1578.2052,1573.6793,1586.4706,1500.0,1500.0,nan,nan,nan,nan,nan,nan,nan,nan,nan,nan
742380000,6,1585.3533,1574.8105,1577.2659,1583.0049,1500.0,1500.0,nan,nan,nan,nan,nan,nan,nan,nan,nan,nan
742480000,6,1586.3934,1574.8098,1574.0104,1580.5282,1500.0,1500.0,nan,nan,nan,nan,nan,nan,nan,nan,nan,nan
742580000,6,1587.1298,1576.3501,1573.2513,1586.4437,1500.0,1500.0,nan,nan,nan,nan,nan,nan,nan,nan,nan,nan
742676000,6,1589.7856,1576.9501,1576.3403,1586.1072,1500.0,1500.0,nan,nan,nan,nan,nan,nan,nan,nan,nan,nan
742780000,6,1585.6848,1577.8485,1575.3182,1583.5427,1500.0,1500.0,nan,nan,nan,nan,nan,nan,nan,nan,nan,nan
742880000,6,1586.1798,1575.7787,1574.6276,1583.4944,1500.0,1500.0,nan,nan,nan,nan,nan,nan,nan,nan,nan,nan
742980000,6,1587.4242,1574.7856,1572.6094,1586.0543,1500.0,1500.0,nan,nan,nan,nan,nan,nan,nan,nan,nan,nan
743080000,6,1585.2157,1574.0061,1573.6458,1582.3618,1500.0,1500.0,nan,nan,nan,nan,nan,nan,nan,nan,nan,nan
743180000,6,1586.5797,1577.7992,1576.2113,1582.1473,1500.0,1500.0,nan,nan,nan,nan,nan,nan,nan,nan,nan,nan
