timestamp,timestamp_sample,control[0],control[1],control[2],control[3],control[4],control[5],control[6],control[7]
686480000,686480000,-0.003428482,-0.010542481,-0.22846799,-0.0,0.0,0.0,0.0,-1.0
686580000,686580000,0.0010195647,-0.013820274,-0.22823854,-0.0,0.0,0.0,0.0,-1.0
686680000,686680000,-0.00019909692,-0.011388956,-0.2291481,-0.0,0.0,0.0,0.0,-1.0
686780000,686780000,-0.001444624,-0.011802872,-0.22739123,-0.0,0.0,0.0,0.0,-1.0
686880000,686880000,7.69592e-05,-0.011773702,-0.22905958,-0.0,0.0,0.0,0.0,-1.0
686980000,686980000,-0.0021469572,-0.012209253,-0.2291584,-0.0,0.0,0.0,0.0,-1.0
687080000,687080000,-0.0036465041,-0.009728062,-0.22958437,-0.0,0.0,0.0,0.0,-1.0
687180000,687180000,-0.0015372306,-0.012816803,-0.22796789,-0.0,0.0,0.0,0.0,-1.0
687280000,687280000,-0.0028589685,-0.010993252,-0.22877136,-0.0,0.0,0.0,0.0,-1.0
687380000,687380000,-0.00039976253,-0.010415548,-0.22829723,-0.0,0.0,0.0,0.0,-1.0
687476000,687476000,0.0016841377,-0.00983015,-0.22853449,-0.0,0.0,0.0,0.0,-1.0
687580000,687580000,0.039761584,-0.03924334,0.00095970556,0.12011706,0.0,0.0,0.0,-1.0
687680000,687680000,0.0055935457,-0.060057163,-9.9279736e-05,0.14950214,0.0,0.0,0.0,-1.0
687780000,687780000,0.0074428767,-0.049320176,-0.000490287,0.21514238,0.0,0.0,0.0,-1.0
687880000,687880000,-0.0011438648,-0.04619982,-0.0019926473,0.282319,0.0,0.0,0.0,-1.0
687980000,687980000,-0.0033900489,-0.046349794,-0.00020958323,0.36495298,0.0,0.0,0.0,-1.0
688080000,688080000,-0.0034240622,-0.04553662,-0.0010696183,0.43713847,0.0,0.0,0.0,-1.0
688176000,688176000,-0.0035502505,-0.046420336,7.051568e-05,0.5086565,0.0,0.0,0.0,-1.0
688280000,688280000,-0.004237451,-0.035553005,-0.00068406196,0.5930391,0.0,0.0,0.0,-1.0
688380000,688380000,0.0024907351,0.0093491785,-0.0006736732,0.6103197,0.0,0.0,0.0,-1.0
688480000,688480000,0.0003803771,0.0037886053,0.0011166338,0.61038953,0.0,0.0,0.0,-1.0
688580000,688580000,6.201479e-05,-0.00051259436,0.0011752525,0.6155792,0.0,0.0,0.0,-1.0
688676000,688676000,4.9537397e-05,-0.0027172389,-0.0008831962,0.61507714,0.0,0.0,0.0,-1.0
688780000,688780000,-0.0015524281,-0.0028095897,0.00019376884,0.6165963,0.0,0.0,0.0,-1.0
688880000,688880000,-0.0006159431,-0.002204746,-0.0004513954,0.6149159,0.0,0.0,0.0,-1.0
688976000,688976000,0.0002973111,-0.0006083967,0.00078426243,0.6240073,0.0,0.0,0.0,-1.0
689080000,689080000,0.0036588,0.0020372076,-0.00021889561,0.62319595,0.0,0.0,0.0,-1.0
689180000,689180000,0.0025169735,-0.0015610969,-0.00012257961,0.6243753,0.0,0.0,0.0,-1.0
689280000,689280000,-2.0537118e-06,-0.00047118496,-0.0005017578,0.6232609,0.0,0.0,0.0,-1.0
689380000,689380000,0.001939836,-0.0004496849,-0.00035890314,0.6301016,0.0,0.0,0.0,-1.0
689476000,689476000,-0.0018232551,0.0004925239,-0.0003362311,0.6328924,0.0,0.0,0.0,-1.0
689576000,689576000,0.00014587762,0.002252644,0.00032340188,0.63230586,0.0,0.0,0.0,-1.0
689676000,689676000,0.00014512718,-0.0018510921,-0.0005058598,0.62762517,0.0,0.0,0.0,-1.0
689776000,689776000,0.00057756633,-0.0017629568,0.0015659356,0.633441,0.0,0.0,0.0,-1.0
689880000,689880000,0.0012155648,-0.0015301558,-0.0010316552,0.6398955,0.0,0.0,0.0,-1.0
689976000,689976000,0.0012220853,-0.0010618502,-0.00081027905,0.6427981,0.0,0.0,0.0,-1.0
690080000,690080000,-0.0027329403,0.00035917922,-0.0008467681,0.6411659,0.0,0.0,0.0,1.0
690180000,690180000,0.002225309,0.0013750419,0.0009444513,0.6121043,0.0,0.0,0.0,1.0
690280000,690280000,-0.005369783,-0.0004085407,0.00046980823,0.5307396,0.0,0.0,0.0,1.0
690376000,690376000,-0.00068047724,-0.0011963724,-0.0002794291,0.5620714,0.0,0.0,0.0,1.0
690480000,690480000,0.0015405444,0.0023984143,0.00057553337,0.57286364,0.0,0.0,0.0,1.0
690576000,690576000,0.00042212414,-0.001851148,0.00058730063,0.5680671,0.0,0.0,0.0,1.0
690680000,690680000,-0.0012946503,0.0012141955,-0.00034538034,0.56639624,0.0,0.0,0.0,1.0
690776000,690776000,0.0015912356,-0.0021855333,-0.00011800006,0.5737246,0.0,0.0,0.0,1.0
690876000,690876000,-0.0011164871,-0.001366765,6.133017e-05,0.57406753,0.0,0.0,0.0,1.0
690980000,690980000,0.0013201322,-0.00060473254,0.0011927795,0.5726135,0.0,0.0,0.0,1.0
691076000,691076000,0.00016264402,-0.00025105907,-0.0005155715,0.57335883,0.0,0.0,0.0,1.0
691180000,691180000,0.0017082423,0.0009563414,-0.00013121289,0.57188016,0.0,0.0,0.0,1.0
691276000,691276000,0.00083804,0.002099039,0.0001521866,0.5801664,0.0,0.0,0.0,1.0
691380000,691380000,-0.0003976346,-0.0013087243,0.00038782638,0.5808585,0.0,0.0,0.0,1.0
691480000,691480000,0.0010927614,-0.00079834263,-0.00021345912,0.5782919,0.0,0.0,0.0,1.0
691580000,691580000,-0.0013784983,0.0010342442,3.5778052e-05,0.5744427,0.0,0.0,0.0,1.0
691680000,691680000,-0.0034865877,0.0039343596,0.00079199707,0.5763725,0.0,0.0,0.0,1.0
691780000,691780000,-0.0003471044,-0.0015611749,0.0002281224,0.582611,0.0,0.0,0.0,1.0
691880000,691880000,-0.0015588936,-0.0015474734,0.00046535418,0.57908446,0.0,0.0,0.0,1.0
691980000,691980000,0.0009596514,-0.0001614173,-0.0003970005,0.5798701,0.0,0.0,0.0,1.0
692076000,692076000,0.0023962804,-0.0014422017,-0.00086357526,0.5759104,0.0,0.0,0.0,1.0
692176000,692176000,0.001974443,-0.0038267588,-0.00019584165,0.5830883,0.0,0.0,0.0,1.0
692280000,692280000,0.0009333607,0.0015516606,-0.00012347949,0.58477956,0.0,0.0,0.0,1.0
692380000,692380000,-0.0014111638,0.0019536684,-0.00075571926,0.58126515,0.0,0.0,0.0,1.0
692480000,692480000,0.0013277153,-0.00061639224,0.00054501067,0.58146554,0.0,0.0,0.0,1.0
692580000,692580000,0.0015100081,0.0003097619,0.0012848784,0.5781985,0.0,0.0,0.0,1.0
692680000,692680000,0.0018016865,0.0011837338,-0.00034511212,0.5859394,0.0,0.0,0.0,1.0
692780000,692780000,-0.0020481597,-4.6265894e-05,5.15688e-05,0.5853365,0.0,0.0,0.0,1.0
692880000,692880000,0.0011540458,0.0002808219,-4.980648e-05,0.5833028,0.0,0.0,0.0,1.0
692980000,692980000,0.00028537132,-0.0030196717,-0.0005030056,0.5788485,0.0,0.0,0.0,1.0
693080000,693080000,-0.00010744031,-0.00013910813,0.0006875719,0.58033615,0.0,0.0,0.0,1.0
693180000,693180000,-0.0033048063,0.001791582,-0.0005500037,0.58876795,0.0,0.0,0.0,1.0
693280000,693280000,0.0003292854,-0.00017057812,-0.00067080406,0.5882344,0.0,0.0,0.0,1.0
693380000,693380000,-0.001659393,-0.0002838418,0.0006173077,0.58407474,0.0,0.0,0.0,1.0
693480000,693480000,0.0007236423,-0.0007242058,-8.65007e-05,0.58566684,0.0,0.0,0.0,1.0
693576000,693576000,0.0010941898,-0.0006370873,0.00026177985,0.5793855,0.0,0.0,0.0,1.0
693680000,693680000,-2.8962488e-05,0.003053309,-4.9034834e-06,0.57977074,0.0,0.0,0.0,1.0
693776000,693776000,0.00065051194,6.720779e-05,0.0005320694,0.58704865,0.0,0.0,0.0,1.0
693880000,693880000,-0.002244606,0.00051897974,-0.00013997547,0.5880419,0.0,0.0,0.0,1.0
693980000,693980000,0.0018825415,0.0022441917,-6.5084954e-05,0.58590746,0.0,0.0,0.0,1.0
694080000,694080000,-0.0016396857,0.0012963841,0.0007898545,0.57969755,0.0,0.0,0.0,1.0
694180000,694180000,0.0019374142,-0.00059869775,-0.00020582475,0.5789985,0.0,0.0,0.0,1.0
694276000,694276000,-0.00068763806,0.0027811253,-9.441061e-05,0.58813214,0.0,0.0,0.0,1.0
694380000,694380000,0.0008541086,0.0023390495,-0.00033370935,0.5842618,0.0,0.0,0.0,1.0
694480000,694480000,-0.0013386777,-0.0021395355,0.0003583548,0.58317286,0.0,0.0,0.0,1.0
694580000,694580000,-0.0017776933,0.00079717074,0.0003140177,0.5795027,0.0,0.0,0.0,1.0
694676000,694676000,-0.0011530807,-0.00027759274,0.00016298032,0.5770872,0.0,0.0,0.0,1.0
694780000,694780000,-0.0009903599,0.0048126844,-0.0005665041,0.5617966,0.0,0.0,0.0,1.0
694880000,694880000,-0.0008903771,0.00017452813,-0.0005750687,0.5663845,0.0,0.0,0.0,1.0
694980000,694980000,-0.0005352804,0.0018953216,-5.559688e-05,0.5637801,0.0,0.0,0.0,1.0
695080000,695080000,0.003263969,0.0008575057,-0.00011604456,0.5649288,0.0,0.0,0.0,1.0
695180000,695180000,0.0027505013,0.0020241954,0.00076882576,0.56690955,0.0,0.0,0.0,1.0
695280000,695280000,0.0024982356,-0.0024180214,0.00044613046,0.56677055,0.0,0.0,0.0,1.0
695376000,695376000,0.0005323066,-0.0014250262,-0.00038676188,0.56590754,0.0,0.0,0.0,1.0
695476000,695476000,-0.0016713014,-0.00023173669,-0.00028154586,0.5632957,0.0,0.0,0.0,1.0
695580000,695580000,-0.0016755093,0.0017671878,-0.0011495878,0.5622128,0.0,0.0,0.0,1.0
695676000,695676000,0.00012710775,-1.6804552e-07,9.318245e-05,0.5679647,0.0,0.0,0.0,1.0
695780000,695780000,0.00024667164,0.002294126,0.001005065,0.56597173,0.0,0.0,0.0,1.0
695880000,695880000,-0.0012501332,0.0010496395,-0.0009260124,0.56530505,0.0,0.0,0.0,1.0
695980000,695980000,0.002597285,-0.0008402696,0.0004074145,0.56649214,0.0,0.0,0.0,1.0
696080000,696080000,-0.00080694666,0.00032528772,-0.001006432,0.5668019,0.0,0.0,0.0,1.0
696180000,696180000,0.0035784815,0.0019813823,-0.0010015776,0.5659478,0.0,0.0,0.0,1.0
696280000,696280000,0.00089289487,-0.003942691,0.0013543558,0.5660173,0.0,0.0,0.0,1.0
696380000,696380000,0.0013899073,0.0019546954,-1.7189202e-05,0.56715816,0.0,0.0,0.0,1.0
696480000,696480000,-0.0037783086,0.00025385647,0.00030406282,0.56650233,0.0,0.0,0.0,1.0
696580000,696580000,0.00070705207,0.0020822831,-9.742216e-05,0.5678772,0.0,0.0,0.0,1.0
696680000,696680000,-6.9584734e-05,0.0012034305,-0.00051683345,0.5658589,0.0,0.0,0.0,1.0
696780000,696780000,-0.002914715,-0.00070425356,-0.0007953233,0.5652102,0.0,0.0,0.0,1.0
696880000,696880000,0.0014540557,0.00052061793,-0.00012468966,0.56449074,0.0,0.0,0.0,1.0
696976000,696976000,0.00037442747,0.0018208855,-0.0004080501,0.56425095,0.0,0.0,0.0,1.0
697080000,697080000,-0.0011063658,-0.0007300947,0.00028820898,0.56618226,0.0,0.0,0.0,1.0
697180000,697180000,0.0031575216,0.0027057678,-0.00065451965,0.56381583,0.0,0.0,0.0,1.0
697280000,697280000,-0.00043347658,-0.0012350648,-0.0003856368,0.56311923,0.0,0.0,0.0,1.0
697380000,697380000,0.0006308486,0.0021771053,-0.0014267599,0.56689405,0.0,0.0,0.0,1.0
697480000,697480000,-0.0012889268,-0.002612302,0.00027776847,0.5655914,0.0,0.0,0.0,1.0
697580000,697580000,0.002345868,1.4569465e-05,-0.00018827402,0.5651592,0.0,0.0,0.0,1.0
697680000,697680000,-0.0020305251,0.0010489158,0.0006502268,0.5624428,0.0,0.0,0.0,1.0
697776000,697776000,-0.0024370989,-0.0015633113,-0.00057322206,0.5646081,0.0,0.0,0.0,1.0
697880000,697880000,0.0006738066,0.0014252313,0.00059359777,0.5645942,0.0,0.0,0.0,1.0
697976000,697976000,-8.529307e-05,-0.0016436966,0.00065489183,0.5643439,0.0,0.0,0.0,1.0
698080000,698080000,-0.003213895,0.0011391458,-0.00071139,0.56494,0.0,0.0,0.0,1.0
698180000,698180000,0.0014778094,-0.0014125995,-0.00046666292,0.56623304,0.0,0.0,0.0,1.0
698280000,698280000,0.00052178564,-0.001094732,-0.00018518446,0.56629235,0.0,0.0,0.0,1.0
698376000,698376000,0.0003971914,-0.0032462329,6.1368564e-06,0.5638696,0.0,0.0,0.0,1.0
698476000,698476000,0.001947612,0.002701816,-0.00023477769,0.5666213,0.0,0.0,0.0,1.0
698580000,698580000,0.0011819238,-0.0024316993,-0.00020518152,0.5654417,0.0,0.0,0.0,1.0
698680000,698680000,0.00076511974,0.0012844219,0.00031143954,0.5633331,0.0,0.0,0.0,1.0
698780000,698780000,0.00037464086,-0.002503856,-0.00010555288,0.56656826,0.0,0.0,0.0,1.0
698880000,698880000,-0.001984248,0.00018229391,-0.0002641681,0.5674434,0.0,0.0,0.0,1.0
698980000,698980000,-0.0032779367,-0.00013035793,0.00068453327,0.56360805,0.0,0.0,0.0,1.0
699080000,699080000,-0.0015845124,0.0014763579,-0.00016871464,0.5640873,0.0,0.0,0.0,1.0
699180000,699180000,-0.0028259868,0.0013920002,-0.0006615114,0.5631614,0.0,0.0,0.0,1.0
699280000,699280000,-0.0008466815,-3.5247085e-05,0.0003772069,0.56383806,0.0,0.0,0.0,1.0
699376000,699376000,0.0011573306,0.0010408268,-0.00035386745,0.5657025,0.0,0.0,0.0,1.0
699480000,699480000,-0.0036356382,0.00044986367,0.00015317739,0.5647866,0.0,0.0,0.0,1.0
699580000,699580000,0.00048347554,0.0019777329,0.0011365596,0.56445736,0.0,0.0,0.0,1.0
699680000,699680000,-0.0014544035,0.001151585,-0.00010281385,0.56359315,0.0,0.0,0.0,1.0
699780000,699780000,0.00087810424,0.0013699238,0.00057904713,0.56401545,0.0,0.0,0.0,1.0
699876000,699876000,0.0005008707,0.001587431,-8.6816726e-05,0.56483877,0.0,0.0,0.0,1.0
699980000,699980000,0.00037674303,-0.0007612357,0.0006451885,0.5639693,0.0,0.0,0.0,1.0
700080000,700080000,0.002277303,-0.0024580734,-8.8635694e-05,0.5642133,0.0,0.0,0.0,1.0
700180000,700180000,0.001656007,0.001202374,-0.000102895945,0.5640442,0.0,0.0,0.0,1.0
700276000,700276000,0.0025858425,0.0012808576,9.505904e-05,0.5636101,0.0,0.0,0.0,1.0
700380000,700380000,-0.0011182436,0.00061393634,-0.0005050436,0.5644595,0.0,0.0,0.0,1.0
700480000,700480000,0.00064862106,-0.0011174307,-0.00041016977,0.5640742,0.0,0.0,0.0,1.0
700576000,700576000,-0.0007285744,0.0016434281,-0.00014431034,0.5629072,0.0,0.0,0.0,1.0
700680000,700680000,0.0013539478,-0.0009047689,-1.8316523e-05,0.5620766,0.0,0.0,0.0,1.0
700780000,700780000,-0.0022858127,-0.0004938507,0.0012582089,0.56269443,0.0,0.0,0.0,1.0
700876000,700876000,0.002944041,5.885995e-06,-0.0006188469,0.5624521,0.0,0.0,0.0,1.0
700980000,700980000,-0.00032386553,0.0005784874,-0.001060795,0.56268054,0.0,0.0,0.0,1.0
701080000,701080000,0.0010327699,0.0024423015,-0.00076858694,0.562312,0.0,0.0,0.0,1.0
701180000,701180000,0.0015977037,-0.0014993999,-5.2437295e-05,0.5623766,0.0,0.0,0.0,1.0
701280000,701280000,0.0022630068,0.0010347107,-0.00039039372,0.56457615,0.0,0.0,0.0,1.0
701380000,701380000,-0.00022064638,0.00071216637,0.0009144706,0.56346977,0.0,0.0,0.0,1.0
701480000,701480000,0.0015652133,0.003360368,0.0006275424,0.56431717,0.0,0.0,0.0,1.0
701580000,701580000,-0.00035851513,-0.00064468064,0.0005130888,0.5645657,0.0,0.0,0.0,1.0
701680000,701680000,0.0031906117,0.0007528125,-0.00087415293,0.5639007,0.0,0.0,0.0,1.0
701780000,701780000,-0.0008142738,0.0014097808,-0.00065171,0.5636321,0.0,0.0,0.0,1.0
701880000,701880000,-0.00057392835,-0.0007791746,0.00010060502,0.5638628,0.0,0.0,0.0,1.0
701976000,701976000,0.0020972032,0.0012114273,-0.0004156938,0.56249285,0.0,0.0,0.0,1.0
702080000,702080000,0.0037360624,0.0036995448,-0.00018135618,0.56248134,0.0,0.0,0.0,1.0
702180000,702180000,0.0009626186,0.0011546724,-0.00017010566,0.56328815,0.0,0.0,0.0,1.0
702280000,702280000,0.0024340036,0.00057488517,0.00044045222,0.5626408,0.0,0.0,0.0,1.0
702380000,702380000,0.0017190021,0.0012862475,0.00025772903,0.5636387,0.0,0.0,0.0,1.0
702476000,702476000,0.0008930029,-0.00074085087,-0.00020650125,0.56347275,0.0,0.0,0.0,1.0
702580000,702580000,0.00014699926,-0.0013725566,0.00014124525,0.565013,0.0,0.0,0.0,1.0
702680000,702680000,-0.0019260402,-0.0009682995,-4.372261e-05,0.5627321,0.0,0.0,0.0,1.0
702780000,702780000,0.0011606468,0.00068368786,-0.0005126615,0.56360686,0.0,0.0,0.0,1.0
702880000,702880000,-0.00018403732,8.715802e-05,0.0011396672,0.5631192,0.0,0.0,0.0,1.0
702980000,702980000,-0.0021977213,0.0007620579,-0.00045091327,0.5635868,0.0,0.0,0.0,1.0
703080000,703080000,-0.0005178312,-0.0011070041,-0.00018784511,0.563643,0.0,0.0,0.0,1.0
703176000,703176000,0.0025124203,0.0028971953,0.00034754604,0.5625401,0.0,0.0,0.0,1.0
703276000,703276000,0.0012515767,-0.0012551076,-5.613994e-05,0.56365114,0.0,0.0,0.0,1.0
703380000,703380000,0.0032426505,-0.0011052743,0.00027057526,0.5632132,0.0,0.0,0.0,1.0
703480000,703480000,0.00074160204,0.0022552935,0.00036870668,0.56360775,0.0,0.0,0.0,1.0
703580000,703580000,0.00014820091,-0.0009330392,-0.0006670744,0.56307304,0.0,0.0,0.0,1.0
703680000,703680000,-0.00031487618,-0.0017351304,-0.00020901581,0.56349117,0.0,0.0,0.0,1.0
703776000,703776000,-0.0014767088,-0.002200594,7.4400756e-05,0.56223565,0.0,0.0,0.0,1.0
703880000,703880000,-0.0006107861,0.00017629337,0.00058284256,0.5614578,0.0,0.0,0.0,1.0
703980000,703980000,0.0013008467,0.00013327529,-0.00068420253,0.5622153,0.0,0.0,0.0,1.0
704076000,704076000,0.00076196186,-0.00070999906,-0.0012733401,0.5627172,0.0,0.0,0.0,1.0
704176000,704176000,0.0025754953,5.765644e-05,0.0008198837,0.56231177,0.0,0.0,0.0,1.0
704276000,704276000,0.0021446103,0.00051358226,0.00054489175,0.56314117,0.0,0.0,0.0,1.0
704376000,704376000,0.00070509815,0.0001404804,0.00025809684,0.5618232,0.0,0.0,0.0,1.0
704476000,704476000,0.002543728,0.0022249143,0.00012163131,0.5628754,0.0,0.0,0.0,1.0
704576000,704576000,0.0027515995,0.002974631,-0.0007284508,0.56296563,0.0,0.0,0.0,1.0
704680000,704680000,-0.0013986714,0.0009175163,0.00080360164,0.56469256,0.0,0.0,0.0,1.0
704780000,704780000,0.003183261,0.0014835189,0.00022334512,0.56334263,0.0,0.0,0.0,1.0
704880000,704880000,-0.0022378368,0.0007776149,-4.2958363e-05,0.56286234,0.0,0.0,0.0,1.0
704980000,704980000,-0.00013949178,-4.121688e-05,-0.00025830715,0.5625355,0.0,0.0,0.0,1.0
705080000,705080000,-0.0028470645,-0.0016925676,-0.00021415844,0.5630545,0.0,0.0,0.0,1.0
705180000,705180000,-0.0006306835,0.0013582879,-0.0006602199,0.56271684,0.0,0.0,0.0,1.0
705276000,705276000,-0.0016962618,-0.0019340736,0.00012773534,0.56211776,0.0,0.0,0.0,1.0
705380000,705380000,0.00079740083,-0.00060836674,0.00028391142,0.564517,0.0,0.0,0.0,1.0
705480000,705480000,0.00030203862,-0.0011716646,-0.0010437017,0.562383,0.0,0.0,0.0,1.0
705576000,705576000,-0.0018241033,0.0005705536,-0.00039031467,0.5638013,0.0,0.0,0.0,1.0
705680000,705680000,0.0020723562,0.00070174003,-0.00014934618,0.56253624,0.0,0.0,0.0,1.0
705776000,705776000,-0.0008455795,-0.00072281423,0.00054769905,0.56308657,0.0,0.0,0.0,1.0
705880000,705880000,0.000754012,-0.00066573557,-0.0007988134,0.56484675,0.0,0.0,0.0,1.0
705980000,705980000,6.235488e-05,0.0006471203,0.00036910162,0.5645322,0.0,0.0,0.0,1.0
706076000,706076000,-0.0012546355,0.001719021,5.4127897e-05,0.56247616,0.0,0.0,0.0,1.0
706180000,706180000,-0.0015101224,-0.0010607284,-0.000482554,0.56268007,0.0,0.0,0.0,1.0
706280000,706280000,0.00046420758,0.002663261,-0.00079923664,0.56398606,0.0,0.0,0.0,1.0
706380000,706380000,0.00013526976,-8.828155e-05,-0.0006869221,0.56253666,0.0,0.0,0.0,1.0
706480000,706480000,0.0005852733,-0.001218754,0.0005778949,0.5642052,0.0,0.0,0.0,1.0
706580000,706580000,-0.0009464509,0.001435793,-0.00092963834,0.56366926,0.0,0.0,0.0,1.0
706680000,706680000,-7.709408e-05,-0.0006269022,0.0002962096,0.56450623,0.0,0.0,0.0,1.0
706780000,706780000,-0.0004058625,-0.0014851848,-0.00015382763,0.56387293,0.0,0.0,0.0,1.0
706880000,706880000,0.0012798039,0.0039383234,-0.0008301313,0.5635907,0.0,0.0,0.0,1.0
706980000,706980000,-1.7192477e-05,-0.00033347332,0.0003419572,0.5636442,0.0,0.0,0.0,1.0
707080000,707080000,-0.0033044263,0.00014126106,-0.00017723697,0.5631786,0.0,0.0,0.0,1.0
707176000,707176000,0.0024354768,0.001721832,0.0009854301,0.5638347,0.0,0.0,0.0,1.0
707276000,707276000,-0.0008637364,-0.00069469016,-0.0004032408,0.56429267,0.0,0.0,0.0,1.0
707380000,707380000,0.0004615609,0.00071824796,-0.00055553205,0.5625004,0.0,0.0,0.0,1.0
707480000,707480000,-0.00073678297,-0.00046091754,-0.00064469123,0.5634368,0.0,0.0,0.0,1.0
707580000,707580000,0.00012882333,0.00011250928,-3.327252e-05,0.5632742,0.0,0.0,0.0,1.0
707676000,707676000,-0.0021669748,0.0026156306,-0.0004619342,0.5648316,0.0,0.0,0.0,1.0
707776000,707776000,-0.0014542881,0.0008830901,6.425891e-05,0.5632322,0.0,0.0,0.0,1.0
707880000,707880000,0.0023731848,-0.00024325165,0.00062939903,0.5625286,0.0,0.0,0.0,1.0
707980000,707980000,-0.00060698425,0.0030416255,0.00051309686,0.5640016,0.0,0.0,0.0,1.0
708080000,708080000,-0.00067675876,0.00082934496,0.00012404728,0.56399,0.0,0.0,0.0,1.0
708180000,708180000,0.0014623986,-0.0002906642,0.0003958281,0.56199473,0.0,0.0,0.0,1.0
708280000,708280000,-0.002215319,-0.0023510784,-1.43219e-05,0.5634401,0.0,0.0,0.0,1.0
708376000,708376000,0.0011543094,0.00045966578,0.0009909216,0.56436396,0.0,0.0,0.0,1.0
708476000,708476000,0.00086096406,-0.00089232065,-0.0007206321,0.5634031,0.0,0.0,0.0,1.0
708580000,708580000,-0.0011187231,0.0015889979,-0.00023020997,0.5633214,0.0,0.0,0.0,1.0
708680000,708680000,-2.3852e-05,0.00086499203,0.00059043797,0.56294984,0.0,0.0,0.0,1.0
708780000,708780000,0.000106706386,0.0008268815,-0.000834677,0.5620033,0.0,0.0,0.0,1.0
708880000,708880000,0.0025621115,-0.0034806926,0.00049773173,0.56431496,0.0,0.0,0.0,1.0
708976000,708976000,0.00014013576,0.0008916578,-8.100513e-05,0.5641375,0.0,0.0,0.0,1.0
709080000,709080000,-0.0010004574,-0.00075021596,-0.0010950858,0.56228536,0.0,0.0,0.0,1.0
709180000,709180000,-0.00027846018,-0.0002198355,0.0006123759,0.5641322,0.0,0.0,0.0,1.0
709280000,709280000,0.0012255787,0.00066291424,-1.6337326e-06,0.56188065,0.0,0.0,0.0,1.0
709380000,709380000,-0.0008156915,-0.0010488647,0.0003318012,0.5632895,0.0,0.0,0.0,1.0
709480000,709480000,-0.001798233,0.00027766736,-0.00010822649,0.5629179,0.0,0.0,0.0,1.0
709580000,709580000,-0.0004911498,-0.0012745257,-0.000982239,0.56283486,0.0,0.0,0.0,1.0
709676000,709676000,0.0013515657,-0.0014156121,0.0005031869,0.5637158,0.0,0.0,0.0,1.0
709780000,709780000,0.001121618,-0.00063747744,0.0005708918,0.5621149,0.0,0.0,0.0,1.0
709880000,709880000,-0.0007949767,-4.6251724e-05,-0.00031495382,0.563268,0.0,0.0,0.0,1.0
709980000,709980000,0.0007820746,-0.00018614354,-6.4847125e-05,0.5625748,0.0,0.0,0.0,1.0
710080000,710080000,7.46732e-05,-0.0008391329,6.6469365e-05,0.564585,0.0,0.0,0.0,1.0
710176000,710176000,0.0010798078,-0.00086053094,-0.00016819738,0.5641117,0.0,0.0,0.0,1.0
710276000,710276000,-0.00020861118,-0.0019745254,0.00067840447,0.5626474,0.0,0.0,0.0,1.0
710380000,710380000,-0.00023083291,-0.0030907523,0.0006057468,0.5628248,0.0,0.0,0.0,1.0
710476000,710476000,0.0010807373,0.0002207798,-0.00039360972,0.56198746,0.0,0.0,0.0,1.0
710576000,710576000,-0.001782275,0.0005923784,8.2696424e-05,0.5631651,0.0,0.0,0.0,1.0
710680000,710680000,-0.00028876198,-0.00065701443,-0.00020678632,0.56388044,0.0,0.0,0.0,1.0
710780000,710780000,-0.0003914273,0.0019016572,-0.00030062572,0.5628706,0.0,0.0,0.0,1.0
710876000,710876000,-0.0007532175,0.0019368618,-0.0002123908,0.56171906,0.0,0.0,0.0,1.0
710980000,710980000,0.0014317216,0.0018806634,-0.0005803852,0.5634791,0.0,0.0,0.0,1.0
711080000,711080000,-0.00058574387,3.3357413e-05,0.0007755301,0.564117,0.0,0.0,0.0,1.0
711180000,711180000,0.0005548745,-0.0016509303,0.00025709422,0.5612213,0.0,0.0,0.0,1.0
711280000,711280000,0.0017148707,0.00035815593,0.00015219211,0.56323594,0.0,0.0,0.0,1.0
711380000,711380000,-0.0001168726,-0.0013438617,-0.00021609993,0.5644964,0.0,0.0,0.0,1.0
711476000,711476000,-0.00029682618,0.0021229193,0.00091979734,0.5633516,0.0,0.0,0.0,1.0
711580000,711580000,0.0034590613,0.0027943328,0.00018388306,0.5641222,0.0,0.0,0.0,1.0
711680000,711680000,-0.002402,-0.0032471744,-0.00076704094,0.56381243,0.0,0.0,0.0,1.0
711780000,711780000,-0.00083345553,-0.0036029166,0.00020586341,0.5625068,0.0,0.0,0.0,1.0
711880000,711880000,-0.0006886136,-0.0016217821,0.00036513785,0.56328756,0.0,0.0,0.0,1.0
711980000,711980000,0.0023063477,0.001444017,-0.00021037484,0.56519556,0.0,0.0,0.0,1.0
712076000,712076000,0.0008560309,0.0019522833,0.00044854358,0.56398445,0.0,0.0,0.0,1.0
712180000,712180000,-0.0002225582,0.00017507256,0.00056191365,0.56355846,0.0,0.0,0.0,1.0
712280000,712280000,0.0014414798,-0.0006169005,-0.000102136415,0.5647686,0.0,0.0,0.0,1.0
712380000,712380000,0.00039048545,-0.0033802527,0.00075509783,0.5633535,0.0,0.0,0.0,1.0
712476000,712476000,-0.00016187385,0.0010161275,0.00023011619,0.5628797,0.0,0.0,0.0,1.0
712580000,712580000,0.00054727535,0.00017513924,3.7368514e-05,0.5659253,0.0,0.0,0.0,1.0
712680000,712680000,0.0020128724,-0.001870676,0.00086763076,0.56346905,0.0,0.0,0.0,1.0
712780000,712780000,0.0018315328,-0.00076140434,0.00070031174,0.5639434,0.0,0.0,0.0,1.0
712880000,712880000,0.0025644044,-0.0013021599,0.0007518672,0.5626523,0.0,0.0,0.0,1.0
712980000,712980000,0.0021591068,0.0046696686,-0.00045958522,0.5644961,0.0,0.0,0.0,1.0
713076000,713076000,-0.00074305217,-0.0002488043,0.0007112359,0.5629587,0.0,0.0,0.0,1.0
713180000,713180000,-0.00075988664,-0.0018014077,0.00050204387,0.5630531,0.0,0.0,0.0,1.0
713280000,713280000,-6.9600486e-05,-0.003253874,0.00027190964,0.5645054,0.0,0.0,0.0,1.0
713380000,713380000,-0.0011049767,0.0023983202,0.00010158374,0.56357956,0.0,0.0,0.0,1.0
713476000,713476000,0.0018412604,-0.0007625918,0.0009123007,0.5627557,0.0,0.0,0.0,1.0
713580000,713580000,-0.040814765,-0.067378335,-0.6327709,0.5684859,0.0,0.0,0.0,1.0
713680000,713680000,-0.0012697154,0.057965785,-0.28528196,0.46465388,0.0,0.0,0.0,1.0
713780000,713780000,0.025496341,0.03884379,-0.067597225,0.48492658,0.0,0.0,0.0,1.0
713876000,713876000,-0.004405189,0.0033441535,0.0009705685,0.5942161,0.0,0.0,0.0,1.0
713980000,713980000,-0.031162001,-0.02414577,0.013704279,0.5687895,0.0,0.0,0.0,1.0
714080000,714080000,-0.013328766,-0.014243221,0.0148629695,0.56340593,0.0,0.0,0.0,1.0
714180000,714180000,-0.009161998,-0.0048257713,0.013199754,0.571042,0.0,0.0,0.0,1.0
714280000,714280000,-0.0042486982,-0.0038689978,0.011591088,0.5709793,0.0,0.0,0.0,1.0
714380000,714380000,-0.0023450824,-0.0042064874,0.0072291167,0.56959206,0.0,0.0,0.0,1.0
714480000,714480000,-0.0007245686,-0.005384844,0.006375744,0.57081795,0.0,0.0,0.0,1.0
714580000,714580000,-0.0022430255,-0.0047632596,0.004813712,0.56944287,0.0,0.0,0.0,1.0
714680000,714680000,-0.0010977205,-0.0059303385,0.002554915,0.5714493,0.0,0.0,0.0,1.0
714780000,714780000,-0.0030451824,-0.007258945,0.0025037853,0.57212746,0.0,0.0,0.0,1.0
714880000,714880000,0.0018398304,-0.0067628142,0.0022760099,0.57237345,0.0,0.0,0.0,1.0
714980000,714980000,0.0006292487,-0.006991387,0.0026767887,0.5707586,0.0,0.0,0.0,1.0
715080000,715080000,-0.0018994974,-0.004865428,0.0011664936,0.5726062,0.0,0.0,0.0,1.0
715180000,715180000,0.002591068,-0.0074883522,0.0006302353,0.5727625,0.0,0.0,0.0,1.0
715280000,715280000,0.0027479385,-0.0071622464,0.0010334253,0.5723906,0.0,0.0,0.0,1.0
715380000,715380000,-0.004709411,-0.0062242574,0.00017847773,0.5737455,0.0,0.0,0.0,1.0
715480000,715480000,-1.1664e-05,-0.0040985113,0.00077534607,0.57444036,0.0,0.0,0.0,1.0
715576000,715576000,0.00013306567,-0.00926017,0.0004004729,0.574363,0.0,0.0,0.0,1.0
715676000,715676000,0.0026210777,-0.010475001,0.00045833644,0.5734271,0.0,0.0,0.0,1.0
715780000,715780000,0.002745256,-0.005515285,-0.00026173377,0.5745153,0.0,0.0,0.0,1.0
715880000,715880000,0.0017337626,-0.004749137,0.0001200526,0.5753925,0.0,0.0,0.0,1.0
715980000,715980000,0.0015040312,-0.0067348024,-0.00015279045,0.5762474,0.0,0.0,0.0,1.0
716080000,716080000,-0.00034456927,-0.009954477,-0.00036086747,0.57726413,0.0,0.0,0.0,1.0
716180000,716180000,-0.0016979722,-0.009682549,8.510705e-05,0.57688147,0.0,0.0,0.0,1.0
716280000,716280000,0.0019167508,-0.009176214,-0.00061210245,0.57783395,0.0,0.0,0.0,1.0
716380000,716380000,-0.0011992973,-0.008534273,0.0012333184,0.5792743,0.0,0.0,0.0,1.0
716480000,716480000,0.005126449,-0.011287181,0.000719795,0.57904685,0.0,0.0,0.0,1.0
716576000,716576000,-1.6406295e-05,-0.013193517,-0.0007536758,0.57898366,0.0,0.0,0.0,1.0
716676000,716676000,0.0016655352,-0.006495759,0.00080532953,0.5803752,0.0,0.0,0.0,1.0
716780000,716780000,0.0042847404,-0.012003103,0.00033838348,0.5791971,0.0,0.0,0.0,1.0
716880000,716880000,0.002955055,-0.011095851,-9.7683864e-05,0.58217335,0.0,0.0,0.0,1.0
716980000,716980000,0.00019013556,-0.010554585,-0.00037471764,0.58495694,0.0,0.0,0.0,1.0
717080000,717080000,0.0031491774,-0.012721837,-8.003716e-05,0.584184,0.0,0.0,0.0,1.0
717180000,717180000,-0.00095012283,-0.011816059,-0.0014099296,0.585063,0.0,0.0,0.0,1.0
717280000,717280000,0.0021800662,-0.013381193,0.000117655145,0.586068,0.0,0.0,0.0,1.0
717380000,717380000,-0.0018673079,-0.015432218,-0.0009858649,0.58642316,0.0,0.0,0.0,1.0
717480000,717480000,-0.0004075591,-0.01166134,-0.0007164404,0.5862205,0.0,0.0,0.0,1.0
717580000,717580000,0.00038549583,-0.013551582,0.00033731456,0.58839625,0.0,0.0,0.0,1.0
717680000,717680000,0.0041799396,-0.014007108,-0.0004895716,0.5890256,0.0,0.0,0.0,1.0
717780000,717780000,-0.0012799997,-0.01477879,-0.0011822194,0.59041137,0.0,0.0,0.0,1.0
717876000,717876000,-0.0013709068,-0.020815548,-0.00021099881,0.591907,0.0,0.0,0.0,1.0
717980000,717980000,0.001049638,-0.017473422,0.0007197384,0.59296066,0.0,0.0,0.0,1.0
718080000,718080000,-0.0003566898,-0.011817124,-0.00027276005,0.594887,0.0,0.0,0.0,1.0
718180000,718180000,0.0008939094,-0.015227815,-0.0007391309,0.5948099,0.0,0.0,0.0,1.0
718280000,718280000,4.277972e-05,-0.01968778,-0.0007168561,0.5982502,0.0,0.0,0.0,1.0
718380000,718380000,0.0027985594,-0.018137956,0.00029106962,0.59840006,0.0,0.0,0.0,1.0
718480000,718480000,0.002944384,-0.020631738,-8.4857806e-05,0.6007556,0.0,0.0,0.0,1.0
718576000,718576000,0.0055458397,-0.017530218,0.00042038923,0.6027456,0.0,0.0,0.0,1.0
718680000,718680000,0.0034131277,-0.023672061,-0.0006001501,0.6039606,0.0,0.0,0.0,1.0
718776000,718776000,0.0026988126,-0.024920635,0.00043394347,0.6067615,0.0,0.0,0.0,1.0
718880000,718880000,0.00033747125,-0.022257812,-0.00030693924,0.609027,0.0,0.0,0.0,1.0
718980000,718980000,0.004009352,-0.024018724,-0.0010104135,0.6110416,0.0,0.0,0.0,1.0
719080000,719080000,0.0021539796,-0.021036945,-0.0008018764,0.61493826,0.0,0.0,0.0,1.0
719176000,719176000,0.002473639,-0.024551705,0.00025075558,0.6172517,0.0,0.0,0.0,1.0
719280000,719280000,0.00040692987,-0.029101552,-0.00036529743,0.6194439,0.0,0.0,0.0,1.0
719380000,719380000,0.004860782,-0.026898053,-0.0008116746,0.62316424,0.0,0.0,0.0,1.0
719480000,719480000,0.002658703,-0.029687937,-0.0016981335,0.6253351,0.0,0.0,0.0,1.0
719580000,719580000,0.0019021847,-0.030013833,-0.00023378001,0.6263589,0.0,0.0,0.0,1.0
719680000,719680000,-0.0006415597,-0.029336631,-0.00084780366,0.6319905,0.0,0.0,0.0,1.0
719776000,719776000,0.000718083,-0.028981537,-0.00028686697,0.63586646,0.0,0.0,0.0,1.0
719876000,719876000,-0.0007134739,-0.030750843,-0.0007901471,0.6409989,0.0,0.0,0.0,1.0
719980000,719980000,0.003760764,-0.026642289,-8.6204964e-05,0.64326113,0.0,0.0,0.0,1.0
720076000,720076000,0.0025598817,-0.03492034,-0.0006867652,0.6473408,0.0,0.0,0.0,1.0
720180000,720180000,0.003692206,-0.033826157,-0.00051918236,0.6521335,0.0,0.0,0.0,1.0
720280000,720280000,0.0017715611,-0.034577407,-0.00045966665,0.6574813,0.0,0.0,0.0,1.0
720380000,720380000,0.0013621722,-0.035681423,-0.0002003006,0.66299534,0.0,0.0,0.0,1.0
720480000,720480000,0.0007054715,-0.03811141,-0.00084643695,0.66698486,0.0,0.0,0.0,1.0
720580000,720580000,0.0040627895,-0.041166004,-0.001560429,0.6742635,0.0,0.0,0.0,1.0
720680000,720680000,0.0033721146,-0.037699506,-0.0017321215,0.67694294,0.0,0.0,0.0,1.0
720780000,720780000,0.003538901,-0.018934632,-0.0018656912,0.6681003,0.0,0.0,0.0,1.0
720880000,720880000,0.0038757457,-0.038601667,-0.001517865,0.6753868,0.0,0.0,0.0,1.0
720980000,720980000,0.0042248056,-0.052679427,-0.0018309981,0.6780149,0.0,0.0,0.0,1.0
721080000,721080000,7.089437e-05,-0.0593839,-0.00034017878,0.67455715,0.0,0.0,0.0,1.0
721180000,721180000,0.0007075374,-0.055610374,-0.0012877816,0.6732378,0.0,0.0,0.0,1.0
721280000,721280000,0.0009529614,-0.049360998,-0.0017014986,0.6714846,0.0,0.0,0.0,1.0
721376000,721376000,0.004947412,-0.041735757,-0.0010719243,0.6715059,0.0,0.0,0.0,1.0
721480000,721480000,0.004010304,-0.043394703,-0.0010897131,0.672418,0.0,0.0,0.0,1.0
721580000,721580000,0.00057069,-0.04651759,-0.001400883,0.6744338,0.0,0.0,0.0,1.0
721680000,721680000,0.0003164683,-0.048436657,-0.00052218005,0.6731791,0.0,0.0,0.0,1.0
721780000,721780000,0.0043646935,-0.045878142,-0.0031752745,0.6739346,0.0,0.0,0.0,1.0
721880000,721880000,0.0013844658,-0.043543655,-0.0010036572,0.67515206,0.0,0.0,0.0,1.0
721980000,721980000,0.0040800506,-0.04943442,-0.0013460737,0.67314035,0.0,0.0,0.0,1.0
722080000,722080000,0.0021308076,-0.045565158,-0.00031316112,0.67407185,0.0,0.0,0.0,1.0
722180000,722180000,0.0013842848,-0.04705011,-0.0018905883,0.6752638,0.0,0.0,0.0,1.0
722276000,722276000,0.0045094853,-0.046194118,-0.0019395518,0.6762034,0.0,0.0,0.0,1.0
722380000,722380000,0.0026776497,-0.049689375,-0.0004782969,0.67637986,0.0,0.0,0.0,1.0
722476000,722476000,0.0047759926,-0.049557816,-0.0008344988,0.6765021,0.0,0.0,0.0,1.0
722580000,722580000,0.0027192568,-0.04894591,-0.0018828474,0.6760539,0.0,0.0,0.0,1.0
722680000,722680000,0.0016469249,-0.046349883,-0.0010592462,0.6757222,0.0,0.0,0.0,1.0
722780000,722780000,0.003736028,-0.046663374,-0.0022340682,0.6764683,0.0,0.0,0.0,1.0
722880000,722880000,0.004767049,-0.045808803,-0.00068711286,0.67543167,0.0,0.0,0.0,1.0
722980000,722980000,0.0028422123,-0.047691267,-0.0015486123,0.6775626,0.0,0.0,0.0,1.0
723080000,723080000,0.0010768156,-0.04916359,-0.0010908467,0.6770444,0.0,0.0,0.0,1.0
723180000,723180000,0.0017818358,-0.04650192,-0.0012100852,0.678231,0.0,0.0,0.0,1.0
723280000,723280000,0.0012557692,-0.04691205,-0.0022978066,0.67882746,0.0,0.0,0.0,1.0
723380000,723380000,-3.7538586e-05,-0.05031834,-6.564823e-05,0.67986906,0.0,0.0,0.0,1.0
723480000,723480000,0.004157475,-0.047214735,-0.0004952405,0.6800007,0.0,0.0,0.0,1.0
723580000,723580000,0.0019717133,-0.04837314,-0.0008107658,0.67995906,0.0,0.0,0.0,1.0
723680000,723680000,0.0021319287,-0.048286602,-0.0007782786,0.68013597,0.0,0.0,0.0,1.0
723780000,723780000,0.0031588902,-0.045889314,-0.0006429904,0.68082243,0.0,0.0,0.0,1.0
723880000,723880000,0.0034074904,-0.05293133,-0.0023669526,0.67970896,0.0,0.0,0.0,1.0
723980000,723980000,0.0017919235,-0.04964088,-0.000414662,0.67897403,0.0,0.0,0.0,1.0
724076000,724076000,0.0022814076,-0.045773823,-0.0018754567,0.68087786,0.0,0.0,0.0,1.0
724180000,724180000,0.0015329304,-0.048346568,-0.0017609973,0.6814376,0.0,0.0,0.0,1.0
724280000,724280000,0.00052571076,-0.048619792,-0.00055661314,0.6812036,0.0,0.0,0.0,1.0
724380000,724380000,0.0014661108,-0.046231017,-0.00084339886,0.68273264,0.0,0.0,0.0,1.0
724480000,724480000,0.005279645,-0.04973347,-0.0006022327,0.6813376,0.0,0.0,0.0,1.0
724580000,724580000,0.003729242,-0.04742842,-0.0008930543,0.682582,0.0,0.0,0.0,1.0
724680000,724680000,0.004745356,-0.04689522,-0.0020116055,0.68251234,0.0,0.0,0.0,1.0
724776000,724776000,0.0025647979,-0.04717879,-0.0006952512,0.6833147,0.0,0.0,0.0,1.0
724880000,724880000,0.00048099947,-0.048169494,-0.0010556395,0.6828687,0.0,0.0,0.0,1.0
724980000,724980000,4.8834132e-05,-0.048155904,-0.0018545934,0.68276846,0.0,0.0,0.0,1.0
725080000,725080000,-1.5793368e-05,-0.05125183,-0.0018622185,0.68241346,0.0,0.0,0.0,1.0
725180000,725180000,0.002457577,-0.04799162,-0.0016770524,0.6825608,0.0,0.0,0.0,1.0
725280000,725280000,-0.00022722664,-0.048361182,0.00027131056,0.6827224,0.0,0.0,0.0,1.0
725380000,725380000,0.0008288134,-0.048651196,-0.0017200566,0.6828985,0.0,0.0,0.0,1.0
725480000,725480000,0.0006235037,-0.048923746,-0.00079390156,0.68202746,0.0,0.0,0.0,1.0
725576000,725576000,0.0019889548,-0.050953727,-0.00024341466,0.6839552,0.0,0.0,0.0,1.0
725680000,725680000,0.0030602613,-0.05066559,-0.0017240027,0.68461406,0.0,0.0,0.0,1.0
725780000,725780000,-0.0013172023,-0.049956508,6.651145e-05,0.6829253,0.0,0.0,0.0,1.0
725876000,725876000,0.002361956,-0.049083367,-0.0013349815,0.6840936,0.0,0.0,0.0,1.0
725980000,725980000,0.0015517592,-0.049233984,-0.0011273251,0.6853295,0.0,0.0,0.0,1.0
726076000,726076000,0.0016608392,-0.04815432,0.00010571198,0.68619365,0.0,0.0,0.0,1.0
726176000,726176000,0.0026711468,-0.052295264,-0.0011279056,0.6839674,0.0,0.0,0.0,1.0
726280000,726280000,-0.00043118373,-0.049359508,-0.00027338893,0.68465793,0.0,0.0,0.0,1.0
726380000,726380000,0.003953222,-0.050835814,-0.0014354803,0.68590444,0.0,0.0,0.0,1.0
726480000,726480000,0.0018684167,-0.05056762,-0.0008451496,0.68446356,0.0,0.0,0.0,1.0
726580000,726580000,0.0020157453,-0.052526366,-0.0016752738,0.68483824,0.0,0.0,0.0,1.0
726680000,726680000,0.002814883,-0.05117877,-0.0010615097,0.68562067,0.0,0.0,0.0,1.0
726776000,726776000,0.0030804058,-0.04979524,-0.00028093887,0.68522733,0.0,0.0,0.0,1.0
726880000,726880000,0.0036033369,-0.047444604,-0.00068833865,0.68638813,0.0,0.0,0.0,1.0
726980000,726980000,0.004424139,-0.051292017,-0.0010672332,0.6858337,0.0,0.0,0.0,1.0
727080000,727080000,0.0011548079,-0.053355794,-0.0014738987,0.68612826,0.0,0.0,0.0,1.0
727176000,727176000,0.0007478236,-0.050807267,-0.0010110171,0.68588114,0.0,0.0,0.0,1.0
727280000,727280000,0.0021976184,-0.050521456,-0.0017185519,0.686583,0.0,0.0,0.0,1.0
727380000,727380000,0.0031117336,-0.049631927,-0.0016875607,0.68828386,0.0,0.0,0.0,1.0
727480000,727480000,0.0028795113,-0.050957527,-0.0017028758,0.68747824,0.0,0.0,0.0,1.0
727580000,727580000,0.0011658096,-0.05178795,-0.0012453258,0.68769366,0.0,0.0,0.0,1.0
727680000,727680000,0.003510967,-0.051467028,-0.0011315981,0.68800384,0.0,0.0,0.0,1.0
727780000,727780000,0.0024038458,-0.051343385,-0.0009461237,0.6864188,0.0,0.0,0.0,1.0
727876000,727876000,0.0026331963,-0.050900128,-0.00046046864,0.68796384,0.0,0.0,0.0,1.0
727976000,727976000,0.0012614479,-0.0469788,-0.0016270844,0.68864846,0.0,0.0,0.0,1.0
728080000,728080000,0.0020142486,-0.048818953,-0.0011161325,0.68839216,0.0,0.0,0.0,1.0
728180000,728180000,0.0016988347,-0.05090171,-0.0019667493,0.68874705,0.0,0.0,0.0,1.0
728276000,728276000,0.0006442999,-0.05258009,-0.0008886581,0.68945575,0.0,0.0,0.0,1.0
728380000,728380000,0.0023151876,-0.051313736,-0.0016884282,0.69018203,0.0,0.0,0.0,1.0
728476000,728476000,0.0015017602,-0.052939706,-0.00021524163,0.6913867,0.0,0.0,0.0,1.0
728580000,728580000,0.0021966174,-0.051126767,-0.0006721831,0.6885821,0.0,0.0,0.0,1.0
728680000,728680000,0.0030601814,-0.048190355,-8.0742175e-05,0.6875998,0.0,0.0,0.0,1.0
728776000,728776000,0.002773425,-0.049496874,-0.0010666127,0.6896927,0.0,0.0,0.0,1.0
728880000,728880000,0.00068031764,-0.050596688,-0.0010757989,0.69123,0.0,0.0,0.0,1.0
728976000,728976000,0.0025158087,-0.033367485,-0.00072593696,0.68397826,0.0,0.0,0.0,1.0
729080000,729080000,0.0038871076,-0.023664623,-0.002152733,0.67352253,0.0,0.0,0.0,1.0
729176000,729176000,0.0028376314,-0.04915363,-0.0012846921,0.6774305,0.0,0.0,0.0,1.0
729280000,729280000,0.0011936674,-0.07322496,-0.00018130458,0.66908526,0.0,0.0,0.0,1.0
729380000,729380000,0.0031278608,-0.06066048,-0.00047028955,0.6585494,0.0,0.0,0.0,1.0
729480000,729480000,0.0011780179,-0.05082684,-0.00046647154,0.65028787,0.0,0.0,0.0,1.0
729580000,729580000,0.0035601575,-0.04082762,-0.0004274312,0.64632183,0.0,0.0,0.0,1.0
729680000,729680000,0.0007249288,-0.047323387,-0.000307407,0.6441257,0.0,0.0,0.0,1.0
729776000,729776000,0.0013859363,-0.042819098,-0.00042258704,0.6394133,0.0,0.0,0.0,1.0
729880000,729880000,-0.0003981652,-0.040144064,0.00046671467,0.635455,0.0,0.0,0.0,1.0
729976000,729976000,0.00013046735,-0.0407658,-0.0012679729,0.631386,0.0,0.0,0.0,1.0
730080000,730080000,0.0007448284,-0.04582489,-0.0004062651,0.62845045,0.0,0.0,0.0,1.0
730176000,730176000,0.004119994,-0.037384514,-0.00024998502,0.6245953,0.0,0.0,0.0,1.0
730276000,730276000,0.0010332509,-0.034573585,0.00020436005,0.61968815,0.0,0.0,0.0,1.0
730380000,730380000,-0.00045580068,-0.038284134,-0.00020183262,0.6180763,0.0,0.0,0.0,1.0
730476000,730476000,0.0035866408,-0.028041083,-0.0009670466,0.613846,0.0,0.0,0.0,1.0
730580000,730580000,0.00019524887,-0.03672805,-0.00019618962,0.61103934,0.0,0.0,0.0,1.0
730676000,730676000,0.0025265124,-0.027891483,-2.0228501e-05,0.6078879,0.0,0.0,0.0,1.0
730780000,730780000,0.00303335,-0.026852056,0.0007328418,0.6063602,0.0,0.0,0.0,1.0
730876000,730876000,-0.0019247434,-0.027507156,-0.00016982228,0.5997554,0.0,0.0,0.0,1.0
730980000,730980000,0.0037357332,-0.02383661,0.00019129366,0.6020641,0.0,0.0,0.0,1.0
731080000,731080000,-2.5780755e-05,-0.031572945,0.00053209934,0.5997275,0.0,0.0,0.0,1.0
731180000,731180000,0.0014697646,-0.024250107,-4.37033e-05,0.5976851,0.0,0.0,0.0,1.0
731280000,731280000,0.00012647035,-0.021738475,0.00071671314,0.59452593,0.0,0.0,0.0,1.0
731380000,731380000,0.00487849,-0.021114208,-0.00047581556,0.5920989,0.0,0.0,0.0,1.0
731480000,731480000,0.0038859495,-0.022909924,0.0010032641,0.59222955,0.0,0.0,0.0,1.0
731580000,731580000,-0.00037794258,-0.02422887,9.465264e-06,0.59090024,0.0,0.0,0.0,1.0
731680000,731680000,-0.00073749945,-0.017706279,-0.0009632644,0.5888467,0.0,0.0,0.0,1.0
731780000,731780000,0.0013756659,-0.015840702,-0.0007769073,0.5870395,0.0,0.0,0.0,1.0
731880000,731880000,0.003372352,-0.021482745,-0.00036584793,0.5858731,0.0,0.0,0.0,1.0
731976000,731976000,-0.00068716693,-0.021144032,0.00031416907,0.58566236,0.0,0.0,0.0,1.0
732080000,732080000,0.0055853124,-0.015714254,8.915443e-05,0.58532983,0.0,0.0,0.0,1.0
732180000,732180000,0.011601994,-0.0043544807,0.0011315948,0.5925192,0.0,0.0,0.0,1.0
732280000,732280000,-0.6304227,0.0421506,0.030638743,0.5757713,0.0,0.0,0.0,1.0
732376000,732376000,0.19496363,-0.073929206,-0.0245366,0.50356156,0.0,0.0,0.0,1.0
732476000,732476000,0.16702893,-0.05736464,-0.0051944545,0.5561833,0.0,0.0,0.0,1.0
732580000,732580000,-0.019530486,-0.0012373738,0.0037302442,0.59103864,0.0,0.0,0.0,1.0
732676000,732676000,-0.043705635,0.0037410874,-0.0011318631,0.5830369,0.0,0.0,0.0,1.0
732780000,732780000,-0.030516881,0.0017886236,-0.0018793558,0.57594323,0.0,0.0,0.0,1.0
732880000,732880000,-0.017577877,-0.0056757936,-0.0014482765,0.57653934,0.0,0.0,0.0,1.0
732976000,732976000,-0.005837901,-0.0040217545,0.00012257538,0.5755256,0.0,0.0,0.0,1.0
733080000,733080000,-0.006142722,-0.003014137,0.0008327656,0.5750799,0.0,0.0,0.0,1.0
733180000,733180000,-0.0047858567,-0.0006509507,0.0017779927,0.5748741,0.0,0.0,0.0,1.0
733280000,733280000,-0.009274248,-0.0026341379,0.00074602873,0.5753765,0.0,0.0,0.0,1.0
733376000,733376000,-0.007270615,-0.004220669,0.00076686696,0.5745801,0.0,0.0,0.0,1.0
733476000,733476000,-0.0060721813,-0.0018234858,0.00056022493,0.57573116,0.0,0.0,0.0,1.0
733580000,733580000,-0.009432981,-0.0021331804,0.00063945196,0.5769353,0.0,0.0,0.0,1.0
733680000,733680000,-0.0076550627,-0.0029486362,0.00059435604,0.5746566,0.0,0.0,0.0,1.0
733780000,733780000,-0.0105462,-0.0020732358,0.0011585216,0.5757564,0.0,0.0,0.0,1.0
733876000,733876000,-0.0061329305,-0.0021244837,0.0014886747,0.5765285,0.0,0.0,0.0,1.0
733980000,733980000,-0.0067142462,1.4472753e-05,0.00084480736,0.5753965,0.0,0.0,0.0,1.0
734080000,734080000,-0.00745284,0.003266796,0.00059763814,0.5762789,0.0,0.0,0.0,1.0
734180000,734180000,-0.009901532,-0.0021358933,-1.0204327e-05,0.5759816,0.0,0.0,0.0,1.0
734280000,734280000,-0.008688283,-0.0009447648,0.00039053953,0.5762822,0.0,0.0,0.0,1.0
734380000,734380000,-0.006956689,-0.0022796872,0.00021651307,0.5757176,0.0,0.0,0.0,1.0
734480000,734480000,-0.008296654,0.0011270102,0.00089758716,0.5770611,0.0,0.0,0.0,1.0
734576000,734576000,-0.008488149,-0.0012541628,0.00035058364,0.574775,0.0,0.0,0.0,1.0
734680000,734680000,-0.0077099693,-0.0021609238,0.00093898503,0.57518685,0.0,0.0,0.0,1.0
734780000,734780000,-0.007588705,0.0003156094,0.0011994921,0.57440984,0.0,0.0,0.0,1.0
734880000,734880000,-0.008034883,-0.0008991214,0.0009112517,0.5762797,0.0,0.0,0.0,1.0
734976000,734976000,-0.008163232,0.00121964,0.0011051265,0.57726157,0.0,0.0,0.0,1.0
735076000,735076000,-0.0074339183,0.0009708544,0.0015802658,0.5751243,0.0,0.0,0.0,1.0
735180000,735180000,-0.008561908,0.0003611613,0.0020697278,0.57646185,0.0,0.0,0.0,1.0
735280000,735280000,-0.0076968675,0.0015596345,-0.00020557089,0.57554287,0.0,0.0,0.0,1.0
735376000,735376000,-0.008172585,0.0010170669,0.0008129695,0.57656777,0.0,0.0,0.0,1.0
735476000,735476000,-0.007595525,0.0013369895,0.0016881467,0.57687414,0.0,0.0,0.0,1.0
735580000,735580000,-0.00683779,-0.00073740573,0.0015590651,0.57746786,0.0,0.0,0.0,1.0
735680000,735680000,-0.01022483,0.0034187627,0.0013091057,0.5759914,0.0,0.0,0.0,1.0
735780000,735780000,-0.010164124,-0.0019834393,0.0016690718,0.57528436,0.0,0.0,0.0,1.0
735876000,735876000,-0.0040525524,0.0011462494,0.0005558074,0.575499,0.0,0.0,0.0,1.0
735980000,735980000,-0.006619313,0.00041336473,0.00088355027,0.576442,0.0,0.0,0.0,1.0
736080000,736080000,-0.009752501,-0.001421294,-0.00048154697,0.5769343,0.0,0.0,0.0,1.0
736180000,736180000,-0.011433372,-0.0002770116,0.00062713516,0.57583034,0.0,0.0,0.0,1.0
736280000,736280000,-0.0090897605,0.0019272517,0.001117308,0.57545316,0.0,0.0,0.0,1.0
736376000,736376000,-0.0071579595,-0.0045068706,0.0010891083,0.5763437,0.0,0.0,0.0,1.0
736476000,736476000,-0.009120299,0.0017910763,0.0013177325,0.57498544,0.0,0.0,0.0,1.0
736576000,736576000,-0.008455148,-0.001025933,0.0014385671,0.5753662,0.0,0.0,0.0,1.0
736680000,736680000,-0.007967383,-0.0011686523,0.00066986517,0.5774291,0.0,0.0,0.0,1.0
736776000,736776000,-0.009765225,-0.0037257357,0.0014586148,0.5764328,0.0,0.0,0.0,1.0
736876000,736876000,-0.009970773,0.0009204496,0.00089964515,0.57638264,0.0,0.0,0.0,1.0
736980000,736980000,-0.0089147715,0.001434696,0.0011463736,0.5766366,0.0,0.0,0.0,1.0
737080000,737080000,-0.005999746,0.0024568546,0.000942754,0.57563967,0.0,0.0,0.0,1.0
737180000,737180000,-0.007904425,-0.0006761299,0.0011753337,0.5774086,0.0,0.0,0.0,1.0
737280000,737280000,-0.009696524,-0.00053533935,0.001351547,0.5775116,0.0,0.0,0.0,1.0
737376000,737376000,-0.0092565585,-0.0016849915,0.00056352105,0.5761464,0.0,0.0,0.0,1.0
737476000,737476000,-0.008504566,-0.0026039735,0.00048244384,0.5773893,0.0,0.0,0.0,1.0
737580000,737580000,-0.009552653,-7.337428e-05,0.0019824984,0.5764934,0.0,0.0,0.0,1.0
737680000,737680000,-0.009607293,-0.0011160455,0.0006194541,0.5776906,0.0,0.0,0.0,1.0
737780000,737780000,-0.01246742,0.00010128836,0.0010744378,0.57746804,0.0,0.0,0.0,1.0
737880000,737880000,-0.0067519676,0.0017079083,0.00051093684,0.57705396,0.0,0.0,0.0,1.0
737980000,737980000,-0.007788945,-0.001459252,0.0011767175,0.57619756,0.0,0.0,0.0,1.0
738076000,738076000,-0.009387093,0.0015773242,0.0013554282,0.577733,0.0,0.0,0.0,1.0
738180000,738180000,-0.009622805,0.00018911123,0.00072795805,0.57576305,0.0,0.0,0.0,1.0
738280000,738280000,-0.012820169,-0.0011730446,0.00068678136,0.5769512,0.0,0.0,0.0,1.0
738380000,738380000,-0.00798857,-0.00047865123,0.0007382729,0.5780265,0.0,0.0,0.0,1.0
738480000,738480000,-0.01011724,-0.0008535941,0.0005697386,0.57613134,0.0,0.0,0.0,1.0
738576000,738576000,-0.008857928,-0.001889811,0.00068645354,0.57710916,0.0,0.0,0.0,1.0
738680000,738680000,-0.010491332,0.0019389745,0.0011237978,0.57795787,0.0,0.0,0.0,1.0
738780000,738780000,-0.009523652,0.0031260177,0.00047089026,0.5785943,0.0,0.0,0.0,1.0
738880000,738880000,-0.0108818095,0.0018509992,-0.000102968654,0.57693,0.0,0.0,0.0,1.0
738976000,738976000,-0.00836144,-0.002654899,0.0010168821,0.5788186,0.0,0.0,0.0,1.0
739080000,739080000,-0.011718203,-5.359223e-06,0.0005829631,0.5766711,0.0,0.0,0.0,1.0
739180000,739180000,-0.0109598115,0.0012391832,0.0007802454,0.57689637,0.0,0.0,0.0,1.0
739280000,739280000,-0.0067409165,0.0010429424,0.0007416832,0.5775632,0.0,0.0,0.0,1.0
739380000,739380000,-0.011947559,0.0009102406,0.0012847006,0.5764437,0.0,0.0,0.0,1.0
739480000,739480000,-0.00941229,-0.0021502944,0.00080106617,0.5776443,0.0,0.0,0.0,1.0
739580000,739580000,-0.01059365,0.0009017405,0.001635991,0.5778263,0.0,0.0,0.0,1.0
739676000,739676000,-0.009535556,0.0017292933,0.00069155253,0.5773647,0.0,0.0,0.0,1.0
739776000,739776000,-0.012430595,0.00041446803,0.0007884847,0.5776906,0.0,0.0,0.0,1.0
739880000,739880000,-0.012226429,0.0014899818,0.0015371938,0.5775106,0.0,0.0,0.0,1.0
739980000,739980000,-0.010040564,0.0002691876,0.0015158625,0.57701147,0.0,0.0,0.0,1.0
740080000,740080000,-0.009185664,0.0022804004,0.00064471376,0.57865095,0.0,0.0,0.0,1.0
740180000,740180000,-0.009544573,-0.0018268505,-9.682146e-06,0.5781376,0.0,0.0,0.0,1.0
740280000,740280000,-0.011073614,-0.00052485475,0.0014379295,0.57828605,0.0,0.0,0.0,1.0
740376000,740376000,-0.010055345,0.0013664674,0.0008041993,0.5796924,0.0,0.0,0.0,1.0
740476000,740476000,-0.0121672675,0.0018096296,-9.014097e-06,0.5785198,0.0,0.0,0.0,1.0
740580000,740580000,-0.011281432,-0.0027363645,0.0008278827,0.5786025,0.0,0.0,0.0,1.0
740680000,740680000,-0.0062171314,0.0018163003,0.0016630316,0.57938075,0.0,0.0,0.0,1.0
740780000,740780000,-0.011324677,-0.0026161838,0.00095533393,0.578036,0.0,0.0,0.0,1.0
740880000,740880000,-0.00694455,0.001547826,0.0015846763,0.57792944,0.0,0.0,0.0,1.0
740980000,740980000,-0.0086625945,-0.003665257,0.0014526652,0.5792741,0.0,0.0,0.0,1.0
741080000,741080000,-0.010154704,-0.0016351135,0.0011294456,0.5798283,0.0,0.0,0.0,1.0
741180000,741180000,-0.015997771,0.0010985605,0.0016683444,0.5793658,0.0,0.0,0.0,1.0
741280000,741280000,-0.012208124,-0.00029605353,0.00036877237,0.5807204,0.0,0.0,0.0,1.0
741376000,741376000,-0.010875396,0.00041099958,0.0009921402,0.5795232,0.0,0.0,0.0,1.0
741476000,741476000,-0.011922609,2.5243775e-05,0.0009567285,0.5799133,0.0,0.0,0.0,1.0
741580000,741580000,-0.01149315,-0.0013242776,0.0005064542,0.57993096,0.0,0.0,0.0,1.0
741676000,741676000,-0.011561001,-0.0032363706,0.0010601297,0.5807399,0.0,0.0,0.0,1.0
741780000,741780000,-0.010515109,-0.0015820605,0.00048271392,0.57975566,0.0,0.0,0.0,1.0
741880000,741880000,-0.0114170965,0.00032123216,0.0012584464,0.5796418,0.0,0.0,0.0,1.0
741980000,741980000,-0.009335583,0.0007148605,0.0024778605,0.58033335,0.0,0.0,0.0,1.0
742080000,742080000,-0.007876284,-0.0007478738,0.0010868761,0.58082896,0.0,0.0,0.0,1.0
742180000,742180000,-0.012875008,-0.0005147356,0.0016595195,0.58107233,0.0,0.0,0.0,1.0
742280000,742280000,-0.011219588,-0.0014211205,0.0014252532,0.581333,0.0,0.0,0.0,1.0
742380000,742380000,-0.008209525,0.0016983629,-3.0301162e-05,0.58010864,0.0,0.0,0.0,1.0
742480000,742480000,-0.00958224,0.0017910147,0.0018876721,0.57893544,0.0,0.0,0.0,1.0
742580000,742580000,-0.012351575,-0.00085304945,0.0010720171,0.58079374,0.0,0.0,0.0,1.0
742676000,742676000,-0.01169424,0.00108501,0.0012145874,0.58229584,0.0,0.0,0.0,1.0
742780000,742780000,-0.008418713,-0.00013725023,0.0013234268,0.5805986,0.0,0.0,0.0,1.0
742880000,742880000,-0.009981168,0.00054242957,0.0010866717,0.5800201,0.0,0.0,0.0,1.0
742980000,742980000,-0.013401141,-0.0002850527,0.0010043925,0.5802184,0.0,0.0,0.0,1.0
743080000,743080000,-0.010271434,0.0008815471,0.00091037183,0.57880735,0.0,0.0,0.0,1.0
743180000,743180000,-0.007830845,0.0010057107,0.0017051899,0.58068436,0.0,0.0,0.0,1.0
743280000,743280000,-0.010636766,-0.0011791611,0.0009380694,0.5813935,0.0,0.0,0.0,1.0
743380000,743380000,-0.011994598,-0.0008345789,0.0022738827,0.58037335,0.0,0.0,0.0,1.0
743476000,743476000,-0.012315341,0.0018286754,0.0013154818,0.58039606,0.0,0.0,0.0,1.0
743580000,743580000,-0.009024107,0.0011485817,0.00036390562,0.5813553,0.0,0.0,0.0,1.0
743680000,743680000,-0.010706447,0.00011894579,0.0009272356,0.58080703,0.0,0.0,0.0,1.0
743780000,743780000,-0.007863689,0.0015371849,0.0016970651,0.5814996,0.0,0.0,0.0,1.0
743876000,743876000,-0.011197841,-0.0018642698,0.0013324162,0.58125263,0.0,0.0,0.0,1.0
743980000,743980000,-0.009719052,-0.0031056446,0.0019922263,0.58128285,0.0,0.0,0.0,1.0
744076000,744076000,-0.011401109,0.0026687325,0.001319029,0.5796178,0.0,0.0,0.0,1.0
744180000,744180000,-0.011815188,0.00043508862,0.00058513787,0.58035904,0.0,0.0,0.0,1.0
744280000,744280000,-0.011871943,-0.003326706,0.00148533,0.5812107,0.0,0.0,0.0,1.0
744376000,744376000,-0.012464957,-0.00033738965,0.0017435851,0.57992893,0.0,0.0,0.0,1.0
744480000,744480000,-0.013127996,-0.0031476943,-0.00022365607,0.5794148,0.0,0.0,0.0,1.0
744580000,744580000,-0.012134507,0.0020269759,-0.00015158113,0.58021754,0.0,0.0,0.0,1.0
744680000,744680000,-0.01143932,-7.356498e-05,0.0016842051,0.58044505,0.0,0.0,0.0,1.0
744776000,744776000,-0.010282915,-0.00048557084,0.0014574315,0.5811129,0.0,0.0,0.0,1.0
744880000,744880000,-0.010500712,-3.9147562e-07,0.0012526945,0.5810207,0.0,0.0,0.0,1.0
744980000,744980000,-0.010584114,0.0009637427,0.0008372227,0.57961845,0.0,0.0,0.0,1.0
745080000,745080000,-0.012054914,-0.0022276202,0.0009881562,0.58084124,0.0,0.0,0.0,1.0
745176000,745176000,-0.008663032,0.0024830464,0.00034923275,0.5810832,0.0,0.0,0.0,1.0
745276000,745276000,-0.0105139995,-0.0018338937,0.0004563362,0.58067393,0.0,0.0,0.0,1.0
745376000,745376000,-0.010789864,-0.0029287036,0.00017349154,0.57898813,0.0,0.0,0.0,1.0
745480000,745480000,-0.013335155,0.0010484303,0.0014308735,0.5805462,0.0,0.0,0.0,1.0
745580000,745580000,-0.010539809,-0.0015327767,0.0018153437,0.5808432,0.0,0.0,0.0,1.0
745680000,745680000,-0.0130399745,0.0015422984,0.002227265,0.5807625,0.0,0.0,0.0,1.0
745780000,745780000,-0.010686622,0.00059271895,0.0014424477,0.58111584,0.0,0.0,0.0,1.0
745880000,745880000,-0.012265324,-0.0039889244,0.0015358214,0.58095026,0.0,0.0,0.0,1.0
745980000,745980000,-0.0094864,-0.0034393216,0.0004660192,0.5808657,0.0,0.0,0.0,1.0
746080000,746080000,-0.013259603,-0.00092216936,0.001273415,0.5819808,0.0,0.0,0.0,1.0
746180000,746180000,-0.009171341,0.0021031755,0.0015510086,0.5823622,0.0,0.0,0.0,1.0
746276000,746276000,-0.0119593805,-0.0025945613,0.0014417559,0.5807443,0.0,0.0,0.0,1.0
746380000,746380000,-0.00858082,0.0021455314,0.0018689389,0.5805783,0.0,0.0,0.0,1.0
746480000,746480000,-0.011856105,-0.0023260922,0.0012684009,0.58243114,0.0,0.0,0.0,1.0
746576000,746576000,-0.011159779,-0.002207374,0.0014276662,0.58070874,0.0,0.0,0.0,1.0
746676000,746676000,-0.010590963,-0.0052788206,0.0008938919,0.5800134,0.0,0.0,0.0,1.0
746780000,746780000,-0.008543981,-0.0013256847,0.00061753293,0.5798302,0.0,0.0,0.0,1.0
746880000,746880000,-0.012345633,0.0001712818,0.0017528555,0.58036673,0.0,0.0,0.0,1.0
746980000,746980000,-0.009948241,-0.00024811708,0.0013975432,0.5796929,0.0,0.0,0.0,1.0
747080000,747080000,-0.010912513,-0.0005630374,0.0005560851,0.58070785,0.0,0.0,0.0,1.0
747180000,747180000,-0.010853492,3.4367375e-05,0.0015265488,0.5807625,0.0,0.0,0.0,1.0
747280000,747280000,-0.011692954,-0.0013678956,0.0010081563,0.58073044,0.0,0.0,0.0,1.0
747380000,747380000,-0.01011972,-0.0011143647,0.0006224568,0.58138,0.0,0.0,0.0,1.0
747480000,747480000,-0.011381333,-0.002141192,0.0021328123,0.581052,0.0,0.0,0.0,1.0
747580000,747580000,-0.0071260966,0.0010964209,0.0009976188,0.5814764,0.0,0.0,0.0,1.0
747680000,747680000,-0.010630685,-6.985193e-05,0.0019024978,0.5807941,0.0,0.0,0.0,1.0
747780000,747780000,-0.0105154645,-0.0021191083,0.00042458443,0.5809264,0.0,0.0,0.0,1.0
747880000,747880000,-0.011836167,0.0014064596,0.0005204165,0.58091825,0.0,0.0,0.0,1.0
747976000,747976000,-0.009155245,-0.0033906107,0.0019064449,0.5805637,0.0,0.0,0.0,1.0
748080000,748080000,-0.011187708,0.00046415254,0.0016404374,0.58076936,0.0,0.0,0.0,1.0
748180000,748180000,-0.009402009,-0.0025373073,0.00062623736,0.57885116,0.0,0.0,0.0,1.0
748280000,748280000,-0.012115091,-0.00077188446,0.00059178943,0.58134794,0.0,0.0,0.0,1.0
748380000,748380000,-0.011028298,0.002283182,0.00061685435,0.5798441,0.0,0.0,0.0,1.0
748476000,748476000,-0.012171632,-0.0030817399,0.00092751277,0.5806219,0.0,0.0,0.0,1.0
748580000,748580000,-0.010377023,-0.0043440573,0.0018036636,0.5810565,0.0,0.0,0.0,1.0
748680000,748680000,-0.0114220455,-0.0010424285,0.0010689602,0.5795385,0.0,0.0,0.0,1.0
748780000,748780000,-0.011227292,-0.0016345916,0.00040663086,0.5804609,0.0,0.0,0.0,1.0
748880000,748880000,-0.009333542,0.00074287294,0.002322731,0.57960224,0.0,0.0,0.0,1.0
748980000,748980000,-0.012678943,-0.00093514955,0.0012518481,0.57984334,0.0,0.0,0.0,1.0
749076000,749076000,-0.010883507,-0.0016255571,0.00059515465,0.57857215,0.0,0.0,0.0,1.0
749176000,749176000,-0.0092945285,0.0003043894,0.0018119419,0.5792628,0.0,0.0,0.0,1.0
749280000,749280000,-0.012651166,0.001803536,0.0011013212,0.578716,0.0,0.0,0.0,1.0
749380000,749380000,-0.008644529,-0.0032508913,0.0005979249,0.57806534,0.0,0.0,0.0,1.0
749480000,749480000,-0.011562658,-0.0014236006,0.00093562837,0.5794973,0.0,0.0,0.0,1.0
749580000,749580000,-0.011153423,-0.0032062712,3.616279e-05,0.5792977,0.0,0.0,0.0,1.0
749676000,749676000,-0.01243667,0.00075148075,0.0009602021,0.5806061,0.0,0.0,0.0,1.0
749780000,749780000,-0.013047705,-0.0007898252,0.0015404342,0.57977915,0.0,0.0,0.0,1.0
749880000,749880000,-0.010467706,-5.5937388e-05,0.0004511936,0.57849896,0.0,0.0,0.0,1.0
749980000,749980000,-0.00944142,-0.0012726152,0.0015231278,0.5807679,0.0,0.0,0.0,1.0
750080000,750080000,-0.008113871,-2.6567373e-05,0.0020922534,0.5815018,0.0,0.0,0.0,1.0
750180000,750180000,-0.010228477,-0.0008265723,0.0008115084,0.5798743,0.0,0.0,0.0,1.0
750280000,750280000,-0.009507609,0.0008183475,0.0015390579,0.580884,0.0,0.0,0.0,1.0
750380000,750380000,-0.0108577525,-0.00083568104,0.0003052496,0.580493,0.0,0.0,0.0,1.0
750480000,750480000,-0.009254469,0.001972996,0.001211404,0.5807106,0.0,0.0,0.0,1.0
750580000,750580000,-0.010796515,-0.00068225083,0.00192346,0.5803616,0.0,0.0,0.0,1.0
750680000,750680000,-0.012102111,-0.0030969093,0.0005691943,0.5800247,0.0,0.0,0.0,1.0
750780000,750780000,-0.00952084,-0.0041050706,0.00018579687,0.57955486,0.0,0.0,0.0,1.0
750876000,750876000,-0.01031208,0.00061654585,0.0022013402,0.5789507,0.0,0.0,0.0,1.0
750980000,750980000,-0.010746634,-0.0019309905,0.00085586373,0.58000326,0.0,0.0,0.0,1.0
751076000,751076000,-0.01239324,-2.1350977e-05,0.0012210892,0.5802886,0.0,0.0,0.0,1.0
751180000,751180000,-0.0124154,0.0013512315,0.0015786254,0.57947177,0.0,0.0,0.0,1.0
751276000,751276000,-0.01040953,0.00024457596,0.0010973329,0.5797731,0.0,0.0,0.0,1.0
751380000,751380000,-0.009944778,0.0012356883,0.0016412209,0.5803672,0.0,0.0,0.0,1.0
751480000,751480000,-0.011129098,-0.0012916278,0.0008600786,0.58029956,0.0,0.0,0.0,1.0
751580000,751580000,-0.013736994,0.0005733153,0.0008488621,0.58018804,0.0,0.0,0.0,1.0
751680000,751680000,-0.0129047595,-0.00073087256,0.0005177805,0.5800625,0.0,0.0,0.0,1.0
751780000,751780000,-0.0118362615,0.0033443072,0.0010581331,0.58056337,0.0,0.0,0.0,1.0
751876000,751876000,-0.013957361,0.0011184325,0.0011677012,0.5808761,0.0,0.0,0.0,1.0
751980000,751980000,-0.008220558,-0.005569782,0.00093058654,0.57901764,0.0,0.0,0.0,1.0
752080000,752080000,-0.012571514,-0.002145316,0.0018755505,0.5797525,0.0,0.0,0.0,1.0
752180000,752180000,-0.010998861,-0.0011498635,0.00052775745,0.5801081,0.0,0.0,0.0,1.0
752280000,752280000,-0.007667003,0.0004716399,0.0015321799,0.580718,0.0,0.0,0.0,1.0
752376000,752376000,-0.009492966,-0.0008932352,0.0020200429,0.5807466,0.0,0.0,0.0,1.0
752480000,752480000,-0.011280368,-0.00096174167,0.0012207108,0.5804733,0.0,0.0,0.0,1.0
752580000,752580000,-0.013178791,-0.0014580281,0.00077137334,0.5802337,0.0,0.0,0.0,1.0
752680000,752680000,-0.010107482,-0.0028911477,0.0021820525,0.5794127,0.0,0.0,0.0,1.0
752776000,752776000,-0.005743968,-0.0040292596,0.0018648878,0.5801464,0.0,0.0,0.0,1.0
752876000,752876000,-0.012247593,0.0015910238,0.0016668527,0.58129686,0.0,0.0,0.0,1.0
752980000,752980000,-0.009906749,-0.0026644208,0.0005111489,0.57978445,0.0,0.0,0.0,1.0
753080000,753080000,-0.013293769,-0.0018650868,0.0015675679,0.5800305,0.0,0.0,0.0,1.0
753176000,753176000,-0.011082369,-0.0014898098,0.0018781419,0.5814508,0.0,0.0,0.0,1.0
753280000,753280000,-0.0080173295,-0.0024067615,0.0011724122,0.5808668,0.0,0.0,0.0,1.0
753376000,753376000,-0.011993457,-0.0018135586,0.0010469637,0.5816835,0.0,0.0,0.0,1.0
753480000,753480000,-0.008094635,0.000707712,0.0013135057,0.58179575,0.0,0.0,0.0,1.0
753580000,753580000,-0.010392932,-0.0030448814,0.0012698044,0.5811518,0.0,0.0,0.0,1.0
753676000,753676000,-0.011485001,-0.00051693403,0.0011428953,0.58042586,0.0,0.0,0.0,1.0
753776000,753776000,-0.011023629,0.000380125,0.0016517111,0.580785,0.0,0.0,0.0,1.0
753880000,753880000,-0.0075659426,-0.000421458,0.0018261331,0.57995397,0.0,0.0,0.0,1.0
753980000,753980000,-0.008920446,0.0027040278,0.0018157454,0.5796599,0.0,0.0,0.0,1.0
754080000,754080000,-0.011676513,-9.256718e-05,0.0009585185,0.58059967,0.0,0.0,0.0,1.0
754180000,754180000,-0.011813632,-0.0019644338,0.001391751,0.58106005,0.0,0.0,0.0,1.0
754280000,754280000,-0.009735508,0.0005742778,0.0012226752,0.57982206,0.0,0.0,0.0,1.0
754380000,754380000,-0.011331799,0.0009110862,0.0004435472,0.58130884,0.0,0.0,0.0,1.0
754480000,754480000,-0.0093448935,-0.00082091085,0.0013921842,0.5812831,0.0,0.0,0.0,1.0
754580000,754580000,-0.008575682,-0.0011304223,0.0010722522,0.5811983,0.0,0.0,0.0,1.0
754680000,754680000,-0.0123809725,-7.10084e-05,0.0014071458,0.5809163,0.0,0.0,0.0,1.0
754780000,754780000,-0.013328378,-0.003675097,0.0005960041,0.58015084,0.0,0.0,0.0,1.0
754876000,754876000,-0.0074092234,-0.0017676698,0.0002626154,0.57921576,0.0,0.0,0.0,1.0
754980000,754980000,-0.0128085725,-0.0021598246,0.0004707576,0.580855,0.0,0.0,0.0,1.0
755080000,755080000,-0.01163831,-0.0003789913,0.0013724319,0.57851756,0.0,0.0,0.0,1.0
755180000,755180000,-0.010952538,0.0006336298,0.00072722044,0.5805431,0.0,0.0,0.0,1.0
755280000,755280000,-0.006315968,0.0014989618,0.0012501251,0.579377,0.0,0.0,0.0,1.0
755380000,755380000,-0.0118973255,0.0022085023,0.0013273942,0.58014613,0.0,0.0,0.0,1.0
