timestamp,ref_timestamp,ref_lat,ref_lon,x,y,z,delta_xy[0],delta_xy[1],delta_z,vx,vy,vz,z_deriv,delta_vxy[0],delta_vxy[1],delta_vz,ax,ay,az,yaw,ref_alt,dist_bottom,dist_bottom_rate,eph,epv,evh,evv,vxy_max,vz_max,hagl_min,hagl_max,xy_valid,z_valid,v_xy_valid,v_z_valid,xy_reset_counter,z_reset_counter,vxy_reset_counter,vz_reset_counter,xy_global,z_global,dist_bottom_valid
686476000,1688000,47.3977508,8.5456074,0.22636123,-0.14830804,-0.0077506253,-0.022968095,-0.0035443609,0.0,0.005917333,-0.022020372,-0.007513432,0.010673324,-0.059729103,-0.009160716,0.12626225,0.15046565,0.07338646,-0.06352737,0.40863234,0.0,0.10184055,0.007513432,0.4262775,0.234516,0.17584802,0.10444569,inf,inf,inf,inf,1,1,1,1,2,0,2,2,1,1,1
686572000,1688000,47.3977508,8.5456074,0.22527911,-0.14850865,-0.006384926,-0.022968095,-0.0035443609,0.0,0.005432804,-0.019915422,-0.0053871535,0.0129547,-0.059729103,-0.009160716,0.12626225,0.0049692458,0.0148991775,0.059170645,0.4087053,0.0,0.101801306,0.0053871535,0.41329965,0.23441054,0.17111292,0.104077,inf,inf,inf,inf,1,1,1,1,2,0,2,2,1,1,1
686676000,1688000,47.3977508,8.5456074,0.22398329,-0.14859243,-0.0052168,-0.022968095,-0.0035443609,0.0,0.0018569055,-0.019823924,-0.0060452777,0.01196386,-0.059729103,-0.009160716,0.12626225,0.021786274,0.097988255,-0.011639669,0.40874827,0.0,0.10063318,0.0060452777,0.42618406,0.23467079,0.17584775,0.104487024,inf,inf,inf,inf,1,1,1,1,2,0,2,2,1,1,1
686772000,1688000,47.3977508,8.5456074,0.22281776,-0.14857952,-0.0047914963,-0.022968095,-0.0035443609,0.0,0.0016656227,-0.01966811,-0.005970937,0.011193536,-0.059729103,-0.009160716,0.12626225,-0.00028348583,-0.13293375,0.032157633,0.4088487,0.0,0.10020788,0.005970937,0.4132189,0.23456387,0.17110799,0.10411757,inf,inf,inf,inf,1,1,1,1,2,0,2,2,1,1,1
686876000,1688000,47.3977508,8.5456074,0.22161931,-0.14893128,-0.0047724918,-0.022968095,-0.0035443609,0.0,-0.0012377627,-0.022550449,-0.005050403,0.010811038,-0.059729103,-0.009160716,0.12626225,0.061384123,-0.08360217,-0.014738179,0.40885875,0.0,0.10018887,0.005050403,0.42610458,0.23482256,0.17584126,0.104527086,inf,inf,inf,inf,1,1,1,1,2,0,2,2,1,1,1
686972000,1688000,47.3977508,8.5456074,0.22070514,-0.14929958,-0.0054634428,-0.022968095,-0.0035443609,0.0,-0.0025673837,-0.02129818,-0.008606111,0.005719972,-0.059729103,-0.009160716,0.12626225,0.010668001,-0.0038980723,0.060444694,0.40871847,0.0,0.100879826,0.008606111,0.4131501,0.23471425,0.17110838,0.104156956,inf,inf,inf,inf,1,1,1,1,2,0,2,2,1,1,1
687076000,1688000,47.3977508,8.5456074,0.21977244,-0.14981534,-0.0065038707,-0.022968095,-0.0035443609,0.0,-0.0068824026,-0.02162841,-0.010367461,0.002443072,-0.059729103,-0.009160716,0.12626225,-0.029849315,-0.07512491,-0.003722496,0.40874946,0.0,0.101920255,0.010367461,0.4260374,0.23497142,0.17584652,0.10456606,inf,inf,inf,inf,1,1,1,1,2,0,2,2,1,1,1
687172000,1688000,47.3977508,8.5456074,0.21872768,-0.15075871,-0.0072009023,-0.022968095,-0.0035443609,0.0,-0.010209515,-0.021576522,-0.012428335,-0.0004013866,-0.059729103,-0.009160716,0.12626225,-0.0005517649,-0.017508818,-0.005911104,0.40876105,0.0,0.102617286,0.012428335,0.43846437,0.23457287,0.18027925,0.104756676,inf,inf,inf,inf,1,1,1,1,2,0,2,2,1,1,1
687276000,1688000,47.3977508,8.5456074,0.21747755,-0.15082388,-0.007733522,-0.022968095,-0.0035443609,0.0,-0.011760296,-0.01992727,-0.01264142,-0.0010231461,-0.059729103,-0.009160716,0.12626225,-0.03981825,-0.036381528,-0.0035436822,0.4088452,0.0,0.103149906,0.01264142,0.42463243,0.23509386,0.1750955,0.104554124,inf,inf,inf,inf,1,1,1,1,2,0,2,2,1,1,1
687372000,1688000,47.3977508,8.5456074,0.21613705,-0.15060546,-0.007867792,-0.022968095,-0.0035443609,0.0,-0.015067633,-0.020159675,-0.014490287,-0.002856088,-0.059729103,-0.009160716,0.12626225,-0.043531388,0.065027304,0.01745112,0.40876576,0.0,0.10328417,0.014490287,0.4369727,0.23470089,0.17951484,0.104748495,inf,inf,inf,inf,1,1,1,1,2,0,2,2,1,1,1
687476000,1688000,47.3977508,8.5456074,0.21456884,-0.15030685,-0.008122361,-0.022968095,-0.0035443609,0.0,-0.016287092,-0.01802378,-0.013715986,-0.00207139,-0.059729103,-0.009160716,0.12626225,0.03623691,0.0001823373,-0.053908672,0.40880844,0.0,0.103538744,0.013715986,0.42336,0.23522007,0.17443958,0.10454636,inf,inf,inf,inf,1,1,1,1,2,0,2,2,1,1,1
687572000,1688000,47.3977508,8.5456074,0.21303467,-0.15008831,-0.00847187,-0.022968095,-0.0035443609,0.0,-0.020579915,-0.018477146,-0.01400227,-0.002457098,-0.059729103,-0.009160716,0.12626225,-0.07594634,0.010015593,-0.04077423,0.40875804,0.0,0.10388825,0.01400227,0.43562442,0.23482381,0.17885393,0.10474065,inf,inf,inf,inf,1,1,1,1,2,0,2,2,1,1,1
687676000,1688000,47.3977508,8.5456074,0.2112399,-0.14983906,-0.008527384,-0.022968095,-0.0035443609,0.0,-0.02238078,-0.01733408,-0.013970886,-0.002184331,-0.059729103,-0.009160716,0.12626225,0.05251964,0.0037522656,0.008897855,0.40863964,0.0,0.1023961,0.013970886,0.42220792,0.23372892,0.17388771,0.10411557,inf,inf,inf,inf,1,1,1,1,2,0,2,2,1,1,1
687772000,1688000,47.3977508,8.5456074,0.20965911,-0.14975405,-0.008902684,-0.022968095,-0.0035443609,0.0,-0.022049967,-0.01795466,-0.012657668,-0.0010762669,-0.059729103,-0.009160716,0.12626225,0.049635664,0.024541464,-0.026116146,0.40876895,0.0,0.1027714,0.012657668,0.4344065,0.23495114,0.17828272,0.104737625,inf,inf,inf,inf,1,1,1,1,2,0,2,2,1,1,1
687876000,1688000,47.3977508,8.5456074,0.20815699,-0.14959429,-0.009176258,-0.022968095,-0.0035443609,0.0,-0.024782682,-0.015377942,-0.011815178,-0.00041195945,-0.059729103,-0.009160716,0.12626225,-0.1322946,0.021953633,-0.043375414,0.40896145,0.0,0.10304497,0.011815178,0.42116553,0.23385237,0.17340694,0.104112715,inf,inf,inf,inf,1,1,1,1,2,0,2,2,1,1,1
687972000,1688000,47.3977508,8.5456074,0.2066992,-0.14942221,-0.009185597,-0.022968095,-0.0035443609,0.0,-0.026745655,-0.014764811,-0.0122103505,-0.000724904,-0.059729103,-0.009160716,0.12626225,-0.07424907,0.07408762,0.033026557,0.40919176,0.0,0.103054315,0.0122103505,0.43330687,0.23507446,0.1777862,0.10473567,inf,inf,inf,inf,1,1,1,1,2,0,2,2,1,1,1
688076000,1688000,47.3977508,8.5456074,0.20519933,-0.14936012,-0.008843516,-0.022968095,-0.0035443609,0.0,-0.026254956,-0.014767928,-0.011779943,0.00010963643,-0.059729103,-0.009160716,0.12626225,-0.046545096,-0.032652285,0.003335066,0.40929183,0.0,0.10271224,0.011779943,0.42022306,0.23397236,0.17298958,0.1041113,inf,inf,inf,inf,1,1,1,1,2,0,2,2,1,1,1
688172000,1688000,47.3977508,8.5456074,0.20392258,-0.14955635,-0.008033232,-0.022968095,-0.0035443609,0.0,-0.026662394,-0.013451408,-0.010652286,0.0019470798,-0.059729103,-0.009160716,0.12626225,0.021110054,0.0062175803,-0.044523735,0.40915838,0.0,0.10269845,0.010652286,0.4323152,0.2351945,0.17737134,0.10473537,inf,inf,inf,inf,1,1,1,1,2,0,2,2,1,1,1
688276000,1688000,47.3977508,8.5456074,0.20291902,-0.14995304,-0.007869321,-0.022968095,-0.0035443609,0.0,-0.026369786,-0.012378217,-0.019481873,-0.006821098,-0.059729103,-0.009160716,0.12626225,0.054423165,0.050467648,-0.46400443,0.4091863,0.0,0.10253454,0.019481873,0.41937217,0.23408912,0.17264292,0.10411152,inf,inf,inf,inf,1,1,1,1,2,0,2,2,1,1,1
688372000,1688000,47.3977508,8.5456074,0.20263542,-0.1502095,-0.012213486,-0.022968095,-0.0035443609,0.0,-0.018631065,-0.007776598,-0.12160818,-0.10862048,-0.059729103,-0.009160716,0.12626225,0.116764925,0.06334454,-1.4635408,0.40934262,0.0,0.10702101,0.12160818,0.4314221,0.2353115,0.17701866,0.104736775,inf,inf,inf,inf,1,1,1,1,2,0,2,2,1,1,1
688476000,1688000,47.3977508,8.5456074,0.20402846,-0.14975484,-0.030928146,-0.022968095,-0.0035443609,0.0,0.0017282859,-0.0031920993,-0.26909983,-0.25567743,-0.059729103,-0.009160716,0.12626225,0.19417655,-0.030772049,-1.2374864,0.40921342,0.0,0.12704694,0.26909983,0.4186058,0.23421182,0.17247356,0.1041174,inf,inf,inf,inf,1,1,1,1,2,0,2,2,1,1,1
688572000,1688000,47.3977508,8.5456074,0.20725839,-0.1487327,-0.061304096,-0.022968095,-0.0035443609,0.0,0.01967331,0.0029374685,-0.3879253,-0.37464887,-0.059729103,-0.009160716,0.12626225,0.20230995,0.13825761,-1.2621245,0.40897328,0.0,0.15742289,0.3879253,0.43063736,0.23543476,0.17738254,0.10474397,inf,inf,inf,inf,1,1,1,1,2,0,2,2,1,1,1
688676000,1688000,47.3977508,8.5456074,0.2115244,-0.14653978,-0.1065815,-0.022968095,-0.0035443609,0.0,0.031056637,0.009168167,-0.5227505,-0.508831,-0.059729103,-0.009160716,0.12626225,0.021208068,0.047920268,-1.2768879,0.4087755,0.0,0.20270029,0.5227505,0.4179276,0.23433204,0.17326497,0.1041249,inf,inf,inf,inf,1,1,1,1,2,0,2,2,1,1,1
688772000,1688000,47.3977508,8.5456074,0.21562062,-0.14406331,-0.16039613,-0.022968095,-0.0035443609,0.0,0.034420267,0.010250386,-0.64918077,-0.63426775,-0.059729103,-0.009160716,0.12626225,-0.057205733,0.020528378,-1.3314252,0.40868136,0.0,0.2565149,0.64918077,0.42998073,0.23555568,0.17814735,0.10475273,inf,inf,inf,inf,1,1,1,1,2,0,2,2,1,1,1
688876000,1688000,47.3977508,8.5456074,0.22042231,-0.14107935,-0.23196535,-0.022968095,-0.0035443609,0.0,0.032149404,0.012334128,-0.78584737,-0.76950574,-0.059729103,-0.009160716,0.12626225,-0.035093885,0.040326655,-1.2645664,0.40865391,0.0,0.32808414,0.78584737,0.4173625,0.23444983,0.17397429,0.104134515,inf,inf,inf,inf,1,1,1,1,2,0,2,2,1,1,1
688972000,1688000,47.3977508,8.5456074,0.22458759,-0.13829185,-0.31018707,-0.022968095,-0.0035443609,0.0,0.027000042,0.012262453,-0.9090082,-0.8912562,-0.059729103,-0.009160716,0.12626225,-0.13636641,0.00411059,-1.2107742,0.40878928,0.0,0.40630585,0.9090082,0.42943892,0.23567435,0.17890039,0.104764156,inf,inf,inf,inf,1,1,1,1,2,0,2,2,1,1,1
689076000,1688000,47.3977508,8.5456074,0.22878599,-0.13542384,-0.40793216,-0.022968095,-0.0035443609,0.0,0.021206602,0.010359394,-1.0470506,-1.0275145,-0.059729103,-0.009160716,0.12626225,-0.06484982,0.095931925,-1.34271,0.40876073,0.0,0.50405097,1.0470506,0.41689554,0.23456587,0.17468022,0.10414663,inf,inf,inf,inf,1,1,1,1,2,0,2,2,1,1,1
689180000,1688000,47.3977508,8.5456074,0.23249128,-0.13278426,-0.5206756,-0.022968095,-0.0035443609,0.0,0.01615978,0.008711405,-1.1823078,-1.1618445,-0.059729103,-0.009160716,0.12626225,-0.039863165,-0.031364985,-1.3195666,0.40878853,0.0,0.6167944,1.1823078,0.43003115,0.2348117,0.18001106,0.10454519,inf,inf,inf,inf,1,1,1,1,2,0,2,2,1,1,1
689276000,1688000,47.3977508,8.5456074,0.23562731,-0.13049436,-0.6374025,-0.022968095,-0.0035443609,0.0,0.011672754,0.008186468,-1.3075583,-1.2865559,-0.059729103,-0.009160716,0.12626225,-0.07480727,-0.01213896,-1.3563483,0.40886557,0.0,0.7335213,1.3075583,0.41651523,0.23468925,0.1753388,0.10416471,inf,inf,inf,inf,1,1,1,1,2,0,2,2,1,1,1
689372000,1688000,47.3977508,8.5456074,0.23813692,-0.12858753,-0.766841,-0.022968095,-0.0035443609,0.0,0.0066949856,0.0038459655,-1.4335861,-1.4127429,-0.059729103,-0.009160716,0.12626225,0.0025176231,-0.04806336,-1.3181548,0.4087305,0.0,0.8629598,1.4335861,0.42864552,0.23429179,0.18025665,0.10436954,inf,inf,inf,inf,1,1,1,1,2,0,2,2,1,1,1
689476000,1688000,47.3977508,8.5456074,0.24095838,-0.12710598,-0.92114174,-0.022968095,-0.0035443609,0.0,0.0016650208,0.0025929157,-1.5653752,-1.5452545,-0.059729103,-0.009160716,0.12626225,-0.021856567,-0.039331,-1.2217433,0.40859047,0.0,1.0172606,1.5653752,0.41621113,0.23481138,0.17592953,0.104184724,inf,inf,inf,inf,1,1,1,1,2,0,2,2,1,1,1
689572000,1688000,47.3977508,8.5456074,0.24324623,-0.12614748,-1.0762496,-0.022968095,-0.0035443609,0.0,-0.0027741194,0.000700813,-1.690103,-1.6711062,-0.059729103,-0.009160716,0.12626225,-0.060019117,-0.009925027,-1.3822093,0.40865892,0.0,1.1723684,1.690103,0.42836946,0.23441288,0.18086137,0.10439043,inf,inf,inf,inf,1,1,1,1,2,0,2,2,1,1,1
689676000,1688000,47.3977508,8.5456074,0.24595183,-0.12539098,-1.2588425,-0.022968095,-0.0035443609,0.0,-0.0077309757,4.29937e-05,-1.8260556,-1.8089503,-0.059729103,-0.009160716,0.12626225,-0.15618888,0.014779226,-1.2395409,0.40871224,0.0,1.3549613,1.8260556,0.41597277,0.23493254,0.17645383,0.1042065,inf,inf,inf,inf,1,1,1,1,2,0,2,2,1,1,1
689772000,1688000,47.3977508,8.5456074,0.24823587,-0.1250042,-1.4395971,-0.022968095,-0.0035443609,0.0,-0.010185138,-0.0011092513,-1.943077,-1.927619,-0.059729103,-0.009160716,0.12626225,-0.10490376,-0.08913967,-1.3126209,0.40859205,0.0,1.5357159,1.943077,0.42815816,0.23453307,0.18137766,0.104413,inf,inf,inf,inf,1,1,1,1,2,0,2,2,1,1,1
689876000,1688000,47.3977508,8.5456074,0.2515989,-0.1248854,-1.648451,-0.022968095,-0.0035443609,0.0,-0.013621989,-0.004014253,-2.0770605,-2.0630128,-0.059729103,-0.009160716,0.12626225,-0.0711566,-0.06538025,-1.1850892,0.40862742,0.0,1.7445698,2.0770605,0.41578996,0.23344617,0.17692228,0.10380939,inf,inf,inf,inf,1,1,1,1,2,0,2,2,1,1,1
689972000,1688000,47.3977508,8.5456074,0.25474745,-0.124947794,-1.8536918,-0.022968095,-0.0035443609,0.0,-0.014232266,-0.004273747,-2.198664,-2.1860359,-0.059729103,-0.009160716,0.12626225,0.041903317,-0.06165371,-1.1368086,0.4122931,0.0,1.9498106,2.198664,0.42797896,0.23466136,0.17958988,0.10444088,inf,inf,inf,inf,1,1,1,1,2,0,2,2,1,1,1
690076000,1688000,47.3977508,8.5456074,0.25944588,-0.12511872,-2.0892348,-0.022968095,-0.0035443609,0.0,-0.014363281,-0.0065914877,-2.334054,-2.3227186,-0.059729103,-0.009160716,0.12626225,-0.016749496,-0.07710466,-1.273712,0.41157278,0.0,2.1853535,2.334054,0.4156541,0.23357196,0.17108689,0.10383713,inf,inf,inf,inf,1,1,1,1,2,0,2,2,1,1,1
690172000,1688000,47.3977508,8.5456074,0.26383117,-0.12556611,-2.31969,-0.022968095,-0.0035443609,0.0,-0.016985357,-0.008606484,-2.454375,-2.4447331,-0.059729103,-0.009160716,0.12626225,-0.11344199,0.025446663,-1.2377667,0.41085818,0.0,2.4158087,2.454375,0.42747,0.23478894,0.17230631,0.10447065,inf,inf,inf,inf,1,1,1,1,2,0,2,2,1,1,1
690276000,1688000,47.3977508,8.5456074,0.26835626,-0.1261119,-2.5795288,-0.022968095,-0.0035443609,0.0,-0.01961459,-0.007355643,-2.480548,-2.4729016,-0.059729103,-0.009160716,0.12626225,-0.08314908,0.0068398053,0.9488612,0.40970588,0.0,2.6756475,2.480548,0.4152117,0.23369735,0.16542098,0.103867754,inf,inf,inf,inf,1,1,1,1,2,0,2,2,1,1,1
690372000,1688000,47.3977508,8.5456074,0.27190167,-0.12662944,-2.8127968,-0.022968095,-0.0035443609,0.0,-0.021042,-0.0073427567,-2.3397877,-2.3344963,-0.059729103,-0.009160716,0.12626225,-0.15427984,0.07895013,1.3215839,0.40916976,0.0,2.9089155,2.3397877,0.42665437,0.23491618,0.16747954,0.10450342,inf,inf,inf,inf,1,1,1,1,2,0,2,2,1,1,1
690476000,1688000,47.3977508,8.5456074,0.27578634,-0.12777257,-3.0530322,-0.022968095,-0.0035443609,0.0,-0.025259439,-0.00793943,-2.2453449,-2.242912,-0.059729103,-0.009160716,0.12626225,-0.120697394,0.0041880263,0.71944666,0.40921187,0.0,3.1491508,2.2453449,0.41449243,0.2338222,0.16170056,0.103900775,inf,inf,inf,inf,1,1,1,1,2,0,2,2,1,1,1
690572000,1688000,47.3977508,8.5456074,0.2788213,-0.12917258,-3.267261,-0.022968095,-0.0035443609,0.0,-0.028816085,-0.008232809,-2.1754155,-2.1749864,-0.059729103,-0.009160716,0.12626225,-0.06498561,-0.069470346,0.6957091,0.4092256,0.0,3.3633797,2.1754155,0.4256025,0.23504291,0.16405673,0.10453797,inf,inf,inf,inf,1,1,1,1,2,0,2,2,1,1,1
690676000,1688000,47.3977508,8.5456074,0.28226125,-0.1304778,-3.492478,-0.022968095,-0.0035443609,0.0,-0.031280126,-0.006897543,-2.1026917,-2.1049478,-0.059729103,-0.009160716,0.12626225,-0.049428947,0.023466988,0.57864463,0.4089611,0.0,3.5885966,2.1026917,0.41356048,0.23395532,0.15926395,0.10393915,inf,inf,inf,inf,1,1,1,1,2,0,2,2,1,1,1
690772000,1688000,47.3977508,8.5456074,0.28492326,-0.13151737,-3.6941495,-0.022968095,-0.0035443609,0.0,-0.03437704,-0.005849445,-2.0421326,-2.04661,-0.059729103,-0.009160716,0.12626225,-0.073266536,0.03577564,0.64112705,0.40868127,0.0,3.7902682,2.0421326,0.42438617,0.23517817,0.16231197,0.10457814,inf,inf,inf,inf,1,1,1,1,2,0,2,2,1,1,1
690876000,1688000,47.3977508,8.5456074,0.28809604,-0.13210334,-3.9068935,-0.022968095,-0.0035443609,0.0,-0.03680225,-0.0029432648,-1.9844195,-1.9915196,-0.059729103,-0.009160716,0.12626225,-0.09231665,0.05038022,0.51967984,0.408185,0.0,4.003012,1.9844195,0.4124818,0.23408805,0.15840784,0.10397914,inf,inf,inf,inf,1,1,1,1,2,0,2,2,1,1,1
690972000,1688000,47.3977508,8.5456074,0.2906874,-0.13225326,-4.0983605,-0.022968095,-0.0035443609,0.0,-0.037864644,-0.0020874424,-1.9315066,-1.9410564,-0.059729103,-0.009160716,0.12626225,-0.07434597,-0.033438474,0.46527663,0.40818554,0.0,4.1944795,1.9315066,0.42307937,0.23531307,0.16203035,0.1046198,inf,inf,inf,inf,1,1,1,1,2,0,2,2,1,1,1
691076000,1688000,47.3977508,8.5456074,0.29348648,-0.13238129,-4.3004274,-0.022968095,-0.0035443609,0.0,-0.039968472,-0.0016369777,-1.8839489,-1.895776,-0.059729103,-0.009160716,0.12626225,-0.06612518,-0.040881347,0.48414615,0.40801528,0.0,4.3965464,1.8839489,0.41132456,0.23422022,0.15886167,0.10402035,inf,inf,inf,inf,1,1,1,1,2,0,2,2,1,1,1
691172000,1688000,47.3977508,8.5456074,0.2954681,-0.13261552,-4.4821086,-0.022968095,-0.0035443609,0.0,-0.041317828,-0.0040817047,-1.8420931,-1.8551939,-0.059729103,-0.009160716,0.12626225,0.0023466344,-0.00058634754,0.4448285,0.40781122,0.0,4.5782275,1.8420931,0.4217547,0.23544745,0.1629954,0.1046625,inf,inf,inf,inf,1,1,1,1,2,0,2,2,1,1,1
691276000,1688000,47.3977508,8.5456074,0.29797786,-0.13306803,-4.674423,-0.022968095,-0.0035443609,0.0,-0.04167766,-0.0038407568,-1.8054596,-1.8194335,-0.059729103,-0.009160716,0.12626225,0.027668165,0.03297358,0.3804052,0.4080436,0.0,4.770542,1.8054596,0.41015562,0.2343521,0.160389,0.10406248,inf,inf,inf,inf,1,1,1,1,2,0,2,2,1,1,1
691372000,1688000,47.3977508,8.5456074,0.2999956,-0.13338973,-4.848623,-0.022968095,-0.0035443609,0.0,-0.042609315,-0.0023279856,-1.7740175,-1.788614,-0.059729103,-0.009160716,0.12626225,-0.089489244,0.035288017,0.37632135,0.40801513,0.0,4.9447417,1.7740175,0.42048144,0.2339641,0.16499023,0.10428052,inf,inf,inf,inf,1,1,1,1,2,0,2,2,1,1,1
691476000,1688000,47.3977508,8.5456074,0.3023704,-0.13350993,-5.034159,-0.022968095,-0.0035443609,0.0,-0.046481147,-0.0016562641,-1.7442,-1.759484,-0.059729103,-0.009160716,0.12626225,-0.011278687,-0.03597096,0.28259492,0.40815333,0.0,5.130278,1.7442,0.4090379,0.2344925,0.16278051,0.10410897,inf,inf,inf,inf,1,1,1,1,2,0,2,2,1,1,1
691572000,1688000,47.3977508,8.5456074,0.3040197,-0.1335685,-5.203237,-0.022968095,-0.0035443609,0.0,-0.049354676,-5.5306746e-06,-1.7199762,-1.7361532,-0.059729103,-0.009160716,0.12626225,-0.080949314,0.0226043,0.25322846,0.4082128,0.0,5.299356,1.7199762,0.41932297,0.23410395,0.16777751,0.10432734,inf,inf,inf,inf,1,1,1,1,2,0,2,2,1,1,1
691676000,1688000,47.3977508,8.5456074,0.30558795,-0.13341255,-5.3831267,-0.022968095,-0.0035443609,0.0,-0.0522684,0.0032647292,-1.6938053,-1.7102203,-0.059729103,-0.009160716,0.12626225,-0.044031247,-0.064004846,0.21737161,0.40797043,0.0,5.4792457,1.6938053,0.40802816,0.2346411,0.1657856,0.10415934,inf,inf,inf,inf,1,1,1,1,2,0,2,2,1,1,1
691780000,1688000,47.3977508,8.5456074,0.30634573,-0.13310346,-5.560801,-0.022968095,-0.0035443609,0.0,-0.05389187,0.0031912574,-1.6744354,-1.691222,-0.059729103,-0.009160716,0.12626225,-0.15495326,0.015812336,0.25654396,0.40800178,0.0,5.65692,1.6744354,0.41921335,0.23490201,0.17155252,0.10457648,inf,inf,inf,inf,1,1,1,1,2,0,2,2,1,1,1
691876000,1688000,47.3977508,8.5456074,0.30727333,-0.13309821,-5.7234674,-0.022968095,-0.0035443609,0.0,-0.054814767,0.0017052299,-1.6565306,-1.6740593,-0.059729103,-0.009160716,0.12626225,0.049774036,-0.089090824,0.21955463,0.40805283,0.0,5.8195863,1.6565306,0.40717393,0.2331951,0.16916564,0.10379366,inf,inf,inf,inf,1,1,1,1,2,0,2,2,1,1,1
691972000,1688000,47.3977508,8.5456074,0.30765924,-0.13328263,-5.8846345,-0.022968095,-0.0035443609,0.0,-0.056221846,0.00036606926,-1.6388066,-1.6573362,-0.059729103,-0.009160716,0.12626225,-0.055068728,-0.008248854,0.13312137,0.40834382,0.0,5.9807534,1.6388066,0.41755605,0.23442294,0.1747486,0.10443779,inf,inf,inf,inf,1,1,1,1,2,0,2,2,1,1,1
692076000,1688000,47.3977508,8.5456074,0.30808127,-0.1338684,-6.057979,-0.022968095,-0.0035443609,0.0,-0.055663653,-0.0013550974,-1.6226028,-1.6425159,-0.059729103,-0.009160716,0.12626225,0.014697055,0.033782236,0.13815983,0.4087106,0.0,6.154098,1.6226028,0.40651122,0.23335387,0.17273018,0.103847824,inf,inf,inf,inf,1,1,1,1,2,0,2,2,1,1,1
692172000,1688000,47.3977508,8.5456074,0.30820692,-0.1345753,-6.216464,-0.022968095,-0.0035443609,0.0,-0.055888087,-0.0028450042,-1.6063646,-1.6274673,-0.059729103,-0.009160716,0.12626225,0.039258495,0.0025078733,0.20196101,0.40869802,0.0,6.312583,1.6063646,0.41701925,0.23458348,0.17848366,0.10449229,inf,inf,inf,inf,1,1,1,1,2,0,2,2,1,1,1
692276000,1688000,47.3977508,8.5456074,0.30857,-0.13598096,-6.3865566,-0.022968095,-0.0035443609,0.0,-0.055401597,-0.0064987936,-1.5909295,-1.6132585,-0.059729103,-0.009160716,0.12626225,-0.041929703,-0.0019881844,0.15616788,0.40880838,0.0,6.4826756,1.5909295,0.40606347,0.23351066,0.17627867,0.10390012,inf,inf,inf,inf,1,1,1,1,2,0,2,2,1,1,1
692372000,1688000,47.3977508,8.5456074,0.3086856,-0.13757198,-6.5420437,-0.022968095,-0.0035443609,0.0,-0.053944413,-0.0060995384,-1.5795625,-1.6026165,-0.059729103,-0.009160716,0.12626225,-0.08677757,0.05731584,0.18498021,0.4088968,0.0,6.6381626,1.5795625,0.41673797,0.23474202,0.18215272,0.10454483,inf,inf,inf,inf,1,1,1,1,2,0,2,2,1,1,1
692476000,1688000,47.3977508,8.5456074,0.30709657,-0.13886525,-6.708585,-0.022968095,-0.0035443609,0.0,-0.05573787,-0.0038766502,-1.5698414,-1.5928446,-0.059729103,-0.009160716,0.12626225,-0.11074343,0.016321266,0.097163014,0.4086193,0.0,6.8047037,1.5698414,0.4289608,0.2349865,0.18863928,0.10493615,inf,inf,inf,inf,1,1,1,1,2,0,2,2,1,1,1
692572000,1688000,47.3977508,8.5456074,0.30671299,-0.1402572,-6.8618717,-0.022968095,-0.0035443609,0.0,-0.05667759,-0.0034926857,-1.5608944,-1.5843166,-0.059729103,-0.009160716,0.12626225,-0.050971232,0.020009398,0.08093751,0.4084784,0.0,6.9579906,1.5608944,0.4156436,0.23486003,0.18482453,0.104542054,inf,inf,inf,inf,1,1,1,1,2,0,2,2,1,1,1
692676000,1688000,47.3977508,8.5456074,0.30625105,-0.14186709,-7.026705,-0.022968095,-0.0035443609,0.0,-0.05559224,-0.0037757126,-1.5522623,-1.5757768,-0.059729103,-0.009160716,0.12626225,0.05191178,0.01535974,0.07552932,0.4083863,0.0,7.1228237,1.5522623,0.42801404,0.23511119,0.19137262,0.104937024,inf,inf,inf,inf,1,1,1,1,2,0,2,2,1,1,0
692772000,1688000,47.3977508,8.5456074,0.3066123,-0.14269939,-7.1778245,-0.022968095,-0.0035443609,0.0,-0.055500735,-0.003139067,-1.5466292,-1.569797,-0.059729103,-0.009160716,0.12626225,-0.07001702,-0.0786795,0.16200076,0.40832508,0.0,7.2739434,1.5466292,0.4148208,0.23498379,0.18729275,0.104543425,inf,inf,inf,inf,1,1,1,1,2,0,2,2,1,1,0
692876000,1688000,47.3977508,8.5456074,0.30656177,-0.14310037,-7.340897,-0.022968095,-0.0035443609,0.0,-0.056043874,-0.0015730178,-1.539114,-1.56209,-0.059729103,-0.009160716,0.12626225,0.003447836,-0.011851794,0.028678214,0.40848306,0.0,7.437016,1.539114,0.42736286,0.23523293,0.19385257,0.10493829,inf,inf,inf,inf,1,1,1,1,2,0,2,2,1,1,0
692972000,1688000,47.3977508,8.5456074,0.30753648,-0.14347506,-7.4907837,-0.022968095,-0.0035443609,0.0,-0.05572234,-0.0021114424,-1.5365088,-1.5592268,-0.059729103,-0.009160716,0.12626225,-0.043219555,-0.09726668,0.0136112785,0.40872052,0.0,7.5869026,1.5365088,0.4142508,0.2351047,0.18946266,0.10454533,inf,inf,inf,inf,1,1,1,1,2,0,2,2,1,1,0
693076000,1688000,47.3977508,8.5456074,0.30837402,-0.14403805,-7.6520457,-0.022968095,-0.0035443609,0.0,-0.054704398,-0.0034671673,-1.5295855,-1.5513189,-0.059729103,-0.009160716,0.12626225,-0.050671376,-0.03148535,0.13503431,0.40868717,0.0,7.7481647,1.5295855,0.42697853,0.23535196,0.195992,0.10494019,inf,inf,inf,inf,1,1,1,1,2,0,2,2,1,1,0
693172000,1688000,47.3977508,8.5456074,0.30993286,-0.14460486,-7.7995443,-0.022968095,-0.0035443609,0.0,-0.054644395,-0.0016639412,-1.5276889,-1.5478077,-0.059729103,-0.009160716,0.12626225,-0.02665831,0.04711946,0.0005709007,0.4087423,0.0,7.8956633,1.5276889,0.4139086,0.2352231,0.19130513,0.10454796,inf,inf,inf,inf,1,1,1,1,2,0,2,2,1,1,0
693276000,1688000,47.3977508,8.5456074,0.31114876,-0.144945,-7.9586964,-0.022968095,-0.0035443609,0.0,-0.05393942,0.0007575752,-1.5282764,-1.5462124,-0.059729103,-0.009160716,0.12626225,-0.00851498,-0.0007791859,0.07394142,0.40865174,0.0,8.054815,1.5282764,0.42682746,0.23546869,0.19778581,0.10494298,inf,inf,inf,inf,1,1,1,1,2,0,2,2,1,1,0
693380000,1688000,47.3977508,8.5456074,0.3129154,-0.14507143,-8.118358,-0.022968095,-0.0035443609,0.0,-0.05347224,0.0010648547,-1.5290197,-1.5455797,-0.059729103,-0.009160716,0.12626225,-0.007969473,0.032215327,0.0424711,0.4085877,0.0,8.214477,1.5290197,0.41474494,0.23436636,0.19328976,0.104322776,inf,inf,inf,inf,1,1,1,1,2,0,2,2,1,1,0
693476000,1688000,47.3977508,8.5456074,0.31389698,-0.14508328,-8.265882,-0.022968095,-0.0035443609,0.0,-0.053243104,0.0016926081,-1.5236822,-1.5394535,-0.059729103,-0.009160716,0.12626225,-0.010502437,-0.090413995,0.08133146,0.40863875,0.0,8.362,1.5236822,0.42687345,0.23558328,0.19923277,0.10494671,inf,inf,inf,inf,1,1,1,1,2,0,2,2,1,1,0
693572000,1688000,47.3977508,8.5456074,0.3151523,-0.14518297,-8.413091,-0.022968095,-0.0035443609,0.0,-0.05827395,0.00056589814,-1.5277354,-1.5426013,-0.059729103,-0.009160716,0.12626225,-0.12819724,-0.035338596,0.03338698,0.40842876,0.0,8.50921,1.5277354,0.4137899,0.23383889,0.19393875,0.1041323,inf,inf,inf,inf,1,1,1,1,2,0,2,2,1,1,0
693676000,1688000,47.3977508,8.5456074,0.31537646,-0.14533147,-8.572933,-0.022968095,-0.0035443609,0.0,-0.06098178,0.00105685,-1.524579,-1.5388411,-0.059729103,-0.009160716,0.12626225,-0.04508317,0.042523827,-0.03428291,0.40844944,0.0,8.669052,1.524579,0.42707786,0.23570572,0.20026347,0.10495606,inf,inf,inf,inf,1,1,1,1,2,0,2,2,1,1,0
693772000,1688000,47.3977508,8.5456074,0.31623498,-0.14555533,-8.719893,-0.022968095,-0.0035443609,0.0,-0.060111113,-0.0008793761,-1.52194,-1.5354745,-0.059729103,-0.009160716,0.12626225,-0.028420689,-0.012629695,0.082015984,0.40843835,0.0,8.816012,1.52194,0.41394967,0.23395862,0.19471179,0.10414193,inf,inf,inf,inf,1,1,1,1,2,0,2,2,1,1,0
693876000,1688000,47.3977508,8.5456074,0.31685385,-0.1459554,-8.878588,-0.022968095,-0.0035443609,0.0,-0.05878987,-0.0022880752,-1.5205932,-1.533189,-0.059729103,-0.009160716,0.12626225,-0.08584976,-0.03453461,0.023223458,0.40862727,0.0,8.974707,1.5205932,0.42740375,0.23582661,0.2009404,0.104966745,inf,inf,inf,inf,1,1,1,1,2,0,2,2,1,1,0
693972000,1688000,47.3977508,8.5456074,0.3179461,-0.14680745,-9.02466,-0.022968095,-0.0035443609,0.0,-0.059088346,-0.0030378876,-1.5189793,-1.5305781,-0.059729103,-0.009160716,0.12626225,-0.0239009,0.00045556406,-0.1031449,0.40857702,0.0,9.120779,1.5189793,0.4142138,0.23407662,0.19512293,0.10415261,inf,inf,inf,inf,1,1,1,1,2,0,2,2,1,1,0
694076000,1688000,47.3977508,8.5456074,0.3186023,-0.14783975,-9.183462,-0.022968095,-0.0035443609,0.0,-0.05747965,-0.0019672618,-1.5223141,-1.5333207,-0.059729103,-0.009160716,0.12626225,-0.038646866,-0.024165677,-0.018361954,0.4085248,0.0,9.279581,1.5223141,0.42781502,0.23432961,0.2012522,0.10455354,inf,inf,inf,inf,1,1,1,1,2,0,2,2,1,1,0
694172000,1688000,47.3977508,8.5456074,0.3195148,-0.14847116,-9.331102,-0.022968095,-0.0035443609,0.0,-0.057044458,-0.0019730886,-1.5189161,-1.5303872,-0.059729103,-0.009160716,0.12626225,-0.04811583,-0.008115546,0.0877371,0.40836468,0.0,9.427221,1.5189161,0.4145522,0.23421875,0.1952436,0.10417574,inf,inf,inf,inf,1,1,1,1,2,0,2,2,1,1,0
694276000,1688000,47.3977508,8.5456074,0.31991377,-0.14883175,-9.490188,-0.022968095,-0.0035443609,0.0,-0.057839338,0.00013866645,-1.5126721,-1.5244035,-0.059729103,-0.009160716,0.12626225,-0.13282816,-0.003343809,0.041181218,0.4082562,0.0,9.586307,1.5126721,0.4282819,0.23446983,0.20128204,0.10457653,inf,inf,inf,inf,1,1,1,1,2,0,2,2,1,1,0
694380000,1688000,47.3977508,8.5456074,0.3209447,-0.14921603,-9.64933,-0.022968095,-0.0035443609,0.0,-0.054901533,-0.000589124,-1.5106138,-1.5228916,-0.059729103,-0.009160716,0.12626225,-0.06286663,0.009805826,0.015530734,0.408445,0.0,9.745449,1.5106138,0.41597462,0.23499812,0.19551747,0.1043932,inf,inf,inf,inf,1,1,1,1,2,0,2,2,1,1,0
694476000,1688000,47.3977508,8.5456074,0.32151282,-0.14957803,-9.796195,-0.022968095,-0.0035443609,0.0,-0.05358134,-0.0012130423,-1.5097998,-1.5225903,-0.059729103,-0.009160716,0.12626225,-0.08253091,0.0036784038,0.07268134,0.40854448,0.0,9.892314,1.5097998,0.4287737,0.23460668,0.20097318,0.104599275,inf,inf,inf,inf,1,1,1,1,2,0,2,2,1,1,0
694572000,1688000,47.3977508,8.5456074,0.32260656,-0.14989804,-9.943133,-0.022968095,-0.0035443609,0.0,-0.054865032,0.0017100755,-1.5073138,-1.5208749,-0.059729103,-0.009160716,0.12626225,-0.002514076,0.010260119,0.009873881,0.40862888,0.0,10.039252,1.5073138,0.4153494,0.23450187,0.19464284,0.10422524,inf,inf,inf,inf,1,1,1,1,2,0,2,2,1,1,0
694676000,1688000,47.3977508,8.5456074,0.32308042,-0.15003836,-10.101984,-0.022968095,-0.0035443609,0.0,-0.056720994,0.0019442745,-1.5040243,-1.5183058,-0.059729103,-0.009160716,0.12626225,-0.014651908,0.012776968,0.09282119,0.40860552,0.0,10.198103,1.5040243,0.42926872,0.2347666,0.20043199,0.104633324,inf,inf,inf,inf,1,1,1,1,2,0,2,2,1,1,0
694772000,1688000,47.3977508,8.5456074,0.3236788,-0.15012147,-10.24735,-0.022968095,-0.0035443609,0.0,-0.056567788,0.0040759337,-1.4662305,-1.4813422,-0.059729103,-0.009160716,0.12626225,-0.13753764,-0.036648944,0.6902581,0.40860012,0.0,10.343469,1.4662305,0.41576457,0.23465963,0.19400732,0.104258634,inf,inf,inf,inf,1,1,1,1,2,0,2,2,1,1,0
694876000,1688000,47.3977508,8.5456074,0.32357123,-0.15001807,-10.399002,-0.022968095,-0.0035443609,0.0,-0.058149215,0.0045465054,-1.4046029,-1.4205021,-0.059729103,-0.009160716,0.12626225,-0.060948182,-0.045175012,0.47068202,0.40848356,0.0,10.495121,1.4046029,0.4297467,0.23492195,0.1996651,0.104666226,inf,inf,inf,inf,1,1,1,1,2,0,2,2,1,1,0
694972000,1688000,47.3977508,8.5456074,0.32339126,-0.14990285,-10.533841,-0.022968095,-0.0035443609,0.0,-0.060750972,0.0030006894,-1.361178,-1.3775144,-0.059729103,-0.009160716,0.12626225,-0.005101392,0.028529145,0.4018908,0.40843347,0.0,10.62996,1.361178,0.41616836,0.23481302,0.19298951,0.104290776,inf,inf,inf,inf,1,1,1,1,2,0,2,2,1,1,0
695076000,1688000,47.3977508,8.5456074,0.32248718,-0.1497109,-10.674881,-0.022968095,-0.0035443609,0.0,-0.06024431,0.0017004139,-1.3125349,-1.3289369,-0.059729103,-0.009160716,0.12626225,-0.07911274,-0.07809678,0.47108248,0.40842837,0.0,10.771,1.3125349,0.43017748,0.23507307,0.19834596,0.1046976,inf,inf,inf,inf,1,1,1,1,2,0,2,2,1,1,0
695172000,1688000,47.3977508,8.5456074,0.32194334,-0.1499081,-10.80144,-0.022968095,-0.0035443609,0.0,-0.059447628,0.0036140315,-1.2753222,-1.2923275,-0.059729103,-0.009160716,0.12626225,-0.05653127,0.0055692396,0.413754,0.40855464,0.0,10.897559,1.2753222,0.4165367,0.23335744,0.19171982,0.10390127,inf,inf,inf,inf,1,1,1,1,2,0,2,2,1,1,0
695276000,1688000,47.3977508,8.5456074,0.32069096,-0.15027572,-10.93452,-0.022968095,-0.0035443609,0.0,-0.060627174,0.0028937762,-1.2308141,-1.2485974,-0.059729103,-0.009160716,0.12626225,0.053447276,-0.04247862,0.45341903,0.4086373,0.0,11.030639,1.2308141,0.43055412,0.235229,0.19701397,0.10473204,inf,inf,inf,inf,1,1,1,1,2,0,2,2,1,1,0
695372000,1688000,47.3977508,8.5456074,0.31917423,-0.15045547,-11.053333,-0.022968095,-0.0035443609,0.0,-0.060746975,0.0018290576,-1.190024,-1.2085567,-0.059729103,-0.009160716,0.12626225,-0.083201095,-0.03317048,0.40033922,0.40854836,0.0,11.149452,1.190024,0.41685995,0.2335085,0.19042751,0.10393435,inf,inf,inf,inf,1,1,1,1,2,0,2,2,1,1,0
695476000,1688000,47.3977508,8.5456074,0.31683335,-0.15049148,-11.178173,-0.022968095,-0.0035443609,0.0,-0.0588923,0.0024405976,-1.1502303,-1.1697692,-0.059729103,-0.009160716,0.12626225,-0.07779929,0.08632207,0.3961166,0.40872055,0.0,11.274292,1.1502303,0.43087164,0.23538117,0.1956352,0.104765676,inf,inf,inf,inf,1,1,1,1,2,0,2,2,1,1,0
695580000,1688000,47.3977508,8.5456074,0.31469297,-0.15067983,-11.29941,-0.022968095,-0.0035443609,0.0,-0.058924012,0.0045023956,-1.1102965,-1.1311853,-0.059729103,-0.009160716,0.12626225,-0.017244294,0.06508226,0.4475815,0.40873015,0.0,11.395529,1.1102965,0.4181861,0.23429468,0.18947114,0.1041611,inf,inf,inf,inf,1,1,1,1,2,0,2,2,1,1,0
695676000,1688000,47.3977508,8.5456074,0.31224415,-0.15072457,-11.406914,-0.022968095,-0.0035443609,0.0,-0.058164388,0.005303639,-1.0726057,-1.0939974,-0.059729103,-0.009160716,0.12626225,0.038791467,-0.013865217,0.3202278,0.40872085,0.0,11.503033,1.0726057,0.43112728,0.23553005,0.19421673,0.10479844,inf,inf,inf,inf,1,1,1,1,2,0,2,2,1,1,0
695772000,1688000,47.3977508,8.5456074,0.31015384,-0.15083434,-11.511211,-0.022968095,-0.0035443609,0.0,-0.057498414,0.004134897,-1.0385723,-1.0605922,-0.059729103,-0.009160716,0.12626225,0.05785677,0.0114327185,0.3901757,0.4085455,0.0,11.60733,1.0385723,0.4173583,0.23380059,0.1877225,0.10399814,inf,inf,inf,inf,1,1,1,1,2,0,2,2,1,1,0
695872000,1688000,47.3977508,8.5456074,0.30789617,-0.15087777,-11.612694,-0.022968095,-0.0035443609,0.0,-0.056107838,0.0042151688,-1.0066762,-1.0295695,-0.059729103,-0.009160716,0.12626225,0.05681965,-0.006623875,0.32047832,0.40859824,0.0,11.708813,1.0066762,0.4302206,0.235031,0.19238696,0.10463539,inf,inf,inf,inf,1,1,1,1,2,0,2,2,1,1,0
695976000,1688000,47.3977508,8.5456074,0.30599982,-0.15103568,-11.719276,-0.022968095,-0.0035443609,0.0,-0.054153997,0.006044139,-0.9749473,-0.9986369,-0.059729103,-0.009160716,0.12626225,-0.022232523,0.06300078,0.37571692,0.4086228,0.0,11.815395,0.9749473,0.41752893,0.2339505,0.1863668,0.10403286,inf,inf,inf,inf,1,1,1,1,2,0,2,2,1,1,0
696072000,1688000,47.3977508,8.5456074,0.3041432,-0.15110345,-11.813331,-0.022968095,-0.0035443609,0.0,-0.054458432,0.0063364897,-0.9428526,-0.966017,-0.059729103,-0.009160716,0.12626225,0.0067022406,0.0035358097,0.2548238,0.40851167,0.0,11.90945,0.9428526,0.43035504,0.23358962,0.19098407,0.10425466,inf,inf,inf,inf,1,1,1,1,2,0,2,2,1,1,0
696176000,1688000,47.3977508,8.5456074,0.30173156,-0.15180862,-11.911892,-0.022968095,-0.0035443609,0.0,-0.053554915,0.005036126,-0.91427946,-0.9367935,-0.059729103,-0.009160716,0.12626225,0.011128126,-0.010729159,0.33684817,0.40879136,0.0,12.008011,0.91427946,0.41764766,0.23413864,0.18504286,0.1040846,inf,inf,inf,inf,1,1,1,1,2,0,2,2,1,1,0
696272000,1688000,47.3977508,8.5456074,0.29893446,-0.15273419,-11.999831,-0.022968095,-0.0035443609,0.0,-0.055881366,0.0057337363,-0.88655204,-0.90826464,-0.059729103,-0.009160716,0.12626225,0.035354704,0.06439688,0.24623236,0.40870038,0.0,12.09595,0.88655204,0.4304305,0.23378234,0.18959725,0.104308456,inf,inf,inf,inf,1,1,1,1,2,0,2,2,1,1,0
696376000,1688000,47.3977508,8.5456074,0.29576737,-0.1538408,-12.0925665,-0.022968095,-0.0035443609,0.0,-0.054805167,0.004689727,-0.8610725,-0.8820991,-0.059729103,-0.009160716,0.12626225,0.07597109,0.037461746,0.27878487,0.40875277,0.0,12.188685,0.8610725,0.41771632,0.23432834,0.18374762,0.10413639,inf,inf,inf,inf,1,1,1,1,2,0,2,2,1,1,0
696472000,1688000,47.3977508,8.5456074,0.29269138,-0.15484332,-12.175451,-0.022968095,-0.0035443609,0.0,-0.05475951,0.0052357195,-0.83700186,-0.85717916,-0.059729103,-0.009160716,0.12626225,-0.029995956,-0.044758387,0.3123842,0.408792,0.0,12.27157,0.83700186,0.43045062,0.23396799,0.18826887,0.10435862,inf,inf,inf,inf,1,1,1,1,2,0,2,2,1,1,0
696576000,1688000,47.3977508,8.5456074,0.28984943,-0.15562066,-12.262676,-0.022968095,-0.0035443609,0.0,-0.052883748,0.006504481,-0.8060964,-0.8257734,-0.059729103,-0.009160716,0.12626225,0.07317126,0.030557288,0.2918569,0.4086996,0.0,12.358795,0.8060964,0.4177377,0.23451124,0.18251254,0.10418483,inf,inf,inf,inf,1,1,1,1,2,0,2,2,1,1,0
696672000,1688000,47.3977508,8.5456074,0.28738594,-0.15605907,-12.340123,-0.022968095,-0.0035443609,0.0,-0.052242864,0.0067110592,-0.785762,-0.8044681,-0.059729103,-0.009160716,0.12626225,-0.06708673,0.039164215,0.17660576,0.40866867,0.0,12.436242,0.785762,0.43041965,0.23414701,0.18698551,0.104405485,inf,inf,inf,inf,1,1,1,1,2,0,2,2,1,1,0
696776000,1688000,47.3977508,8.5456074,0.28517652,-0.15654446,-12.422087,-0.022968095,-0.0035443609,0.0,-0.0524607,0.007854237,-0.7621444,-0.78019476,-0.059729103,-0.009160716,0.12626225,-0.064930364,0.049017627,0.22379588,0.40868133,0.0,12.518206,0.7621444,0.41771537,0.23308837,0.18130514,0.1038113,inf,inf,inf,inf,1,1,1,1,2,0,2,2,1,1,0
696872000,1688000,47.3977508,8.5456074,0.28315192,-0.15676847,-12.496806,-0.022968095,-0.0035443609,0.0,-0.04857979,0.009227645,-0.7429961,-0.7615886,-0.059729103,-0.009160716,0.12626225,-0.009204101,0.06931812,0.2562683,0.4084906,0.0,12.592925,0.7429961,0.4303408,0.23431973,0.18575709,0.104449265,inf,inf,inf,inf,1,1,1,1,2,0,2,2,1,1,0
696976000,1688000,47.3977508,8.5456074,0.28161407,-0.15681238,-12.574987,-0.022968095,-0.0035443609,0.0,-0.047265522,0.010057261,-0.71367306,-0.73252857,-0.059729103,-0.009160716,0.12626225,-0.013002048,-0.009549624,0.32193863,0.4085088,0.0,12.671106,0.71367306,0.41765144,0.23326378,0.18018454,0.10385648,inf,inf,inf,inf,1,1,1,1,2,0,2,2,1,1,0
697072000,1688000,47.3977508,8.5456074,0.28018695,-0.15677351,-12.644755,-0.022968095,-0.0035443609,0.0,-0.047121335,0.009517411,-0.69096,-0.7103338,-0.059729103,-0.009160716,0.12626225,0.013314187,-0.018560322,0.14168768,0.4086058,0.0,12.740874,0.69096,0.4302192,0.23451263,0.18459189,0.10450196,inf,inf,inf,inf,1,1,1,1,2,0,2,2,1,1,0
697176000,1688000,47.3977508,8.5456074,0.2786291,-0.15699266,-12.717844,-0.022968095,-0.0035443609,0.0,-0.04712811,0.010072221,-0.6693161,-0.6888183,-0.059729103,-0.009160716,0.12626225,-0.06903137,-0.030473923,0.24050845,0.40853694,0.0,12.813963,0.6693161,0.4175507,0.23344989,0.17908557,0.10390596,inf,inf,inf,inf,1,1,1,1,2,0,2,2,1,1,0
697272000,1688000,47.3977508,8.5456074,0.27691334,-0.15723875,-12.784231,-0.022968095,-0.0035443609,0.0,-0.047575083,0.010318938,-0.6492782,-0.66983765,-0.059729103,-0.009160716,0.12626225,-0.02438995,0.029587913,0.2426328,0.40846616,0.0,12.88035,0.6492782,0.43005732,0.23469834,0.18346547,0.1045508,inf,inf,inf,inf,1,1,1,1,2,0,2,2,1,1,0
697376000,1688000,47.3977508,8.5456074,0.2755667,-0.15773045,-12.853575,-0.022968095,-0.0035443609,0.0,-0.04812821,0.011124487,-0.62427557,-0.6456483,-0.059729103,-0.009160716,0.12626225,-0.032785505,0.056224532,0.21213105,0.40855527,0.0,12.949694,0.62427557,0.41741493,0.23363757,0.17808026,0.10395567,inf,inf,inf,inf,1,1,1,1,2,0,2,2,1,1,0
697472000,1688000,47.3977508,8.5456074,0.27448145,-0.15813544,-12.915677,-0.022968095,-0.0035443609,0.0,-0.046390906,0.012441892,-0.6050447,-0.62725717,-0.059729103,-0.009160716,0.12626225,-0.059281595,-0.013301467,0.1882473,0.4084984,0.0,13.011796,0.6050447,0.4298617,0.234877,0.18243274,0.104596175,inf,inf,inf,inf,1,1,1,1,2,0,2,2,1,1,0
697576000,1688000,47.3977508,8.5456074,0.27210742,-0.1581792,-12.980287,-0.022968095,-0.0035443609,0.0,-0.046360377,0.009512478,-0.5856665,-0.60801387,-0.059729103,-0.009160716,0.12626225,-0.03360736,-0.062365524,0.13768952,0.40848702,0.0,13.076406,0.5856665,0.4439419,0.23514433,0.1872025,0.10498925,inf,inf,inf,inf,1,1,1,1,2,0,2,2,1,1,0
697672000,1688000,47.3977508,8.5456074,0.27100778,-0.15884738,-13.038818,-0.022968095,-0.0035443609,0.0,-0.046822842,0.009284877,-0.57001084,-0.5930527,-0.059729103,-0.009160716,0.12626225,-0.08742968,-0.05130025,0.22724736,0.40846014,0.0,13.134937,0.57001084,0.42832044,0.23501956,0.18071827,0.10458893,inf,inf,inf,inf,1,1,1,1,2,0,2,2,1,1,0
697776000,1688000,47.3977508,8.5456074,0.26973894,-0.1596398,-13.1012945,-0.022968095,-0.0035443609,0.0,-0.04827158,0.00765949,-0.5474008,-0.57208526,-0.059729103,-0.009160716,0.12626225,0.006378541,-0.023339944,0.2704719,0.40847597,0.0,13.197413,0.5474008,0.44223458,0.23528238,0.18546946,0.10498109,inf,inf,inf,inf,1,1,1,1,2,0,2,2,1,1,0
697872000,1688000,47.3977508,8.5456074,0.26888967,-0.1604366,-13.157417,-0.022968095,-0.0035443609,0.0,-0.04716377,0.008068037,-0.52865285,-0.55527693,-0.059729103,-0.009160716,0.12626225,0.005450587,0.07545708,0.2007149,0.40854567,0.0,13.253536,0.52865285,0.42689106,0.23515505,0.17922479,0.10458113,inf,inf,inf,inf,1,1,1,1,2,0,2,2,1,1,0
697976000,1688000,47.3977508,8.5456074,0.2678218,-0.16100496,-13.2154875,-0.022968095,-0.0035443609,0.0,-0.046727266,0.008275697,-0.5078166,-0.535529,-0.059729103,-0.009160716,0.12626225,0.018282076,0.019853124,0.2000397,0.40836626,0.0,13.311606,0.5078166,0.44065544,0.2354138,0.18392889,0.10497273,inf,inf,inf,inf,1,1,1,1,2,0,2,2,1,1,0
698072000,1688000,47.3977508,8.5456074,0.26741314,-0.16165976,-13.266912,-0.022968095,-0.0035443609,0.0,-0.04536456,0.0074855965,-0.49124476,-0.51940304,-0.059729103,-0.009160716,0.12626225,-0.03970386,-0.03818454,0.25496352,0.40841764,0.0,13.363031,0.49124476,0.42556491,0.23367287,0.17788275,0.10414962,inf,inf,inf,inf,1,1,1,1,2,0,2,2,1,1,0
698176000,1688000,47.3977508,8.5456074,0.26682433,-0.16228662,-13.319689,-0.022968095,-0.0035443609,0.0,-0.045666434,0.0071924636,-0.47340524,-0.5009676,-0.059729103,-0.009160716,0.12626225,-0.057234347,0.005609819,0.13609509,0.40853208,0.0,13.415808,0.47340524,0.43919337,0.23553939,0.18258367,0.104964636,inf,inf,inf,inf,1,1,1,1,2,0,2,2,1,1,0
698272000,1688000,47.3977508,8.5456074,0.2667873,-0.16301037,-13.367217,-0.022968095,-0.0035443609,0.0,-0.045620825,0.006936346,-0.46287042,-0.49006778,-0.059729103,-0.009160716,0.12626225,-0.048335195,-0.046946052,0.1500584,0.40841,0.0,13.463336,0.46287042,0.4243332,0.23380277,0.17673033,0.1041457,inf,inf,inf,inf,1,1,1,1,2,0,2,2,1,1,0
698376000,1688000,47.3977508,8.5456074,0.26647568,-0.16371004,-13.417713,-0.022968095,-0.0035443609,0.0,-0.045628846,0.005680605,-0.4507368,-0.47781125,-0.059729103,-0.009160716,0.12626225,-0.08550428,0.03339809,0.1806002,0.40860182,0.0,13.513832,0.4507368,0.43784046,0.23566878,0.18143481,0.104961514,inf,inf,inf,inf,1,1,1,1,2,0,2,2,1,1,0
698472000,1688000,47.3977508,8.5456074,0.26714522,-0.16437595,-13.46313,-0.022968095,-0.0035443609,0.0,-0.042400524,0.0057286546,-0.4317125,-0.45901754,-0.059729103,-0.009160716,0.12626225,0.07799436,0.016184956,0.09537115,0.40867764,0.0,13.559249,0.4317125,0.42319012,0.23392808,0.17576851,0.104143,inf,inf,inf,inf,1,1,1,1,2,0,2,2,1,1,0
698576000,1688000,47.3977508,8.5456074,0.26804715,-0.16471817,-13.510478,-0.022968095,-0.0035443609,0.0,-0.041365653,0.007709544,-0.41939324,-0.44669122,-0.059729103,-0.009160716,0.12626225,-0.09661338,0.10542625,0.12116692,0.4085937,0.0,13.606597,0.41939324,0.43659088,0.23579384,0.18046765,0.104959786,inf,inf,inf,inf,1,1,1,1,2,0,2,2,1,1,0
698672000,1688000,47.3977508,8.5456074,0.2688887,-0.16491693,-13.5533905,-0.022968095,-0.0035443609,0.0,-0.0404569,0.009994128,-0.40903965,-0.436648,-0.059729103,-0.009160716,0.12626225,-0.026476666,0.024227189,0.13125035,0.40847236,0.0,13.649509,0.40903965,0.42213184,0.2340492,0.17492956,0.10414173,inf,inf,inf,inf,1,1,1,1,2,0,2,2,1,1,0
698776000,1688000,47.3977508,8.5456074,0.26926938,-0.16489175,-13.597935,-0.022968095,-0.0035443609,0.0,-0.037795685,0.009237309,-0.3918005,-0.41903424,-0.059729103,-0.009160716,0.12626225,-0.003989771,0.06884623,0.14087836,0.40844652,0.0,13.694054,0.3918005,0.4354367,0.23429061,0.17963333,0.1045306,inf,inf,inf,inf,1,1,1,1,2,0,2,2,1,1,0
698872000,1688000,47.3977508,8.5456074,0.2700965,-0.16485298,-13.63752,-0.022968095,-0.0035443609,0.0,-0.03740789,0.009062931,-0.38121524,-0.40813527,-0.059729103,-0.009160716,0.12626225,-0.06416469,-0.03457264,0.12027844,0.40846694,0.0,13.733639,0.38121524,0.42115176,0.23418404,0.17425066,0.104149826,inf,inf,inf,inf,1,1,1,1,2,0,2,2,1,1,0
698976000,1688000,47.3977508,8.5456074,0.27053532,-0.16460668,-13.680243,-0.022968095,-0.0035443609,0.0,-0.0386169,0.011128735,-0.37176242,-0.39911842,-0.059729103,-0.009160716,0.12626225,-0.12852277,0.05640807,0.124682665,0.4085551,0.0,13.776361,0.37176242,0.4343728,0.23443124,0.17893694,0.104542665,inf,inf,inf,inf,1,1,1,1,2,0,2,2,1,1,0
699072000,1688000,47.3977508,8.5456074,0.27134374,-0.16475488,-13.718891,-0.022968095,-0.0035443609,0.0,-0.039073702,0.011630626,-0.35884914,-0.3869547,-0.059729103,-0.009160716,0.12626225,0.033162817,0.045299172,0.13232137,0.4085508,0.0,13.81501,0.35884914,0.42024672,0.23432246,0.17367417,0.10416227,inf,inf,inf,inf,1,1,1,1,2,0,2,2,1,1,0
699176000,1688000,47.3977508,8.5456074,0.27192324,-0.1649645,-13.759948,-0.022968095,-0.0035443609,0.0,-0.039795835,0.011692872,-0.34550583,-0.37479773,-0.059729103,-0.009160716,0.12626225,-0.07749174,0.065079235,0.13707484,0.4086517,0.0,13.856067,0.34550583,0.43339485,0.23456688,0.17838758,0.10455544,inf,inf,inf,inf,1,1,1,1,2,0,2,2,1,1,0
699272000,1688000,47.3977508,8.5456074,0.2724087,-0.16509098,-13.797005,-0.022968095,-0.0035443609,0.0,-0.041968185,0.013614377,-0.33130208,-0.36201534,-0.059729103,-0.009160716,0.12626225,-0.0673763,-0.014452688,0.20702648,0.4085375,0.0,13.893124,0.33130208,0.41941327,0.23445642,0.17321216,0.10417562,inf,inf,inf,inf,1,1,1,1,2,0,2,2,1,1,0
699376000,1688000,47.3977508,8.5456074,0.27220672,-0.16502284,-13.834484,-0.022968095,-0.0035443609,0.0,-0.042225007,0.0137843415,-0.31855676,-0.34943494,-0.059729103,-0.009160716,0.12626225,0.03831656,0.025670249,0.09356159,0.40871975,0.0,13.930603,0.31855676,0.4324976,0.23470722,0.17792511,0.104573034,inf,inf,inf,inf,1,1,1,1,2,0,2,2,1,1,0
699472000,1688000,47.3977508,8.5456074,0.27246046,-0.16525395,-13.867883,-0.022968095,-0.0035443609,0.0,-0.03981954,0.0128284,-0.3099208,-0.340847,-0.059729103,-0.009160716,0.12626225,-0.015486708,-0.030789087,0.060908493,0.408868,0.0,13.964002,0.3099208,0.41864714,0.23458645,0.17283338,0.10418989,inf,inf,inf,inf,1,1,1,1,2,0,2,2,1,1,0
699576000,1688000,47.3977508,8.5456074,0.27246454,-0.1654258,-13.902939,-0.022968095,-0.0035443609,0.0,-0.039941605,0.012823929,-0.29922378,-0.32997528,-0.059729103,-0.009160716,0.12626225,0.004794914,-0.080300584,0.100635916,0.40868488,0.0,13.999058,0.29922378,0.43167642,0.23484379,0.17756398,0.10459151,inf,inf,inf,inf,1,1,1,1,2,0,2,2,1,1,0
699672000,1688000,47.3977508,8.5456074,0.27228683,-0.16561885,-13.934389,-0.022968095,-0.0035443609,0.0,-0.03913392,0.01283496,-0.2911647,-0.32188866,-0.059729103,-0.009160716,0.12626225,-0.026502999,0.03461365,0.08927937,0.4086225,0.0,14.030508,0.2911647,0.41794494,0.23472178,0.17257288,0.104208924,inf,inf,inf,inf,1,1,1,1,2,0,2,2,1,1,0
699776000,1688000,47.3977508,8.5456074,0.27146614,-0.16546306,-13.967306,-0.022968095,-0.0035443609,0.0,-0.03993926,0.014366502,-0.28155503,-0.31183463,-0.059729103,-0.009160716,0.12626225,-0.034987103,0.0318218,0.10970141,0.40840876,0.0,14.063425,0.28155503,0.43092918,0.2349771,0.17731693,0.10461101,inf,inf,inf,inf,1,1,1,1,2,0,2,2,1,1,0
699872000,1688000,47.3977508,8.5456074,0.27071077,-0.16491751,-13.997019,-0.022968095,-0.0035443609,0.0,-0.040480427,0.012878512,-0.27126184,-0.30157518,-0.059729103,-0.009160716,0.12626225,-0.059663452,0.027480546,0.14216265,0.40857634,0.0,14.093138,0.27126184,0.417305,0.23485404,0.17239869,0.104229145,inf,inf,inf,inf,1,1,1,1,2,0,2,2,1,1,0
699976000,1688000,47.3977508,8.5456074,0.26949656,-0.16389093,-14.028718,-0.022968095,-0.0035443609,0.0,-0.038929414,0.01604271,-0.26341555,-0.29421067,-0.059729103,-0.009160716,0.12626225,0.034120325,0.096459806,0.11748727,0.40851554,0.0,14.124837,0.26341555,0.4302524,0.23510757,0.17715909,0.10463174,inf,inf,inf,inf,1,1,1,1,2,0,2,2,1,1,0
700072000,1688000,47.3977508,8.5456074,0.26884362,-0.16295165,-14.057677,-0.022968095,-0.0035443609,0.0,-0.039994843,0.01776605,-0.25176033,-0.28352612,-0.059729103,-0.009160716,0.12626225,-0.019747265,0.07140412,0.09151268,0.40856233,0.0,14.153796,0.25176033,0.4167248,0.23496635,0.17228231,0.104242936,inf,inf,inf,inf,1,1,1,1,2,0,2,2,1,1,0
700176000,1688000,47.3977508,8.5456074,0.2678857,-0.16195796,-14.087503,-0.022968095,-0.0035443609,0.0,-0.03855738,0.016452283,-0.24245964,-0.27471876,-0.059729103,-0.009160716,0.12626225,-0.009307583,-0.01016102,0.101923935,0.40860978,0.0,14.183622,0.24245964,0.42964235,0.23520194,0.17706762,0.104639135,inf,inf,inf,inf,1,1,1,1,2,0,2,2,1,1,0
700272000,1688000,47.3977508,8.5456074,0.26747978,-0.16167459,-14.114452,-0.022968095,-0.0035443609,0.0,-0.038009748,0.01544624,-0.23562035,-0.2684292,-0.059729103,-0.009160716,0.12626225,0.012922333,0.038551454,0.11363997,0.4086231,0.0,14.210571,0.23562035,0.4162011,0.23507904,0.17222987,0.10425971,inf,inf,inf,inf,1,1,1,1,2,0,2,2,1,1,0
700376000,1688000,47.3977508,8.5456074,0.2669661,-0.16157964,-14.142032,-0.022968095,-0.0035443609,0.0,-0.036159545,0.014477438,-0.22650144,-0.25921655,-0.059729103,-0.009160716,0.12626225,-0.002996239,-0.018243426,0.0063376497,0.40848464,0.0,14.238151,0.22650144,0.42909536,0.235323,0.17703018,0.10466094,inf,inf,inf,inf,1,1,1,1,2,0,2,2,1,1,0
700472000,1688000,47.3977508,8.5456074,0.26698378,-0.16137925,-14.167664,-0.022968095,-0.0035443609,0.0,-0.039068744,0.011752551,-0.217152,-0.25073048,-0.059729103,-0.009160716,0.12626225,-0.047469653,0.067125194,0.12536812,0.40851024,0.0,14.2637825,0.217152,0.41573086,0.23358186,0.17223465,0.103857145,inf,inf,inf,inf,1,1,1,1,2,0,2,2,1,1,0
700576000,1688000,47.3977508,8.5456074,0.26655492,-0.16098624,-14.195142,-0.022968095,-0.0035443609,0.0,-0.039570827,0.01303597,-0.20956467,-0.24461052,-0.059729103,-0.009160716,0.12626225,0.050184634,0.037717275,0.0795545,0.4084223,0.0,14.291261,0.20956467,0.4286086,0.23544373,0.17705911,0.10468465,inf,inf,inf,inf,1,1,1,1,2,0,2,2,1,1,0
700680000,1688000,47.3977508,8.5456074,0.26662663,-0.16049872,-14.222033,-0.022968095,-0.0035443609,0.0,-0.03996877,0.014005505,-0.20085655,-0.23740311,-0.059729103,-0.009160716,0.12626225,-0.013974891,-0.013343645,0.060228627,0.4085209,0.0,14.318151,0.20085655,0.41628075,0.23435554,0.1726553,0.10408276,inf,inf,inf,inf,1,1,1,1,2,0,2,2,1,1,0
700776000,1688000,47.3977508,8.5456074,0.26633722,-0.15990268,-14.24641,-0.022968095,-0.0035443609,0.0,-0.04002972,0.014623513,-0.19194877,-0.23012625,-0.059729103,-0.009160716,0.12626225,-0.035505027,0.022383409,0.090227455,0.4085573,0.0,14.342529,0.19194877,0.42817885,0.23396356,0.17712043,0.10429129,inf,inf,inf,inf,1,1,1,1,2,0,2,2,1,1,0
700872000,1688000,47.3977508,8.5456074,0.26682207,-0.15952976,-14.269485,-0.022968095,-0.0035443609,0.0,-0.03806732,0.012839941,-0.18272014,-0.22192968,-0.059729103,-0.009160716,0.12626225,-0.03598762,-0.010367115,0.0961516,0.40833715,0.0,14.365604,0.18272014,0.41494206,0.2338512,0.17237552,0.10392017,inf,inf,inf,inf,1,1,1,1,2,0,2,2,1,1,0
700976000,1688000,47.3977508,8.5456074,0.26702228,-0.1592336,-14.292979,-0.022968095,-0.0035443609,0.0,-0.04080746,0.01126464,-0.17502247,-0.21462509,-0.059729103,-0.009160716,0.12626225,-0.025244989,-0.02627496,0.12730247,0.4085188,0.0,14.389098,0.17502247,0.42780253,0.23410492,0.17721608,0.10432689,inf,inf,inf,inf,1,1,1,1,2,0,2,2,1,1,0
701080000,1688000,47.3977508,8.5456074,0.2673325,-0.15978697,-14.315717,-0.022968095,-0.0035443609,0.0,-0.040685013,0.010382478,-0.16825992,-0.20818292,-0.059729103,-0.009160716,0.12626225,0.00815036,0.015229328,0.1473641,0.4086252,0.0,14.411836,0.16825992,0.4155854,0.23463054,0.17285864,0.10414995,inf,inf,inf,inf,1,1,1,1,2,0,2,2,1,1,0
701176000,1688000,47.3977508,8.5456074,0.26709947,-0.16048102,-14.336238,-0.022968095,-0.0035443609,0.0,-0.041803867,0.008474611,-0.16241866,-0.20273587,-0.059729103,-0.009160716,0.12626225,-0.043352284,0.009424151,0.1589246,0.4084513,0.0,14.432357,0.16241866,0.42747644,0.23424445,0.17735294,0.10436259,inf,inf,inf,inf,1,1,1,1,2,0,2,2,1,1,0
701280000,1688000,47.3977508,8.5456074,0.26713288,-0.16215415,-14.357155,-0.022968095,-0.0035443609,0.0,-0.040330548,0.008471838,-0.15319814,-0.19348346,-0.059729103,-0.009160716,0.12626225,0.053108238,-0.027220245,-0.0043082978,0.40847507,0.0,14.453274,0.15319814,0.41530412,0.23476975,0.1730164,0.104185544,inf,inf,inf,inf,1,1,1,1,2,0,2,2,1,1,0
701376000,1688000,47.3977508,8.5456074,0.26675254,-0.16377516,-14.375756,-0.022968095,-0.0035443609,0.0,-0.040335864,0.0063121906,-0.14843741,-0.1885378,-0.059729103,-0.009160716,0.12626225,-0.042521305,0.061268013,0.06187148,0.40825453,0.0,14.471875,0.14843741,0.42719817,0.23438232,0.17752604,0.10439813,inf,inf,inf,inf,1,1,1,1,2,0,2,2,1,1,0
701480000,1688000,47.3977508,8.5456074,0.26646602,-0.16539776,-14.394593,-0.022968095,-0.0035443609,0.0,-0.03927788,0.0066164457,-0.14157417,-0.18087038,-0.059729103,-0.009160716,0.12626225,-0.15596043,0.021592852,0.0011948867,0.4082312,0.0,14.490712,0.14157417,0.41506422,0.23330335,0.17319441,0.10380123,inf,inf,inf,inf,1,1,1,1,2,0,2,2,1,1,0
701576000,1688000,47.3977508,8.5456074,0.2656507,-0.16630447,-14.410917,-0.022968095,-0.0035443609,0.0,-0.040482115,0.008642289,-0.13803358,-0.17612389,-0.059729103,-0.009160716,0.12626225,0.018730825,-0.020711804,0.08045043,0.40824535,0.0,14.507036,0.13803358,0.42696443,0.23451838,0.17771989,0.104433455,inf,inf,inf,inf,1,1,1,1,2,0,2,2,1,1,0
701672000,1688000,47.3977508,8.5456074,0.26540193,-0.16700178,-14.427794,-0.022968095,-0.0035443609,0.0,-0.04074501,0.007170478,-0.13668346,-0.17455517,-0.059729103,-0.009160716,0.12626225,-0.056070134,-0.084735505,0.013651325,0.40850344,0.0,14.523913,0.13668346,0.41389346,0.23441182,0.17301454,0.10406561,inf,inf,inf,inf,1,1,1,1,2,0,2,2,1,1,0
701776000,1688000,47.3977508,8.5456074,0.26489836,-0.16759494,-14.445553,-0.022968095,-0.0035443609,0.0,-0.039831623,0.0068986937,-0.13049753,-0.16787696,-0.059729103,-0.009160716,0.12626225,0.011338095,-0.037785206,0.13976915,0.40860993,0.0,14.541672,0.13049753,0.42677218,0.23466173,0.17794117,0.104472436,inf,inf,inf,inf,1,1,1,1,2,0,2,2,1,1,0
701872000,1688000,47.3977508,8.5456074,0.26481265,-0.16836098,-14.461273,-0.022968095,-0.0035443609,0.0,-0.039277613,0.007955034,-0.12612939,-0.16310893,-0.059729103,-0.009160716,0.12626225,0.005468799,0.07117474,0.003965571,0.40850618,0.0,14.557392,0.12612939,0.41372663,0.23455442,0.1732485,0.10410422,inf,inf,inf,inf,1,1,1,1,2,0,2,2,1,1,0
701976000,1688000,47.3977508,8.5456074,0.26442537,-0.16888648,-14.478885,-0.022968095,-0.0035443609,0.0,-0.039387513,0.009841435,-0.12177477,-0.15928502,-0.059729103,-0.009160716,0.12626225,-0.043131743,0.033182885,0.094127834,0.40862548,0.0,14.575004,0.12177477,0.4266188,0.23480357,0.17816964,0.104511,inf,inf,inf,inf,1,1,1,1,2,0,2,2,1,1,0
702072000,1688000,47.3977508,8.5456074,0.2642662,-0.16914193,-14.494479,-0.022968095,-0.0035443609,0.0,-0.03923307,0.012939364,-0.1168778,-0.15465812,-0.059729103,-0.009160716,0.12626225,0.051774174,-0.037103817,0.03953371,0.40859824,0.0,14.590598,0.1168778,0.41359335,0.23469557,0.17345876,0.10414237,inf,inf,inf,inf,1,1,1,1,2,0,2,2,1,1,0
702176000,1688000,47.3977508,8.5456074,0.26386097,-0.16903426,-14.510586,-0.022968095,-0.0035443609,0.0,-0.03898853,0.013940327,-0.111141585,-0.1489759,-0.059729103,-0.009160716,0.12626225,-0.038983755,0.0032638179,0.089480534,0.40853506,0.0,14.606705,0.111141585,0.42650026,0.23494394,0.17839791,0.104549006,inf,inf,inf,inf,1,1,1,1,2,0,2,2,1,1,0
702272000,1688000,47.3977508,8.5456074,0.26394472,-0.16902465,-14.525378,-0.022968095,-0.0035443609,0.0,-0.041038755,0.012364738,-0.10687474,-0.14505728,-0.059729103,-0.009160716,0.12626225,-0.031091614,-0.012877559,0.01732353,0.40835655,0.0,14.621497,0.10687474,0.41348994,0.23483522,0.17365976,0.10417986,inf,inf,inf,inf,1,1,1,1,2,0,2,2,1,1,0
702376000,1688000,47.3977508,8.5456074,0.26381984,-0.16906017,-14.539529,-0.022968095,-0.0035443609,0.0,-0.0379567,0.010454699,-0.102216564,-0.13940765,-0.059729103,-0.009160716,0.12626225,0.034982648,0.016066708,0.051564533,0.40831783,0.0,14.635648,0.102216564,0.4264128,0.23509167,0.17861521,0.104590274,inf,inf,inf,inf,1,1,1,1,2,0,2,2,1,1,0
702472000,1688000,47.3977508,8.5456074,0.2627351,-0.16886918,-14.552211,-0.022968095,-0.0035443609,0.0,-0.036302146,0.01000688,-0.09892747,-0.13529038,-0.059729103,-0.009160716,0.12626225,0.018776236,-0.010148927,0.02060551,0.40857336,0.0,14.64833,0.09892747,0.4388923,0.23468353,0.1832581,0.104778185,inf,inf,inf,inf,1,1,1,1,2,0,2,2,1,1,0
702576000,1688000,47.3977508,8.5456074,0.2620454,-0.16893843,-14.566544,-0.022968095,-0.0035443609,0.0,-0.03627048,0.008927585,-0.09280515,-0.12948112,-0.059729103,-0.009160716,0.12626225,0.028529946,0.017395135,0.012305564,0.40861344,0.0,14.6626625,0.09280515,0.42499474,0.23519658,0.17803943,0.10457313,inf,inf,inf,inf,1,1,1,1,2,0,2,2,1,1,0
702680000,1688000,47.3977508,8.5456074,0.26141515,-0.16903129,-14.580649,-0.022968095,-0.0035443609,0.0,-0.034815334,0.008565505,-0.09232431,-0.12934697,-0.059729103,-0.009160716,0.12626225,-0.029102711,0.07491171,0.023708677,0.40855917,0.0,14.676768,0.09232431,0.43845734,0.23543188,0.18306515,0.104956664,inf,inf,inf,inf,1,1,1,1,2,0,2,2,1,1,0
702776000,1688000,47.3977508,8.5456074,0.26167756,-0.16927457,-14.592858,-0.022968095,-0.0035443609,0.0,-0.035149187,0.0077104284,-0.08667132,-0.12352746,-0.059729103,-0.009160716,0.12626225,-0.004780362,0.014631178,0.06076507,0.408583,0.0,14.688977,0.08667132,0.42372155,0.23529905,0.17756784,0.104557745,inf,inf,inf,inf,1,1,1,1,2,0,2,2,1,1,0
702880000,1688000,47.3977508,8.5456074,0.2618936,-0.16963002,-14.605402,-0.022968095,-0.0035443609,0.0,-0.035145145,0.0053104376,-0.08404443,-0.120545745,-0.059729103,-0.009160716,0.12626225,-0.055996027,-0.0076533575,0.03047753,0.40840206,0.0,14.701521,0.08404443,0.4371162,0.23553254,0.18259205,0.10494181,inf,inf,inf,inf,1,1,1,1,2,0,2,2,1,1,0
702976000,1688000,47.3977508,8.5456074,0.2628733,-0.16944055,-14.61628,-0.022968095,-0.0035443609,0.0,-0.034032956,0.0073707025,-0.08002999,-0.11579036,-0.059729103,-0.009160716,0.12626225,-0.02595574,0.07582821,0.030277295,0.4084052,0.0,14.712399,0.08002999,0.42258015,0.2353995,0.1771773,0.10454442,inf,inf,inf,inf,1,1,1,1,2,0,2,2,1,1,0
703072000,1688000,47.3977508,8.5456074,0.26388913,-0.16875257,-14.627299,-0.022968095,-0.0035443609,0.0,-0.033120256,0.008765965,-0.077395916,-0.11296757,-0.059729103,-0.009160716,0.12626225,-0.027978275,0.030431658,0.0068312506,0.40846997,0.0,14.723418,0.077395916,0.43486983,0.23499492,0.18181086,0.104738235,inf,inf,inf,inf,1,1,1,1,2,0,2,2,1,1,0
703176000,1688000,47.3977508,8.5456074,0.2646373,-0.16811001,-14.638463,-0.022968095,-0.0035443609,0.0,-0.03252853,0.009638863,-0.07613088,-0.110953495,-0.059729103,-0.009160716,0.12626225,0.021911915,0.002994621,0.080445774,0.40825552,0.0,14.734582,0.07613088,0.42155862,0.23388255,0.17686914,0.10410906,inf,inf,inf,inf,1,1,1,1,2,0,2,2,1,1,0
703272000,1688000,47.3977508,8.5456074,0.26498687,-0.16745868,-14.648592,-0.022968095,-0.0035443609,0.0,-0.031323623,0.00930808,-0.07175373,-0.106045604,-0.059729103,-0.009160716,0.12626225,-0.07064328,-0.06619424,0.039990056,0.4083811,0.0,14.744711,0.07175373,0.43380564,0.23510118,0.18150285,0.10473199,inf,inf,inf,inf,1,1,1,1,2,0,2,2,1,1,0
703376000,1688000,47.3977508,8.5456074,0.26532635,-0.16668703,-14.658964,-0.022968095,-0.0035443609,0.0,-0.03197485,0.0072923526,-0.069695525,-0.10327485,-0.059729103,-0.009160716,0.12626225,-0.029384222,-0.034351937,0.035037283,0.4084865,0.0,14.755083,0.069695525,0.420647,0.23559587,0.17663372,0.10452481,inf,inf,inf,inf,1,1,1,1,2,0,2,2,1,1,0
703472000,1688000,47.3977508,8.5456074,0.2652414,-0.16580856,-14.667831,-0.022968095,-0.0035443609,0.0,-0.031734075,0.009506747,-0.0681207,-0.10057722,-0.059729103,-0.009160716,0.12626225,0.009457973,0.021076767,0.0052489336,0.4083885,0.0,14.76395,0.0681207,0.43285966,0.23517181,0.18125296,0.10471332,inf,inf,inf,inf,1,1,1,1,2,0,2,2,1,1,0
703576000,1688000,47.3977508,8.5456074,0.2650029,-0.16418464,-14.677117,-0.022968095,-0.0035443609,0.0,-0.03145131,0.009854855,-0.06777439,-0.09901176,-0.059729103,-0.009160716,0.12626225,-0.024831299,-0.013696871,-0.023912637,0.40834215,0.0,14.773236,0.06777439,0.41983578,0.23404054,0.17643207,0.10408036,inf,inf,inf,inf,1,1,1,1,2,0,2,2,1,1,0
703672000,1688000,47.3977508,8.5456074,0.26440254,-0.16243073,-14.686309,-0.022968095,-0.0035443609,0.0,-0.0318313,0.010930213,-0.06271884,-0.093697295,-0.059729103,-0.009160716,0.12626225,0.022374194,0.033756107,0.12276228,0.40863708,0.0,14.782428,0.06271884,0.43202114,0.23524517,0.18106328,0.1046999,inf,inf,inf,inf,1,1,1,1,2,0,2,2,1,1,0
703776000,1688000,47.3977508,8.5456074,0.26344067,-0.1605137,-14.696731,-0.022968095,-0.0035443609,0.0,-0.033336006,0.0101955095,-0.06155546,-0.093111895,-0.059729103,-0.009160716,0.12626225,0.0096184155,0.015740015,0.04871655,0.408593,0.0,14.79285,0.06155546,0.41911602,0.23411441,0.1762905,0.10406953,inf,inf,inf,inf,1,1,1,1,2,0,2,2,1,1,0
