timestamp,q[0],q[1],q[2],q[3],delta_q_reset[0],delta_q_reset[1],delta_q_reset[2],delta_q_reset[3],quat_reset_counter
686480000,0.9791909,-0.00017073381,0.004531281,0.2028909,0.9999992,-4.8021326e-10,1.7462301e-10,0.0012577177,4
686532000,0.9791886,-0.00014372978,0.004567602,0.20290098,0.9999992,-4.8021326e-10,1.7462301e-10,0.0012577177,4
686580000,0.97918516,-0.00016217006,0.0046285084,0.20291622,0.9999992,-4.8021326e-10,1.7462301e-10,0.0012577177,4
686632000,0.97918487,-0.00020291268,0.0046272273,0.20291784,0.9999992,-4.8021326e-10,1.7462301e-10,0.0012577177,4
686684000,0.97917926,-0.00017079504,0.0046336986,0.20294476,0.9999992,-4.8021326e-10,1.7462301e-10,0.0012577177,4
686736000,0.9791693,-0.0002454745,0.0046378644,0.20299232,0.9999992,-4.8021326e-10,1.7462301e-10,0.0012577177,4
686792000,0.9791721,-0.00026730832,0.004633655,0.20297909,0.9999992,-4.8021326e-10,1.7462301e-10,0.0012577177,4
686844000,0.97918373,-0.00021684682,0.0046471055,0.20292298,0.9999992,-4.8021326e-10,1.7462301e-10,0.0012577177,4
686892000,0.9791722,-0.00022045882,0.0046379594,0.20297857,0.9999992,-4.8021326e-10,1.7462301e-10,0.0012577177,4
686948000,0.97917783,-0.00021068707,0.00461351,0.2029521,0.9999992,-4.8021326e-10,1.7462301e-10,0.0012577177,4
686996000,0.9791744,-0.00031550069,0.0046929154,0.20296657,0.9999992,-4.8021326e-10,1.7462301e-10,0.0012577177,4
687048000,0.97918344,-0.00026348617,0.0046898173,0.20292303,0.9999992,-4.8021326e-10,1.7462301e-10,0.0012577177,4
687100000,0.979183,-0.00018435283,0.004707004,0.20292462,0.9999992,-4.8021326e-10,1.7462301e-10,0.0012577177,4
687156000,0.9791746,-0.00016133385,0.0047898465,0.20296346,0.9999992,-4.8021326e-10,1.7462301e-10,0.0012577177,4
687204000,0.97917086,-0.00015005216,0.0048267,0.2029808,0.9999992,-4.8021326e-10,1.7462301e-10,0.0012577177,4
687256000,0.97917134,-0.00013981757,0.0048520193,0.20297801,0.9999992,-4.8021326e-10,1.7462301e-10,0.0012577177,4
687308000,0.9791604,-9.739648e-05,0.0048708543,0.20302977,0.9999992,-4.8021326e-10,1.7462301e-10,0.0012577177,4
687360000,0.97917247,-0.00010378301,0.0048366943,0.2029727,0.9999992,-4.8021326e-10,1.7462301e-10,0.0012577177,4
687412000,0.97917527,-1.0573468e-05,0.0048217606,0.20295951,0.9999992,-4.8021326e-10,1.7462301e-10,0.0012577177,4
687464000,0.9791725,-7.671235e-06,0.0047856243,0.20297347,0.9999992,-4.8021326e-10,1.7462301e-10,0.0012577177,4
687520000,0.9791648,-6.228108e-05,0.00480429,0.20301092,0.9999992,-4.8021326e-10,1.7462301e-10,0.0012577177,4
687568000,0.979175,-6.107988e-05,0.0049147946,0.20295908,0.9999992,-4.8021326e-10,1.7462301e-10,0.0012577177,4
687620000,0.97918373,-5.437362e-05,0.0049314005,0.20291632,0.9999992,-4.8021326e-10,1.7462301e-10,0.0012577177,4
687672000,0.9791903,-6.755217e-05,0.0049486244,0.2028839,0.9999992,-4.8021326e-10,1.7462301e-10,0.0012577177,4
687724000,0.9791822,-1.9991327e-05,0.0049545993,0.20292325,0.9999992,-4.8021326e-10,1.7462301e-10,0.0012577177,4
687780000,0.9791761,-1.6391157e-06,0.0049384474,0.20295264,0.9999992,-4.8021326e-10,1.7462301e-10,0.0012577177,4
687828000,0.9791755,6.254146e-05,0.0049632285,0.20295526,0.9999992,-4.8021326e-10,1.7462301e-10,0.0012577177,4
687880000,0.97914976,6.741126e-05,0.0049498524,0.20307983,0.9999992,-4.8021326e-10,1.7462301e-10,0.0012577177,4
687932000,0.979138,-9.078622e-06,0.0049415836,0.20313661,0.9999992,-4.8021326e-10,1.7462301e-10,0.0012577177,4
687984000,0.97913414,4.5277935e-05,0.004962657,0.2031546,0.9999992,-4.8021326e-10,1.7462301e-10,0.0012577177,4
688036000,0.9791296,3.6055517e-05,0.0050148754,0.20317504,0.9999992,-4.8021326e-10,1.7462301e-10,0.0012577177,4
688088000,0.97912216,9.848163e-06,0.004997534,0.20321135,0.9999992,-4.8021326e-10,1.7462301e-10,0.0012577177,4
688140000,0.97912747,6.304712e-05,0.00498565,0.20318624,0.9999992,-4.8021326e-10,1.7462301e-10,0.0012577177,4
688196000,0.97913074,3.3411558e-05,0.0049631274,0.20317101,0.9999992,-4.8021326e-10,1.7462301e-10,0.0012577177,4
688244000,0.9791315,5.389026e-05,0.005019471,0.20316587,0.9999992,-4.8021326e-10,1.7462301e-10,0.0012577177,4
688296000,0.9791359,0.00021590391,0.004191737,0.20316367,0.9999992,-4.8021326e-10,1.7462301e-10,0.0012577177,4
688348000,0.97913504,0.0007770374,-0.00016597466,0.20320943,0.9999992,-4.8021326e-10,1.7462301e-10,0.0012577177,4
688400000,0.9791165,0.0010557696,-0.004992893,0.20323588,0.9999992,-4.8021326e-10,1.7462301e-10,0.0012577177,4
688456000,0.97909963,0.0011103182,-0.0077151465,0.20323151,0.9999992,-4.8021326e-10,1.7462301e-10,0.0012577177,4
688508000,0.97910887,0.0011410001,-0.00816405,0.20317014,0.9999992,-4.8021326e-10,1.7462301e-10,0.0012577177,4
688560000,0.9791299,0.0012387207,-0.007322523,0.20309955,0.9999992,-4.8021326e-10,1.7462301e-10,0.0012577177,4
688612000,0.97916543,0.0010628559,-0.005758721,0.20297955,0.9999992,-4.8021326e-10,1.7462301e-10,0.0012577177,4
688660000,0.9791806,0.00083770556,-0.0041389395,0.20294708,0.9999992,-4.8021326e-10,1.7462301e-10,0.0012577177,4
688712000,0.97917753,0.00044642008,-0.0024312763,0.20299083,0.9999992,-4.8021326e-10,1.7462301e-10,0.0012577177,4
688768000,0.9791937,6.547721e-05,-0.0008649199,0.20292625,0.9999992,-4.8021326e-10,1.7462301e-10,0.0012577177,4
688816000,0.9792023,-0.00017675819,7.464187e-05,0.20288673,0.9999992,-4.8021326e-10,1.7462301e-10,0.0012577177,4
688868000,0.97919965,-0.00044546445,0.00076852646,0.20289749,0.9999992,-4.8021326e-10,1.7462301e-10,0.0012577177,4
688920000,0.9791952,-0.00072078453,0.0012223506,0.20291585,0.9999992,-4.8021326e-10,1.7462301e-10,0.0012577177,4
688976000,0.9791848,-0.0010547617,0.001617583,0.20296133,0.9999992,-4.8021326e-10,1.7462301e-10,0.0012577177,4
689028000,0.9791773,-0.0012850413,0.0017673922,0.20299575,0.9999992,-4.8021326e-10,1.7462301e-10,0.0012577177,4
689080000,0.97918165,-0.0014124594,0.0016348048,0.20297472,0.9999992,-4.8021326e-10,1.7462301e-10,0.0012577177,4
689128000,0.9791812,-0.001526449,0.0015743723,0.20297636,0.9999992,-4.8021326e-10,1.7462301e-10,0.0012577177,4
689180000,0.9791809,-0.001740167,0.0015711081,0.2029761,0.9999992,-4.8021326e-10,1.7462301e-10,0.0012577177,4
689232000,0.9791777,-0.0018102233,0.0015753715,0.20299098,0.9999992,-4.8021326e-10,1.7462301e-10,0.0012577177,4
689288000,0.979169,-0.00192954,0.0017056463,0.20303103,0.9999992,-4.8021326e-10,1.7462301e-10,0.0012577177,4
689340000,0.9791804,-0.0020409652,0.0017246789,0.20297445,0.9999992,-4.8021326e-10,1.7462301e-10,0.0012577177,4
689388000,0.9791827,-0.0021420554,0.0016197546,0.20296296,0.9999992,-4.8021326e-10,1.7462301e-10,0.0012577177,4
689440000,0.97919774,-0.002123699,0.0016361539,0.20289104,0.9999992,-4.8021326e-10,1.7462301e-10,0.0012577177,4
689492000,0.9791998,-0.0020212086,0.0015182366,0.20288236,0.9999992,-4.8021326e-10,1.7462301e-10,0.0012577177,4
689548000,0.9791936,-0.001959267,0.0014601236,0.20291373,0.9999992,-4.8021326e-10,1.7462301e-10,0.0012577177,4
689596000,0.9791956,-0.002010743,0.0013173025,0.20290479,0.9999992,-4.8021326e-10,1.7462301e-10,0.0012577177,4
689652000,0.9791888,-0.0020662323,0.0012598041,0.20293716,0.9999992,-4.8021326e-10,1.7462301e-10,0.0012577177,4
689700000,0.9791828,-0.0021548325,0.0012040237,0.20296563,0.9999992,-4.8021326e-10,1.7462301e-10,0.0012577177,4
689756000,0.97919065,-0.002310437,0.0011636094,0.20292585,0.9999992,-4.8021326e-10,1.7462301e-10,0.0012577177,4
689804000,0.97919595,-0.0023053242,0.0012464533,0.2029004,0.9999992,-4.8021326e-10,1.7462301e-10,0.0012577177,4
689860000,0.9792011,-0.0022761885,0.001199718,0.20287602,0.9999992,-4.8021326e-10,1.7462301e-10,0.0012577177,4
689912000,0.9792092,-0.0021507791,0.0011918644,0.20283863,0.9999992,-4.8021326e-10,1.7462301e-10,0.0012577177,4
689960000,0.97881234,-0.0019301587,0.0011998614,0.2047468,0.9999981,-2.473826e-10,-5.820767e-11,0.0019910338,5
690012000,0.97884077,-0.0019413076,0.0012746833,0.20461054,0.9999981,-2.473826e-10,-5.820767e-11,0.0019910338,5
690064000,0.97888625,-0.0019394524,0.0015747012,0.2043908,0.9999981,-2.473826e-10,-5.820767e-11,0.0019910338,5
690120000,0.9789199,-0.0017894144,0.0018107814,0.20422882,0.9999981,-2.473826e-10,-5.820767e-11,0.0019910338,5
690168000,0.9789646,-0.0014644192,0.0020915295,0.2040144,0.9999981,-2.473826e-10,-5.820767e-11,0.0019910338,5
690224000,0.97903985,-0.0013142482,0.0021818911,0.20365292,0.9999981,-2.473826e-10,-5.820767e-11,0.0019910338,5
690272000,0.9790839,-0.001212689,0.0024377697,0.20343843,0.9999981,-2.473826e-10,-5.820767e-11,0.0019910338,5
690324000,0.97912437,-0.001167026,0.0028736924,0.20323841,0.9999981,-2.473826e-10,-5.820767e-11,0.0019910338,5
690376000,0.9791392,-0.0012091361,0.003284474,0.20316067,0.9999981,-2.473826e-10,-5.820767e-11,0.0019910338,5
690428000,0.97912806,-0.0012460902,0.0036532325,0.20320754,0.9999981,-2.473826e-10,-5.820767e-11,0.0019910338,5
690480000,0.9791334,-0.0012768293,0.003627048,0.20318255,0.9999981,-2.473826e-10,-5.820767e-11,0.0019910338,5
690536000,0.97913766,-0.0011622595,0.0036211524,0.20316282,0.9999981,-2.473826e-10,-5.820767e-11,0.0019910338,5
690584000,0.9791369,-0.0010636506,0.0035448626,0.2031683,0.9999981,-2.473826e-10,-5.820767e-11,0.0019910338,5
690636000,0.97914654,-0.001019322,0.0035580131,0.20312199,0.9999981,-2.473826e-10,-5.820767e-11,0.0019910338,5
690688000,0.9791627,-0.0010350067,0.003585661,0.20304316,0.9999981,-2.473826e-10,-5.820767e-11,0.0019910338,5
690740000,0.97917664,-0.0010648596,0.0036008004,0.20297562,0.9999981,-2.473826e-10,-5.820767e-11,0.0019910338,5
690792000,0.9791873,-0.001049258,0.00362777,0.20292367,0.9999981,-2.473826e-10,-5.820767e-11,0.0019910338,5
690844000,0.979222,-0.0010544927,0.0036417537,0.20275567,0.9999981,-2.473826e-10,-5.820767e-11,0.0019910338,5
690900000,0.979239,-0.0010837541,0.0036601268,0.20267352,0.9999981,-2.473826e-10,-5.820767e-11,0.0019910338,5
690948000,0.97923976,-0.0013302397,0.0037255315,0.20266677,0.9999981,-2.473826e-10,-5.820767e-11,0.0019910338,5
691000000,0.9792467,-0.0015361727,0.0038892752,0.20262909,0.9999981,-2.473826e-10,-5.820767e-11,0.0019910338,5
691052000,0.97925365,-0.0017200378,0.0041465885,0.2025888,0.9999981,-2.473826e-10,-5.820767e-11,0.0019910338,5
691108000,0.97926605,-0.0016841657,0.0041668857,0.20252858,0.9999981,-2.473826e-10,-5.820767e-11,0.0019910338,5
691156000,0.979272,-0.00171634,0.004130976,0.20250066,0.9999981,-2.473826e-10,-5.820767e-11,0.0019910338,5
691208000,0.9792661,-0.00158524,0.0041248286,0.20253022,0.9999981,-2.473826e-10,-5.820767e-11,0.0019910338,5
691260000,0.97925144,-0.0013277794,0.004174881,0.20260194,0.9999981,-2.473826e-10,-5.820767e-11,0.0019910338,5
691312000,0.9792548,-0.0011572387,0.004247017,0.20258501,0.9999981,-2.473826e-10,-5.820767e-11,0.0019910338,5
691364000,0.9792542,-0.0010963999,0.004483261,0.20258313,0.9999981,-2.473826e-10,-5.820767e-11,0.0019910338,5
691416000,0.9792514,-0.001158917,0.004737952,0.20259047,0.9999981,-2.473826e-10,-5.820767e-11,0.0019910338,5
691468000,0.9792348,-0.0013158148,0.004839715,0.20266739,0.9999981,-2.473826e-10,-5.820767e-11,0.0019910338,5
691520000,0.9792395,-0.001448757,0.004695393,0.20264727,0.9999981,-2.473826e-10,-5.820767e-11,0.0019910338,5
691572000,0.9792303,-0.0016532697,0.004572868,0.20269306,0.9999981,-2.473826e-10,-5.820767e-11,0.0019910338,5
691624000,0.97924584,-0.0017327209,0.0045077447,0.20261875,0.9999981,-2.473826e-10,-5.820767e-11,0.0019910338,5
691676000,0.9792548,-0.0018748409,0.004445416,0.20257549,0.9999981,-2.473826e-10,-5.820767e-11,0.0019910338,5
691728000,0.97924787,-0.0021243258,0.004423549,0.2026069,0.9999981,-2.473826e-10,-5.820767e-11,0.0019910338,5
691780000,0.97925043,-0.0023900548,0.004366735,0.20259315,0.9999981,-2.473826e-10,-5.820767e-11,0.0019910338,5
691832000,0.9792374,-0.0024225225,0.004468469,0.20265372,0.9999981,-2.473826e-10,-5.820767e-11,0.0019910338,5
691884000,0.9792429,-0.0024737702,0.004413026,0.20262708,0.9999981,-2.473826e-10,-5.820767e-11,0.0019910338,5
691936000,0.9792302,-0.002420121,0.004303822,0.20269135,0.9999981,-2.473826e-10,-5.820767e-11,0.0019910338,5
691988000,0.9792069,-0.002369052,0.00429201,0.20280513,0.9999981,-2.473826e-10,-5.820767e-11,0.0019910338,5
692040000,0.9791967,-0.0021910577,0.0041947626,0.20285782,0.9999981,-2.473826e-10,-5.820767e-11,0.0019910338,5
692092000,0.9791814,-0.0020549078,0.0041358727,0.20293446,0.9999981,-2.473826e-10,-5.820767e-11,0.0019910338,5
692144000,0.9791871,-0.0018972282,0.004136396,0.20290911,0.9999981,-2.473826e-10,-5.820767e-11,0.0019910338,5
692200000,0.9791862,-0.0018491547,0.0043460256,0.20290938,0.9999981,-2.473826e-10,-5.820767e-11,0.0019910338,5
692248000,0.9791743,-0.0014860596,0.0043884036,0.20296884,0.9999981,-2.473826e-10,-5.820767e-11,0.0019910338,5
692300000,0.9791778,-0.0012136977,0.0043350677,0.20295487,0.9999981,-2.473826e-10,-5.820767e-11,0.0019910338,5
692352000,0.9791694,-0.0008402373,0.0043254904,0.20299718,0.9999981,-2.473826e-10,-5.820767e-11,0.0019910338,5
692404000,0.9791664,-0.0005245844,0.004398486,0.20301126,0.9999981,-2.473826e-10,-5.820767e-11,0.0019910338,5
692456000,0.97917974,-0.0004426959,0.0046335766,0.2029422,0.9999981,-2.473826e-10,-5.820767e-11,0.0019910338,5
692508000,0.9792015,-0.0006469186,0.0046904287,0.202835,0.9999981,-2.473826e-10,-5.820767e-11,0.0019910338,5
692564000,0.9792007,-0.0008641469,0.004585245,0.20284018,0.9999981,-2.473826e-10,-5.820767e-11,0.0019910338,5
692612000,0.9792187,-0.00080323516,0.0043639108,0.20275858,0.9999981,-2.473826e-10,-5.820767e-11,0.0019910338,5
692664000,0.97921795,-0.0007221417,0.004160321,0.20276687,0.9999981,-2.473826e-10,-5.820767e-11,0.0019910338,5
692720000,0.9792105,-0.0007056201,0.004174022,0.20280303,0.9999981,-2.473826e-10,-5.820767e-11,0.0019910338,5
692768000,0.9792221,-0.0005883644,0.004224607,0.20274565,0.9999981,-2.473826e-10,-5.820767e-11,0.0019910338,5
692820000,0.97920907,-0.00049425714,0.0043312353,0.20280705,0.9999981,-2.473826e-10,-5.820767e-11,0.0019910338,5
692872000,0.97920585,-0.0005668374,0.004348272,0.20282228,0.9999981,-2.473826e-10,-5.820767e-11,0.0019910338,5
692924000,0.97919476,-0.0006592211,0.0043623177,0.20287527,0.9999981,-2.473826e-10,-5.820767e-11,0.0019910338,5
692976000,0.97918093,-0.00074611494,0.004322583,0.20294248,0.9999981,-2.473826e-10,-5.820767e-11,0.0019910338,5
693028000,0.9791768,-0.0007367981,0.004416524,0.20295972,0.9999981,-2.473826e-10,-5.820767e-11,0.0019910338,5
693084000,0.9791861,-0.00059441925,0.0044206814,0.20291534,0.9999981,-2.473826e-10,-5.820767e-11,0.0019910338,5
693136000,0.97917724,-0.00040770418,0.0045906124,0.2029551,0.9999981,-2.473826e-10,-5.820767e-11,0.0019910338,5
693184000,0.97917897,-0.00027752892,0.004600119,0.2029468,0.9999981,-2.473826e-10,-5.820767e-11,0.0019910338,5
693236000,0.9791836,-0.00028584054,0.0047862073,0.20292044,0.9999981,-2.473826e-10,-5.820767e-11,0.0019910338,5
693292000,0.97918403,-0.00042342182,0.0049035265,0.2029147,0.9999981,-2.473826e-10,-5.820767e-11,0.0019910338,5
693344000,0.9791775,-0.00048027595,0.0050826576,0.20294209,0.9999981,-2.473826e-10,-5.820767e-11,0.0019910338,5
693396000,0.9791921,-0.0006233335,0.005299884,0.20286535,0.9999981,-2.473826e-10,-5.820767e-11,0.0019910338,5
693448000,0.97918975,-0.00070424145,0.0055135367,0.2028711,0.9999981,-2.473826e-10,-5.820767e-11,0.0019910338,5
693496000,0.9791836,-0.0005944016,0.0057041147,0.20289566,0.9999981,-2.473826e-10,-5.820767e-11,0.0019910338,5
693548000,0.9791978,-0.00070693734,0.005915757,0.20282112,0.9999981,-2.473826e-10,-5.820767e-11,0.0019910338,5
693600000,0.97920054,-0.0007513971,0.005788661,0.20281138,0.9999981,-2.473826e-10,-5.820767e-11,0.0019910338,5
693652000,0.97920203,-0.0005897514,0.0055961064,0.20280981,0.9999981,-2.473826e-10,-5.820767e-11,0.0019910338,5
693708000,0.9792096,-0.0006017757,0.005163691,0.2027845,0.9999981,-2.473826e-10,-5.820767e-11,0.0019910338,5
693756000,0.9792017,-0.00062720134,0.004854507,0.20283063,0.9999981,-2.473826e-10,-5.820767e-11,0.0019910338,5
693812000,0.97919947,-0.0006108335,0.004812538,0.20284183,0.9999981,-2.473826e-10,-5.820767e-11,0.0019910338,5
693860000,0.9791882,-0.0004132252,0.0049778516,0.20289287,0.9999981,-2.473826e-10,-5.820767e-11,0.0019910338,5
693916000,0.9791868,-0.00017806272,0.00523163,0.2028937,0.9999981,-2.473826e-10,-5.820767e-11,0.0019910338,5
693964000,0.9791951,1.130827e-05,0.005367612,0.20285016,0.9999981,-2.473826e-10,-5.820767e-11,0.0019910338,5
694020000,0.97919136,0.00018344675,0.005371244,0.20286787,0.9999981,-2.473826e-10,-5.820767e-11,0.0019910338,5
694068000,0.9791945,0.00029324307,0.005467011,0.2028506,0.9999981,-2.473826e-10,-5.820767e-11,0.0019910338,5
694120000,0.97920805,0.00040701567,0.005629723,0.20277986,0.9999981,-2.473826e-10,-5.820767e-11,0.0019910338,5
694176000,0.9792119,0.00045835495,0.005808742,0.20275593,0.9999981,-2.473826e-10,-5.820767e-11,0.0019910338,5
694224000,0.97922575,0.00045379536,0.0059009106,0.20268701,0.9999981,-2.473826e-10,-5.820767e-11,0.0019910338,5
694276000,0.97922164,0.00043803416,0.006135111,0.20269993,0.9999981,-2.473826e-10,-5.820767e-11,0.0019910338,5
694328000,0.97921175,0.00040427645,0.006351825,0.20274088,0.9999981,-2.473826e-10,-5.820767e-11,0.0019910338,5
694380000,0.9792014,0.000296608,0.0063135843,0.2027924,0.9999981,-2.473826e-10,-5.820767e-11,0.0019910338,5
694432000,0.97919625,0.00037653043,0.0064348956,0.20281297,0.9999981,-2.473826e-10,-5.820767e-11,0.0019910338,5
694484000,0.979193,0.0005497549,0.0067598675,0.20281798,0.9999981,-2.473826e-10,-5.820767e-11,0.0019910338,5
694536000,0.9791869,0.000651463,0.007077548,0.20283629,0.9999981,-2.473826e-10,-5.820767e-11,0.0019910338,5
694588000,0.9791836,0.0007196361,0.0070730317,0.20285182,0.9999981,-2.473826e-10,-5.820767e-11,0.0019910338,5
694644000,0.97918206,0.00041831593,0.0070861396,0.20286018,0.9999981,-2.473826e-10,-5.820767e-11,0.0019910338,5
694692000,0.97917897,0.00034996762,0.0070445486,0.20287621,0.9999981,-2.473826e-10,-5.820767e-11,0.0019910338,5
694748000,0.9791828,0.00023311494,0.0071120225,0.20285553,0.9999981,-2.473826e-10,-5.820767e-11,0.0019910338,5
694796000,0.9791868,0.00019027971,0.0070994343,0.20283695,0.9999981,-2.473826e-10,-5.820767e-11,0.0019910338,5
694848000,0.9791911,-2.3317082e-06,0.0073055997,0.20280889,0.9999981,-2.473826e-10,-5.820767e-11,0.0019910338,5
694904000,0.97918785,-0.0001777404,0.0074330275,0.20282017,0.9999981,-2.473826e-10,-5.820767e-11,0.0019910338,5
694952000,0.97919226,-0.00021548657,0.0073772823,0.20280066,0.9999981,-2.473826e-10,-5.820767e-11,0.0019910338,5
695008000,0.9792011,-3.0887888e-05,0.007019572,0.20277108,0.9999981,-2.473826e-10,-5.820767e-11,0.0019910338,5
695056000,0.9792004,-4.1777298e-07,0.0068094567,0.20278138,0.9999981,-2.473826e-10,-5.820767e-11,0.0019910338,5
695108000,0.9791858,-0.00014392403,0.0067331423,0.20285429,0.9999981,-2.473826e-10,-5.820767e-11,0.0019910338,5
695160000,0.97917783,-9.4878014e-05,0.0068142246,0.20289029,0.9999981,-2.473826e-10,-5.820767e-11,0.0019910338,5
695212000,0.9791759,-0.0001260739,0.006901004,0.20289622,0.9999981,-2.473826e-10,-5.820767e-11,0.0019910338,5
695264000,0.979175,-4.5293287e-05,0.006857475,0.2029024,0.9999981,-2.473826e-10,-5.820767e-11,0.0019910338,5
695316000,0.9791802,-9.029864e-05,0.006921797,0.20287505,0.9999981,-2.473826e-10,-5.820767e-11,0.0019910338,5
695368000,0.9791905,-6.2760255e-06,0.0067577176,0.202831,0.9999981,-2.473826e-10,-5.820767e-11,0.0019910338,5
695420000,0.9791773,0.00010257256,0.006609326,0.20289932,0.9999981,-2.473826e-10,-5.820767e-11,0.0019910338,5
695472000,0.97917163,0.0001351689,0.006620374,0.2029268,0.9999981,-2.473826e-10,-5.820767e-11,0.0019910338,5
695524000,0.97917837,9.684127e-05,0.006668776,0.20289215,0.9999981,-2.473826e-10,-5.820767e-11,0.0019910338,5
695580000,0.97917044,9.0384376e-05,0.00663696,0.20293193,0.9999981,-2.473826e-10,-5.820767e-11,0.0019910338,5
695628000,0.9791644,2.638063e-05,0.0066088676,0.20296156,0.9999981,-2.473826e-10,-5.820767e-11,0.0019910338,5
695680000,0.9791733,-0.00025485767,0.006574517,0.20291969,0.9999981,-2.473826e-10,-5.820767e-11,0.0019910338,5
695732000,0.97916865,-0.0004213873,0.0064527765,0.20294556,0.9999981,-2.473826e-10,-5.820767e-11,0.0019910338,5
695788000,0.979197,-0.0004700771,0.006258282,0.20281509,0.9999981,-2.473826e-10,-5.820767e-11,0.0019910338,5
695836000,0.97919446,-0.00041509987,0.00615058,0.20283079,0.9999981,-2.473826e-10,-5.820767e-11,0.0019910338,5
695888000,0.9791835,-0.0004294044,0.0061617196,0.20288344,0.9999981,-2.473826e-10,-5.820767e-11,0.0019910338,5
695940000,0.97918195,-0.0004303063,0.006134631,0.20289144,0.9999981,-2.473826e-10,-5.820767e-11,0.0019910338,5
695996000,0.97918105,-0.00044965142,0.006245528,0.2028927,0.9999981,-2.473826e-10,-5.820767e-11,0.0019910338,5
696044000,0.9791954,-0.00047361685,0.0063194134,0.20282055,0.9999981,-2.473826e-10,-5.820767e-11,0.0019910338,5
696096000,0.97919106,-0.0006049623,0.006257212,0.20284303,0.9999981,-2.473826e-10,-5.820767e-11,0.0019910338,5
696148000,0.97917527,-0.0007060092,0.0062098806,0.20292059,0.9999981,-2.473826e-10,-5.820767e-11,0.0019910338,5
696200000,0.9791684,-0.0007117974,0.006052364,0.20295861,0.9999981,-2.473826e-10,-5.820767e-11,0.0019910338,5
696256000,0.9791685,-0.00060127437,0.0058652493,0.20296425,0.9999981,-2.473826e-10,-5.820767e-11,0.0019910338,5
696304000,0.9791835,-0.000595419,0.0056774397,0.20289665,0.9999981,-2.473826e-10,-5.820767e-11,0.0019910338,5
696356000,0.97917724,-0.0005250971,0.00534653,0.20293602,0.9999981,-2.473826e-10,-5.820767e-11,0.0019910338,5
696408000,0.979167,-0.00048430526,0.005023403,0.20299408,0.9999981,-2.473826e-10,-5.820767e-11,0.0019910338,5
696464000,0.97917145,-0.00047233666,0.004871744,0.20297633,0.9999981,-2.473826e-10,-5.820767e-11,0.0019910338,5
696512000,0.97917295,-0.00037014193,0.0047870735,0.20297128,0.9999981,-2.473826e-10,-5.820767e-11,0.0019910338,5
696564000,0.9791829,-0.00046288842,0.0046368893,0.20292659,0.9999981,-2.473826e-10,-5.820767e-11,0.0019910338,5
696616000,0.97917914,-0.0004693576,0.004507609,0.20294753,0.9999981,-2.473826e-10,-5.820767e-11,0.0019910338,5
696668000,0.9791867,-0.0005104667,0.0044928533,0.20291108,0.9999981,-2.473826e-10,-5.820767e-11,0.0019910338,5
696720000,0.9791862,-0.00056187954,0.0043810615,0.20291652,0.9999981,-2.473826e-10,-5.820767e-11,0.0019910338,5
696776000,0.9791857,-0.00062667346,0.0043739653,0.20291843,0.9999981,-2.473826e-10,-5.820767e-11,0.0019910338,5
696824000,0.97918403,-0.00053921266,0.004252173,0.20292963,0.9999981,-2.473826e-10,-5.820767e-11,0.0019910338,5
696880000,0.97920245,-0.0006782547,0.0040649143,0.20284353,0.9999981,-2.473826e-10,-5.820767e-11,0.0019910338,5
696928000,0.9791927,-0.0007635268,0.004181134,0.20288837,0.9999981,-2.473826e-10,-5.820767e-11,0.0019910338,5
696980000,0.97920555,-0.000885283,0.004205147,0.20282553,0.9999981,-2.473826e-10,-5.820767e-11,0.0019910338,5
697036000,0.97920066,-0.0010233442,0.0042778696,0.20284656,0.9999981,-2.473826e-10,-5.820767e-11,0.0019910338,5
697088000,0.9791936,-0.0010085682,0.004321159,0.20287956,0.9999981,-2.473826e-10,-5.820767e-11,0.0019910338,5
697136000,0.97920257,-0.00088459085,0.0042758877,0.20283788,0.9999981,-2.473826e-10,-5.820767e-11,0.0019910338,5
697188000,0.9792019,-0.0009357904,0.0040315874,0.20284581,0.9999981,-2.473826e-10,-5.820767e-11,0.0019910338,5
697244000,0.9792036,-0.0010444605,0.004020436,0.20283805,0.9999981,-2.473826e-10,-5.820767e-11,0.0019910338,5
697292000,0.9792052,-0.0010561668,0.0040405826,0.2028293,0.9999981,-2.473826e-10,-5.820767e-11,0.0019910338,5
697344000,0.97920716,-0.0010657305,0.0037756336,0.20282519,0.9999981,-2.473826e-10,-5.820767e-11,0.0019910338,5
697396000,0.9792014,-0.0012082993,0.00360157,0.20285542,0.9999981,-2.473826e-10,-5.820767e-11,0.0019910338,5
697448000,0.97920495,-0.0012533983,0.0034396732,0.20284069,0.9999981,-2.473826e-10,-5.820767e-11,0.0019910338,5
697504000,0.9792075,-0.0013573768,0.0035055692,0.20282637,0.9999981,-2.473826e-10,-5.820767e-11,0.0019910338,5
697552000,0.9792033,-0.0014002105,0.00354777,0.20284578,0.9999981,-2.473826e-10,-5.820767e-11,0.0019910338,5
697608000,0.97919655,-0.0013170387,0.0034829094,0.20287967,0.9999981,-2.473826e-10,-5.820767e-11,0.0019910338,5
697656000,0.97920674,-0.001110154,0.0033615378,0.20283373,0.9999981,-2.473826e-10,-5.820767e-11,0.0019910338,5
697708000,0.97921664,-0.0008520411,0.0031768421,0.20279078,0.9999981,-2.473826e-10,-5.820767e-11,0.0019910338,5
697764000,0.9792143,-0.0008541823,0.0029544,0.20280515,0.9999981,-2.473826e-10,-5.820767e-11,0.0019910338,5
697816000,0.9792053,-0.0008688671,0.002827084,0.20285,0.9999981,-2.473826e-10,-5.820767e-11,0.0019910338,5
697864000,0.97920287,-0.00077987876,0.0025515389,0.20286646,0.9999981,-2.473826e-10,-5.820767e-11,0.0019910338,5
697916000,0.97921073,-0.0006767133,0.0023666986,0.20283073,0.9999981,-2.473826e-10,-5.820767e-11,0.0019910338,5
697972000,0.97922474,-0.0006108322,0.0023354248,0.20276378,0.9999981,-2.473826e-10,-5.820767e-11,0.0019910338,5
698020000,0.9792162,-0.0005326281,0.0023619707,0.20280486,0.9999981,-2.473826e-10,-5.820767e-11,0.0019910338,5
698072000,0.9792186,-0.00062681874,0.0024118093,0.20279215,0.9999981,-2.473826e-10,-5.820767e-11,0.0019910338,5
698124000,0.9792123,-0.0005186208,0.0024686977,0.2028227,0.9999981,-2.473826e-10,-5.820767e-11,0.0019910338,5
698176000,0.9792071,-0.00035785543,0.002515935,0.20284747,0.9999981,-2.473826e-10,-5.820767e-11,0.0019910338,5
698228000,0.979215,-0.00029922594,0.002581891,0.20280819,0.9999981,-2.473826e-10,-5.820767e-11,0.0019910338,5
698284000,0.9792163,-0.00017430265,0.0024026704,0.2028045,0.9999981,-2.473826e-10,-5.820767e-11,0.0019910338,5
698336000,0.97920513,-0.00010593629,0.0022835543,0.20285992,0.9999981,-2.473826e-10,-5.820767e-11,0.0019910338,5
698384000,0.97920173,-6.5617765e-05,0.0022912421,0.20287621,0.9999981,-2.473826e-10,-5.820767e-11,0.0019910338,5
698436000,0.9791941,8.4748615e-05,0.0023737801,0.2029118,0.9999981,-2.473826e-10,-5.820767e-11,0.0019910338,5
698488000,0.9791931,0.00018923233,0.0022215904,0.20291853,0.9999981,-2.473826e-10,-5.820767e-11,0.0019910338,5
698540000,0.97920084,0.00031710538,0.0023246193,0.20287985,0.9999981,-2.473826e-10,-5.820767e-11,0.0019910338,5
698596000,0.9792017,0.0002739011,0.0026901274,0.20287192,0.9999981,-2.473826e-10,-5.820767e-11,0.0019910338,5
698648000,0.9792071,0.00028878174,0.0030239248,0.20284095,0.9999981,-2.473826e-10,-5.820767e-11,0.0019910338,5
698696000,0.9792089,9.840313e-05,0.0032716924,0.20282844,0.9999981,-2.473826e-10,-5.820767e-11,0.0019910338,5
698748000,0.97921777,-5.954353e-05,0.0034132814,0.2027829,0.9999981,-2.473826e-10,-5.820767e-11,0.0019910338,5
698800000,0.9792065,-9.053601e-05,0.003520235,0.20283549,0.9999981,-2.473826e-10,-5.820767e-11,0.0019910338,5
698856000,0.97920644,-1.617071e-05,0.00379876,0.20283085,0.9999981,-2.473826e-10,-5.820767e-11,0.0019910338,5
698908000,0.9791978,5.6618755e-05,0.004034828,0.20286791,0.9999981,-2.473826e-10,-5.820767e-11,0.0019910338,5
698960000,0.97919446,0.00013566359,0.0041094907,0.20288289,0.9999981,-2.473826e-10,-5.820767e-11,0.0019910338,5
699008000,0.9792051,0.00023464502,0.004279491,0.20282777,0.9999981,-2.473826e-10,-5.820767e-11,0.0019910338,5
699064000,0.9792021,-7.702803e-05,0.004128778,0.20284526,0.9999981,-2.473826e-10,-5.820767e-11,0.0019910338,5
699116000,0.97918934,-0.00019013774,0.0039460785,0.20291041,0.9999981,-2.473826e-10,-5.820767e-11,0.0019910338,5
699164000,0.9791953,-0.00023466743,0.003936288,0.20288213,0.9999981,-2.473826e-10,-5.820767e-11,0.0019910338,5
699216000,0.9791932,-0.000119552155,0.0040013986,0.20289122,0.9999981,-2.473826e-10,-5.820767e-11,0.0019910338,5
699272000,0.97920257,-0.00028540703,0.003899215,0.2028477,0.9999981,-2.473826e-10,-5.820767e-11,0.0019910338,5
699324000,0.97919154,-0.00049274194,0.0037922857,0.2029024,0.9999981,-2.473826e-10,-5.820767e-11,0.0019910338,5
699376000,0.97918457,-0.00061667594,0.0036215517,0.20293856,0.9999981,-2.473826e-10,-5.820767e-11,0.0019910338,5
699424000,0.9791745,-0.0006889534,0.003596051,0.2029877,0.9999981,-2.473826e-10,-5.820767e-11,0.0019910338,5
699480000,0.9791706,-0.0006252379,0.0037202276,0.20300415,0.9999981,-2.473826e-10,-5.820767e-11,0.0019910338,5
699528000,0.9791797,-0.0004827313,0.0037847497,0.20295997,0.9999981,-2.473826e-10,-5.820767e-11,0.0019910338,5
699580000,0.97918916,-0.00042410908,0.0040708845,0.20290889,0.9999981,-2.473826e-10,-5.820767e-11,0.0019910338,5
699632000,0.97919387,-0.00044875746,0.0041962997,0.20288312,0.9999981,-2.473826e-10,-5.820767e-11,0.0019910338,5
699688000,0.9791906,-0.0003248476,0.0041383407,0.20290062,0.9999981,-2.473826e-10,-5.820767e-11,0.0019910338,5
699736000,0.97920567,-0.00027604582,0.004123962,0.2028281,0.9999981,-2.473826e-10,-5.820767e-11,0.0019910338,5
699792000,0.9792067,-0.00037260252,0.0041250954,0.20282339,0.9999981,-2.473826e-10,-5.820767e-11,0.0019910338,5
699840000,0.97919893,-0.00049936224,0.004132842,0.20286001,0.9999981,-2.473826e-10,-5.820767e-11,0.0019910338,5
699892000,0.9791998,-0.000441373,0.0039533204,0.20285934,0.9999981,-2.473826e-10,-5.820767e-11,0.0019910338,5
699944000,0.97919667,-0.00039752707,0.0038995566,0.20287575,0.9999981,-2.473826e-10,-5.820767e-11,0.0019910338,5
699996000,0.97920823,-0.0005745827,0.003931801,0.20281865,0.9999981,-2.473826e-10,-5.820767e-11,0.0019910338,5
700048000,0.9792048,-0.00081674336,0.00404558,0.20283239,0.9999981,-2.473826e-10,-5.820767e-11,0.0019910338,5
700100000,0.9791945,-0.0012385369,0.004057637,0.2028798,0.9999981,-2.473826e-10,-5.820767e-11,0.0019910338,5
700156000,0.9791955,-0.0014534498,0.0039655445,0.20287535,0.9999981,-2.473826e-10,-5.820767e-11,0.0019910338,5
700204000,0.9791956,-0.0015784206,0.00396191,0.20287408,0.9999981,-2.473826e-10,-5.820767e-11,0.0019910338,5
700256000,0.9791901,-0.0015188735,0.004029465,0.20289966,0.9999981,-2.473826e-10,-5.820767e-11,0.0019910338,5
700308000,0.97919285,-0.0015075941,0.003949811,0.20288794,0.9999981,-2.473826e-10,-5.820767e-11,0.0019910338,5
700364000,0.97920656,-0.0013795673,0.004032525,0.2028211,0.9999981,-2.473826e-10,-5.820767e-11,0.0019910338,5
700412000,0.97919464,-0.0012115383,0.004158913,0.20287727,0.9999981,-2.473826e-10,-5.820767e-11,0.0019910338,5
700464000,0.9792014,-0.0011649837,0.0042208657,0.2028434,0.9999981,-2.473826e-10,-5.820767e-11,0.0019910338,5
700516000,0.9792032,-0.0009789335,0.0040591056,0.2028393,0.9999981,-2.473826e-10,-5.820767e-11,0.0019910338,5
700568000,0.9792142,-0.00085281854,0.003755475,0.20279212,0.9999981,-2.473826e-10,-5.820767e-11,0.0019910338,5
700620000,0.9792116,-0.00089461386,0.0035805611,0.20280811,0.9999981,-2.473826e-10,-5.820767e-11,0.0019910338,5
700672000,0.9792028,-0.0010974533,0.0035517605,0.20284995,0.9999981,-2.473826e-10,-5.820767e-11,0.0019910338,5
700724000,0.97919416,-0.0012774507,0.0035465506,0.20289087,0.9999981,-2.473826e-10,-5.820767e-11,0.0019910338,5
700776000,0.97920007,-0.0014054565,0.0035344765,0.20286183,0.9999981,-2.473826e-10,-5.820767e-11,0.0019910338,5
700828000,0.97921365,-0.0014346224,0.0036765977,0.2027931,0.9999981,-2.473826e-10,-5.820767e-11,0.0019910338,5
700880000,0.979217,-0.0015547631,0.0036675597,0.2027765,0.9999981,-2.473826e-10,-5.820767e-11,0.0019910338,5
700932000,0.97920674,-0.0013188347,0.003779007,0.20282546,0.9999981,-2.473826e-10,-5.820767e-11,0.0019910338,5
700984000,0.9792016,-0.0011972428,0.0037099363,0.2028526,0.9999981,-2.473826e-10,-5.820767e-11,0.0019910338,5
701036000,0.9791933,-0.0011803521,0.003590146,0.2028949,0.9999981,-2.473826e-10,-5.820767e-11,0.0019910338,5
701088000,0.9791934,-0.0011427114,0.0034201082,0.20289765,0.9999981,-2.473826e-10,-5.820767e-11,0.0019910338,5
701140000,0.9792095,-0.0010887436,0.0032889582,0.20282221,0.9999981,-2.473826e-10,-5.820767e-11,0.0019910338,5
701192000,0.979209,-0.0009284977,0.0033745475,0.20282428,0.9999981,-2.473826e-10,-5.820767e-11,0.0019910338,5
701244000,0.979215,-0.0007152857,0.003338828,0.20279612,0.9999981,-2.473826e-10,-5.820767e-11,0.0019910338,5
701296000,0.9792077,-0.0006827927,0.0032611743,0.20283322,0.9999981,-2.473826e-10,-5.820767e-11,0.0019910338,5
701348000,0.9792153,-0.00050410704,0.0033170115,0.20279615,0.9999981,-2.473826e-10,-5.820767e-11,0.0019910338,5
701400000,0.9792315,-0.00023213145,0.003356046,0.20271757,0.9999981,-2.473826e-10,-5.820767e-11,0.0019910338,5
701452000,0.9792315,2.5710326e-05,0.0033587972,0.20271775,0.9999981,-2.473826e-10,-5.820767e-11,0.0019910338,5
701504000,0.9792296,0.00028217613,0.003253143,0.2027281,0.9999981,-2.473826e-10,-5.820767e-11,0.0019910338,5
701556000,0.9792344,0.00044491206,0.0033140725,0.20270386,0.9999981,-2.473826e-10,-5.820767e-11,0.0019910338,5
701612000,0.97922504,0.00028425004,0.0032717877,0.20275024,0.9999981,-2.473826e-10,-5.820767e-11,0.0019910338,5
701660000,0.97921556,0.00016664177,0.0032234536,0.20279697,0.9999981,-2.473826e-10,-5.820767e-11,0.0019910338,5
701712000,0.97919774,0.00016062064,0.0030755769,0.20288493,0.9999981,-2.473826e-10,-5.820767e-11,0.0019910338,5
701764000,0.9792021,0.00031635445,0.0029778578,0.20286554,0.9999981,-2.473826e-10,-5.820767e-11,0.0019910338,5
701816000,0.9791954,0.00046394693,0.0029333746,0.20289823,0.9999981,-2.473826e-10,-5.820767e-11,0.0019910338,5
701868000,0.9792078,0.00056728284,0.0029612698,0.20283747,0.9999981,-2.473826e-10,-5.820767e-11,0.0019910338,5
701920000,0.97920215,0.00060589693,0.0030053596,0.20286378,0.9999981,-2.473826e-10,-5.820767e-11,0.0019910338,5
701972000,0.97919655,0.0004963571,0.0030558223,0.20289055,0.9999981,-2.473826e-10,-5.820767e-11,0.0019910338,5
702024000,0.97919595,0.0004723882,0.0031120498,0.20289287,0.9999981,-2.473826e-10,-5.820767e-11,0.0019910338,5
702076000,0.9792002,0.00031315122,0.0030774924,0.20287341,0.9999981,-2.473826e-10,-5.820767e-11,0.0019910338,5
702128000,0.97920305,2.1741737e-06,0.0029725574,0.20286115,0.9999981,-2.473826e-10,-5.820767e-11,0.0019910338,5
702184000,0.979211,-0.00023865151,0.0030093705,0.20282228,0.9999981,-2.473826e-10,-5.820767e-11,0.0019910338,5
702236000,0.97921646,-0.00026821572,0.0031267237,0.20279406,0.9999981,-2.473826e-10,-5.820767e-11,0.0019910338,5
702284000,0.9792235,-0.00034864177,0.0031650614,0.20275939,0.9999981,-2.473826e-10,-5.820767e-11,0.0019910338,5
702340000,0.9792191,-0.00027495387,0.0029687998,0.20278387,0.9999981,-2.473826e-10,-5.820767e-11,0.0019910338,5
702388000,0.9792269,-1.3139608e-05,0.0029012433,0.20274729,0.9999981,-2.473826e-10,-5.820767e-11,0.0019910338,5
702440000,0.9792052,0.00021752855,0.0029562847,0.20285098,0.9999981,-2.473826e-10,-5.820767e-11,0.0019910338,5
702492000,0.9791978,0.00035776163,0.0031471138,0.20288342,0.9999981,-2.473826e-10,-5.820767e-11,0.0019910338,5
702544000,0.979194,0.0004541879,0.0032839023,0.20289943,0.9999981,-2.473826e-10,-5.820767e-11,0.0019910338,5
702596000,0.9791985,0.00058168295,0.0032997308,0.20287715,0.9999981,-2.473826e-10,-5.820767e-11,0.0019910338,5
702652000,0.9791998,0.0006368325,0.003306459,0.20287034,0.9999981,-2.473826e-10,-5.820767e-11,0.0019910338,5
702700000,0.97920406,0.00071316736,0.0033563462,0.20284879,0.9999981,-2.473826e-10,-5.820767e-11,0.0019910338,5
702756000,0.9792029,0.00080980005,0.0034369475,0.202853,0.9999981,-2.473826e-10,-5.820767e-11,0.0019910338,5
702804000,0.97919947,0.0008119741,0.003403419,0.20286986,0.9999981,-2.473826e-10,-5.820767e-11,0.0019910338,5
702856000,0.9792099,0.000923873,0.0034649146,0.20281787,0.9999981,-2.473826e-10,-5.820767e-11,0.0019910338,5
702908000,0.97921497,0.0011141162,0.0033282854,0.2027947,0.9999981,-2.473826e-10,-5.820767e-11,0.0019910338,5
702960000,0.97922117,0.0013293045,0.0033311837,0.20276345,0.9999981,-2.473826e-10,-5.820767e-11,0.0019910338,5
703012000,0.9792077,0.0013923023,0.0033499629,0.20282826,0.9999981,-2.473826e-10,-5.820767e-11,0.0019910338,5
703068000,0.9792119,0.0013155049,0.0034858908,0.20280607,0.9999981,-2.473826e-10,-5.820767e-11,0.0019910338,5
703116000,0.97922,0.0011219617,0.003806976,0.20276265,0.9999981,-2.473826e-10,-5.820767e-11,0.0019910338,5
703168000,0.97922933,0.00090569834,0.004014355,0.20271404,0.9999981,-2.473826e-10,-5.820767e-11,0.0019910338,5
703220000,0.97922516,0.0008292622,0.0039576488,0.20273593,0.9999981,-2.473826e-10,-5.820767e-11,0.0019910338,5
703272000,0.97921807,0.0007585008,0.004134091,0.20276678,0.9999981,-2.473826e-10,-5.820767e-11,0.0019910338,5
703324000,0.97921133,0.0006636162,0.0043753926,0.20279452,0.9999981,-2.473826e-10,-5.820767e-11,0.0019910338,5
703380000,0.9792051,0.00073505635,0.00444811,0.20282285,0.9999981,-2.473826e-10,-5.820767e-11,0.0019910338,5
703428000,0.979212,0.0008812365,0.0044365753,0.20278905,0.9999981,-2.473826e-10,-5.820767e-11,0.0019910338,5
703484000,0.97921723,0.0009211821,0.004419755,0.202764,0.9999981,-2.473826e-10,-5.820767e-11,0.0019910338,5
703532000,0.979223,0.00085474085,0.004405293,0.20273668,0.9999981,-2.473826e-10,-5.820767e-11,0.0019910338,5
703584000,0.9792199,0.00065581524,0.0044723353,0.20275131,0.9999981,-2.473826e-10,-5.820767e-11,0.0019910338,5
703636000,0.97920704,0.00047160118,0.0045134057,0.20281292,0.9999981,-2.473826e-10,-5.820767e-11,0.0019910338,5
703688000,0.979192,0.00032328046,0.0046798107,0.2028818,0.9999981,-2.473826e-10,-5.820767e-11,0.0019910338,5
703740000,0.9791879,0.00015695277,0.0046769655,0.20290224,0.9999981,-2.473826e-10,-5.820767e-11,0.0019910338,5
703792000,0.97919583,-0.00012449198,0.004581205,0.20286585,0.9999981,-2.473826e-10,-5.820767e-11,0.0019910338,5
703848000,0.9792059,-0.0002151278,0.004427509,0.20282066,0.9999981,-2.473826e-10,-5.820767e-11,0.0019910338,5
703896000,0.9792308,-0.00016145449,0.0043549645,0.20270197,0.9999981,-2.473826e-10,-5.820767e-11,0.0019910338,5
703948000,0.97923046,-0.00013130496,0.004272909,0.20270564,0.9999981,-2.473826e-10,-5.820767e-11,0.0019910338,5
704000000,0.97921693,-0.00013305257,0.004306453,0.20277019,0.9999981,-2.473826e-10,-5.820767e-11,0.0019910338,5
704052000,0.97921187,-0.00024356246,0.0045371857,0.20278926,0.9999981,-2.473826e-10,-5.820767e-11,0.0019910338,5
704104000,0.9792009,-0.0003507745,0.004601935,0.20284101,0.9999981,-2.473826e-10,-5.820767e-11,0.0019910338,5
704156000,0.9792035,-0.00043657658,0.0044553746,0.20283109,0.9999981,-2.473826e-10,-5.820767e-11,0.0019910338,5
704212000,0.9792131,-0.00057252997,0.004262697,0.20278856,0.9999981,-2.473826e-10,-5.820767e-11,0.0019910338,5
704260000,0.97921103,-0.00055456435,0.0041199266,0.20280157,0.9999981,-2.473826e-10,-5.820767e-11,0.0019910338,5
704312000,0.97920215,-0.0004882032,0.004259155,0.2028419,0.9999981,-2.473826e-10,-5.820767e-11,0.0019910338,5
704364000,0.9791859,-0.0002389121,0.0043551023,0.20291908,0.9999981,-2.473826e-10,-5.820767e-11,0.0019910338,5
704420000,0.9792062,2.9440127e-05,0.004222316,0.2028235,0.9999981,-2.473826e-10,-5.820767e-11,0.0019910338,5
704468000,0.97921187,0.00024614474,0.004020323,0.20280057,0.9999981,-2.473826e-10,-5.820767e-11,0.0019910338,5
704524000,0.9792016,0.0001784247,0.0037519548,0.20285515,0.9999981,-2.473826e-10,-5.820767e-11,0.0019910338,5
704572000,0.97919226,7.49762e-05,0.0037158548,0.20290089,0.9999981,-2.473826e-10,-5.820767e-11,0.0019910338,5
704624000,0.9791837,-0.0001586333,0.003648391,0.20294331,0.9999981,-2.473826e-10,-5.820767e-11,0.0019910338,5
704680000,0.97919506,-0.00033826032,0.0037673698,0.20288612,0.9999981,-2.473826e-10,-5.820767e-11,0.0019910338,5
704728000,0.97920185,-0.000416638,0.0039928295,0.20284876,0.9999981,-2.473826e-10,-5.820767e-11,0.0019910338,5
704780000,0.9791919,-0.0004198612,0.0041012648,0.20289497,0.9999981,-2.473826e-10,-5.820767e-11,0.0019910338,5
704836000,0.97919565,-0.00027088358,0.0042020185,0.20287466,0.9999981,-2.473826e-10,-5.820767e-11,0.0019910338,5
704888000,0.9792075,-0.0001518697,0.004160322,0.20281883,0.9999981,-2.473826e-10,-5.820767e-11,0.0019910338,5
704936000,0.9792094,-0.00031586376,0.003872161,0.2028146,0.9999981,-2.473826e-10,-5.820767e-11,0.0019910338,5
704988000,0.9791945,-0.00066166534,0.0036261894,0.20289053,0.9999981,-2.473826e-10,-5.820767e-11,0.0019910338,5
705040000,0.9791932,-0.0009309724,0.0034102907,0.20289935,0.9999981,-2.473826e-10,-5.820767e-11,0.0019910338,5
705092000,0.97919667,-0.0008972674,0.003468802,0.20288172,0.9999981,-2.473826e-10,-5.820767e-11,0.0019910338,5
705144000,0.9791946,-0.0008454478,0.003356879,0.20289434,0.9999981,-2.473826e-10,-5.820767e-11,0.0019910338,5
705196000,0.97919816,-0.00080193917,0.0030722062,0.2028813,0.9999981,-2.473826e-10,-5.820767e-11,0.0019910338,5
705248000,0.97920597,-0.000762801,0.0030855245,0.20284364,0.9999981,-2.473826e-10,-5.820767e-11,0.0019910338,5
705300000,0.9792042,-0.00077618856,0.0029404792,0.20285459,0.9999981,-2.473826e-10,-5.820767e-11,0.0019910338,5
705352000,0.9792176,-0.00088680757,0.002728778,0.2027922,0.9999981,-2.473826e-10,-5.820767e-11,0.0019910338,5
705404000,0.97921747,-0.0008987187,0.0026102664,0.20279436,0.9999981,-2.473826e-10,-5.820767e-11,0.0019910338,5
705456000,0.9792104,-0.0008742177,0.002958149,0.20282416,0.9999981,-2.473826e-10,-5.820767e-11,0.0019910338,5
705512000,0.9791931,-0.0007023988,0.00340009,0.20290107,0.9999981,-2.473826e-10,-5.820767e-11,0.0019910338,5
705560000,0.97920716,-0.0007161271,0.0035552366,0.20283051,0.9999981,-2.473826e-10,-5.820767e-11,0.0019910338,5
705612000,0.97920716,-0.0006267143,0.0037118571,0.20282811,0.9999981,-2.473826e-10,-5.820767e-11,0.0019910338,5
705664000,0.97919977,-0.00044557627,0.0039941873,0.20285861,0.9999981,-2.473826e-10,-5.820767e-11,0.0019910338,5
705716000,0.9792071,-0.00045891613,0.004289298,0.20281745,0.9999981,-2.473826e-10,-5.820767e-11,0.0019910338,5
705768000,0.97922915,-0.00044925697,0.0045565115,0.20270492,0.9999981,-2.473826e-10,-5.820767e-11,0.0019910338,5
705820000,0.9792175,-0.0004909949,0.004886338,0.20275332,0.9999981,-2.473826e-10,-5.820767e-11,0.0019910338,5
705872000,0.9791987,-0.00065176556,0.0051479265,0.20283777,0.9999981,-2.473826e-10,-5.820767e-11,0.0019910338,5
705924000,0.9791988,-0.00062674895,0.0053481013,0.20283163,0.9999981,-2.473826e-10,-5.820767e-11,0.0019910338,5
705976000,0.9792119,-0.00042616323,0.005387995,0.20276791,0.9999981,-2.473826e-10,-5.820767e-11,0.0019910338,5
706028000,0.9792031,-0.00039630782,0.005274072,0.20281337,0.9999981,-2.473826e-10,-5.820767e-11,0.0019910338,5
706080000,0.97919995,-0.00013479688,0.005041139,0.20283529,0.9999981,-2.473826e-10,-5.820767e-11,0.0019910338,5
706132000,0.97918963,-2.5775853e-05,0.0048226803,0.2028903,0.9999981,-2.473826e-10,-5.820767e-11,0.0019910338,5
706184000,0.97919196,9.177457e-05,0.004724205,0.20288122,0.9999981,-2.473826e-10,-5.820767e-11,0.0019910338,5
706240000,0.9791913,8.818981e-05,0.004532587,0.20288906,0.9999981,-2.473826e-10,-5.820767e-11,0.0019910338,5
706292000,0.97918063,-1.5880876e-05,0.004202043,0.2029477,0.9999981,-2.473826e-10,-5.820767e-11,0.0019910338,5
706340000,0.9791843,-1.4594115e-05,0.0041018086,0.20293175,0.9999981,-2.473826e-10,-5.820767e-11,0.0019910338,5
706392000,0.97917634,4.3189775e-05,0.004169188,0.20296891,0.9999981,-2.473826e-10,-5.820767e-11,0.0019910338,5
706444000,0.97918767,-0.00011483241,0.004137238,0.20291461,0.9999981,-2.473826e-10,-5.820767e-11,0.0019910338,5
706500000,0.979204,-0.0001128534,0.004208445,0.2028346,0.9999981,-2.473826e-10,-5.820767e-11,0.0019910338,5
706548000,0.97919923,-4.5704386e-05,0.0042626723,0.20285666,0.9999981,-2.473826e-10,-5.820767e-11,0.0019910338,5
706600000,0.97919667,8.370052e-05,0.004343319,0.20286712,0.9999981,-2.473826e-10,-5.820767e-11,0.0019910338,5
706652000,0.9792036,0.00014397138,0.004433223,0.20283172,0.9999981,-2.473826e-10,-5.820767e-11,0.0019910338,5
706704000,0.97921467,-2.0101625e-05,0.004481803,0.20277765,0.9999981,-2.473826e-10,-5.820767e-11,0.0019910338,5
706756000,0.9792127,-0.00038453794,0.0044062464,0.20278828,0.9999981,-2.473826e-10,-5.820767e-11,0.0019910338,5
706808000,0.9792136,-0.00078158505,0.0044583804,0.20278181,0.9999981,-2.473826e-10,-5.820767e-11,0.0019910338,5
706864000,0.979208,-0.0008623376,0.004368228,0.20281012,0.9999981,-2.473826e-10,-5.820767e-11,0.0019910338,5
706916000,0.9792017,-0.0007390716,0.0043153777,0.20284243,0.9999981,-2.473826e-10,-5.820767e-11,0.0019910338,5
706964000,0.979197,-0.00046729908,0.0044087297,0.20286365,0.9999981,-2.473826e-10,-5.820767e-11,0.0019910338,5
707016000,0.9792123,-0.00018176867,0.0043902476,0.20279083,0.9999981,-2.473826e-10,-5.820767e-11,0.0019910338,5
707072000,0.9792209,0.00018041318,0.0044577885,0.20274754,0.9999981,-2.473826e-10,-5.820767e-11,0.0019910338,5
707120000,0.9792236,0.00011000934,0.004484902,0.20273387,0.9999981,-2.473826e-10,-5.820767e-11,0.0019910338,5
707172000,0.97923094,-8.9340276e-05,0.0043615573,0.2027013,0.9999981,-2.473826e-10,-5.820767e-11,0.0019910338,5
707228000,0.9792288,-0.00015871077,0.004365808,0.20271154,0.9999981,-2.473826e-10,-5.820767e-11,0.0019910338,5
707276000,0.9792345,-0.00016409808,0.004282285,0.20268561,0.9999981,-2.473826e-10,-5.820767e-11,0.0019910338,5
707332000,0.97924703,-0.00018230888,0.0039527616,0.20263171,0.9999981,-2.473826e-10,-5.820767e-11,0.0019910338,5
707380000,0.97923154,-0.0001871725,0.0038448812,0.20270851,0.9999981,-2.473826e-10,-5.820767e-11,0.0019910338,5
707432000,0.97923166,-0.00021840436,0.003935538,0.20270623,0.9999981,-2.473826e-10,-5.820767e-11,0.0019910338,5
707484000,0.9792139,-0.00022738485,0.004077249,0.20278932,0.9999981,-2.473826e-10,-5.820767e-11,0.0019910338,5
707536000,0.97920024,-0.00020437293,0.0040349127,0.20285603,0.9999981,-2.473826e-10,-5.820767e-11,0.0019910338,5
707588000,0.97919315,-0.00020516194,0.0038300392,0.20289458,0.9999981,-2.473826e-10,-5.820767e-11,0.0019910338,5
707640000,0.9791936,-0.00021773366,0.003460856,0.20289874,0.9999981,-2.473826e-10,-5.820767e-11,0.0019910338,5
707696000,0.9791882,-0.00021522379,0.0032741071,0.2029278,0.9999981,-2.473826e-10,-5.820767e-11,0.0019910338,5
707744000,0.97919184,-0.00029153036,0.0031786868,0.20291194,0.9999981,-2.473826e-10,-5.820767e-11,0.0019910338,5
707800000,0.9792035,-0.00024647574,0.0032391448,0.20285493,0.9999981,-2.473826e-10,-5.820767e-11,0.0019910338,5
707852000,0.97919667,-0.00021815085,0.0035071496,0.20288308,0.9999981,-2.473826e-10,-5.820767e-11,0.0019910338,5
707900000,0.979215,-0.00039407564,0.0036317043,0.20279224,0.9999981,-2.473826e-10,-5.820767e-11,0.0019910338,5
707952000,0.9792219,-0.0004892377,0.0036454261,0.20275861,0.9999981,-2.473826e-10,-5.820767e-11,0.0019910338,5
708004000,0.97923297,-0.0003865583,0.0035344583,0.20270693,0.9999981,-2.473826e-10,-5.820767e-11,0.0019910338,5
708056000,0.97921956,-0.0005573494,0.0034194638,0.20277384,0.9999981,-2.473826e-10,-5.820767e-11,0.0019910338,5
708108000,0.9792165,-0.0005286782,0.0033118213,0.20279013,0.9999981,-2.473826e-10,-5.820767e-11,0.0019910338,5
708160000,0.9792217,-0.0005383796,0.0032471402,0.20276621,0.9999981,-2.473826e-10,-5.820767e-11,0.0019910338,5
708212000,0.9792248,-0.000590766,0.0031097303,0.20275302,0.9999981,-2.473826e-10,-5.820767e-11,0.0019910338,5
708264000,0.9792367,-0.00068569934,0.0030346992,0.20269622,0.9999981,-2.473826e-10,-5.820767e-11,0.0019910338,5
708316000,0.9792368,-0.00070921116,0.0029557631,0.20269714,0.9999981,-2.473826e-10,-5.820767e-11,0.0019910338,5
708372000,0.97924805,-0.0007753241,0.0026755815,0.2026467,0.9999981,-2.473826e-10,-5.820767e-11,0.0019910338,5
708420000,0.9792554,-0.0006331566,0.0025162003,0.20261367,0.9999981,-2.473826e-10,-5.820767e-11,0.0019910338,5
708472000,0.97924477,-0.0006295615,0.00241712,0.20266627,0.9999981,-2.473826e-10,-5.820767e-11,0.0019910338,5
708524000,0.9792413,-0.00043022737,0.0023130788,0.20268458,0.9999981,-2.473826e-10,-5.820767e-11,0.0019910338,5
708576000,0.97923595,-0.00034832675,0.002309708,0.20271046,0.9999981,-2.473826e-10,-5.820767e-11,0.0019910338,5
708628000,0.97922665,-0.0005502195,0.0025441854,0.20275223,0.9999981,-2.473826e-10,-5.820767e-11,0.0019910338,5
708680000,0.97923315,-0.0006587334,0.0028927012,0.20271592,0.9999981,-2.473826e-10,-5.820767e-11,0.0019910338,5
708732000,0.9792234,-0.00045630167,0.0030960543,0.20276102,0.9999981,-2.473826e-10,-5.820767e-11,0.0019910338,5
708788000,0.97922426,-0.00018515898,0.003247911,0.20275445,0.9999981,-2.473826e-10,-5.820767e-11,0.0019910338,5
708836000,0.979224,-8.490706e-05,0.0032119132,0.2027562,0.9999981,-2.473826e-10,-5.820767e-11,0.0019910338,5
708888000,0.97922593,0.00014544684,0.0031155108,0.20274867,0.9999981,-2.473826e-10,-5.820767e-11,0.0019910338,5
708940000,0.9792399,0.00039374607,0.0027602757,0.20268582,0.9999981,-2.473826e-10,-5.820767e-11,0.0019910338,5
708992000,0.9792255,0.000565708,0.0021881042,0.20276165,0.9999981,-2.473826e-10,-5.820767e-11,0.0019910338,5
709044000,0.9792166,0.0004615401,0.0017512997,0.20280947,0.9999981,-2.473826e-10,-5.820767e-11,0.0019910338,5
709096000,0.97920376,0.00027598205,0.0015942011,0.20287268,0.9999981,-2.473826e-10,-5.820767e-11,0.0019910338,5
709152000,0.9792053,1.01586775e-05,0.0015391515,0.20286599,0.9999981,-2.473826e-10,-5.820767e-11,0.0019910338,5
709200000,0.9792194,-6.375604e-05,0.0015395109,0.20279802,0.9999981,-2.473826e-10,-5.820767e-11,0.0019910338,5
709256000,0.9792139,3.691414e-05,0.0014205581,0.2028253,0.9999981,-2.473826e-10,-5.820767e-11,0.0019910338,5
709304000,0.9792123,1.3778693e-05,0.0013106047,0.20283404,0.9999981,-2.473826e-10,-5.820767e-11,0.0019910338,5
709356000,0.9792057,3.2983986e-05,0.0013199878,0.20286573,0.9999981,-2.473826e-10,-5.820767e-11,0.0019910338,5
709408000,0.9792035,4.406485e-05,0.0013740842,0.20287606,0.9999981,-2.473826e-10,-5.820767e-11,0.0019910338,5
709464000,0.9792159,8.003873e-05,0.0014036755,0.20281614,0.9999981,-2.473826e-10,-5.820767e-11,0.0019910338,5
709512000,0.97921926,0.00027092206,0.0013295299,0.20280029,0.9999981,-2.473826e-10,-5.820767e-11,0.0019910338,5
709564000,0.97922087,0.0003588051,0.0012954137,0.20279273,0.9999981,-2.473826e-10,-5.820767e-11,0.0019910338,5
709616000,0.97921515,0.00014270094,0.0015210635,0.20281869,0.9999981,-2.473826e-10,-5.820767e-11,0.0019910338,5
709668000,0.9792109,-0.00023107714,0.0017640963,0.20283686,0.9999981,-2.473826e-10,-5.820767e-11,0.0019910338,5
709720000,0.97921836,-0.00037771487,0.0018606322,0.20280017,0.9999981,-2.473826e-10,-5.820767e-11,0.0019910338,5
709772000,0.979217,-0.0004192375,0.0020177178,0.20280515,0.9999981,-2.473826e-10,-5.820767e-11,0.0019910338,5
709824000,0.97922313,-0.00044640733,0.0020404623,0.20277525,0.9999981,-2.473826e-10,-5.820767e-11,0.0019910338,5
709876000,0.9792235,-0.00041432155,0.0018346163,0.20277582,0.9999981,-2.473826e-10,-5.820767e-11,0.0019910338,5
709928000,0.9792193,-0.00039820463,0.0016606074,0.2027971,0.9999981,-2.473826e-10,-5.820767e-11,0.0019910338,5
709984000,0.9792247,-0.0006130263,0.0017149516,0.20277022,0.9999981,-2.473826e-10,-5.820767e-11,0.0019910338,5
710036000,0.97922206,-0.0004984625,0.0017985787,0.20278227,0.9999981,-2.473826e-10,-5.820767e-11,0.0019910338,5
710084000,0.9792156,-0.00043766,0.0018976402,0.20281285,0.9999981,-2.473826e-10,-5.820767e-11,0.0019910338,5
710140000,0.9792023,-0.0004187769,0.0019458231,0.20287682,0.9999981,-2.473826e-10,-5.820767e-11,0.0019910338,5
710192000,0.9792036,-0.00034871916,0.0019191462,0.20287125,0.9999981,-2.473826e-10,-5.820767e-11,0.0019910338,5
710240000,0.97921205,-0.00027538126,0.0017732607,0.20283134,0.9999981,-2.473826e-10,-5.820767e-11,0.0019910338,5
710292000,0.9792178,-0.00034996428,0.0017304029,0.20280369,0.9999981,-2.473826e-10,-5.820767e-11,0.0019910338,5
710344000,0.9792073,-0.0005244265,0.001896699,0.20285334,0.9999981,-2.473826e-10,-5.820767e-11,0.0019910338,5
710400000,0.97921073,-0.0005784219,0.002011567,0.20283504,0.9999981,-2.473826e-10,-5.820767e-11,0.0019910338,5
710448000,0.97921365,-0.00046729864,0.0020596362,0.2028204,0.9999981,-2.473826e-10,-5.820767e-11,0.0019910338,5
710500000,0.9792203,-0.00030094016,0.0020908122,0.2027889,0.9999981,-2.473826e-10,-5.820767e-11,0.0019910338,5
710552000,0.979216,-0.00015583324,0.0021277221,0.20280913,0.9999981,-2.473826e-10,-5.820767e-11,0.0019910338,5
710608000,0.9792148,-5.920503e-05,0.002084293,0.2028155,0.9999981,-2.473826e-10,-5.820767e-11,0.0019910338,5
710656000,0.97921205,-9.370729e-05,0.0021316267,0.2028283,0.9999981,-2.473826e-10,-5.820767e-11,0.0019910338,5
710712000,0.97921,-0.00012270577,0.0021789253,0.20283772,0.9999981,-2.473826e-10,-5.820767e-11,0.0019910338,5
710760000,0.9792272,7.2280454e-05,0.002126176,0.20275524,0.9999981,-2.473826e-10,-5.820767e-11,0.0019910338,5
710812000,0.9792249,1.5105298e-05,0.0020429383,0.20276694,0.9999981,-2.473826e-10,-5.820767e-11,0.0019910338,5
710864000,0.9792305,-9.584123e-05,0.0020153439,0.2027405,0.9999981,-2.473826e-10,-5.820767e-11,0.0019910338,5
710916000,0.97922975,-6.479634e-05,0.0018964641,0.20274507,0.9999981,-2.473826e-10,-5.820767e-11,0.0019910338,5
710968000,0.97922534,-0.00016033044,0.0018678226,0.2027666,0.9999981,-2.473826e-10,-5.820767e-11,0.0019910338,5
711024000,0.97921294,-0.00011092984,0.00188235,0.20282666,0.9999981,-2.473826e-10,-5.820767e-11,0.0019910338,5
711072000,0.97922075,-0.00011855696,0.0019024956,0.20278868,0.9999981,-2.473826e-10,-5.820767e-11,0.0019910338,5
711124000,0.97922117,-0.000100885816,0.0020015484,0.20278527,0.9999981,-2.473826e-10,-5.820767e-11,0.0019910338,5
711180000,0.9792392,-4.8110443e-05,0.0019311617,0.202699,0.9999981,-2.473826e-10,-5.820767e-11,0.0019910338,5
711228000,0.97922105,0.00015961795,0.0017571694,0.20278801,0.9999981,-2.473826e-10,-5.820767e-11,0.0019910338,5
711280000,0.9792207,0.00044735087,0.0014957063,0.20279165,0.9999981,-2.473826e-10,-5.820767e-11,0.0019910338,5
711332000,0.9792229,0.00045131645,0.0012329972,0.2027828,0.9999981,-2.473826e-10,-5.820767e-11,0.0019910338,5
711384000,0.9792128,0.00032388343,0.00090126705,0.20283337,0.9999981,-2.473826e-10,-5.820767e-11,0.0019910338,5
711436000,0.9792162,0.00025789122,0.0006127812,0.20281833,0.9999981,-2.473826e-10,-5.820767e-11,0.0019910338,5
711488000,0.97922486,0.00017233197,0.00048251898,0.20277691,0.9999981,-2.473826e-10,-5.820767e-11,0.0019910338,5
711544000,0.979217,0.00019021925,0.0004993465,0.20281443,0.9999981,-2.473826e-10,-5.820767e-11,0.0019910338,5
711596000,0.97921026,7.356034e-05,0.00044253244,0.20284733,0.9999981,-2.473826e-10,-5.820767e-11,0.0019910338,5
711648000,0.97921544,0.00018577678,0.0004974196,0.20282231,0.9999981,-2.473826e-10,-5.820767e-11,0.0019910338,5
711700000,0.9792062,0.00038719396,0.00064527756,0.20286596,0.9999981,-2.473826e-10,-5.820767e-11,0.0019910338,5
711748000,0.9792063,0.00027558784,0.000609096,0.20286584,0.9999981,-2.473826e-10,-5.820767e-11,0.0019910338,5
711800000,0.9792188,0.00014562244,0.0006921204,0.20280583,0.9999981,-2.473826e-10,-5.820767e-11,0.0019910338,5
711852000,0.9792294,0.00012314117,0.00062661106,0.2027547,0.9999981,-2.473826e-10,-5.820767e-11,0.0019910338,5
711904000,0.9792262,0.00013769735,0.0005154195,0.20277044,0.9999981,-2.473826e-10,-5.820767e-11,0.0019910338,5
711956000,0.9792115,0.00017334761,0.00036792754,0.20284143,0.9999981,-2.473826e-10,-5.820767e-11,0.0019910338,5
712008000,0.97920954,0.0001426409,0.00023710317,0.20285127,0.9999981,-2.473826e-10,-5.820767e-11,0.0019910338,5
712060000,0.9791968,0.00034846575,0.00013607305,0.20291293,0.9999981,-2.473826e-10,-5.820767e-11,0.0019910338,5
712112000,0.9791973,0.0004317954,1.9410203e-05,0.20291004,0.9999981,-2.473826e-10,-5.820767e-11,0.0019910338,5
712164000,0.9792146,0.00043645815,0.00020380324,0.20282641,0.9999981,-2.473826e-10,-5.820767e-11,0.0019910338,5
712216000,0.9792225,0.0005144549,0.00025383098,0.20278856,0.9999981,-2.473826e-10,-5.820767e-11,0.0019910338,5
712268000,0.97922033,0.0006732752,0.0003136305,0.20279786,0.9999981,-2.473826e-10,-5.820767e-11,0.0019910338,5
712320000,0.9792199,0.00069253665,0.00028928768,0.20280008,0.9999981,-2.473826e-10,-5.820767e-11,0.0019910338,5
712372000,0.97922033,0.00077955675,0.00028396212,0.20279796,0.9999981,-2.473826e-10,-5.820767e-11,0.0019910338,5
712424000,0.97921014,0.0009000004,0.00021439859,0.2028462,0.9999981,-2.473826e-10,-5.820767e-11,0.0019910338,5
712476000,0.97922176,0.00082761626,-7.161626e-05,0.20279098,0.9999981,-2.473826e-10,-5.820767e-11,0.0019910338,5
712532000,0.97922343,0.0005804638,-9.234489e-05,0.20278394,0.9999981,-2.473826e-10,-5.820767e-11,0.0019910338,5
712580000,0.9792122,0.0006234782,9.144168e-06,0.20283768,0.9999981,-2.473826e-10,-5.820767e-11,0.0019910338,5
712632000,0.97919387,0.00048642282,0.00011727987,0.20292673,0.9999981,-2.473826e-10,-5.820767e-11,0.0019910338,5
712684000,0.97921276,0.00043293065,0.00019070988,0.2028356,0.9999981,-2.473826e-10,-5.820767e-11,0.0019910338,5
712736000,0.9792144,0.00060683617,0.00017306917,0.20282723,0.9999981,-2.473826e-10,-5.820767e-11,0.0019910338,5
712788000,0.97922254,0.0007579686,0.00015701917,0.20278712,0.9999981,-2.473826e-10,-5.820767e-11,0.0019910338,5
712840000,0.97922367,0.0007141636,0.00019686595,0.2027816,0.9999981,-2.473826e-10,-5.820767e-11,0.0019910338,5
712896000,0.9792297,0.0007140136,0.00019447676,0.20275308,0.9999981,-2.473826e-10,-5.820767e-11,0.0019910338,5
712948000,0.97922623,0.0009325145,0.00020216678,0.20276843,0.9999981,-2.473826e-10,-5.820767e-11,0.0019910338,5
712996000,0.9792196,0.0011908144,8.819619e-06,0.20279942,0.9999981,-2.473826e-10,-5.820767e-11,0.0019910338,5
713048000,0.97921675,0.0014942052,0.00019940142,0.20281108,0.9999981,-2.473826e-10,-5.820767e-11,0.0019910338,5
713100000,0.9792211,0.0016578841,0.0006453793,0.20278762,0.9999981,-2.473826e-10,-5.820767e-11,0.0019910338,5
713152000,0.97920567,0.0017160709,0.0008569228,0.20286141,0.9999981,-2.473826e-10,-5.820767e-11,0.0019910338,5
713204000,0.97920114,0.0016306381,0.001070958,0.20288286,0.9999981,-2.473826e-10,-5.820767e-11,0.0019910338,5
713256000,0.97921306,0.0014360074,0.0011549328,0.20282617,0.9999981,-2.473826e-10,-5.820767e-11,0.0019910338,5
713308000,0.97922236,0.001155906,0.0012992906,0.20278198,0.9999981,-2.473826e-10,-5.820767e-11,0.0019910338,5
713360000,0.9792218,0.0010610628,0.0012218284,0.20278573,0.9999981,-2.473826e-10,-5.820767e-11,0.0019910338,5
713416000,0.9792139,0.0009891477,0.0009641605,0.2028259,0.9999981,-2.473826e-10,-5.820767e-11,0.0019910338,5
713464000,0.9791957,0.0009358949,0.0008703826,0.20291439,0.9999981,-2.473826e-10,-5.820767e-11,0.0019910338,5
713520000,0.979207,0.0006787812,0.0007907049,0.2028614,0.9999981,-2.473826e-10,-5.820767e-11,0.0019910338,5
713568000,0.97920746,0.0004933279,0.00057807995,0.20286009,0.9999981,-2.473826e-10,-5.820767e-11,0.0019910338,5
713624000,0.98089254,-0.019928966,-0.02027146,0.1924624,0.9999981,-2.473826e-10,-5.820767e-11,0.0019910338,5
713672000,0.9849922,-0.03739556,-0.04328989,0.16284303,0.9999981,-2.473826e-10,-5.820767e-11,0.0019910338,5
713724000,0.9909191,-0.043491635,-0.056225814,0.1141342,0.9999981,-2.473826e-10,-5.820767e-11,0.0019910338,5
713780000,0.99560916,-0.04695355,-0.060923267,0.053350434,0.9999981,-2.473826e-10,-5.820767e-11,0.0019910338,5
713828000,0.9972444,-0.046405897,-0.057875473,0.000836832,0.9999981,-2.473826e-10,-5.820767e-11,0.0019910338,5
713880000,0.9965396,-0.040611666,-0.050102178,-0.05243514,0.9999981,-2.473826e-10,-5.820767e-11,0.0019910338,5
713936000,0.99333394,-0.031162815,-0.040522177,-0.10331793,0.9999981,-2.473826e-10,-5.820767e-11,0.0019910338,5
713984000,0.9891561,-0.02318845,-0.033217434,-0.1411709,0.9999981,-2.473826e-10,-5.820767e-11,0.0019910338,5
714036000,0.9837266,-0.016956508,-0.027599303,-0.17672744,0.9999981,-2.473826e-10,-5.820767e-11,0.0019910338,5
714088000,0.977873,-0.013888371,-0.025144683,-0.2072181,0.9999981,-2.473826e-10,-5.820767e-11,0.0019910338,5
714140000,0.97200197,-0.012665641,-0.02523381,-0.23327032,0.9999981,-2.473826e-10,-5.820767e-11,0.0019910338,5
714192000,0.9663908,-0.012412403,-0.026638092,-0.25539246,0.9999981,-2.473826e-10,-5.820767e-11,0.0019910338,5
714244000,0.9611948,-0.012544756,-0.028502706,-0.27410737,0.9999981,-2.473826e-10,-5.820767e-11,0.0019910338,5
714296000,0.9564731,-0.012703519,-0.030251976,-0.2899702,0.9999981,-2.473826e-10,-5.820767e-11,0.0019910338,5
714348000,0.95226854,-0.012850058,-0.031754985,-0.30333337,0.9999981,-2.473826e-10,-5.820767e-11,0.0019910338,5
714400000,0.94856894,-0.012957169,-0.032840855,-0.31459582,0.9999981,-2.473826e-10,-5.820767e-11,0.0019910338,5
714452000,0.94533545,-0.012946201,-0.033536293,-0.3241123,0.9999981,-2.473826e-10,-5.820767e-11,0.0019910338,5
