timestamp,roll,pitch,yaw,thrust_body[0],thrust_body[1],thrust_body[2]
686476000,-0.0037202672,-0.05421738,-1.1424077,0.0,0.0,0.0
686500000,-0.0038554524,-0.054645993,-1.1423576,0.0,0.0,0.0
686520000,-0.0042546494,-0.05471115,-1.1424437,0.0,0.0,0.0
686536000,-0.0042465273,-0.05467369,-1.142457,0.0,0.0,0.0
686556000,-0.004668999,-0.054420233,-1.1424248,0.0,0.0,0.0
686576000,-0.00426454,-0.05532659,-1.1425683,0.0,0.0,0.0
686596000,-0.004058636,-0.055506088,-1.1426233,0.0,0.0,0.0
686616000,-0.0037735084,-0.05549268,-1.1426102,0.0,0.0,0.0
686636000,-0.003536004,-0.055268615,-1.1425745,0.0,0.0,0.0
686660000,-0.0038931419,-0.055054754,-1.1425596,0.0,0.0,0.0
686680000,-0.0041985563,-0.0554396,-1.1427286,0.0,0.0,0.0
686700000,-0.003832922,-0.05539044,-1.1429293,0.0,0.0,0.0
686720000,-0.003448799,-0.055237647,-1.1428719,0.0,0.0,0.0
686740000,-0.0031273006,-0.055644467,-1.142977,0.0,0.0,0.0
686760000,-0.0025977718,-0.05549252,-1.1431819,0.0,0.0,0.0
686780000,-0.002692136,-0.055700235,-1.1429459,0.0,0.0,0.0
686800000,-0.0028783754,-0.055679478,-1.1428261,0.0,0.0,0.0
686820000,-0.0027434777,-0.055799324,-1.1426193,0.0,0.0,0.0
686840000,-0.0030984841,-0.05580218,-1.1425471,0.0,0.0,0.0
686856000,-0.003560754,-0.055741236,-1.1427755,0.0,0.0,0.0
686880000,-0.0036562127,-0.055629518,-1.1430372,0.0,0.0,0.0
686896000,-0.0034254147,-0.055612966,-1.1428986,0.0,0.0,0.0
686920000,-0.004078953,-0.05600732,-1.1428311,0.0,0.0,0.0
686936000,-0.003807289,-0.05582467,-1.1428179,0.0,0.0,0.0
686960000,-0.003408065,-0.055336863,-1.1427243,0.0,0.0,0.0
686976000,-0.0030957107,-0.055943206,-1.1426845,0.0,0.0,0.0
686996000,-0.0025111442,-0.056353156,-1.142835,0.0,0.0,0.0
687016000,-0.0026257732,-0.056511395,-1.1427964,0.0,0.0,0.0
687040000,-0.0028005815,-0.056309693,-1.1425722,0.0,0.0,0.0
687060000,-0.0032456063,-0.056351513,-1.1424996,0.0,0.0,0.0
687080000,-0.0039321817,-0.056282837,-1.1427317,0.0,0.0,0.0
687096000,-0.0039534103,-0.056365795,-1.1425811,0.0,0.0,0.0
687116000,-0.004082237,-0.056297638,-1.1424832,0.0,0.0,0.0
687140000,-0.0042208005,-0.057047218,-1.142581,0.0,0.0,0.0
687160000,-0.0043285354,-0.05734764,-1.1428128,0.0,0.0,0.0
687180000,-0.0044483063,-0.057727464,-1.1427447,0.0,0.0,0.0
687200000,-0.0046962416,-0.05781719,-1.1427857,0.0,0.0,0.0
687220000,-0.0047708913,-0.057815183,-1.1429255,0.0,0.0,0.0
687236000,-0.004636772,-0.05805891,-1.1428905,0.0,0.0,0.0
687256000,-0.004742716,-0.058032654,-1.1428658,0.0,0.0,0.0
687276000,-0.0049473736,-0.05812498,-1.1429939,0.0,0.0,0.0
687296000,-0.0049984828,-0.058261726,-1.1431372,0.0,0.0,0.0
687316000,-0.0051938905,-0.05817186,-1.1431245,0.0,0.0,0.0
687340000,-0.005217595,-0.05797074,-1.1430165,0.0,0.0,0.0
687356000,-0.0050686686,-0.057827856,-1.1428953,0.0,0.0,0.0
687376000,-0.005441398,-0.057908773,-1.1427987,0.0,0.0,0.0
687396000,-0.0057881908,-0.057740822,-1.1427944,0.0,0.0,0.0
687416000,-0.0061684633,-0.05753153,-1.1427902,0.0,0.0,0.0
687436000,-0.006061974,-0.056779414,-1.1428163,0.0,0.0,0.0
687460000,-0.0062087146,-0.056762014,-1.1428732,0.0,0.0,0.0
687476000,-0.005811268,-0.056966417,-1.142868,0.0,0.0,0.0
687492000,1.0061827,0.67812103,-0.027382135,0.0,0.0,-0.12268087
687512000,0.62333477,0.3745352,-0.010168433,0.0,0.0,-0.12098852
687536000,0.39752778,0.1555765,-0.0030788183,0.0,0.0,-0.12035476
687552000,0.29625362,-0.042236064,1.6987324e-05,0.0,0.0,-0.120158345
687580000,0.20634499,-0.20895074,0.0015349388,0.0,0.0,-0.12011706
687600000,0.10423415,-0.31946936,0.0014051199,0.0,0.0,-0.12013639
687616000,0.10439913,-0.3196688,0.0014013648,0.0,0.0,-0.12013639
687640000,0.06697974,-0.3394138,0.0010260344,0.0,0.0,-0.12115686
687660000,0.049721852,-0.32533038,0.00070381165,0.0,0.0,-0.13553514
687680000,0.03281495,-0.3020746,0.0006367564,0.0,0.0,-0.14950214
687700000,0.03098242,-0.27251112,0.00044685602,0.0,0.0,-0.16057488
687712000,0.032922383,-0.2591445,0.00038176775,0.0,0.0,-0.17436051
687736000,0.022785798,-0.24669296,0.00032275915,0.0,0.0,-0.18848577
687760000,0.013454575,-0.25578237,0.00014019012,0.0,0.0,-0.2004538
687780000,0.024728052,-0.23708165,4.631281e-05,0.0,0.0,-0.21514238
687796000,0.023782773,-0.21816704,0.00017631054,0.0,0.0,-0.22940288
687820000,0.01024318,-0.22524776,-7.1525574e-07,0.0,0.0,-0.24085145
687840000,-0.0013199179,-0.21799275,-0.00026232004,0.0,0.0,-0.2556787
687856000,-0.009813499,-0.20930672,-0.00036031008,0.0,0.0,-0.2705628
687876000,-0.01100797,-0.19824776,-0.0006555319,0.0,0.0,-0.282319
687896000,-0.015042884,-0.19936952,-0.00098598,0.0,0.0,-0.29762983
687916000,-0.009357357,-0.1936436,-0.0010498166,0.0,0.0,-0.31257802
687940000,-0.01681446,-0.18419915,-0.0014162064,0.0,0.0,-0.3386235
687960000,-0.016828561,-0.1802634,-0.0015277863,0.0,0.0,-0.35321155
687976000,-0.017693901,-0.1859703,-0.0014677048,0.0,0.0,-0.36495298
687996000,-0.0236178,-0.18302077,-0.0014076233,0.0,0.0,-0.3797644
688016000,-0.019997532,-0.17472103,-0.0014365911,0.0,0.0,-0.39460945
688040000,-0.019260135,-0.16990983,-0.0015812516,0.0,0.0,-0.40678346
688060000,-0.010003287,-0.16763596,-0.0015660524,0.0,0.0,-0.42202744
688076000,-0.014157641,-0.16295291,-0.0017695427,0.0,0.0,-0.43713847
688096000,-0.010867793,-0.15831919,-0.0017023087,0.0,0.0,-0.44924328
688120000,-0.015177906,-0.15208614,-0.0017205477,0.0,0.0,-0.464598
688140000,-0.012693081,-0.15708676,-0.001694262,0.0,0.0,-0.48033783
688156000,-0.015311298,-0.15661234,-0.0015204549,0.0,0.0,-0.4928972
688176000,-0.019413982,-0.15044355,-0.0014315844,0.0,0.0,-0.5086565
688200000,-0.021693025,-0.14892046,-0.0015783906,0.0,0.0,-0.5365271
688216000,-0.022103416,-0.14919248,-0.0016974807,0.0,0.0,-0.5365271
688236000,-0.020611003,-0.14522529,-0.0015326142,0.0,0.0,-0.5672991
688260000,-0.022597779,-0.1456287,-0.0013852715,0.0,0.0,-0.5800582
688276000,-0.019585898,-0.13456975,-0.0015099049,0.0,0.0,-0.5930391
688296000,-0.021886036,-0.11960855,-0.0015249252,0.0,0.0,-0.604282
688320000,-0.02327245,-0.088412724,-0.0016000271,0.0,0.0,-0.6070585
688340000,-0.021005567,-0.062694736,-0.0016935468,0.0,0.0,-0.6132872
688360000,-0.018261742,-0.04266625,-0.0018703938,0.0,0.0,-0.61749315
688380000,-0.011367562,-0.012738248,-0.001982689,0.0,0.0,-0.6103197
688400000,-0.009686133,0.0126343295,-0.0019469261,0.0,0.0,-0.6120711
688420000,-0.0035307726,0.037141904,-0.0020207763,0.0,0.0,-0.61315817
688440000,0.003824321,0.068476774,-0.0018848777,0.0,0.0,-0.60568225
688460000,0.0072829644,0.08801776,-0.0019428134,0.0,0.0,-0.61038953
688480000,0.013860231,0.11300047,-0.0016191602,0.0,0.0,-0.6045538
688496000,0.010052902,0.118033946,-0.0016043186,0.0,0.0,-0.6082933
688516000,0.009125157,0.11741006,-0.0015944839,0.0,0.0,-0.6082933
688536000,0.010648358,0.13794523,-0.0015799999,0.0,0.0,-0.6074128
688560000,0.009474026,0.13318492,-0.0012048483,0.0,0.0,-0.611496
688580000,0.010547263,0.12752637,-0.0008019805,0.0,0.0,-0.6155792
688596000,0.005767561,0.14031628,-0.00074261427,0.0,0.0,-0.6105229
688620000,0.004432771,0.13340768,-0.00046813488,0.0,0.0,-0.6136344
688636000,0.0030743172,0.12646307,-0.00040394068,0.0,0.0,-0.61636674
688660000,0.0010305257,0.12541537,-0.00023835897,0.0,0.0,-0.6114658
688676000,0.0035123373,0.11892843,-0.00039714575,0.0,0.0,-0.61507714
688700000,-0.00087606814,0.10644865,-0.0005375147,0.0,0.0,-0.61847764
688716000,-0.0018059188,0.11087583,-0.00051516294,0.0,0.0,-0.6128526
688740000,0.0011293204,0.09740069,-0.00039553642,0.0,0.0,-0.619285
688760000,0.0033772406,0.09168544,-0.00019401312,0.0,0.0,-0.6134479
688780000,0.0017385352,0.08097622,-7.43866e-05,0.0,0.0,-0.6165963
688796000,0.0018252963,0.07792482,-1.3947487e-05,0.0,0.0,-0.6165963
688816000,-0.0033251527,0.07613659,0.00011712313,0.0,0.0,-0.61378354
688836000,-0.0054892623,0.07422306,9.2446804e-05,0.0,0.0,-0.616542
688860000,-0.0045491788,0.069245145,9.906292e-05,0.0,0.0,-0.6197238
688880000,-0.0064422456,0.062333032,-8.940697e-06,0.0,0.0,-0.6149159
688896000,-0.00605204,0.06263487,-9.083748e-05,0.0,0.0,-0.6184338
688920000,-0.006198476,0.05983131,-2.7537346e-05,0.0,0.0,-0.62198865
688936000,-0.006231248,0.05620718,-0.00029540062,0.0,0.0,-0.6168256
688960000,-0.0066636703,0.05169957,-0.0004969239,0.0,0.0,-0.6202039
688976000,-0.0055590416,0.05328299,-0.0003851652,0.0,0.0,-0.6240073
689000000,-0.0037593932,0.03670542,-0.00030899048,0.0,0.0,-0.62241393
689020000,-0.0038509096,0.037692443,-0.00043308735,0.0,0.0,-0.62581676
689036000,-0.0030324133,0.03730178,-0.00046545267,0.0,0.0,-0.62581676
689060000,-0.0013910341,0.03895887,-0.0004566908,0.0,0.0,-0.62319595
689080000,-0.001050124,0.042155594,-0.00030881166,0.0,0.0,-0.626081
689096000,-0.006492632,0.04088894,-0.00051891804,0.0,0.0,-0.61995614
689116000,-0.0049611935,0.03933188,-0.0005135536,0.0,0.0,-0.6228452
689136000,-0.0051135435,0.04054681,-0.00035744905,0.0,0.0,-0.6260316
689160000,-0.00260455,0.039752476,-0.0004799366,0.0,0.0,-0.6210141
689180000,0.00035857223,0.039884556,-0.00037819147,0.0,0.0,-0.6243753
689196000,2.1116808e-05,0.040864497,-0.0005427003,0.0,0.0,-0.6283186
689220000,0.0010227549,0.037528895,-0.00041270256,0.0,0.0,-0.6228735
689236000,-0.00087888516,0.037358157,-0.00046133995,0.0,0.0,-0.62590456
689260000,-0.0027743261,0.03861395,-0.0005040765,0.0,0.0,-0.62882084
689280000,-0.005003841,0.037205085,-0.00058436394,0.0,0.0,-0.62674373
689300000,-0.0045885625,0.03650788,-0.0006430149,0.0,0.0,-0.62674373
689320000,-0.00273852,0.028300792,-0.00049334764,0.0,0.0,-0.62395734
689336000,-0.0021093423,0.028736848,-0.00036370754,0.0,0.0,-0.62395734
689356000,0.0029369644,0.028018707,-0.00040626526,0.0,0.0,-0.6301016
689380000,0.006459057,0.02796806,-0.00027751923,0.0,0.0,-0.62436324
689396000,0.0044691977,0.026023258,-0.00022745132,0.0,0.0,-0.6275448
689416000,0.004645278,0.026276283,-8.136034e-05,0.0,0.0,-0.63083386
689440000,0.0019986285,0.024543237,4.6491623e-06,0.0,0.0,-0.62539166
689456000,0.0003988766,0.024485623,0.00019454956,0.0,0.0,-0.62873006
689476000,-0.0025562542,0.0248719,0.00014466047,0.0,0.0,-0.6328924
689500000,-0.0036316076,0.02632307,0.00011497736,0.0,0.0,-0.6280517
689520000,0.00075623486,0.020880722,0.00015681982,0.0,0.0,-0.6309718
689540000,0.00043933187,0.02291426,9.7095966e-05,0.0,0.0,-0.63464856
689560000,0.00023574661,0.025557255,-9.1552734e-05,0.0,0.0,-0.63230586
689576000,0.0006861796,0.026016673,-2.592802e-05,0.0,0.0,-0.63230586
689596000,-0.0014722568,0.025094468,3.361702e-05,0.0,0.0,-0.6346663
689620000,-0.006341829,0.021360762,-0.00017309189,0.0,0.0,-0.63154465
689640000,-0.0073460666,0.02215577,-0.00012713671,0.0,0.0,-0.6340936
689656000,-0.0035176089,0.022576237,-9.548664e-05,0.0,0.0,-0.62762517
689676000,-0.0002586369,0.022365049,-0.000120162964,0.0,0.0,-0.6312191
689700000,-0.003482592,0.019973109,-0.00029093027,0.0,0.0,-0.6345906
689716000,-7.722527e-05,0.024399234,-0.00026643276,0.0,0.0,-0.63018554
689740000,0.0025337508,0.021950679,-0.00019830465,0.0,0.0,-0.63422984
689756000,0.0031909004,0.021339504,-0.00011640787,0.0,0.0,-0.63806
689776000,0.0008451089,0.02418562,0.00016665459,0.0,0.0,-0.633441
689796000,0.0031493478,0.020078953,0.00018829107,0.0,0.0,-0.63610816
689816000,0.004509204,0.019102149,0.00012892485,0.0,0.0,-0.6395913
689836000,0.0061587975,0.02013931,0.000179708,0.0,0.0,-0.6331879
689860000,0.005788248,0.018329246,0.00014948845,0.0,0.0,-0.6398955
689880000,0.0076948623,0.014833541,4.506111e-05,0.0,0.0,-0.63485473
689900000,0.007195695,0.019866694,0.00023514032,0.0,0.0,-0.63821876
689920000,0.0020074567,0.024313346,0.00039035082,0.0,0.0,-0.64196885
689940000,-0.00042668637,0.022678692,-0.0106601715,0.0,0.0,-0.6365199
689960000,0.0008015132,0.023149155,-0.010597408,0.0,0.0,-0.63937736
689972000,0.0042595505,0.022803921,-0.010209918,0.0,0.0,-0.6427981
690000000,0.0063557914,0.026032744,-0.00998193,0.0,0.0,-0.6377988
690020000,0.010704657,0.028809914,-0.00962162,0.0,0.0,-0.6411159
690036000,0.0067492733,0.024980385,-0.009319782,0.0,0.0,-0.6446738
690056000,0.006932223,0.022618838,-0.008752227,0.0,0.0,-0.6386115
690080000,0.006868695,0.021962836,-0.008199513,0.0,0.0,-0.6411659
690096000,0.0127356425,0.024200846,-0.007840812,0.0,0.0,-0.64416045
690120000,0.013403656,0.019489694,-0.007638216,0.0,0.0,-0.6387368
690140000,0.006325965,0.01620816,-0.007144332,0.0,0.0,-0.64201975
690156000,0.00935296,0.0131419245,-0.0067287683,0.0,0.0,-0.6457648
690180000,0.009515196,0.022424314,-0.006026566,0.0,0.0,-0.6121043
690200000,0.005417632,0.024985615,-0.005307913,0.0,0.0,-0.5952276
690220000,0.002968129,0.028812192,-0.00458014,0.0,0.0,-0.56153023
690236000,0.00518369,0.026450308,-0.003826797,0.0,0.0,-0.5509317
690256000,0.0021307566,0.030425537,-0.0033747554,0.0,0.0,-0.54417896
690280000,-0.0029700254,0.029352548,-0.0029758215,0.0,0.0,-0.5307396
690300000,-0.005322943,0.028973885,-0.002592802,0.0,0.0,-0.534178
690316000,0.00069722347,0.025337044,-0.0021178722,0.0,0.0,-0.5406524
690340000,0.0027051126,0.025012124,-0.0017488003,0.0,0.0,-0.5419674
690360000,0.0025055024,0.023057371,-0.0014854074,0.0,0.0,-0.5521416
690376000,0.0036006344,0.023071844,-0.0014880896,0.0,0.0,-0.5620714
690400000,-0.0031472712,0.009991076,-0.0016238093,0.0,0.0,-0.56890523
690420000,-0.003618467,0.00857025,-0.001714468,0.0,0.0,-0.56890523
690440000,0.0019620499,0.0067731775,-0.0017439723,0.0,0.0,-0.5672225
690460000,0.0009621915,0.00935946,-0.0017475486,0.0,0.0,-0.5698578
690476000,0.0029499207,0.012493635,-0.0016095042,0.0,0.0,-0.57286364
690500000,0.0052612675,0.0083403485,-0.0016484857,0.0,0.0,-0.56434745
690516000,0.008011291,0.009638846,-0.0015392303,0.0,0.0,-0.56713057
690540000,0.0032431637,0.009814844,-0.0015056133,0.0,0.0,-0.5699683
690556000,-0.002238068,0.009745212,-0.0017046332,0.0,0.0,-0.56352365
690576000,-0.0011862663,0.009213427,-0.0016497374,0.0,0.0,-0.5680671
690596000,0.0014042384,0.008742075,-0.0015027523,0.0,0.0,-0.5717815
690616000,0.00037764735,0.008117586,-0.0010786057,0.0,0.0,-0.5652834
690636000,0.002789966,0.0088773,-0.0012754798,0.0,0.0,-0.5693469
690660000,0.00090279174,0.00994174,-0.001026392,0.0,0.0,-0.5728024
690680000,-0.00030098855,0.010186139,-0.0009089112,0.0,0.0,-0.5694051
690696000,-0.0004728525,0.010471946,-0.0008350611,0.0,0.0,-0.5694051
690716000,0.003759651,0.012462389,-0.0006952286,0.0,0.0,-0.57206297
690740000,-0.00030080415,0.006806571,-0.0005046129,0.0,0.0,-0.569818
690756000,-0.0010522697,0.0064339,-0.00034600496,0.0,0.0,-0.569818
690776000,-0.0046667187,0.008915107,-0.00012499094,0.0,0.0,-0.56697005
690800000,-0.0028952847,0.01117059,-0.000115156174,0.0,0.0,-0.5708414
690816000,-0.0019611858,0.00786306,0.0002092123,0.0,0.0,-0.57444876
690840000,-0.005313687,0.010977128,0.0006920099,0.0,0.0,-0.56716704
690856000,-0.00564861,0.014599072,0.0009673834,0.0,0.0,-0.5705221
690876000,-0.0047318507,0.013132539,0.0012141466,0.0,0.0,-0.57406753
690896000,-0.009464273,0.011334286,0.0013196468,0.0,0.0,-0.5671819
690920000,-0.005192818,0.016298093,0.0013439655,0.0,0.0,-0.57075447
690936000,-0.004104632,0.019062895,0.0012143254,0.0,0.0,-0.5741223
690956000,-0.0034891572,0.022891855,0.0012044907,0.0,0.0,-0.56813586
690976000,-0.0024104188,0.0151304165,0.0013682842,0.0,0.0,-0.5726135
691000000,-0.002529291,0.015187062,0.001562655,0.0,0.0,-0.56971127
691020000,0.0011787673,0.009893354,0.001532793,0.0,0.0,-0.5734437
691036000,0.001752116,0.0031586927,0.0015544295,0.0,0.0,-0.5764349
691060000,0.002199512,0.006933981,0.0017650723,0.0,0.0,-0.5699909
691076000,-0.0016528331,0.008499654,0.0017380714,0.0,0.0,-0.57335883
691100000,0.0005604685,0.006995613,0.0020256042,0.0,0.0,-0.57693917
691116000,0.0034980078,0.0053626373,0.002087295,0.0,0.0,-0.5702446
691140000,0.0076278644,0.0021339674,0.0020173788,0.0,0.0,-0.5745055
691156000,0.010635484,0.009349184,0.0022371411,0.0,0.0,-0.578338
691180000,0.009265125,0.0072615286,0.00229007,0.0,0.0,-0.57188016
691196000,0.008577109,0.007299379,0.0022916794,0.0,0.0,-0.57598436
691220000,0.0089587,0.0077346563,0.0020688772,0.0,0.0,-0.5795752
691236000,0.0095238015,0.006901415,0.0019735694,0.0,0.0,-0.5729216
691260000,0.00534245,0.009326266,0.0018290877,0.0,0.0,-0.57651675
691276000,0.0047961725,0.012643651,0.0016956925,0.0,0.0,-0.5801664
691300000,0.002017228,0.020097163,0.0017091036,0.0,0.0,-0.57660776
691316000,-0.00085314363,0.015484887,0.001796186,0.0,0.0,-0.57988316
691340000,-0.0007709912,0.016328186,0.0016556382,0.0,0.0,-0.57381797
691360000,0.0015864791,0.012946088,0.0017650723,0.0,0.0,-0.5773344
691380000,-0.0017112703,0.012055064,0.0017665029,0.0,0.0,-0.5808585
691400000,-0.007795152,0.009619925,0.0017700791,0.0,0.0,-0.5747216
691416000,-0.0059391554,0.008136567,0.0017589927,0.0,0.0,-0.5782401
691436000,-0.0071139056,0.0033188993,0.0016527772,0.0,0.0,-0.5817968
691456000,-0.0105055235,-0.0034920895,0.001591444,0.0,0.0,-0.5748665
691480000,-0.0073932423,0.0013664556,0.0013505816,0.0,0.0,-0.5782919
691496000,-0.0012712064,0.0019480682,0.0014131665,0.0,0.0,-0.5818623
691520000,0.00037301704,0.0041828626,0.0014662743,0.0,0.0,-0.5745473
691532000,-0.0031585589,0.0026432145,0.001280129,0.0,0.0,-0.57757694
691556000,-0.0010267315,0.004724947,0.0013101697,0.0,0.0,-0.58119065
691580000,-0.005700212,0.0038758735,0.0012524128,0.0,0.0,-0.57797843
691596000,-0.0059257904,0.0038820456,0.0013142824,0.0,0.0,-0.57797843
691612000,-0.0030272584,0.0038368944,0.0015133023,0.0,0.0,-0.5818113
691640000,-0.009472392,0.0054488163,0.0017046332,0.0,0.0,-0.5791292
691656000,-0.010630116,0.0073256115,0.0016878247,0.0,0.0,-0.582489
691680000,-0.015695583,0.0065735634,0.0018716455,0.0,0.0,-0.5763725
691700000,-0.010226567,0.0064992625,0.0016964078,0.0,0.0,-0.5798347
691716000,-0.008029519,0.004469488,0.0016846061,0.0,0.0,-0.5834773
691736000,-0.004996979,0.005684415,0.0017162561,0.0,0.0,-0.57650083
691760000,-0.001723181,0.009557133,0.0017083883,0.0,0.0,-0.57963145
691780000,-0.0007844162,0.007958263,0.0017852783,0.0,0.0,-0.582611
691796000,-0.0039024262,0.0023635807,0.0016724467,0.0,0.0,-0.5757407
691816000,-0.0025569513,0.0024527153,0.0014879107,0.0,0.0,-0.5790841
691840000,0.0003013832,0.001833549,0.001429081,0.0,0.0,-0.5755848
691856000,0.0010888756,-0.0021593003,0.0014800429,0.0,0.0,-0.57908446
691880000,0.00067371223,0.001053504,0.0016325712,0.0,0.0,-0.5826639
691896000,0.005497746,0.0028642179,0.0015370846,0.0,0.0,-0.576209
691920000,0.0012334962,0.0034911025,0.0013157129,0.0,0.0,-0.579817
691940000,0.003430185,0.0043749097,0.001218617,0.0,0.0,-0.58354485
691956000,0.0025805582,0.005495795,0.0010557175,0.0,0.0,-0.57705635
691980000,0.0058217878,-0.00057803595,0.0007889271,0.0,0.0,-0.5798701
691996000,0.00650164,-0.0016619159,0.000531435,0.0,0.0,-0.58336884
692016000,0.0028094002,-0.0039364933,0.0004888773,0.0,0.0,-0.57584256
692036000,0.0063858274,-0.001960529,0.0003156066,0.0,0.0,-0.57916915
692060000,0.009111366,0.0006253144,4.8279762e-05,0.0,0.0,-0.5826883
692076000,0.00850559,0.0015845132,-0.0001809597,0.0,0.0,-0.5759104
692100000,0.004811728,0.009319989,-0.00022405386,0.0,0.0,-0.5828879
692116000,0.0040578544,0.009763688,-0.00018650293,0.0,0.0,-0.5828879
692136000,0.009317178,0.008251814,-5.5611134e-05,0.0,0.0,-0.57993364
692156000,0.00943211,0.005128038,-2.3245811e-06,0.0,0.0,-0.5830883
692176000,0.008478692,0.0027098092,-0.00017344952,0.0,0.0,-0.5764334
692196000,0.012198506,-0.0023674062,-8.225441e-06,0.0,0.0,-0.5798409
692216000,0.012521302,-0.0007717239,-0.000102996826,0.0,0.0,-0.5839052
692240000,0.01098684,-0.0013981373,-0.00034582615,0.0,0.0,-0.57747835
692260000,0.013267335,-0.002498042,-0.00047421455,0.0,0.0,-0.58110255
692280000,0.012649781,0.00036716,-0.00048422813,0.0,0.0,-0.58477956
692296000,0.0130365975,0.0017658719,-0.00031989813,0.0,0.0,-0.5774974
692320000,0.013414652,0.0018958185,-0.00036424398,0.0,0.0,-0.5807991
692336000,0.013183043,0.003270912,-0.00046920776,0.0,0.0,-0.58432436
692356000,0.009748656,0.009165169,-0.000577569,0.0,0.0,-0.57733727
692376000,0.007390627,0.010112513,-0.0007612109,0.0,0.0,-0.58126515
692400000,0.004557929,0.011219866,-0.0007300973,0.0,0.0,-0.57803
692416000,-0.00053076027,0.009337961,-0.00071811676,0.0,0.0,-0.5815562
692436000,-0.0012013279,0.008220125,-0.0007225871,0.0,0.0,-0.5815562
692456000,-0.008914775,0.00013877777,-0.00039303303,0.0,0.0,-0.57773894
692480000,-0.0061827223,-0.0014192676,4.5239925e-05,0.0,0.0,-0.58146554
692500000,-0.00641446,-0.005279407,0.00032186508,0.0,0.0,-0.585174
692520000,-0.0055579664,-0.0021965913,0.0002757311,0.0,0.0,-0.57845426
692536000,-0.004056737,-0.0063393805,0.00041019917,0.0,0.0,-0.58215356
692556000,-0.002178722,-0.004395603,0.00035190582,0.0,0.0,-0.5848952
692576000,0.002092267,-0.005975551,0.0005108714,0.0,0.0,-0.5781985
692600000,0.0015162458,-0.0033874568,0.00073206425,0.0,0.0,-0.5816199
692620000,0.004281722,-0.0018717939,0.0008647442,0.0,0.0,-0.58502823
692636000,0.0045335693,0.0008406093,0.0009046197,0.0,0.0,-0.5782197
692660000,0.0034203138,0.0017113608,0.0007941127,0.0,0.0,-0.5820512
692680000,0.005672998,0.004671543,0.000695765,0.0,0.0,-0.57861596
692696000,0.0053153588,0.004939021,0.0005829334,0.0,0.0,-0.58174366
692720000,0.005666324,-0.00015383805,0.0005325079,0.0,0.0,-0.58511287
692740000,0.0023081366,0.004075546,0.0004323721,0.0,0.0,-0.5780073
692760000,9.1876136e-05,0.0058083795,0.00065624714,0.0,0.0,-0.5814372
692780000,0.0023137797,0.0039066477,0.000838995,0.0,0.0,-0.5853365
692796000,0.0014824688,0.0018118249,0.0007406473,0.0,0.0,-0.578809
692812000,-0.005298538,0.0028788375,0.00059241056,0.0,0.0,-0.5824781
692836000,-0.0038319833,0.0028533048,0.00043165684,0.0,0.0,-0.5859535
692856000,-0.0015216095,0.001271723,0.000639081,0.0,0.0,-0.5793279
692880000,-0.0011576121,0.0012989147,0.00039875507,0.0,0.0,-0.5833028
692896000,-0.00019254,0.0011384925,0.00022816658,0.0,0.0,-0.58691293
692920000,-0.002741103,0.0064414577,0.00012552738,0.0,0.0,-0.5799226
692936000,-0.004143034,0.0047281673,-5.2571297e-05,0.0,0.0,-0.5834598
692956000,-0.001953832,-6.85486e-05,6.7055225e-05,0.0,0.0,-0.58629787
692980000,0.008502905,0.00260377,-0.00026410818,0.0,0.0,-0.5821397
692996000,0.006379373,0.0057259426,-0.00033456087,0.0,0.0,-0.585414
693020000,0.007689638,0.0049722428,-0.00043433905,0.0,0.0,-0.5791153
693040000,0.008223721,0.008384738,-0.00032633543,0.0,0.0,-0.58237183
693056000,0.011056051,0.0048595015,-0.00034689903,0.0,0.0,-0.58623284
693080000,0.011945011,0.005706598,-0.000118374825,0.0,0.0,-0.58033615
693096000,0.009649609,0.002030078,-0.00016057491,0.0,0.0,-0.58439285
693116000,0.007601918,0.0036873096,-0.00034207106,0.0,0.0,-0.588194
693140000,0.0060904007,0.0038776766,-0.0003490448,0.0,0.0,-0.5814252
693156000,0.0016471655,0.0034325332,-0.00016272068,0.0,0.0,-0.58516794
693180000,0.0022514407,0.0051545706,-0.00032275915,0.0,0.0,-0.58876795
693200000,-0.0036898535,0.0035730773,-0.00016236305,0.0,0.0,-0.584605
693220000,-0.003252374,0.0025675166,-0.00010603666,0.0,0.0,-0.584605
693240000,0.00037380075,0.010323742,-0.0001603961,0.0,0.0,-0.58079726
693256000,-0.0019769557,0.011031169,5.6505203e-05,0.0,0.0,-0.58452857
693280000,-0.0010289876,0.012172297,-6.7055225e-05,0.0,0.0,-0.5882344
693296000,-0.0013169814,0.013783917,-0.00015252829,0.0,0.0,-0.5812644
693320000,-0.0003771633,0.00971433,-0.00012820959,0.0,0.0,-0.58450234
693336000,-0.003577895,0.0036738503,-0.00022244453,0.0,0.0,-0.5878727
693360000,0.00010707043,0.008722413,-0.00017040968,0.0,0.0,-0.5808045
693380000,0.002190004,0.010793358,3.3974648e-05,0.0,0.0,-0.58407474
693400000,0.0044162082,0.012213316,0.00015503168,0.0,0.0,-0.5799963
693416000,0.0041413615,0.010755204,0.00011104345,0.0,0.0,-0.5835491
693440000,0.0029470716,0.010324886,0.00025981665,0.0,0.0,-0.5875143
693456000,0.0016854862,0.010529192,5.865097e-05,0.0,0.0,-0.58163357
693480000,-0.001652597,0.00554049,-1.1622906e-05,0.0,0.0,-0.58566684
693500000,0.001854049,0.0047524394,-2.0742416e-05,0.0,0.0,-0.5895304
693516000,-0.0022486662,0.0037125614,0.00012409687,0.0,0.0,-0.5821162
693540000,0.00083992677,-0.0061223926,0.00027018785,0.0,0.0,-0.58500326
693556000,0.002281902,-0.0077931015,0.00048977137,0.0,0.0,-0.5871406
693576000,0.0038172444,-0.011234752,0.0005850792,0.0,0.0,-0.5793855
693600000,0.00082992995,-0.008557256,0.00049746037,0.0,0.0,-0.58558726
693620000,-0.0011258237,-0.01461258,0.00048351288,0.0,0.0,-0.5789228
693636000,-0.0060527455,-0.011901697,0.0004849434,0.0,0.0,-0.5823298
693656000,-0.0052825985,-0.012391859,0.0004786849,0.0,0.0,-0.58634055
693680000,-0.002152312,-0.0064598112,0.0005233884,0.0,0.0,-0.57977074
693700000,-0.0024284958,-0.0030009358,0.0005645156,0.0,0.0,-0.58307123
693720000,-0.0023486582,-0.0017733618,0.00057041645,0.0,0.0,-0.58715016
693740000,0.0019759163,-0.0025608116,0.0004774332,0.0,0.0,-0.58061725
693760000,0.00726042,0.00038223548,0.00036728382,0.0,0.0,-0.5841243
693776000,0.008007582,0.0032083876,0.00054985285,0.0,0.0,-0.58704865
693796000,0.011042345,0.009053203,0.00047671795,0.0,0.0,-0.58091027
693820000,0.009659205,0.008236162,0.0002655387,0.0,0.0,-0.5881892
693840000,0.009291994,0.011652156,9.602308e-05,0.0,0.0,-0.5815658
693860000,0.00761009,0.0058826054,6.759167e-05,0.0,0.0,-0.584992
693880000,0.010715735,0.008622158,1.3232231e-05,0.0,0.0,-0.5880419
693896000,0.009036006,0.0063946587,9.512901e-05,0.0,0.0,-0.58184594
693916000,0.005572145,0.0012742663,-6.7949295e-06,0.0,0.0,-0.58568555
693936000,0.0057003046,0.00028292756,6.955862e-05,0.0,0.0,-0.589234
693956000,0.008277955,-0.0014632418,0.00016129017,0.0,0.0,-0.58237326
693980000,0.0071139196,0.0029090997,0.00018596649,0.0,0.0,-0.58590746
694000000,0.0071900245,0.0027482663,8.314848e-05,0.0,0.0,-0.5888647
694020000,0.008067756,0.006025209,0.00016665459,0.0,0.0,-0.5811589
694040000,0.0063256696,0.008010177,0.00016540289,0.0,0.0,-0.58440787
694056000,0.0041901316,0.009370411,0.00010961294,0.0,0.0,-0.58703434
694080000,0.0013876157,0.011117313,0.00029432774,0.0,0.0,-0.5825428
694100000,0.00056537613,0.01086073,0.0003646016,0.0,0.0,-0.5825428
694116000,-0.0009989776,0.0039375518,0.00048029423,0.0,0.0,-0.5856922
694140000,0.0026446846,0.006065665,0.0006968379,0.0,0.0,-0.5819266
694160000,0.002573363,0.0057620667,0.0007696152,0.0,0.0,-0.58525866
694176000,0.0028903917,0.010092741,0.000731349,0.0,0.0,-0.5789985
694200000,-0.00015288452,0.013470905,0.00088584423,0.0,0.0,-0.58338207
694220000,0.0012591071,0.011059685,0.0009970665,0.0,0.0,-0.5874115
694240000,0.00057217106,0.00929741,0.0011851788,0.0,0.0,-0.5810545
694260000,-0.0015534237,0.0075360527,0.0011020303,0.0,0.0,-0.5847902
694276000,-0.003410271,0.0053072846,0.001101315,0.0,0.0,-0.58813214
694300000,-0.0028755027,-0.001863287,0.00086063147,0.0,0.0,-0.58143955
694316000,0.00096416334,0.0012372353,0.00076282024,0.0,0.0,-0.58417904
694340000,-0.00038055237,-0.00069283706,0.000792861,0.0,0.0,-0.5872656
694356000,0.0042531844,0.0018218125,0.0005595088,0.0,0.0,-0.58066267
694380000,0.006967914,0.011741546,0.00051283836,0.0,0.0,-0.58796096
694400000,0.004435544,0.012499421,0.00055861473,0.0,0.0,-0.5804991
694420000,0.0073198574,0.012461451,0.00036728382,0.0,0.0,-0.58337307
694440000,0.009075698,0.013223506,0.00029826164,0.0,0.0,-0.5863732
694456000,0.012222891,0.012602275,0.00012516975,0.0,0.0,-0.5794896
694480000,0.006958659,0.00842396,0.0002374649,0.0,0.0,-0.58317286
694496000,0.003723585,0.005708547,0.0005096197,0.0,0.0,-0.58705
694516000,0.0026666522,0.004544216,0.0003694296,0.0,0.0,-0.5801942
694536000,-0.0054096803,-0.0014837126,0.00031775236,0.0,0.0,-0.5832018
694560000,-0.007976558,-0.00037390774,0.000106573105,0.0,0.0,-0.58607346
694580000,-0.00955176,0.004596329,6.723404e-05,0.0,0.0,-0.5795027
694600000,-0.0060475348,0.007126162,0.00024855137,0.0,0.0,-0.5830582
694620000,-0.005092174,0.004766784,0.00018793344,0.0,0.0,-0.5859605
694640000,-0.0040802155,0.0015730252,0.00014179945,0.0,0.0,-0.57876843
694656000,-0.0034989598,0.0015350576,2.7894974e-05,0.0,0.0,-0.57876843
694676000,-0.0029687122,-0.00022211485,8.279085e-05,0.0,0.0,-0.5770872
694700000,-0.00067050895,0.004152147,6.6161156e-06,0.0,0.0,-0.564054
694720000,-0.0031368616,0.0029813584,4.631281e-05,0.0,0.0,-0.5635563
694740000,-0.0036827861,0.0062996633,0.0003722906,0.0,0.0,-0.5572176
694760000,-0.00056156097,0.008636212,9.2446804e-05,0.0,0.0,-0.55884486
694780000,-0.0047879233,0.012696267,3.129244e-05,0.0,0.0,-0.5617966
694796000,-0.008988194,0.0074001434,0.00020742416,0.0,0.0,-0.5592512
694816000,-0.0044096033,0.008684294,0.00018417835,0.0,0.0,-0.5625753
694840000,-0.004239976,0.0048756246,0.00036799908,0.0,0.0,-0.56654686
694856000,-0.0014626449,-0.00078378816,0.00050497055,0.0,0.0,-0.56378156
694880000,-0.0017406251,0.0008057927,0.00042396784,0.0,0.0,-0.5663845
694900000,-0.001742187,-0.0012095786,0.0003157854,0.0,0.0,-0.5686291
694916000,-0.00012279348,-0.010627114,0.0003617406,0.0,0.0,-0.56508684
694936000,0.0018186453,-0.013463574,0.00049352646,0.0,0.0,-0.5667374
694960000,0.0046541337,-0.009059107,0.00050103664,0.0,0.0,-0.5637801
694980000,0.0008639521,-0.004462534,0.0005480647,0.0,0.0,-0.5655922
695000000,-0.0017074719,-0.0028660218,0.00072544813,0.0,0.0,-0.56772006
695020000,-0.002909578,0.0020024679,0.00067198277,0.0,0.0,-0.56417954
695040000,-0.0028320635,0.00012924532,0.00054073334,0.0,0.0,-0.5665813
695056000,-0.00028774096,-0.002158937,0.00057184696,0.0,0.0,-0.56856656
695076000,0.006890289,0.0055839806,0.0005709529,0.0,0.0,-0.5649288
695096000,0.0045611034,0.0010765587,0.00041216612,0.0,0.0,-0.5671566
695116000,0.001591194,0.004331946,0.0001578927,0.0,0.0,-0.5694687
695136000,-0.0066954377,0.0054158913,2.1457672e-05,0.0,0.0,-0.5646419
695156000,-4.943926e-05,0.0043289545,-0.00010192394,0.0,0.0,-0.5652575
695180000,0.003428802,0.0040205847,0.00022780895,0.0,0.0,-0.56690955
695196000,0.0017328481,0.00608067,0.0001450181,0.0,0.0,-0.5624277
695216000,0.0012914669,-0.00049987796,-5.9366226e-05,0.0,0.0,-0.56410813
695236000,-0.0007626568,-0.00020508518,-1.9848347e-05,0.0,0.0,-0.56660366
695256000,0.0019716052,-0.0021818797,-0.00014716387,0.0,0.0,-0.5631442
695280000,-0.00071459496,-0.002964933,-1.7881393e-06,0.0,0.0,-0.56677055
695296000,0.002351561,-0.0031330632,-8.940697e-06,0.0,0.0,-0.56284696
695316000,0.0029164972,-0.0040644254,3.4689903e-05,0.0,0.0,-0.5653008
695340000,0.0031145532,-0.0034161573,0.0001283884,0.0,0.0,-0.5675287
695356000,0.0029678685,-0.0039181793,0.00027143955,0.0,0.0,-0.5643702
695376000,0.002644123,-0.0018699979,0.00019723177,0.0,0.0,-0.56590754
695400000,0.004678495,-0.0016847709,0.00012052059,0.0,0.0,-0.5675883
695416000,-0.0007545152,0.0029085043,-7.0631504e-05,0.0,0.0,-0.56381756
695440000,-0.0012473948,0.0016764668,-0.000119805336,0.0,0.0,-0.56557167
695456000,0.00026143156,0.0004410083,-0.0002939701,0.0,0.0,-0.56739557
695472000,0.00086222123,0.004670096,-0.00024354458,0.0,0.0,-0.5632957
695496000,-0.0012423852,0.0028117,-1.4483929e-05,0.0,0.0,-0.564633
695516000,-0.0034782817,-0.0001306183,-0.00016415119,0.0,0.0,-0.56616765
695536000,-0.0059857587,-0.0029781698,-9.584427e-05,0.0,0.0,-0.564114
695556000,-0.0061155623,-0.0026976485,4.1127205e-06,0.0,0.0,-0.564114
695580000,-0.006743656,0.0013923019,-0.00026643276,0.0,0.0,-0.5622128
695600000,-0.010854165,0.0005679522,-0.0001899004,0.0,0.0,-0.5646195
695620000,-0.0089620855,0.0016563912,-0.00024819374,0.0,0.0,-0.5662062
695636000,-0.0030314187,0.0025102794,-0.0004402399,0.0,0.0,-0.5636368
695656000,-0.0033261138,0.0014748017,-0.0003232956,0.0,0.0,-0.5657636
695676000,-0.0033592544,-0.0010637833,-0.00026589632,0.0,0.0,-0.5679647
695696000,-0.0029223128,0.00030126175,-4.6133995e-05,0.0,0.0,-0.56407595
695716000,-0.0025099888,-0.004329187,-0.00026249886,0.0,0.0,-0.565767
695740000,-0.0019697207,-0.009427784,-0.00027662516,0.0,0.0,-0.5674127
695756000,0.0016438798,-0.007975746,5.0783157e-05,0.0,0.0,-0.56447196
695780000,0.0025591613,-4.8475908e-05,0.00031882524,0.0,0.0,-0.56766915
695796000,0.0024492815,0.0009728313,0.00045883656,0.0,0.0,-0.56766915
695820000,-0.0022765012,0.0017375904,0.0005686283,0.0,0.0,-0.5653689
695840000,-0.0014138077,-0.001358673,0.00034099817,0.0,0.0,-0.56716084
695860000,9.6155796e-05,0.00048197995,0.00038069487,0.0,0.0,-0.5688041
695880000,0.0038338392,0.0021720286,7.6532364e-05,0.0,0.0,-0.56530505
695896000,0.0008706632,0.003827724,-9.119511e-06,0.0,0.0,-0.5665737
695920000,-0.003976981,0.0022517934,3.2365322e-05,0.0,0.0,-0.56767803
695936000,-0.0015533832,0.004397616,4.3272972e-05,0.0,0.0,-0.5639596
695960000,0.0015952396,0.0041628396,6.6161156e-06,0.0,0.0,-0.5648015
695976000,-0.0007713125,0.0037790935,3.2365322e-05,0.0,0.0,-0.56649214
696000000,-0.004065283,0.0021992484,-1.6272068e-05,0.0,0.0,-0.56352043
696016000,-0.005710691,0.0016539062,-2.0384789e-05,0.0,0.0,-0.5652708
696040000,-0.0024914872,0.0037496556,0.00028645992,0.0,0.0,-0.56707186
696060000,-0.003045137,-0.003368516,0.00050514936,0.0,0.0,-0.5649421
696080000,-0.0059095966,-0.0030623625,0.0002501607,0.0,0.0,-0.5668019
696100000,-0.0041142935,-0.0025678144,0.00027501583,0.0,0.0,-0.5658629
696120000,-0.0026693987,-0.0013418179,0.00023138523,0.0,0.0,-0.5671222
696136000,-0.001005345,-0.0057343827,-8.08239e-05,0.0,0.0,-0.56852746
696160000,0.003150098,-0.007015587,-0.00012481213,0.0,0.0,-0.5647285
696176000,0.004930213,-0.0049140807,-0.0004336238,0.0,0.0,-0.5659478
696200000,0.0025064768,-0.0031411825,-0.0004053712,0.0,0.0,-0.56804466
696220000,-0.0014615371,-0.0063298387,-0.00044935942,0.0,0.0,-0.565736
696232000,-0.001058362,-0.00924817,-0.00041216612,0.0,0.0,-0.5674584
696256000,0.0017446806,-0.011736595,-0.00040519238,0.0,0.0,-0.56946397
696280000,-0.0040133623,-0.014571827,-8.529425e-05,0.0,0.0,-0.5660173
696300000,-0.0040170006,-0.011200171,-7.4744225e-05,0.0,0.0,-0.56694037
696316000,-0.0024313757,-0.013796965,-9.9778175e-05,0.0,0.0,-0.5679786
696336000,-0.001106041,-0.012240244,-0.00031775236,0.0,0.0,-0.56483394
696356000,-0.0019441782,-0.0070072496,-0.0002015233,0.0,0.0,-0.56553274
696380000,0.003116395,-0.0035865856,-0.00032633543,0.0,0.0,-0.5643852
696400000,0.004419255,-0.0046647675,-0.00038176775,0.0,0.0,-0.5655261
696420000,0.00384827,-0.003987153,-0.00066161156,0.0,0.0,-0.56702095
696440000,0.0032310833,-0.0063743694,-0.0007311702,0.0,0.0,-0.56437564
696460000,-0.0033343553,-0.0057538333,-0.0005478859,0.0,0.0,-0.5650871
696476000,-0.0039343257,-0.0053567905,-0.00043666363,0.0,0.0,-0.56650233
696496000,-0.0028567705,-0.0046396954,-0.00053679943,0.0,0.0,-0.5642882
696516000,-0.0018189945,-0.00959436,-0.0004377365,0.0,0.0,-0.56584036
696536000,-0.0051071076,-0.0071615027,-0.00030720234,0.0,0.0,-0.56790996
696556000,-0.0022286782,-0.003292765,-0.00033545494,0.0,0.0,-0.56607854
696580000,-0.0004315318,-0.0006062657,-0.00017952919,0.0,0.0,-0.5678772
696596000,-0.001825837,0.00078234484,-0.00014770031,0.0,0.0,-0.569474
696620000,-0.0007669581,-0.0025499174,-0.00029951334,0.0,0.0,-0.5678188
696640000,-0.00045212265,-0.0025767325,-0.00013250113,0.0,0.0,-0.5678188
696652000,-0.00049848505,-0.0002740327,5.6147575e-05,0.0,0.0,-0.5687618
696680000,-0.0018922482,-0.0046375147,-9.047985e-05,0.0,0.0,-0.56677884
696700000,-0.00016042404,-0.0019915504,-8.046627e-05,0.0,0.0,-0.56777906
696720000,-0.00034095347,-0.003191339,-0.00018829107,0.0,0.0,-0.56451076
696736000,-0.0004187536,-0.0017689926,3.59416e-05,0.0,0.0,-0.565983
696756000,-0.0004173622,-0.0078133,-6.651878e-05,0.0,0.0,-0.5674186
696780000,-0.0051851077,-0.0073512015,-0.0001283884,0.0,0.0,-0.5652102
696796000,-0.006394659,-0.0075854165,-0.00031757355,0.0,0.0,-0.5660011
696820000,-0.005556722,-0.0021271727,-0.00025105476,0.0,0.0,-0.5663963
696836000,-0.0047054747,-0.00041640003,-0.00012803078,0.0,0.0,-0.5627154
696860000,-0.0037971446,0.003994224,0.00013071299,0.0,0.0,-0.56324345
696880000,-0.0010979071,0.006264128,0.00037550926,0.0,0.0,-0.56449074
696900000,-0.0038924448,0.0036114876,0.00014305115,0.0,0.0,-0.56315154
696916000,-0.0034239076,0.0032382966,-4.2915344e-06,0.0,0.0,-0.56315154
696940000,-0.0027033524,0.0036841258,2.0563602e-05,0.0,0.0,-0.5625576
696960000,-0.002845768,0.0050296043,0.0003708601,0.0,0.0,-0.56425095
696976000,-0.0005362623,0.0043048654,0.0003232956,0.0,0.0,-0.5663265
696992000,-0.00018284773,0.0039094132,0.00052142143,0.0,0.0,-0.5663265
697012000,0.00027223374,-0.0035740805,0.00032168627,0.0,0.0,-0.5662758
697036000,0.0065400023,-0.0021603524,0.0002925396,0.0,0.0,-0.5682638
697056000,0.002798619,-0.0018348957,0.0001770258,0.0,0.0,-0.56543523
697080000,-0.00085629034,-0.0017261506,0.000119805336,0.0,0.0,-0.56618226
697096000,0.0015564384,-0.005793602,0.00014001131,0.0,0.0,-0.5666845
697116000,-0.0074504083,-0.0056728553,8.815527e-05,0.0,0.0,-0.5642956
697140000,-0.007524095,-0.0052386164,0.00033724308,0.0,0.0,-0.565006
697160000,-0.0026900957,-0.0024825018,0.00042968988,0.0,0.0,-0.56624
697180000,-0.0028975345,-0.0011464301,0.00027537346,0.0,0.0,-0.56381583
697200000,-0.0021035902,-0.00045996497,0.00031220913,0.0,0.0,-0.56515104
697220000,0.00030459627,-0.0020353291,0.0003502965,0.0,0.0,-0.5640089
697236000,0.00038627093,-0.002170186,0.00033134222,0.0,0.0,-0.5640089
697260000,-0.002977792,-0.0056550587,0.00043344498,0.0,0.0,-0.56537837
697280000,-0.0034957314,-0.005861463,0.00042432547,0.0,0.0,-0.56311923
697300000,-0.0063508702,-0.008825637,0.00041556358,0.0,0.0,-0.5643515
697316000,-0.0065595377,-0.010543112,0.00049728155,0.0,0.0,-0.5655143
697340000,-0.010628142,-0.0072238008,0.00041037798,0.0,0.0,-0.56412566
697360000,-0.0047768643,-0.007787355,0.00042432547,0.0,0.0,-0.565755
697380000,0.0012190298,-0.004040088,0.00022262335,0.0,0.0,-0.56689405
697400000,-0.0060667032,-3.2859156e-05,0.00025087595,0.0,0.0,-0.56462073
697420000,-0.002509743,0.0014334102,0.0003259778,0.0,0.0,-0.56533533
697436000,-0.0006946523,0.002042426,0.00026106834,0.0,0.0,-0.56647867
697460000,-0.0031739033,0.004760107,0.00042665005,0.0,0.0,-0.5655914
697480000,-0.0034999594,0.002628618,0.00041627884,0.0,0.0,-0.5664206
697500000,-0.0066259718,-0.0046290923,0.00036370754,0.0,0.0,-0.56410325
697520000,-0.001839614,-0.004263217,0.0003706813,0.0,0.0,-0.5649553
697536000,0.0067954278,-0.004644884,0.0004797578,0.0,0.0,-0.5657641
697556000,0.01303516,-0.005310449,0.00030952692,0.0,0.0,-0.56439775
697580000,0.006615584,-0.005231238,0.000413239,0.0,0.0,-0.5651592
697600000,0.0034372893,-0.00717088,0.00010871887,0.0,0.0,-0.5660433
697616000,0.0050433716,-0.0071007246,8.8870525e-05,0.0,0.0,-0.5640686
697632000,0.0073487256,-0.011030639,0.0003080964,0.0,0.0,-0.5642502
697656000,0.005545144,-0.0062056957,0.00044614077,0.0,0.0,-0.56467104
697680000,-0.0011624785,-0.0046719695,0.0005427003,0.0,0.0,-0.5624428
697700000,0.00034914748,-0.006589514,0.0005105138,0.0,0.0,-0.5630421
697716000,0.00015258067,-0.0087477425,0.0006174445,0.0,0.0,-0.56384814
697736000,-0.001582446,-0.0035079236,0.0006455183,0.0,0.0,-0.56195134
697760000,-0.003253696,-0.008872421,0.0005709529,0.0,0.0,-0.5646081
697776000,-0.0035255523,-0.0076508764,0.0004490018,0.0,0.0,-0.5646081
697796000,0.0029538502,-0.016795717,0.00029718876,0.0,0.0,-0.5643997
697820000,0.0017144928,-0.012299283,0.00027769804,0.0,0.0,-0.5656388
697836000,0.0017605314,-0.010118168,0.000264287,0.0,0.0,-0.56354076
697860000,0.0026556235,-0.0066710156,0.00018042326,0.0,0.0,-0.5642561
697880000,0.0026835313,-0.0006531249,0.0002939701,0.0,0.0,-0.5645942
697900000,0.00048749777,0.0024024388,0.0004529357,0.0,0.0,-0.5628839
697920000,0.0010102851,0.0008121781,0.0003899932,0.0,0.0,-0.5638428
697936000,0.0018217284,-0.001254432,0.00051015615,0.0,0.0,-0.5644096
697960000,-0.0013774987,0.003833332,0.0006245971,0.0,0.0,-0.5635753
697976000,0.0028275638,0.0034452663,0.00077211857,0.0,0.0,-0.5643439
698000000,-0.00014733535,-0.0014060334,0.00057291985,0.0,0.0,-0.56555474
698020000,0.0001149117,-0.004981014,0.00056290627,0.0,0.0,-0.56400007
698036000,0.0019087546,-0.005109795,0.0005952716,0.0,0.0,-0.56443197
698060000,0.0036321392,0.0043693716,0.0007170439,0.0,0.0,-0.5637428
698080000,0.005953811,0.00012265453,0.0005659461,0.0,0.0,-0.56494
698096000,0.005354969,0.00018453712,0.00043934584,0.0,0.0,-0.56494
698120000,0.0063822223,0.0046847863,0.00034707785,0.0,0.0,-0.56531805
698140000,0.0055224774,0.0016743722,0.0004377365,0.0,0.0,-0.56636024
698156000,0.002522848,-0.00021270437,0.00044292212,0.0,0.0,-0.56765646
698180000,0.0015790496,-0.005475535,0.00029039383,0.0,0.0,-0.56623304
698192000,0.0026769182,-0.007890195,0.00047403574,0.0,0.0,-0.5668071
698220000,0.0016350278,-0.0072718794,0.0005968809,0.0,0.0,-0.5674348
698236000,0.0058458373,-0.0072262,0.00052535534,0.0,0.0,-0.56495726
698260000,0.0012042088,-0.0049595367,0.0007120371,0.0,0.0,-0.5653916
698280000,-0.0015878262,-0.0042967917,0.0006172657,0.0,0.0,-0.56629235
698296000,0.0025190867,-0.0005887216,0.00044453144,0.0,0.0,-0.56444865
698316000,0.0038515704,-0.00053681486,0.00037515163,0.0,0.0,-0.56467235
698336000,0.0001827653,-0.00082713726,0.00025731325,0.0,0.0,-0.56560516
698360000,0.0071496894,-0.0023824852,7.545948e-05,0.0,0.0,-0.5638696
698376000,0.0067185787,-0.0041683977,6.276369e-05,0.0,0.0,-0.5640921
698400000,0.0043885903,-0.010024376,5.77569e-05,0.0,0.0,-0.5633342
698416000,0.0029174257,-0.0059230174,9.959936e-05,0.0,0.0,-0.5645334
698436000,0.007616558,-0.0058230776,-7.83205e-05,0.0,0.0,-0.56607956
698452000,0.004123696,-0.0015571313,-0.00014305115,0.0,0.0,-0.5654916
698480000,0.0058315448,0.009359294,-0.00016826391,0.0,0.0,-0.5666213
698500000,0.004400674,0.016366774,-2.1636486e-05,0.0,0.0,-0.56721836
698516000,-0.002229962,0.014309142,4.631281e-05,0.0,0.0,-0.5657575
698540000,0.0025281971,0.011931168,3.683567e-05,0.0,0.0,-0.56645495
698556000,0.0036081865,0.009647552,0.00023943186,0.0,0.0,-0.5671878
698580000,-0.0011253913,0.007698886,0.000111579895,0.0,0.0,-0.56557214
698600000,-0.0012682267,0.008857908,0.00013321638,0.0,0.0,-0.5663547
698620000,-0.0032266409,0.013356676,0.00011783838,0.0,0.0,-0.56521535
698640000,-0.00473323,0.0096403565,0.00024318695,0.0,0.0,-0.5649377
698656000,-0.0058447737,0.0027591956,0.0003735423,0.0,0.0,-0.56509227
698680000,-0.0053556548,0.005079598,0.00047922134,0.0,0.0,-0.5633331
698696000,-0.003750933,0.008451829,0.0003799796,0.0,0.0,-0.5635642
698720000,-0.0005916415,0.008280887,0.00057435036,0.0,0.0,-0.5640619
698740000,0.00015428988,0.005553059,0.00068074465,0.0,0.0,-0.5632091
698756000,0.0021655073,0.0054133493,0.0006251335,0.0,0.0,-0.5647891
698776000,0.00432449,0.006170051,0.00052446127,0.0,0.0,-0.56656826
698792000,0.006200819,0.007213068,0.0004631281,0.0,0.0,-0.56620896
698820000,0.005943848,0.008617609,0.0001938343,0.0,0.0,-0.5667582
698836000,0.0043457495,0.00592074,0.0004159212,0.0,0.0,-0.56603664
698856000,0.003625889,0.005828117,0.00036120415,0.0,0.0,-0.5671834
698880000,0.0046851737,0.004685832,0.0004300475,0.0,0.0,-0.5674434
698896000,0.004151426,-0.00075907796,0.00019329786,0.0,0.0,-0.56566805
698920000,0.005003593,0.0022896437,8.511543e-05,0.0,0.0,-0.56531703
698940000,-0.0039133746,0.004063641,2.0563602e-05,0.0,0.0,-0.56356007
698960000,-0.005533221,0.0027742013,1.4305115e-05,0.0,0.0,-0.56360805
698980000,-0.0061765113,-0.001972051,0.00022655725,0.0,0.0,-0.564445
698996000,-0.0103703905,-0.0061299666,0.00031632185,0.0,0.0,-0.5631737
699020000,-0.006260027,-0.009199755,0.00044739246,0.0,0.0,-0.5640936
699036000,-0.00696614,-0.008877962,0.0003798008,0.0,0.0,-0.56463575
699056000,-0.0029358838,-0.0059333267,0.00043666363,0.0,0.0,-0.5639567
699080000,-0.0022004843,-0.00024561718,0.00024855137,0.0,0.0,-0.5640873
699096000,0.0005049091,0.003117511,7.081032e-05,0.0,0.0,-0.5646703
699120000,0.0006261659,0.0035417331,-8.904934e-05,0.0,0.0,-0.5630469
699136000,0.0018252872,0.0015972545,4.273653e-05,0.0,0.0,-0.5632966
699160000,0.0037724327,0.0011169588,6.258488e-05,0.0,0.0,-0.5637604
699180000,-0.000827488,-0.0009933976,-6.258488e-05,0.0,0.0,-0.5631614
699200000,-0.0019710576,-0.00026550028,-7.402897e-05,0.0,0.0,-0.56347144
699220000,-0.011237772,-0.001831412,2.092123e-05,0.0,0.0,-0.5628984
699240000,-0.010982092,-0.0016237495,0.00023049116,0.0,0.0,-0.563388
699256000,-0.011170806,-0.0035961424,0.0003220439,0.0,0.0,-0.5641154
699280000,-0.0059400382,-0.002406536,0.00030469894,0.0,0.0,-0.56383806
699296000,-0.004710636,-0.0062317755,0.00020062923,0.0,0.0,-0.5641112
699316000,-0.000703146,-0.0036776473,7.6174736e-05,0.0,0.0,-0.5649385
699336000,-0.0052113207,-0.0017933806,-2.7894974e-05,0.0,0.0,-0.5640627
699356000,-0.004556073,-0.0019368913,-4.5776367e-05,0.0,0.0,-0.5647162
699376000,-0.00033893134,-0.00042493857,-0.00019150972,0.0,0.0,-0.5657025
699396000,0.004923096,0.004887366,-0.00032293797,0.0,0.0,-0.5649022
699420000,0.006791508,0.0048325723,-0.0005121231,0.0,0.0,-0.5653265
699440000,0.0062262397,0.0016698735,-0.0005310774,0.0,0.0,-0.56626934
699456000,0.004140656,0.0059439316,-0.00067073107,0.0,0.0,-0.56448704
699480000,0.00400503,0.00595916,-0.00063461065,0.0,0.0,-0.5647866
699496000,0.006698222,0.007743975,-0.0006469488,0.0,0.0,-0.565015
699520000,0.0031671894,0.007888252,-0.00041663647,0.0,0.0,-0.5638692
699540000,0.0022120527,0.0071513485,-0.00051659346,0.0,0.0,-0.5644707
699560000,0.0031520657,0.004429111,-0.00032061338,0.0,0.0,-0.5640524
699576000,0.00061631226,0.0004776156,-0.0001385808,0.0,0.0,-0.56445736
699596000,0.005006907,0.00010738689,0.00018185377,0.0,0.0,-0.56504565
699616000,0.0030717182,-0.005762807,0.00022137165,0.0,0.0,-0.5649125
699636000,0.0028073906,-0.004225969,7.2956085e-05,0.0,0.0,-0.56499803
699656000,0.0068516545,-0.0016700128,-5.2571297e-05,0.0,0.0,-0.5656225
699680000,0.00090816384,0.0035077813,-7.3313713e-06,0.0,0.0,-0.56359315
699696000,4.2587053e-06,0.002873064,-5.0246716e-05,0.0,0.0,-0.5634625
699720000,-0.004984996,0.0020038967,0.00014233589,0.0,0.0,-0.563786
699736000,-0.0040797433,0.0001264768,0.00033187866,0.0,0.0,-0.56221783
699752000,-0.006962821,0.00095252716,0.00040340424,0.0,0.0,-0.5625104
699780000,-0.0049675275,0.0009914623,0.00063443184,0.0,0.0,-0.56345886
699800000,-0.0034609744,-0.003975952,0.00030630827,0.0,0.0,-0.5638922
699816000,-0.0017468194,-0.009125722,0.00025051832,0.0,0.0,-0.5647699
699840000,0.0013392828,-0.0018661746,0.00021064281,0.0,0.0,-0.56419677
699860000,0.0045970324,-0.0017859775,0.00016236305,0.0,0.0,-0.56483877
699876000,0.0033835075,-0.00022281369,0.00016540289,0.0,0.0,-0.5651868
699896000,-0.0044023274,-0.0014525305,0.00021028519,0.0,0.0,-0.5641091
699916000,-0.0053395825,0.0015392979,0.00037121773,0.0,0.0,-0.56422853
699940000,-0.008449354,0.0033345977,0.00019991398,0.0,0.0,-0.5646853
699960000,-0.009299078,0.004979869,0.00016790628,0.0,0.0,-0.56379694
699980000,-0.006002584,0.0046361266,0.00033545494,0.0,0.0,-0.5639693
699996000,-0.009262817,0.008389563,0.0004531145,0.0,0.0,-0.56387764
700020000,-0.01634494,0.0060547674,0.0006392598,0.0,0.0,-0.56319976
700036000,-0.0142589025,0.0025310153,0.00061404705,0.0,0.0,-0.5631999
700060000,-0.009796363,-0.0020775155,0.00031024218,0.0,0.0,-0.5642133
700080000,-0.00949469,0.00039521547,0.00020581484,0.0,0.0,-0.5643357
700100000,-0.0069577415,-0.0024319883,9.9778175e-05,0.0,0.0,-0.5649287
700116000,-0.0068332,0.0020926637,0.00013536215,0.0,0.0,-0.5638026
700140000,-0.0026214311,0.00069637864,0.0003991127,0.0,0.0,-0.5644238
700156000,0.0021230963,0.00034447003,0.00014001131,0.0,0.0,-0.5649694
700180000,0.003890306,0.003925599,7.349253e-05,0.0,0.0,-0.5640442
700196000,0.002939377,0.0025185812,0.00018954277,0.0,0.0,-0.56412154
700216000,-0.0010191039,-0.00087881566,0.00016415119,0.0,0.0,-0.5639788
700236000,0.00071881106,-0.0029584577,3.7908554e-05,0.0,0.0,-0.5633329
700260000,0.0032223822,-0.0007122536,1.7881393e-06,0.0,0.0,-0.56293553
700272000,0.0060424916,-0.0028678954,3.2901764e-05,0.0,0.0,-0.5636101
700300000,0.006860771,0.004976787,1.8060207e-05,0.0,0.0,-0.56363153
700320000,0.0043943105,0.006845116,0.00011229515,0.0,0.0,-0.5646227
700340000,0.0052047707,0.0036259792,0.00029540062,0.0,0.0,-0.5642503
700356000,0.0064191315,0.005212917,0.000374794,0.0,0.0,-0.5642661
700380000,0.004522674,0.004558936,0.00042325258,0.0,0.0,-0.5644595
700396000,0.00079075084,0.0028198692,0.0001732707,0.0,0.0,-0.5631498
700420000,0.0057253414,-0.0033496914,0.00013947487,0.0,0.0,-0.5632182
700440000,0.0031315475,-0.005330504,0.0001757741,0.0,0.0,-0.5641804
700452000,0.0047361525,-0.015297188,0.00017756224,0.0,0.0,-0.563772
700480000,0.0059956945,-0.012601412,0.0002900362,0.0,0.0,-0.5640742
700500000,0.0012277993,-0.011394004,0.0002117157,0.0,0.0,-0.56483066
700520000,-0.0003348291,-0.007922575,0.00033384562,0.0,0.0,-0.5637024
700540000,-0.0013305,-0.0035599836,-3.7014484e-05,0.0,0.0,-0.56362516
700560000,-0.0006558518,-0.0018779361,0.00013053417,0.0,0.0,-0.5640701
700576000,-0.0042799297,-0.0071448786,0.0001757741,0.0,0.0,-0.5629072
700600000,-0.0062523326,0.0016916322,-0.00010550022,0.0,0.0,-0.5627508
700620000,-0.009476131,0.0010630178,0.00011855364,0.0,0.0,-0.56239414
700640000,-0.008519894,-0.00010258891,7.0631504e-05,0.0,0.0,-0.5623891
700656000,-0.007713646,-4.8454734e-05,-0.00013142824,0.0,0.0,-0.5623891
700680000,-0.0040930947,0.0012481848,-0.000120162964,0.0,0.0,-0.5620766
700700000,-0.0020867747,0.0003045376,-0.0002886057,0.0,0.0,-0.56195647
700716000,-0.0018880153,0.0032224762,-0.0003696084,0.0,0.0,-0.56272686
700740000,-0.002603973,0.0062269885,-0.00033599138,0.0,0.0,-0.56211525
700756000,-0.0034683484,0.0057762107,-0.00029432774,0.0,0.0,-0.56218183
700780000,-0.0013377818,0.001569241,-0.00018560886,0.0,0.0,-0.56269443
700800000,-0.0019652573,0.0017270178,2.3245811e-06,0.0,0.0,-0.5618357
700820000,0.00075142295,-0.00043549226,0.00016379356,0.0,0.0,-0.5623583
700840000,-0.0010255775,0.0010773826,0.00013500452,0.0,0.0,-0.5630166
700860000,0.008434604,0.0028525484,0.0004017949,0.0,0.0,-0.56260204
700872000,0.008687906,0.0042875116,0.00043165684,0.0,0.0,-0.5624521
700900000,0.007850604,-0.0017868851,0.00027412176,0.0,0.0,-0.5626728
700916000,0.0069151,-0.0051396564,0.00017344952,0.0,0.0,-0.5627835
700940000,0.0019966539,-0.0054160934,-3.9339066e-06,0.0,0.0,-0.56365114
700956000,-0.00080650323,-0.0040946053,0.00015163422,0.0,0.0,-0.56300926
700976000,-0.00085011637,-0.0064007943,-8.1539154e-05,0.0,0.0,-0.56268054
701000000,-0.00087610795,-0.0070823687,-0.0001809597,0.0,0.0,-0.5632479
701020000,-0.0015536842,-0.007109089,-0.00047546625,0.0,0.0,-0.56283927
701040000,-0.0002515912,-0.005680613,-0.00038266182,0.0,0.0,-0.5627473
701056000,0.005238192,-0.003696917,-0.00025588274,0.0,0.0,-0.56340843
701076000,0.001530692,-0.0020481534,-0.00037050247,0.0,0.0,-0.562312
701096000,0.0045387596,0.0016050555,-0.000397861,0.0,0.0,-0.56254447
701112000,0.005028352,0.00018411479,-0.0003567338,0.0,0.0,-0.56279385
701140000,0.0047487617,-0.0005946398,5.5611134e-05,0.0,0.0,-0.5622279
701156000,0.0042690365,-0.004283656,0.00012946129,0.0,0.0,-0.5621992
701180000,0.0076963473,-0.005505411,0.000110685825,0.0,0.0,-0.5618559
701196000,0.0072215823,0.0003558193,2.0205975e-05,0.0,0.0,-0.5625222
701216000,0.0068473094,-0.002578704,4.8279762e-05,0.0,0.0,-0.5634965
701240000,0.0043748296,-0.0038332238,0.00013625622,0.0,0.0,-0.5635027
701256000,0.0020619114,-0.0031225109,0.00018167496,0.0,0.0,-0.5640496
701280000,0.0038884655,0.001987621,8.2969666e-05,0.0,0.0,-0.56457615
701300000,0.007729115,0.0034625796,-3.5583973e-05,0.0,0.0,-0.56326604
701320000,0.005946774,-0.00021337863,-1.6093254e-05,0.0,0.0,-0.5628236
701340000,0.008263608,0.00042265694,0.00022673607,0.0,0.0,-0.5637154
701360000,0.012000052,0.002957726,0.00027948618,0.0,0.0,-0.56316787
701380000,0.01287818,-0.0010915651,0.0006625056,0.0,0.0,-0.56346977
701400000,0.009707391,-0.0052140895,0.0006800294,0.0,0.0,-0.5640093
701420000,0.010923246,-0.006593381,0.0006149411,0.0,0.0,-0.5639569
701440000,0.006845901,-0.004685592,0.0005893707,0.0,0.0,-0.56460357
701460000,0.007775896,0.003236291,0.0005732775,0.0,0.0,-0.56431717
701480000,0.0060340706,0.0047161393,0.0007132888,0.0,0.0,-0.56485474
701496000,0.0056537287,0.0055050515,0.000626564,0.0,0.0,-0.56485474
701516000,-0.0022635378,0.0022781838,0.00048744678,0.0,0.0,-0.564647
701536000,-0.0055311467,-0.00076527754,0.0005534291,0.0,0.0,-0.564743
701560000,-0.007715256,-0.0020267058,0.00068718195,0.0,0.0,-0.56544745
701576000,-0.0061881915,-0.003014383,0.00068950653,0.0,0.0,-0.5645657
701596000,-0.0042409906,-0.0023097037,0.0006092191,0.0,0.0,-0.5652122
701616000,-0.005525546,-0.004129872,0.00042682886,0.0,0.0,-0.56545156
701640000,-0.0013737953,-0.0016489979,0.00019526482,0.0,0.0,-0.56389207
701660000,0.0021026284,-0.0028397962,0.00012677908,0.0,0.0,-0.5639691
701680000,0.006213417,-0.0063488795,-7.045269e-05,0.0,0.0,-0.5639007
701700000,0.0074068354,-0.004015746,-0.00017273426,0.0,0.0,-0.5622162
701720000,0.0070841527,-0.0035107816,-0.00032687187,0.0,0.0,-0.5622162
701740000,0.0017342821,-0.0029029767,-0.00045347214,0.0,0.0,-0.56220835
701760000,0.00405901,-0.0012766983,-0.00025123358,0.0,0.0,-0.5627909
701776000,0.0058668614,0.0021156142,-0.0003361702,0.0,0.0,-0.5636321
701796000,0.006767004,-0.0005205073,-0.00049996376,0.0,0.0,-0.563585
701820000,0.0027400432,-0.0025470192,-0.00041878223,0.0,0.0,-0.56415814
701840000,0.0017423476,0.0014729295,-0.00023460388,0.0,0.0,-0.56448615
701856000,0.0066987686,-0.0009386123,-3.6656857e-05,0.0,0.0,-0.56353426
701880000,0.0019023281,0.0011620454,-1.0371208e-05,0.0,0.0,-0.5638628
701900000,-0.0015588664,0.006202224,-5.6684017e-05,0.0,0.0,-0.56356573
701920000,-0.0060850717,-0.00051342085,-0.00015807152,0.0,0.0,-0.56255543
701936000,-0.002500138,0.0022625476,-0.00022852421,0.0,0.0,-0.5628903
701960000,-0.0014121509,0.003163697,-0.0002773404,0.0,0.0,-0.563114
701976000,0.0025040538,0.0036673858,-0.0003837347,0.0,0.0,-0.56249285
701996000,-0.0032988056,0.00056589633,-0.00032490492,0.0,0.0,-0.5627262
702016000,-0.008175398,-0.0016030512,-0.00030130148,0.0,0.0,-0.5632202
702040000,-0.014919877,-0.0035547055,-0.0002052784,0.0,0.0,-0.56302
702060000,-0.008575827,-0.0004607733,-0.00025248528,0.0,0.0,-0.56309366
702080000,-0.0063449247,0.00808954,-0.00028431416,0.0,0.0,-0.56248134
702100000,-0.0040400224,0.0025755449,-0.00040233135,0.0,0.0,-0.56292826
702116000,-0.008834066,0.0039121546,-0.00024873018,0.0,0.0,-0.5635331
702140000,-0.0042010527,0.010219666,-0.000119805336,0.0,0.0,-0.5635473
702156000,-0.00086592673,0.005948039,-5.954504e-05,0.0,0.0,-0.56330496
702180000,0.0008903628,0.0058659534,-0.00012642145,0.0,0.0,-0.56328815
702196000,-0.00057273824,0.0015984583,-8.404255e-06,0.0,0.0,-0.5625377
702216000,-0.0009782903,-0.004890247,1.3411045e-05,0.0,0.0,-0.56241965
702236000,-0.0020301836,-0.0064875586,0.00018525124,0.0,0.0,-0.56314325
702260000,0.0021826825,-0.0063723344,0.00025445223,0.0,0.0,-0.5626408
702280000,0.004910858,-0.00910237,0.00037425756,0.0,0.0,-0.5631612
702300000,0.007783548,-0.006001399,0.00032258034,0.0,0.0,-0.5624342
702316000,0.0073733004,-0.0006600891,0.00036638975,0.0,0.0,-0.56309485
702340000,0.0077275764,-0.0023859625,0.00022995472,0.0,0.0,-0.5634022
702356000,0.01061082,0.0023877234,0.0003182888,0.0,0.0,-0.56352746
702380000,0.011522851,0.0044790534,0.0004797578,0.0,0.0,-0.5636387
702396000,0.010495497,0.005400394,0.00040644407,0.0,0.0,-0.56366634
702416000,0.010089585,0.0030125126,1.5377998e-05,0.0,0.0,-0.5633001
702436000,0.00791897,0.0030156858,-0.0001628995,0.0,0.0,-0.56342447
702460000,0.0009899475,0.0020695059,-0.00020956993,0.0,0.0,-0.56400657
702476000,0.0063470826,0.0062981164,-0.00023853779,0.0,0.0,-0.56347275
702496000,0.0031950013,0.005758062,-0.000344038,0.0,0.0,-0.5634154
702516000,0.007512182,-0.0011012654,-0.00034421682,0.0,0.0,-0.5636291
702540000,0.0057922956,-0.0009032599,-0.0004323721,0.0,0.0,-0.56391263
702556000,0.00234565,-0.0063851736,-0.00036227703,0.0,0.0,-0.56439966
702580000,0.0029494485,0.0025264765,-0.00034689903,0.0,0.0,-0.56454045
702596000,0.0031844806,0.0055920063,-0.00033563375,0.0,0.0,-0.56446105
702616000,0.001655553,-0.0004913412,-0.0003581643,0.0,0.0,-0.563805
702640000,0.0028322318,0.0066889767,-0.0003912449,0.0,0.0,-0.5628084
702660000,0.0082571665,0.0058409977,-0.00021547079,0.0,0.0,-0.5624733
702680000,0.0034622024,0.0023310322,-0.00016862154,0.0,0.0,-0.5627321
702700000,0.004113719,-0.0026017092,-0.00015163422,0.0,0.0,-0.5621607
702716000,0.0018265396,-0.0027065757,-0.000210464,0.0,0.0,-0.5624578
702740000,-0.0005554897,-0.002016127,-0.0002310276,0.0,0.0,-0.5631643
702760000,0.0024036637,0.0009638457,-0.00017648935,0.0,0.0,-0.5628422
702780000,0.0028717518,-0.00045160577,-0.0002578497,0.0,0.0,-0.56360686
702796000,0.003385195,-0.003505884,-0.00024479628,0.0,0.0,-0.56382495
702816000,0.0113079185,-0.001414332,-0.00012910366,0.0,0.0,-0.56366664
702840000,0.008346079,0.00042235013,3.451109e-05,0.0,0.0,-0.56419533
702856000,0.0075310264,0.00019309076,8.422136e-05,0.0,0.0,-0.56419533
702880000,0.0077889236,-0.0042099804,0.00021350384,0.0,0.0,-0.5632317
702896000,0.006209963,-0.0031433823,0.0001078248,0.0,0.0,-0.5632995
702916000,0.0033610573,0.0026580684,0.0001911521,0.0,0.0,-0.56316835
702940000,0.002595536,-4.4985325e-05,0.0002912879,0.0,0.0,-0.5633885
702956000,0.00095521286,0.0017622344,0.00034689903,0.0,0.0,-0.5636303
702980000,-0.0026399132,0.006873535,0.00022727251,0.0,0.0,-0.5635868
703000000,-0.0020968288,0.008274347,0.00016951561,0.0,0.0,-0.5639157
703020000,-0.0014980389,0.013352011,-0.00011909008,0.0,0.0,-0.56412864
703036000,-0.0022158322,0.018094916,-8.85129e-05,0.0,0.0,-0.5635348
703056000,-0.0048319725,0.012260446,-2.1457672e-06,0.0,0.0,-0.5636245
703080000,-0.0076432973,0.0078083673,7.224083e-05,0.0,0.0,-0.563643
703096000,-0.0040587364,0.0050891903,0.00011712313,0.0,0.0,-0.5632699
703120000,-0.0075879707,0.0029274286,0.00032526255,0.0,0.0,-0.5633684
703136000,0.00013380311,-0.00027254946,0.00048100948,0.0,0.0,-0.5634019
703156000,-0.00041823252,0.005301631,0.00047886372,0.0,0.0,-0.5625401
703176000,0.0007045297,0.0046466263,0.0006136894,0.0,0.0,-0.5625401
703196000,-0.0034738826,0.012934621,0.0006399751,0.0,0.0,-0.56219673
703220000,-0.0036037427,0.0094442945,0.0004917383,0.0,0.0,-0.5626417
703236000,0.0005365326,0.011189085,0.0005734563,0.0,0.0,-0.56298846
703260000,-0.0005228296,0.0095257275,0.00048941374,0.0,0.0,-0.5631801
703276000,0.002162909,0.007831451,0.00029486418,0.0,0.0,-0.56365114
703300000,0.0060086832,0.001692683,0.00031113625,0.0,0.0,-0.5640733
703312000,0.0045481483,0.0020426349,0.0003157854,0.0,0.0,-0.5636615
703340000,0.009623578,-0.0014258896,-1.7881393e-06,0.0,0.0,-0.5633597
703360000,0.0070080915,-0.0016768036,-3.916025e-05,0.0,0.0,-0.5636168
703380000,0.004971498,-0.0026317004,1.6629696e-05,0.0,0.0,-0.56345344
703396000,0.005066092,-0.0027590485,9.673834e-05,0.0,0.0,-0.56345344
703420000,0.00066109956,-0.0020791711,0.0001616478,0.0,0.0,-0.5629811
703440000,-0.0054152748,-0.0006067896,0.00013267994,0.0,0.0,-0.5632076
703460000,-0.005295596,0.00421662,0.00011533499,0.0,0.0,-0.56360775
703480000,-0.0076233605,0.006862387,0.00029861927,0.0,0.0,-0.56318843
703500000,-0.008990852,0.009707772,0.00042039156,0.0,0.0,-0.56344825
703520000,-0.007274085,0.0037613728,0.00047332048,0.0,0.0,-0.5639524
703540000,-0.0027403662,0.0035897833,0.00050997734,0.0,0.0,-0.56366163
703560000,0.00036644633,0.0046483,0.00058472157,0.0,0.0,-0.5632599
703580000,-0.006146525,0.005181982,0.00040966272,0.0,0.0,-0.56307304
703596000,-0.0053515253,0.0063559203,0.00031507015,0.0,0.0,-0.56202567
703620000,-0.0032696596,0.003348316,0.00020062923,0.0,0.0,-0.5622384
703640000,-0.0012234554,0.0017694309,4.0590763e-05,0.0,0.0,-0.5627634
703660000,-0.0058580954,0.0028160207,-0.0002886057,0.0,0.0,-0.5630878
703680000,-0.009521436,0.0025183142,-0.00042396784,0.0,0.0,-0.5641518
703700000,-0.010848392,0.0016172014,-0.00037246943,0.0,0.0,-0.56334084
703720000,-0.009737294,-0.0021865536,-0.00027483702,0.0,0.0,-0.5633038
703736000,-0.009092432,-0.001217108,-0.00038677454,0.0,0.0,-0.56319845
703756000,-0.0054838834,-0.004174905,-0.00035190582,0.0,0.0,-0.56223565
703776000,-0.004428614,-0.004847168,-0.00027877092,0.0,0.0,-0.5626175
703800000,-0.0008649789,-0.00594977,-0.00024533272,0.0,0.0,-0.5625598
703816000,-0.00058445684,-0.007110811,-0.00013446808,0.0,0.0,-0.5619365
703840000,0.0005298264,-0.0026178788,-9.226799e-05,0.0,0.0,-0.5620345
703860000,-0.002114486,7.562284e-05,0.00012981892,0.0,0.0,-0.5624096
703880000,0.0013797926,-0.0016688474,0.00028914213,0.0,0.0,-0.5614578
703900000,0.005185943,-0.001645524,0.0006952286,0.0,0.0,-0.56189966
703916000,0.0014738459,0.0025284756,0.0007138252,0.0,0.0,-0.5622691
703936000,-0.00080497353,0.0060304846,0.0007136464,0.0,0.0,-0.56198627
