timestamp,roll_body,pitch_body,yaw_body,yaw_sp_move_rate,q_d[0],q_d[1],q_d[2],q_d[3],thrust_body[0],thrust_body[1],thrust_body[2],q_d_valid,roll_reset_integral,pitch_reset_integral,yaw_reset_integral,fw_control_yaw,apply_flaps
687488000,0.16970104,0.12334074,0.40883675,0.0,0.97486204,0.070360444,0.07730205,0.1967684,0.0,0.0,-0.12268087,1,0,0,0,0,0
687580000,0.029272674,-0.038351174,0.40863538,0.0,0.9788578,0.018218802,-0.01580452,0.20311485,0.0,0.0,-0.12013977,1,0,0,0,0,0
687676000,0.0073361313,-0.040628783,0.40863538,0.0,0.97897595,0.0077124797,-0.019146252,0.20292881,0.0,0.0,-0.14950214,1,0,0,0,0,0
687788000,0.0060028173,-0.026673848,0.40863538,0.0,0.97910005,0.0056446698,-0.012450138,0.20291935,0.0,0.0,-0.22940288,1,0,0,0,0,0
687880000,-0.0003812178,-0.023551395,0.40863538,0.0,0.97913224,0.0022025916,-0.011569164,0.20288281,0.0,0.0,-0.29762983,1,0,0,0,0,0
687992000,-0.001843939,-0.020811547,0.40863538,0.0,0.9791482,0.0012085394,-0.010376197,0.20287864,0.0,0.0,-0.3797644,1,0,0,0,0,0
688084000,0.0002629566,-0.01661765,0.40863538,0.0,0.9791656,0.0018145725,-0.008109228,0.20289315,0.0,0.0,-0.44924328,1,0,0,0,0,0
688180000,-0.0013135442,-0.0147066545,0.40863538,0.0,0.97917396,0.00084887596,-0.007333564,0.20288883,0.0,0.0,-0.5239421,1,0,0,0,0,0
688292000,-0.0015108816,-0.011466121,0.40863538,0.0,0.97918415,0.00042351085,-0.0057670544,0.20289145,0.0,0.0,-0.604282,1,0,0,0,0,0
688384000,-0.0015154907,-0.0075238217,0.40863538,0.0,0.97919303,2.130756e-05,-0.0038373966,0.20289479,0.0,0.0,-0.6120711,1,0,0,0,0,0
688476000,0.001163663,0.0024719527,0.40863538,0.0,0.9791989,0.00031895033,0.00132832,0.20289819,0.0,0.0,-0.6045538,1,0,0,0,0,0
688588000,0.00055896136,0.010483052,0.40863538,0.0,0.97918653,-0.00078983227,0.005189182,0.20289487,0.0,0.0,-0.6105229,1,0,0,0,0,0
688684000,-0.00023601014,0.011731832,0.40863538,0.0,0.97918266,-0.0013057307,0.005719927,0.2028963,0.0,0.0,-0.61847764,1,0,0,0,0,0
688776000,4.9430924e-05,0.012361595,0.40863538,0.0,0.979181,-0.0012298694,0.006057211,0.20289509,0.0,0.0,-0.6165963,1,0,0,0,0,0
688888000,-0.0017524776,0.012688361,0.40863538,0.0,0.9791784,-0.0021452145,0.0060343905,0.20290038,0.0,0.0,-0.6184338,1,0,0,0,0,0
688980000,-0.0020637892,0.010538215,0.40863538,0.0,0.97918445,-0.0020795083,0.004950114,0.2029015,0.0,0.0,-0.6190774,1,0,0,0,0,0
689076000,-0.0022268803,0.01084471,0.40863538,0.0,0.97918344,-0.0021904486,0.005083626,0.20290188,0.0,0.0,-0.626081,1,0,0,0,0,0
689188000,-0.0028741185,0.010660104,0.40863538,0.0,0.97918314,-0.002488604,0.004927581,0.20290351,0.0,0.0,-0.6283186,1,0,0,0,0,0
689280000,-0.0038814812,0.010259368,0.40863538,0.0,0.9791829,-0.002941148,0.004629185,0.20290577,0.0,0.0,-0.62674373,1,0,0,0,0,0
689392000,-0.0028319976,0.008382574,0.40863538,0.0,0.97918886,-0.002236938,0.0038167888,0.20290293,0.0,0.0,-0.6275448,1,0,0,0,0,0
689484000,-0.0039356537,0.008149078,0.40863538,0.0,0.979188,-0.0027535944,0.0035905016,0.20290485,0.0,0.0,-0.6280517,1,0,0,0,0,0
689580000,-0.00363284,0.0076054325,0.40863538,0.0,0.9791896,-0.002550189,0.0033550565,0.20290406,0.0,0.0,-0.6346663,1,0,0,0,0,0
689692000,-0.0043151113,0.006583292,0.40863538,0.0,0.9791906,-0.0027805346,0.0027854024,0.2029045,0.0,0.0,-0.6345906,1,0,0,0,0,0
689784000,-0.0035699287,0.006638274,0.40863538,0.0,0.97919154,-0.0024212732,0.002887921,0.20290345,0.0,0.0,-0.63610816,1,0,0,0,0,0
689876000,-0.0026730923,0.0057187784,0.40863538,0.0,0.97919405,-0.0018889057,0.0025287233,0.20290183,0.0,0.0,-0.63485473,1,0,0,0,0,0
689988000,-0.002184569,0.007545582,0.40863538,0.0,0.9791913,-0.0018350501,0.0034726823,0.20290153,0.0,0.0,-0.6377988,1,0,0,0,0,0
690084000,-0.00072248926,0.008162719,0.40863538,0.0,0.9791911,-0.0011818294,0.003923159,0.20289885,0.0,0.0,-0.64416045,1,0,0,0,0,0
690176000,-0.00036109504,0.00845033,0.40863538,0.0,0.97919077,-0.00103407,0.004100635,0.20289803,0.0,0.0,-0.6121043,1,0,0,0,0,0
690288000,-0.0021298341,0.010455221,0.40863538,0.0,0.97918457,-0.002103424,0.0049027805,0.20290165,0.0,0.0,-0.534178,1,0,0,0,0,0
690380000,-0.0009802895,0.009820212,0.40863538,0.0,0.97918725,-0.0014761958,0.0047085057,0.202899,0.0,0.0,-0.56233793,1,0,0,0,0,0
690476000,-0.0005292643,0.009739863,0.40863538,0.0,0.9791877,-0.0012472253,0.0047149234,0.20289797,0.0,0.0,-0.57286364,1,0,0,0,0,0
690588000,-0.00043281436,0.008830306,0.40863538,0.0,0.9791899,-0.0011077314,0.004279394,0.20289806,0.0,0.0,-0.5717815,1,0,0,0,0,0
690680000,-0.00066276785,0.009187329,0.40863538,0.0,0.979189,-0.0012565345,0.0044308617,0.20289843,0.0,0.0,-0.5694051,1,0,0,0,0,0
690792000,-0.0010767761,0.0093789175,0.40863538,0.0,0.97918826,-0.0014786667,0.0044826614,0.2028993,0.0,0.0,-0.5708414,1,0,0,0,0,0
690884000,-0.0021973345,0.0095020775,0.40863538,0.0,0.97918695,-0.0020397794,0.004429279,0.20290181,0.0,0.0,-0.5671819,1,0,0,0,0,0
690980000,-0.0015379734,0.009744216,0.40863538,0.0,0.979187,-0.0017415243,0.00461472,0.20290029,0.0,0.0,-0.57657397,1,0,0,0,0,0
691092000,-0.0015186811,0.009949397,0.40863538,0.0,0.9791865,-0.001752894,0.0047171344,0.20290023,0.0,0.0,-0.57693917,1,0,0,0,0,0
691184000,-9.544157e-05,0.009977099,0.40863538,0.0,0.9791874,-0.0010588953,0.0048750825,0.20289677,0.0,0.0,-0.57598436,1,0,0,0,0,0
691276000,-0.0003698544,0.011139382,0.40863538,0.0,0.97918427,-0.001311157,0.00541629,0.20289697,0.0,0.0,-0.57282156,1,0,0,0,0,0
691388000,-0.0016125344,0.011182947,0.40863538,0.0,0.97918314,-0.0019239828,0.00531155,0.20290028,0.0,0.0,-0.5747216,1,0,0,0,0,0
691484000,-0.00095965277,0.010275423,0.40863538,0.0,0.9791861,-0.0015122717,0.0049334676,0.2028988,0.0,0.0,-0.5818623,1,0,0,0,0,0
691576000,-0.0023569579,0.010257359,0.40863538,0.0,0.97918487,-0.00219455,0.004782866,0.20290223,0.0,0.0,-0.57797843,1,0,0,0,0,0
691688000,-0.003679903,0.010545047,0.40863538,0.0,0.9791824,-0.0028714368,0.0047895005,0.20290545,0.0,0.0,-0.5798347,1,0,0,0,0,0
691780000,-0.003567171,0.009969562,0.40863538,0.0,0.97918415,-0.0027578652,0.0045191846,0.20290495,0.0,0.0,-0.5757407,1,0,0,0,0,0
691876000,-0.0029176835,0.009837783,0.40863538,0.0,0.97918534,-0.0024265132,0.0045205583,0.20290343,0.0,0.0,-0.5826639,1,0,0,0,0,0
691988000,-0.0017470605,0.009003451,0.40863538,0.0,0.97918856,-0.0017687443,0.0042308345,0.20290081,0.0,0.0,-0.58336884,1,0,0,0,0,0
692080000,-0.0012385151,0.010560782,0.40863538,0.0,0.9791852,-0.0016777494,0.005044887,0.20289946,0.0,0.0,-0.5789669,1,0,0,0,0,0
692192000,0.0001098275,0.008855385,0.40863538,0.0,0.9791901,-0.0008446007,0.0043467223,0.20289686,0.0,0.0,-0.5798409,1,0,0,0,0,0
692284000,0.0014839114,0.00931159,0.40863538,0.0,0.97918946,-0.00021813819,0.0047094757,0.20289348,0.0,0.0,-0.5774974,1,0,0,0,0,0
692380000,0.0009072666,0.010278471,0.40863538,0.0,0.97918713,-0.00059854967,0.005124355,0.20289409,0.0,0.0,-0.584718,1,0,0,0,0,0
692492000,-0.0002895238,0.008526247,0.40863538,0.0,0.9791906,-0.0010067307,0.0041450644,0.20289785,0.0,0.0,-0.585174,1,0,0,0,0,0
692584000,0.00043177675,0.008437087,0.40863538,0.0,0.9791911,-0.0006445402,0.0041745873,0.20289642,0.0,0.0,-0.5816199,1,0,0,0,0,0
692676000,0.0012198244,0.009147781,0.40863538,0.0,0.9791898,-0.00033081527,0.004602485,0.20289421,0.0,0.0,-0.57861596,1,0,0,0,0,0
692788000,0.00094798754,0.008803691,0.40863538,0.0,0.97919047,-0.0004289974,0.004406443,0.20289505,0.0,0.0,-0.578809,1,0,0,0,0,0
692884000,0.00054109946,0.008961383,0.40863538,0.0,0.97919005,-0.00064420555,0.00444237,0.20289585,0.0,0.0,-0.58691293,1,0,0,0,0,0
692976000,0.0017096166,0.009202221,0.40863538,0.0,0.97918975,-9.6538584e-05,0.0046788263,0.202893,0.0,0.0,-0.5821397,1,0,0,0,0,0
693088000,0.0022648724,0.00927485,0.40863538,0.0,0.9791896,0.00016794362,0.0047707134,0.20289165,0.0,0.0,-0.58439285,1,0,0,0,0,0
693180000,0.0010163893,0.010840643,0.40863538,0.0,0.9791857,-0.000602156,0.0054106605,0.20289338,0.0,0.0,-0.58136773,1,0,0,0,0,0
693276000,0.0009791208,0.011718191,0.40863538,0.0,0.9791833,-0.00070942886,0.00583652,0.20289277,0.0,0.0,-0.5882344,1,0,0,0,0,0
693388000,0.0016663937,0.012667786,0.40863538,0.0,0.9791808,-0.00046928241,0.006371153,0.20288977,0.0,0.0,-0.5799963,1,0,0,0,0,0
693484000,0.0014596297,0.012204283,0.40863538,0.0,0.97918206,-0.0005234897,0.006123252,0.20289089,0.0,0.0,-0.5895304,1,0,0,0,0,0
693576000,0.0009229363,0.009579807,0.40863538,0.0,0.9791888,-0.0005199989,0.0047838837,0.20289457,0.0,0.0,-0.5826807,1,0,0,0,0,0
693688000,0.0005672881,0.010038901,0.40863538,0.0,0.9791876,-0.00074069697,0.004972574,0.20289515,0.0,0.0,-0.58307123,1,0,0,0,0,0
693780000,0.002498457,0.011139549,0.40863538,0.0,0.97918516,9.312945e-05,0.0057073524,0.20288894,0.0,0.0,-0.58091027,1,0,0,0,0,0
693876000,0.0032270742,0.011489599,0.40863538,0.0,0.97918415,0.00041434154,0.005952647,0.2028864,0.0,0.0,-0.5880419,1,0,0,0,0,0
693988000,0.0035331869,0.01085486,0.40863538,0.0,0.9791857,0.0006286078,0.005672937,0.20288637,0.0,0.0,-0.5888647,1,0,0,0,0,0
694080000,0.0031013307,0.012481517,0.40863538,0.0,0.97918135,0.00025214636,0.0064255246,0.20288543,0.0,0.0,-0.5825428,1,0,0,0,0,0
694172000,0.00373844,0.012871511,0.40863538,0.0,0.9791801,0.00052450295,0.00668109,0.20288278,0.0,0.0,-0.5789985,1,0,0,0,0,0
694284000,0.0029394522,0.0117300255,0.40863538,0.0,0.9791835,0.00024913234,0.0060411803,0.20288697,0.0,0.0,-0.58143955,1,0,0,0,0,0
694380000,0.0043057455,0.014200721,0.40863538,0.0,0.9791758,0.00066739623,0.0073893997,0.20287855,0.0,0.0,-0.58796096,1,0,0,0,0,0
694492000,0.0044840444,0.014077089,0.40863538,0.0,0.9791761,0.0007672324,0.007346959,0.20287809,0.0,0.0,-0.58705,1,0,0,0,0,0
694584000,0.0032720568,0.014700114,0.40863538,0.0,0.9791744,0.000110650064,0.007529039,0.20288159,0.0,0.0,-0.5830582,1,0,0,0,0,0
694676000,0.0033525238,0.01431088,0.40863538,0.0,0.9791756,0.00018953439,0.0073466385,0.20288187,0.0,0.0,-0.56520385,1,0,0,0,0,0
694788000,0.0018187945,0.0150483595,0.40863538,0.0,0.9791729,-0.00063617807,0.007552113,0.20288657,0.0,0.0,-0.5592512,1,0,0,0,0,0
694884000,0.0024195863,0.014461548,0.40863538,0.0,0.97917515,-0.0002825058,0.007325764,0.20288509,0.0,0.0,-0.5686291,1,0,0,0,0,0
694976000,0.00271944,0.0134759415,0.40863538,0.0,0.97917837,-3.5709872e-05,0.0068736426,0.20288531,0.0,0.0,-0.5655922,1,0,0,0,0,0
695088000,0.003294746,0.013461997,0.40863538,0.0,0.9791784,0.00024736844,0.006925175,0.20288336,0.0,0.0,-0.5671566,1,0,0,0,0,0
695180000,0.0028077823,0.0144876875,0.40863538,0.0,0.9791751,-9.5101735e-05,0.0073779407,0.20288362,0.0,0.0,-0.5624277,1,0,0,0,0,0
695276000,0.0025319355,0.012972897,0.40863538,0.0,0.97918,-7.647545e-05,0.0066083367,0.20288664,0.0,0.0,-0.56677055,1,0,0,0,0,0
695388000,0.0035814338,0.0128055075,0.40863538,0.0,0.97918034,0.0004543306,0.0066328477,0.20288338,0.0,0.0,-0.5675883,1,0,0,0,0,0
695480000,0.0027677075,0.013426597,0.40863538,0.0,0.97917855,-7.0726946e-06,0.00685438,0.20288524,0.0,0.0,-0.564633,1,0,0,0,0,0
695592000,0.001071962,0.01300281,0.40863538,0.0,0.97917956,-0.00079429836,0.0064748754,0.20289136,0.0,0.0,-0.5646195,1,0,0,0,0,0
695684000,0.0015929085,0.012973878,0.40863538,0.0,0.9791798,-0.0005363131,0.0065135583,0.2028897,0.0,0.0,-0.56407595,1,0,0,0,0,0
695780000,0.0020310446,0.012575583,0.40863538,0.0,0.97918105,-0.00028139888,0.0063630035,0.20288874,0.0,0.0,-0.56766915,1,0,0,0,0,0
695892000,0.0018100808,0.012907417,0.40863538,0.0,0.97918004,-0.00042324525,0.0065030507,0.20288907,0.0,0.0,-0.5665737,1,0,0,0,0,0
695984000,0.00097627705,0.012780333,0.40863538,0.0,0.9791802,-0.0008185745,0.0063562454,0.20289186,0.0,0.0,-0.56352043,1,0,0,0,0,0
696080000,0.00083441427,0.011940355,0.40863538,0.0,0.97918266,-0.0008028145,0.0059306095,0.202893,0.0,0.0,-0.56848377,1,0,0,0,0,0
696192000,0.0014683293,0.0116413655,0.40863538,0.0,0.9791837,-0.00046212267,0.005848536,0.2028914,0.0,0.0,-0.56804466,1,0,0,0,0,0
696284000,0.00046136274,0.009574854,0.40863538,0.0,0.9791887,-0.00074548007,0.0047346326,0.20289567,0.0,0.0,-0.56694037,1,0,0,0,0,0
696376000,0.0016341936,0.009709158,0.40863538,0.0,0.9791886,-0.00018489399,0.0049193674,0.20289277,0.0,0.0,-0.5643852,1,0,0,0,0,0
696488000,0.00068577117,0.008777912,0.40863538,0.0,0.97919047,-0.000554762,0.0043672207,0.20289566,0.0,0.0,-0.5642882,1,0,0,0,0,0
696584000,0.0005983007,0.009206365,0.40863538,0.0,0.9791896,-0.00064105325,0.004568115,0.20289557,0.0,0.0,-0.569474,1,0,0,0,0,0
696676000,0.0005113121,0.008204484,0.40863538,0.0,0.97919166,-0.00058200245,0.004068774,0.20289634,0.0,0.0,-0.56677884,1,0,0,0,0,0
696788000,-0.00047936308,0.00748525,0.40863538,0.0,0.9791926,-0.0009940679,0.0036161377,0.20289855,0.0,0.0,-0.5660011,1,0,0,0,0,0
696880000,0.0001530439,0.009804539,0.40863538,0.0,0.97918797,-0.00091973273,0.0048158076,0.20289628,0.0,0.0,-0.5622188,1,0,0,0,0,0
696976000,-8.567932e-05,0.009286473,0.40863538,0.0,0.97918904,-0.0009840531,0.004537947,0.2028971,0.0,0.0,-0.5663265,1,0,0,0,0,0
697088000,3.6329708e-05,0.007932015,0.40863538,0.0,0.97919196,-0.00078691024,0.0038871886,0.20289744,0.0,0.0,-0.5666845,1,0,0,0,0,0
697180000,-0.0005750962,0.008161443,0.40863538,0.0,0.97919124,-0.0011095369,0.003937487,0.20289856,0.0,0.0,-0.56515104,1,0,0,0,0,0
697272000,-0.001038384,0.007380848,0.40863538,0.0,0.97919244,-0.0012571712,0.0035083105,0.20289958,0.0,0.0,-0.56311923,1,0,0,0,0,0
697384000,-0.0019156085,0.0075382898,0.40863538,0.0,0.97919154,-0.0017026284,0.0034963982,0.20290107,0.0,0.0,-0.56462073,1,0,0,0,0,0
697480000,-0.0016932957,0.0077121225,0.40863538,0.0,0.97919136,-0.0016114201,0.0036040605,0.20290071,0.0,0.0,-0.5664206,1,0,0,0,0,0
697592000,-0.0007540176,0.0062093036,0.40863538,0.0,0.97919464,-0.0009990949,0.0029635741,0.20289925,0.0,0.0,-0.5660433,1,0,0,0,0,0
697684000,-0.00041352343,0.005561054,0.40863538,0.0,0.9791957,-0.0007666259,0.0026807361,0.20289886,0.0,0.0,-0.5630421,1,0,0,0,0,0
697776000,0.0001715375,0.0038329507,0.40863538,0.0,0.9791979,-0.0003048663,0.0018940131,0.20289856,0.0,0.0,-0.563166,1,0,0,0,0,0
697888000,-0.00033888462,0.0053987694,0.40863538,0.0,0.97919595,-0.00071361935,0.0026088539,0.20289883,0.0,0.0,-0.5628839,1,0,0,0,0,0
697984000,-0.00021530026,0.0046553886,0.40863538,0.0,0.97919697,-0.00057769724,0.0022574333,0.20289879,0.0,0.0,-0.56555474,1,0,0,0,0,0
698076000,0.0007890927,0.004994618,0.40863538,0.0,0.9791967,-0.00012036266,0.0025254139,0.20289747,0.0,0.0,-0.56494,1,0,0,0,0,0
698188000,0.0008614349,0.0038109068,0.40863538,0.0,0.979198,3.5143185e-05,0.0019532098,0.20289788,0.0,0.0,-0.5668071,1,0,0,0,0,0
698280000,0.0010665277,0.004584797,0.40863538,0.0,0.9791972,5.7045218e-05,0.0023529122,0.20289733,0.0,0.0,-0.56444865,1,0,0,0,0,0
698376000,0.0019611518,0.003775559,0.40863538,0.0,0.9791978,0.0005771495,0.0020474684,0.20289682,0.0,0.0,-0.5640921,1,0,0,0,0,0
698488000,0.0020471546,0.0069628907,0.40863538,0.0,0.9791939,0.00029589995,0.0036167027,0.20289429,0.0,0.0,-0.56721836,1,0,0,0,0,0
698580000,0.001356126,0.006180107,0.40863538,0.0,0.9791952,3.6987996e-05,0.0031633517,0.20289604,0.0,0.0,-0.56557214,1,0,0,0,0,0
698692000,0.0008957966,0.0077759605,0.40863538,0.0,0.9791925,-0.000350287,0.0038979764,0.20289586,0.0,0.0,-0.5635642,1,0,0,0,0,0
698784000,0.0022665649,0.008095442,0.40863538,0.0,0.97919196,0.0002884245,0.0041934536,0.20289283,0.0,0.0,-0.56620896,1,0,0,0,0,0
698880000,0.0024039284,0.0077098296,0.40863538,0.0,0.9791926,0.0003947978,0.004018595,0.20289291,0.0,0.0,-0.56566805,1,0,0,0,0,0
698976000,0.001075049,0.0077587785,0.40863538,0.0,0.97919255,-0.00026078257,0.003907749,0.20289552,0.0,0.0,-0.564445,1,0,0,0,0,0
699088000,0.001414881,0.008503932,0.40863538,0.0,0.9791912,-0.00016999793,0.0043070475,0.2028943,0.0,0.0,-0.5646703,1,0,0,0,0,0
699180000,0.0009411628,0.007854294,0.40863538,0.0,0.9791924,-0.00033602267,0.00394093,0.20289572,0.0,0.0,-0.56347144,1,0,0,0,0,0
699292000,0.00012852626,0.0066125863,0.40863538,0.0,0.97919434,-0.00060791656,0.0032505542,0.20289777,0.0,0.0,-0.5641112,1,0,0,0,0,0
699384000,0.0009875754,0.008071304,0.40863538,0.0,0.97919196,-0.00033531498,0.0040518865,0.20289548,0.0,0.0,-0.5649022,1,0,0,0,0,0
699480000,0.0015282829,0.008912145,0.40863538,0.0,0.97919035,-0.0001558903,0.004518411,0.20289372,0.0,0.0,-0.565015,1,0,0,0,0,0
699592000,0.0016338518,0.008314574,0.40863538,0.0,0.9791916,-4.3580476e-05,0.0042365524,0.20289393,0.0,0.0,-0.56504565,1,0,0,0,0,0
699684000,0.0010479669,0.008703719,0.40863538,0.0,0.97919077,-0.00036990579,0.00436764,0.20289491,0.0,0.0,-0.5634625,1,0,0,0,0,0
699776000,0.00025579878,0.008461921,0.40863538,0.0,0.979191,-0.00073321746,0.0041688927,0.20289676,0.0,0.0,-0.56345886,1,0,0,0,0,0
699888000,6.4330675e-06,0.0076792347,0.40863538,0.0,0.97919244,-0.0007759034,0.0037603956,0.2028976,0.0,0.0,-0.5641091,1,0,0,0,0,0
699984000,-0.0010380881,0.009343885,0.40863538,0.0,0.9791883,-0.0014561715,0.004469435,0.20289923,0.0,0.0,-0.56387764,1,0,0,0,0,0
700076000,-0.0019881986,0.00847222,0.40863538,0.0,0.9791895,-0.0018329128,0.003946283,0.20290129,0.0,0.0,-0.5643357,1,0,0,0,0,0
700188000,-0.0009474019,0.008721292,0.40863538,0.0,0.9791898,-0.0013486117,0.004173816,0.20289917,0.0,0.0,-0.56412154,1,0,0,0,0,0
700280000,-0.00039593098,0.00930338,0.40863538,0.0,0.97918886,-0.0011376658,0.0045147496,0.20289779,0.0,0.0,-0.5632354,1,0,0,0,0,0
700376000,-0.0001622247,0.009243832,0.40863538,0.0,0.9791891,-0.0010172036,0.0045093056,0.20289728,0.0,0.0,-0.5644595,1,0,0,0,0,0
700488000,-0.0002383155,0.0067308224,0.40863538,0.0,0.97919405,-0.0007995159,0.003271226,0.20289832,0.0,0.0,-0.56483066,1,0,0,0,0,0
700580000,-0.0012822129,0.0077577243,0.4084907,0.0,0.97920626,-0.0014145166,0.0036681935,0.20282912,0.0,0.0,-0.5627508,1,0,0,0,0,0
700692000,-0.001209486,0.0075121326,0.4084907,0.0,0.9792068,-0.0013540031,0.0035553265,0.20282902,0.0,0.0,-0.56195647,1,0,0,0,0,0
700784000,-0.0016289378,0.00790408,0.4084907,0.0,0.9792057,-0.0015991163,0.0037046866,0.20282972,0.0,0.0,-0.5618357,1,0,0,0,0,0
700880000,-0.00059538585,0.008551044,0.4084907,0.0,0.9792051,-0.0011586967,0.0041262596,0.20282765,0.0,0.0,-0.56318,1,0,0,0,0,0
700992000,-0.0009863633,0.006498989,0.4084907,0.0,0.9792087,-0.001142016,0.003081915,0.20282875,0.0,0.0,-0.5632479,1,0,0,0,0,0
701084000,-0.00011256645,0.007391279,0.4084907,0.0,0.9792076,-0.0008046913,0.003607399,0.2028271,0.0,0.0,-0.56254447,1,0,0,0,0,0
701176000,0.000765301,0.005992379,0.4084907,0.0,0.9792101,-0.0002330157,0.0030115189,0.20282622,0.0,0.0,-0.5618559,1,0,0,0,0,0
701288000,0.0012738548,0.007240878,0.4084907,0.0,0.97920823,-0.00011064121,0.0036743628,0.20282461,0.0,0.0,-0.56326604,1,0,0,0,0,0
701384000,0.0024508256,0.005802881,0.4084907,0.0,0.9792102,0.0006114436,0.003089673,0.20282376,0.0,0.0,-0.5640093,1,0,0,0,0,0
701476000,0.0027228354,0.0072316676,0.4084907,0.0,0.97920805,0.00059971964,0.0038167972,0.20282194,0.0,0.0,-0.56485474,1,0,0,0,0,0
701588000,0.0013285789,0.0058970074,0.4084907,0.0,0.97921026,5.2440024e-05,0.0030219485,0.20282546,0.0,0.0,-0.5652122,1,0,0,0,0,0
701680000,0.0031035575,0.0049564154,0.4084907,0.0,0.979211,0.0010168692,0.0027414344,0.20282361,0.0,0.0,-0.56252724,1,0,0,0,0,0
701776000,0.0029050682,0.005971902,0.4084907,0.0,0.97920984,0.0008167016,0.0032184923,0.2028229,0.0,0.0,-0.5636321,1,0,0,0,0,0
701888000,0.002163039,0.006716713,0.4084907,0.0,0.97920895,0.00037786525,0.0035079042,0.20282345,0.0,0.0,-0.56356573,1,0,0,0,0,0
701980000,0.0015697868,0.0059259855,0.4084907,0.0,0.9792102,0.00016759787,0.0030605977,0.20282504,0.0,0.0,-0.5627262,1,0,0,0,0,0
702092000,0.0008944767,0.006294448,0.4084907,0.0,0.97920966,-0.0002004048,0.0031725136,0.20282584,0.0,0.0,-0.56292826,1,0,0,0,0,0
702184000,0.0006896534,0.006315658,0.4084907,0.0,0.97920966,-0.0003028382,0.003162126,0.20282619,0.0,0.0,-0.5625377,1,0,0,0,0,0
702280000,0.0014505844,0.004882779,0.4084907,0.0,0.97921157,0.00021503228,0.0025377497,0.20282586,0.0,0.0,-0.5631612,1,0,0,0,0,0
702392000,0.0029360373,0.0065741315,0.4084907,0.0,0.979209,0.0007707888,0.0035164866,0.20282221,0.0,0.0,-0.56366634,1,0,0,0,0,0
702484000,0.002509355,0.0069781314,0.4084907,0.0,0.9792085,0.00052091136,0.0036710156,0.2028226,0.0,0.0,-0.5634154,1,0,0,0,0,0
702576000,0.0028695676,0.006586445,0.4084907,0.0,0.979209,0.0007369961,0.0035157748,0.20282234,0.0,0.0,-0.56454045,1,0,0,0,0,0
702688000,0.0034224552,0.0058607613,0.4084907,0.0,0.9792097,0.0010812883,0.0032165458,0.20282216,0.0,0.0,-0.5621607,1,0,0,0,0,0
702784000,0.0034962436,0.0057932166,0.4084907,0.0,0.9792098,0.0011242656,0.0031909589,0.20282215,0.0,0.0,-0.56382495,1,0,0,0,0,0
702876000,0.0047019008,0.005596734,0.4084907,0.0,0.9792091,0.0017344878,0.003217027,0.20282046,0.0,0.0,-0.5632317,1,0,0,0,0,0
702988000,0.0037155342,0.0072980523,0.4084907,0.0,0.97920746,0.0010790161,0.00394997,0.20281993,0.0,0.0,-0.5639157,1,0,0,0,0,0
703080000,0.0032223111,0.007450098,0.4084907,0.0,0.9792075,0.0008221126,0.003974394,0.20282072,0.0,0.0,-0.5632699,1,0,0,0,0,0
703176000,0.0027161967,0.008322592,0.4084907,0.0,0.97920614,0.00048583225,0.0043502436,0.2028208,0.0,0.0,-0.56275696,1,0,0,0,0,0
703288000,0.0040733423,0.008363445,0.4084907,0.0,0.9792055,0.0011461513,0.0045078727,0.20281772,0.0,0.0,-0.5640733,1,0,0,0,0,0
703380000,0.0041000773,0.007967195,0.4084907,0.0,0.97920614,0.0011994278,0.004316579,0.20281824,0.0,0.0,-0.56345344,1,0,0,0,0,0
703472000,0.0023483573,0.009455072,0.4084907,0.0,0.9792039,0.00019088585,0.004867404,0.20282042,0.0,0.0,-0.56318843,1,0,0,0,0,0
703584000,0.0021376535,0.009591898,0.4084907,0.0,0.9792035,7.384857e-05,0.004913027,0.20282082,0.0,0.0,-0.56202567,1,0,0,0,0,0
703680000,0.000982293,0.009385131,0.4084907,0.0,0.9792039,-0.00047084887,0.0046946267,0.20282374,0.0,0.0,-0.5641518,1,0,0,0,0,0
703792000,0.0014443567,0.00803746,0.4084907,0.0,0.97920674,-0.00010794786,0.004081663,0.20282373,0.0,0.0,-0.5625598,1,0,0,0,0,0
703884000,0.002315773,0.008319812,0.4084907,0.0,0.9792062,0.0002900654,0.004308275,0.20282166,0.0,0.0,-0.56189966,1,0,0,0,0,0
703976000,0.0016197886,0.010031578,0.4084907,0.0,0.9792025,-0.00022428908,0.0050757774,0.20282166,0.0,0.0,-0.5620967,1,0,0,0,0,0
704088000,0.00016750609,0.00868761,0.4084907,0.0,0.9792052,-0.0007990321,0.00427049,0.20282598,0.0,0.0,-0.56240445,1,0,0,0,0,0
704184000,0.00042627723,0.007869837,0.4084907,0.0,0.9792069,-0.0005894038,0.0038963486,0.20282586,0.0,0.0,-0.5624357,1,0,0,0,0,0
704276000,0.002508702,0.009088603,0.4084907,0.0,0.97920465,0.0003065568,0.004704241,0.20282044,0.0,0.0,-0.5638436,1,0,0,0,0,0
704388000,0.0024120356,0.0071745017,0.4084907,0.0,0.97920823,0.00045334818,0.0037572898,0.20282257,0.0,0.0,-0.56181276,1,0,0,0,0,0
704480000,0.0009473891,0.0072368,0.4084907,0.0,0.9792082,-0.00027006667,0.0036392591,0.20282522,0.0,0.0,-0.56379646,1,0,0,0,0,0
704576000,0.00012326647,0.007872486,0.4084907,0.0,0.9792068,-0.0007380276,0.0038669163,0.20282644,0.0,0.0,-0.5630778,1,0,0,0,0,0
704688000,0.000933407,0.008563394,0.4084907,0.0,0.97920567,-0.00041144792,0.004287346,0.20282443,0.0,0.0,-0.564883,1,0,0,0,0,0
704780000,0.0024392267,0.008930149,0.4084907,0.0,0.9792049,0.00028861116,0.0046196165,0.20282078,0.0,0.0,-0.5631949,1,0,0,0,0,0
704872000,-0.0013161427,0.00669872,0.4084907,0.0,0.9792082,-0.0013237327,0.0031462596,0.20282926,0.0,0.0,-0.56286234,1,0,0,0,0,0
704984000,-0.00022900844,0.007080485,0.4084907,0.0,0.9792081,-0.00083018304,0.0034434241,0.20282736,0.0,0.0,-0.562047,1,0,0,0,0,0
705080000,-0.00063714624,0.006346155,0.4084907,0.0,0.9792091,-0.0009555385,0.0030425023,0.20282823,0.0,0.0,-0.5632861,1,0,0,0,0,0
705192000,-0.000903003,0.006414291,0.4084907,0.0,0.9792089,-0.0010926131,0.0030489005,0.20282863,0.0,0.0,-0.56291485,1,0,0,0,0,0
705284000,-0.0012177981,0.004737629,0.4084907,0.0,0.9792111,-0.001076703,0.002196073,0.20282906,0.0,0.0,-0.56293225,1,0,0,0,0,0
705376000,0.0009360017,0.007695055,0.4084907,0.0,0.97920734,-0.00032211546,0.0038624671,0.20282498,0.0,0.0,-0.56428623,1,0,0,0,0,0
705488000,0.0005015262,0.008336535,0.4084907,0.0,0.979206,-0.00059989124,0.0041324766,0.20282549,0.0,0.0,-0.56211567,1,0,0,0,0,0
705584000,0.0014068714,0.008615952,0.4084907,0.0,0.9792056,-0.00018496846,0.0043610926,0.20282336,0.0,0.0,-0.5641802,1,0,0,0,0,0
705676000,0.0010522641,0.009751842,0.4084907,0.0,0.97920305,-0.00047378067,0.0048812656,0.20282333,0.0,0.0,-0.56218493,1,0,0,0,0,0
705792000,0.00055375835,0.011562843,0.4084907,0.0,0.9791983,-0.00090150937,0.0057173762,0.2028233,0.0,0.0,-0.5641606,1,0,0,0,0,0
705884000,0.00210758,0.010978905,0.4084907,0.0,0.97920024,-8.153909e-05,0.005589055,0.20281942,0.0,0.0,-0.56491214,1,0,0,0,0,0
705976000,0.0018220606,0.009002599,0.4084907,0.0,0.97920483,-2.0902551e-05,0.0045925006,0.20282209,0.0,0.0,-0.56373197,1,0,0,0,0,0
706088000,0.0030126784,0.008121618,0.4084907,0.0,0.9792064,0.0006513728,0.0042819125,0.20282038,0.0,0.0,-0.5625152,1,0,0,0,0,0
706184000,0.0013424308,0.0077712727,0.4084907,0.0,0.9792072,-0.00013085586,0.0039410004,0.20282415,0.0,0.0,-0.5627978,1,0,0,0,0,0
706276000,0.0018259202,0.007869431,0.4084907,0.0,0.9792071,9.590742e-05,0.0040380904,0.20282309,0.0,0.0,-0.56378394,1,0,0,0,0,0
706388000,0.0013325578,0.0086602885,0.4084907,0.0,0.97920555,-0.00022584897,0.004375264,0.20282349,0.0,0.0,-0.5625862,1,0,0,0,0,0
706480000,0.0023786288,0.008996969,0.4084907,0.0,0.9792048,0.0002521656,0.004646187,0.20282082,0.0,0.0,-0.56378275,1,0,0,0,0,0
706576000,0.0022519617,0.008968851,0.4084907,0.0,0.97920483,0.00019300068,0.0046195746,0.20282117,0.0,0.0,-0.5647319,1,0,0,0,0,0
706688000,-0.0002401965,0.008595274,0.4084907,0.0,0.9792052,-0.0009892803,0.004183935,0.20282689,0.0,0.0,-0.56414616,1,0,0,0,0,0
706780000,0.00043847194,0.008526134,0.4084907,0.0,0.9792056,-0.0006499907,0.0042189104,0.2028255,0.0,0.0,-0.56424576,1,0,0,0,0,0
706892000,0.0020305754,0.008971321,0.4084907,0.0,0.9792049,8.43589e-05,0.004598333,0.20282169,0.0,0.0,-0.56467146,1,0,0,0,0,0
706984000,0.0036642482,0.00852654,0.4084907,0.0,0.9792054,0.0009293173,0.0045462386,0.20281842,0.0,0.0,-0.5640677,1,0,0,0,0,0
707080000,0.00079178973,0.008931003,0.4084907,0.0,0.97920483,-0.0005180648,0.0044529657,0.2028245,0.0,0.0,-0.56333417,1,0,0,0,0,0
707172000,0.0016900162,0.008343405,0.4084907,0.0,0.97920614,-1.869957e-05,0.0042563677,0.20282298,0.0,0.0,-0.5638347,1,0,0,0,0,0
707284000,0.00041858215,0.0066338475,0.4084907,0.0,0.97920907,-0.00046782487,0.0032904232,0.20282646,0.0,0.0,-0.5637746,1,0,0,0,0,0
707376000,0.0009173787,0.008152068,0.4084907,0.0,0.9792065,-0.00037758096,0.004084333,0.20282473,0.0,0.0,-0.5623336,1,0,0,0,0,0
707488000,0.0019245789,0.0069394456,0.4084907,0.0,0.97920865,0.00023852575,0.003592772,0.20282368,0.0,0.0,-0.5630185,1,0,0,0,0,0
707584000,0.00096845883,0.0061675175,0.4084907,0.0,0.9792099,-0.00015131019,0.0031178705,0.20282581,0.0,0.0,-0.5631969,1,0,0,0,0,0
707676000,-2.7268023e-05,0.006218821,0.4084907,0.0,0.9792096,-0.0006440257,0.0030420085,0.20282733,0.0,0.0,-0.564556,1,0,0,0,0,0
707788000,0.0003628733,0.0076844306,0.4084907,0.0,0.9792072,-0.0006016438,0.003799143,0.20282607,0.0,0.0,-0.5632117,1,0,0,0,0,0
707880000,-9.388926e-05,0.006426143,0.4084907,0.0,0.97920924,-0.0006976692,0.003136759,0.20282736,0.0,0.0,-0.562954,1,0,0,0,0,0
707976000,-1.8901148e-05,0.006688393,0.4084907,0.0,0.9792089,-0.0006875504,0.0032727623,0.20282717,0.0,0.0,-0.5640016,1,0,0,0,0,0
708088000,0.00012988204,0.0057256543,0.4084907,0.0,0.9792104,-0.0005170706,0.0028164897,0.20282726,0.0,0.0,-0.56381387,1,0,0,0,0,0
708180000,0.00035657568,0.0065459423,0.4084907,0.0,0.9792092,-0.00048926874,0.003241096,0.20282659,0.0,0.0,-0.56218684,1,0,0,0,0,0
708292000,-0.00043614258,0.00490256,0.4084907,0.0,0.9792113,-0.00071072613,0.002356095,0.20282818,0.0,0.0,-0.56329083,1,0,0,0,0,0
708384000,-0.0004477506,0.0047713164,0.4084907,0.0,0.9792114,-0.0007030996,0.0022906603,0.2028282,0.0,0.0,-0.56380755,1,0,0,0,0,0
708480000,0.00028548457,0.003994757,0.4084907,0.0,0.9792124,-0.0002653495,0.0019848123,0.20282759,0.0,0.0,-0.5634554,1,0,0,0,0,0
708572000,-0.0004388646,0.0062001976,0.4084907,0.0,0.9792095,-0.00084365683,0.0029911494,0.20282792,0.0,0.0,-0.5633214,1,0,0,0,0,0
708684000,0.0013284541,0.006145479,0.4084907,0.0,0.9792099,2.7180331e-05,0.0031435885,0.20282528,0.0,0.0,-0.56216365,1,0,0,0,0,0
708776000,0.0023072243,0.0060070404,0.4084907,0.0,0.97920996,0.0005204309,0.0031750675,0.20282383,0.0,0.0,-0.56242466,1,0,0,0,0,0
708888000,0.002476928,0.0016929768,0.4084907,0.0,0.9792134,0.0010410295,0.0010800883,0.202827,0.0,0.0,-0.5641835,1,0,0,0,0,0
708984000,0.00078891596,0.0025775072,0.4084907,0.0,0.97921354,0.00012486304,0.0013419726,0.2028276,0.0,0.0,-0.56438875,1,0,0,0,0,0
709076000,-0.0005725746,0.002424276,0.4084907,0.0,0.9792135,-0.00052619225,0.0011288754,0.20282844,0.0,0.0,-0.56228536,1,0,0,0,0,0
709188000,0.0006450645,0.002301393,0.4084907,0.0,0.9792137,8.243428e-05,0.0011921967,0.20282774,0.0,0.0,-0.5635824,1,0,0,0,0,0
709280000,0.0010801032,0.0028564618,0.4084907,0.0,0.9792133,0.00023914028,0.0015080811,0.20282727,0.0,0.0,-0.5618942,1,0,0,0,0,0
709376000,0.001283714,0.002411364,0.4084907,0.0,0.97921354,0.00038396879,0.0013108072,0.20282732,0.0,0.0,-0.5632895,1,0,0,0,0,0
709488000,0.0005668773,0.0017369488,0.4084907,0.0,0.97921395,0.00010139596,0.0009079117,0.20282793,0.0,0.0,-0.56326884,1,0,0,0,0,0
709580000,-0.00017527012,0.0048737274,0.4084907,0.0,0.9792114,-0.00058007764,0.0023684348,0.20282787,0.0,0.0,-0.5635782,1,0,0,0,0,0
709692000,0.0001541116,0.004354207,0.4084907,0.0,0.97921205,-0.00036612374,0.0021474783,0.20282763,0.0,0.0,-0.56289387,1,0,0,0,0,0
709784000,0.0003645788,0.003285787,0.4084907,0.0,0.97921306,-0.0001547249,0.0016457175,0.20282769,0.0,0.0,-0.5626107,1,0,0,0,0,0
709880000,-0.0008862281,0.0042863456,0.4084907,0.0,0.9792118,-0.00086859835,0.0020087478,0.20282872,0.0,0.0,-0.5635582,1,0,0,0,0,0
709992000,6.188582e-05,0.0039398298,0.4084907,0.0,0.97921246,-0.0003692544,0.0019352435,0.2028278,0.0,0.0,-0.56257457,1,0,0,0,0,0
710084000,0.00044668172,0.003690607,0.4084907,0.0,0.97921276,-0.00015558126,0.0018522462,0.20282751,0.0,0.0,-0.5648712,1,0,0,0,0,0
710176000,-0.0002148704,0.0030548035,0.4084907,0.0,0.9792131,-0.0004150021,0.0014738623,0.20282821,0.0,0.0,-0.5634757,1,0,0,0,0,0
710288000,-0.0007844041,0.0048840092,0.4084907,0.0,0.97921115,-0.0008793556,0.0023116937,0.20282859,0.0,0.0,-0.5624902,1,0,0,0,0,0
710384000,0.0002777311,0.0043774988,0.4084907,0.0,0.97921205,-0.00030796108,0.0021714186,0.2028275,0.0,0.0,-0.5630217,1,0,0,0,0,0
710476000,0.0010405816,0.0036241827,0.4084907,0.0,0.9792128,0.00014193228,0.0018799539,0.20282696,0.0,0.0,-0.56198967,1,0,0,0,0,0
710592000,0.000103170096,0.004822714,0.4084907,0.0,0.9792115,-0.00043857814,0.0023716956,0.20282757,0.0,0.0,-0.5638657,1,0,0,0,0,0
710684000,0.0016755888,0.0042892373,0.4084907,0.0,0.9792121,0.00038538943,0.002269967,0.20282596,0.0,0.0,-0.5631252,1,0,0,0,0,0
710776000,0.00015725946,0.003541086,0.4084907,0.0,0.9792128,-0.00028212072,0.0017496884,0.2028278,0.0,0.0,-0.5628474,1,0,0,0,0,0
710888000,0.00040454988,0.0033891723,0.4084907,0.0,0.97921294,-0.00014563951,0.0017003892,0.20282762,0.0,0.0,-0.5620437,1,0,0,0,0,0
710984000,0.0006933727,0.0040567275,0.4084907,0.0,0.9792124,-7.1929615e-05,0.002056519,0.20282714,0.0,0.0,-0.5638089,1,0,0,0,0,0
711076000,0.001283138,0.0037142648,0.4084907,0.0,0.9792127,0.00025155375,0.0019486571,0.20282671,0.0,0.0,-0.5637099,1,0,0,0,0,0
711188000,0.0026629905,0.0019330924,0.4084907,0.0,0.97921324,0.0011077756,0.0012165197,0.20282675,0.0,0.0,-0.56184435,1,0,0,0,0,0
711280000,0.00039240156,0.0004131322,0.4084907,0.0,0.9792143,0.00015022517,0.00024206752,0.20282823,0.0,0.0,-0.5633399,1,0,0,0,0,0
711376000,-7.979813e-05,0.00020840453,0.4084907,0.0,0.9792143,-6.0204897e-05,9.3943694e-05,0.20282826,0.0,0.0,-0.5644964,1,0,0,0,0,0
711488000,0.0003352422,0.0015545065,0.4084907,0.0,0.9792141,6.488022e-06,0.0007950957,0.20282805,0.0,0.0,-0.5631586,1,0,0,0,0,0
711580000,0.0010233561,0.0018908181,0.4084907,0.0,0.9792139,0.00030928664,0.0010295406,0.20282768,0.0,0.0,-0.5648104,1,0,0,0,0,0
711692000,0.00028831378,0.0017521457,0.4084907,0.0,0.97921395,-3.653188e-05,0.000887102,0.20282806,0.0,0.0,-0.56361,1,0,0,0,0,0
711784000,0.00023188924,0.00072080776,0.4084907,0.0,0.97921425,4.0434523e-05,0.0003764295,0.20282823,0.0,0.0,-0.56256014,1,0,0,0,0,0
711880000,0.00021087365,0.00064536795,0.4084907,0.0,0.9792143,3.7795817e-05,0.0003373623,0.20282823,0.0,0.0,-0.5635416,1,0,0,0,0,0
711972000,0.0009941161,-0.00085715303,0.4084907,0.0,0.9792141,0.00057365367,-0.0003188508,0.20282842,0.0,0.0,-0.56519556,1,0,0,0,0,0
712084000,0.00090834696,0.0007267715,0.4084907,0.0,0.9792142,0.00037102823,0.00044795166,0.20282806,0.0,0.0,-0.5638883,1,0,0,0,0,0
712176000,0.0019513398,0.00052992924,0.4084907,0.0,0.9792139,0.0009016474,0.0004573504,0.2028279,0.0,0.0,-0.56393826,1,0,0,0,0,0
712288000,0.0029649914,3.89468e-05,0.4084907,0.0,0.97921324,0.0014477308,0.00031976053,0.202828,0.0,0.0,-0.5651313,1,0,0,0,0,0
712384000,0.0010917085,-0.00082260964,0.4084907,0.0,0.9792141,0.0006179324,-0.00029204082,0.20282844,0.0,0.0,-0.56291366,1,0,0,0,0,0
712476000,0.00026977414,0.00047343722,0.4084907,0.0,0.9792143,8.407012e-05,0.00025915712,0.20282823,0.0,0.0,-0.5634118,1,0,0,0,0,0
712588000,0.0011908629,0.0008434205,0.4084907,0.0,0.97921413,0.0004975202,0.00053371495,0.20282796,0.0,0.0,-0.5660877,1,0,0,0,0,0
712680000,0.0025638088,-0.00018507484,0.4084907,0.0,0.9792135,0.001274028,0.00016939244,0.2028282,0.0,0.0,-0.5628369,1,0,0,0,0,0
712776000,0.001615617,0.0002228299,0.4084907,0.0,0.979214,0.0007684194,0.0002729454,0.20282812,0.0,0.0,-0.5639434,1,0,0,0,0,0
712888000,0.003105765,-0.0010985167,0.4084907,0.0,0.9792128,0.0016320089,-0.00022287268,0.20282884,0.0,0.0,-0.562542,1,0,0,0,0,0
712980000,0.004061507,0.0007959536,0.4084907,0.0,0.9792124,0.0019078208,0.00080159766,0.20282704,0.0,0.0,-0.56427383,1,0,0,0,0,0
713092000,0.0031455173,0.0022680894,0.4084907,0.0,0.9792129,0.0013100501,0.0014294708,0.20282614,0.0,0.0,-0.56325173,1,0,0,0,0,0
713184000,0.0020290122,0.0024224415,0.4084907,0.0,0.97921336,0.0007477484,0.0013918142,0.20282683,0.0,0.0,-0.56357265,1,0,0,0,0,0
713280000,0.002010204,0.0010822563,0.4084907,0.0,0.97921383,0.0008744538,0.0007337431,0.20282757,0.0,0.0,-0.5646094,1,0,0,0,0,0
713372000,0.0015164275,0.0016396559,0.4084907,0.0,0.97921383,0.00057616923,0.00095657393,0.20282753,0.0,0.0,-0.56357956,1,0,0,0,0,0
713484000,0.0012217694,0.0010581142,0.4084907,0.0,0.9792141,0.0004908792,0.0006419648,0.20282787,0.0,0.0,-0.5620275,1,0,0,0,0,0
713576000,0.007056721,-0.17176451,5.5313177,0.0,0.92684233,-0.028222129,-0.08107665,-0.36550435,0.0,0.0,-0.5696099,1,0,0,0,0,0
713688000,-0.014618436,-0.16066843,5.5312843,0.0,0.9269191,-0.036239497,-0.0719663,-0.3665085,0.0,0.0,-0.43697444,1,0,0,0,0,0
713784000,-0.01652185,-0.1109919,5.5312204,0.0,0.92851543,-0.028038174,-0.048562564,-0.3670349,0.0,0.0,-0.5100577,1,0,0,0,0,0
713876000,-0.009834426,-0.061268326,5.531145,0.0,0.9296306,-0.01581913,-0.026684208,-0.36718488,0.0,0.0,-0.59711266,1,0,0,0,0,0
713988000,-0.0056805355,-0.056304183,5.53106,0.0,0.9297162,-0.012978491,-0.025138495,-0.36718848,0.0,0.0,-0.56464636,1,0,0,0,0,0
714080000,-0.0026997433,-0.06740918,5.531,0.0,0.9295611,-0.013631781,-0.030847397,-0.36712238,0.0,0.0,-0.56606394,1,0,0,0,0,0
714176000,-0.0016524435,-0.07488845,5.530942,0.0,0.9294326,-0.014518571,-0.034515306,-0.36708722,0.0,0.0,-0.5712717,1,0,0,0,0,0
714288000,0.00055485603,-0.0774093,5.530884,0.0,0.9293929,-0.013956497,-0.036091477,-0.36705795,0.0,0.0,-0.57119995,1,0,0,0,0,0
714380000,0.0020428638,-0.07779755,5.530833,0.0,0.92938673,-0.013337216,-0.036544636,-0.36705184,0.0,0.0,-0.56956756,1,0,0,0,0,0
714492000,0.0039838194,-0.07868202,5.530784,0.0,0.9293745,-0.012598541,-0.037311513,-0.36703157,0.0,0.0,-0.57038903,1,0,0,0,0,0
714584000,0.004863935,-0.07933362,5.5307293,0.0,0.92935824,-0.0123102255,-0.03777545,-0.36703512,0.0,0.0,-0.56999177,1,0,0,0,0,0
714680000,0.006334693,-0.08376318,5.53069,0.0,0.92927843,-0.012440905,-0.040103156,-0.3669857,0.0,0.0,-0.57155704,1,0,0,0,0,0
714792000,0.007286834,-0.08629961,5.530634,0.0,0.9292255,-0.012465411,-0.041455872,-0.36696866,0.0,0.0,-0.5721431,1,0,0,0,0,0
714884000,0.009123965,-0.08777986,5.5305977,0.0,0.92920125,-0.011884459,-0.042480346,-0.36693227,0.0,0.0,-0.572313,1,0,0,0,0,0
714976000,0.010847548,-0.091097176,5.530551,0.0,0.9291369,-0.011693991,-0.044337183,-0.36688164,0.0,0.0,-0.5713354,1,0,0,0,0,0
715088000,0.011103338,-0.09354589,5.530507,0.0,0.9290803,-0.012025907,-0.045521162,-0.36686924,0.0,0.0,-0.57257324,1,0,0,0,0,0
715184000,0.011738306,-0.0977363,5.530463,0.0,0.9289874,-0.012501664,-0.047583465,-0.36682695,0.0,0.0,-0.57276064,1,0,0,0,0,0
715276000,0.0113137765,-0.10182008,5.530425,0.0,0.92888725,-0.013449861,-0.049401715,-0.3668066,0.0,0.0,-0.5726979,1,0,0,0,0,0
715388000,0.011681177,-0.104975015,5.5303736,0.0,0.92880785,-0.01386,-0.050933626,-0.36678287,0.0,0.0,-0.5739941,1,0,0,0,0,0
715480000,0.0127349235,-0.107348904,5.5303345,0.0,0.92875206,-0.013807702,-0.05222872,-0.36674404,0.0,0.0,-0.574837,1,0,0,0,0,0
715576000,0.012164354,-0.112151034,5.5302877,0.0,0.9286224,-0.0149559565,-0.05435299,-0.36671862,0.0,0.0,-0.57437813,1,0,0,0,0,0
715688000,0.01337432,-0.116259545,5.5302315,0.0,0.928517,-0.015150408,-0.05648138,-0.36665592,0.0,0.0,-0.5737627,1,0,0,0,0,0
715780000,0.01303847,-0.12133748,5.5301723,0.0,0.92836946,-0.016240764,-0.05877591,-0.3666221,0.0,0.0,-0.5743937,1,0,0,0,0,0
715892000,0.012664582,-0.12610821,5.530115,0.0,0.9282244,-0.017292267,-0.060920525,-0.3665914,0.0,0.0,-0.5750525,1,0,0,0,0,0
715984000,0.012776071,-0.12735774,5.5300484,0.0,0.9281778,-0.017472068,-0.0615201,-0.36660072,0.0,0.0,-0.576018,1,0,0,0,0,0
716080000,0.014300289,-0.13384059,5.5299983,0.0,0.9279934,-0.01795712,-0.06480627,-0.36647764,0.0,0.0,-0.5770306,1,0,0,0,0,0
716192000,0.013689834,-0.1399052,5.5299177,0.0,0.9277879,-0.019356923,-0.06750625,-0.36643934,0.0,0.0,-0.57732254,1,0,0,0,0,0
716284000,0.014035368,-0.14473319,5.529855,0.0,0.9276264,-0.020085527,-0.06980754,-0.36637798,0.0,0.0,-0.5782266,1,0,0,0,0,0
716376000,0.013827746,-0.14774781,5.5297775,0.0,0.9275115,-0.020738212,-0.07116629,-0.36637092,0.0,0.0,-0.5793818,1,0,0,0,0,0
716488000,0.0142651275,-0.1547643,5.5296993,0.0,0.92726445,-0.02182685,-0.0744977,-0.36627087,0.0,0.0,-0.5776737,1,0,0,0,0,0
716584000,0.013658282,-0.16060407,5.5296183,0.0,0.9270364,-0.023183638,-0.07709166,-0.36622795,0.0,0.0,-0.5795153,1,0,0,0,0,0
716676000,0.013887622,-0.16616605,5.52954,0.0,0.92682076,-0.024101691,-0.07970936,-0.366154,0.0,0.0,-0.5804938,1,0,0,0,0,0
716788000,0.01536428,-0.17311957,5.5294333,0.0,0.9265547,-0.024698634,-0.08319864,-0.3660114,0.0,0.0,-0.5793916,1,0,0,0,0,0
716880000,0.014381965,-0.17723946,5.529352,0.0,0.92636555,-0.025913525,-0.0849253,-0.36600965,0.0,0.0,-0.5825303,1,0,0,0,0,0
716976000,0.01287551,-0.18411915,5.5292625,0.0,0.92604893,-0.027877942,-0.087832876,-0.3659804,0.0,0.0,-0.58567965,1,0,0,0,0,0
717088000,0.013930649,-0.19260259,5.5291495,0.0,0.9256828,-0.028951565,-0.091949604,-0.3658121,0.0,0.0,-0.5841657,1,0,0,0,0,0
717180000,0.012999421,-0.19867063,5.529037,0.0,0.92538035,-0.030501297,-0.09458423,-0.36577964,0.0,0.0,-0.585329,1,0,0,0,0,0
717292000,0.013204893,-0.20723997,5.528917,0.0,0.92496836,-0.031984285,-0.0985819,-0.36563954,0.0,0.0,-0.5863,1,0,0,0,0,0
717384000,0.011477825,-0.21139178,5.5287905,0.0,0.92472,-0.033550777,-0.10018296,-0.365692,0.0,0.0,-0.5864297,1,0,0,0,0,0
717480000,0.011970722,-0.22179648,5.5286903,0.0,0.92419857,-0.035236116,-0.105078295,-0.36547774,0.0,0.0,-0.5866036,1,0,0,0,0,0
717592000,0.012483761,-0.22957182,5.528558,0.0,0.9237853,-0.036431722,-0.10875985,-0.36532828,0.0,0.0,-0.5883709,1,0,0,0,0,0
717684000,0.013107887,-0.23540969,5.5284615,0.0,0.9234713,-0.03721901,-0.11156649,-0.36519644,0.0,0.0,-0.58922017,1,0,0,0,0,0
717776000,0.013124084,-0.24070147,5.52841,0.0,0.9231765,-0.03818439,-0.11400996,-0.36508754,0.0,0.0,-0.5910763,1,0,0,0,0,0
717888000,0.011535029,-0.25120884,5.528302,0.0,0.92253816,-0.040849008,-0.118563294,-0.3649623,0.0,0.0,-0.59179825,1,0,0,0,0,0
717984000,0.011305688,-0.26034278,5.5282226,0.0,0.92198694,-0.042632096,-0.1227293,-0.3647741,0.0,0.0,-0.5935068,1,0,0,0,0,0
718076000,0.011468728,-0.26746377,5.5281115,0.0,0.92154217,-0.043867316,-0.1260366,-0.3646238,0.0,0.0,-0.5951821,1,0,0,0,0,0
718188000,0.011996553,-0.27744097,5.527997,0.0,0.92091405,-0.04545726,-0.13072295,-0.3643659,0.0,0.0,-0.5958579,1,0,0,0,0,0
718280000,0.011073557,-0.28576216,5.527873,0.0,0.920336,-0.047412332,-0.13437982,-0.36424682,0.0,0.0,-0.5974992,1,0,0,0,0,0
718376000,0.010395058,-0.29629275,5.527772,0.0,0.91960186,-0.04965628,-0.13909474,-0.36403218,0.0,0.0,-0.5988232,1,0,0,0,0,0
718488000,0.009306177,-0.30714422,5.5276275,0.0,0.91879964,-0.052149057,-0.14387731,-0.3638503,0.0,0.0,-0.6014194,1,0,0,0,0,0
718580000,0.008559037,-0.31526747,5.5275164,0.0,0.9181811,-0.05398304,-0.14746697,-0.36370695,0.0,0.0,-0.6038734,1,0,0,0,0,0
718692000,0.0077124704,-0.32851887,5.527362,0.0,0.9171526,-0.056799993,-0.15338579,-0.36342502,0.0,0.0,-0.604177,1,0,0,0,0,0
718784000,0.008942144,-0.33694795,5.5272484,0.0,0.9165249,-0.057781518,-0.15746783,-0.36310786,0.0,0.0,-0.6069195,1,0,0,0,0,0
718880000,0.0066505014,-0.34889448,5.527117,0.0,0.9154942,-0.06101749,-0.1625166,-0.36295396,0.0,0.0,-0.6092998,1,0,0,0,0,0
718992000,0.0065787565,-0.36024946,5.526964,0.0,0.9145406,-0.06312885,-0.16769141,-0.36264297,0.0,0.0,-0.612265,1,0,0,0,0,0
719084000,0.006276424,-0.3688239,5.5268154,0.0,0.9137867,-0.06483859,-0.17154923,-0.36243707,0.0,0.0,-0.61567533,1,0,0,0,0,0
719176000,0.0056845676,-0.37737373,5.5266876,0.0,0.91301197,-0.06667335,-0.17534076,-0.3622423,0.0,0.0,-0.61707896,1,0,0,0,0,0
719288000,0.0050370614,-0.39246726,5.52652,0.0,0.9116254,-0.06972311,-0.18210007,-0.36182517,0.0,0.0,-0.6188072,1,0,0,0,0,0
719384000,0.004585689,-0.40434712,5.5264053,0.0,0.91050154,-0.07209271,-0.18742399,-0.36147174,0.0,0.0,-0.6242203,1,0,0,0,0,0
719476000,0.0044528665,-0.41694105,5.526269,0.0,0.90928423,-0.07444639,-0.19312242,-0.3610592,0.0,0.0,-0.6253351,1,0,0,0,0,0
719588000,0.0041448683,-0.43363208,5.5261316,0.0,0.90761757,-0.0776177,-0.20064038,-0.36048475,0.0,0.0,-0.6276025,1,0,0,0,0,0
719680000,0.002564453,-0.44534943,5.526003,0.0,0.9063488,-0.080462664,-0.2056627,-0.3602228,0.0,0.0,-0.6322067,1,0,0,0,0,0
719776000,0.003775267,-0.45901063,5.5259027,0.0,0.9049612,-0.08238763,-0.21206088,-0.35956588,0.0,0.0,-0.6376213,1,0,0,0,0,0
719888000,0.002419786,-0.47410116,5.525771,0.0,0.90326416,-0.08573091,-0.21863163,-0.359116,0.0,0.0,-0.6418664,1,0,0,0,0,0
719980000,0.0025275056,-0.4871285,5.525673,0.0,0.90181375,-0.08803413,-0.22452414,-0.35856783,0.0,0.0,-0.64441043,1,0,0,0,0,0
720092000,0.0012387665,-0.5048302,5.525549,0.0,0.8997181,-0.09180346,-0.23225878,-0.35796,0.0,0.0,-0.6483051,1,0,0,0,0,0
720184000,0.00238141,-0.51611155,5.525463,0.0,0.8984343,-0.09331967,-0.23752964,-0.35733312,0.0,0.0,-0.65156746,1,0,0,0,0,0
720280000,0.0014540323,-0.5317882,5.5253696,0.0,0.8964902,-0.09654922,-0.24439281,-0.35672915,0.0,0.0,-0.65894014,1,0,0,0,0,0
720392000,0.0022197894,-0.55009496,5.5252705,0.0,0.894241,-0.09948381,-0.2527184,-0.35576618,0.0,0.0,-0.6645808,1,0,0,0,0,0
720484000,0.0010821379,-0.56301403,5.525179,0.0,0.89252067,-0.102302946,-0.2582813,-0.35529116,0.0,0.0,-0.6686056,1,0,0,0,0,0
720576000,0.0005843352,-0.57613134,5.5251064,0.0,0.8907711,-0.10486407,-0.26403663,-0.35470417,0.0,0.0,-0.67300254,1,0,0,0,0,0
720688000,-0.0006495819,-0.5785194,5.5250053,0.0,0.8903724,-0.10585046,-0.2648758,-0.35478663,0.0,0.0,-0.6707828,1,0,0,0,0,0
720784000,-0.00051030953,-0.55726445,5.5249395,0.0,0.89313483,-0.10202211,-0.25541934,-0.3558969,0.0,0.0,-0.6701125,1,0,0,0,0,0
720876000,-0.0013788799,-0.53018975,5.524867,0.0,0.8964578,-0.097594924,-0.24314621,-0.35737738,0.0,0.0,-0.6766371,1,0,0,0,0,0
720988000,-0.0014957907,-0.5154583,5.524787,0.0,0.89820814,-0.09502441,-0.23651089,-0.3581272,0.0,0.0,-0.67798334,1,0,0,0,0,0
721080000,-0.002045554,-0.5186001,5.5247145,0.0,0.8977954,-0.09584171,-0.2378199,-0.3580775,0.0,0.0,-0.67463183,1,0,0,0,0,0
721192000,-0.0021232744,-0.5272831,5.524645,0.0,0.896735,-0.09743656,-0.241699,-0.35770664,0.0,0.0,-0.6733606,1,0,0,0,0,0
721284000,-0.002221871,-0.53126776,5.52457,0.0,0.89623195,-0.09820132,-0.24346423,-0.35756114,0.0,0.0,-0.6708176,1,0,0,0,0,0
721380000,-0.00147467,-0.5300264,5.5245132,0.0,0.89640975,-0.0976517,-0.24303858,-0.35755548,0.0,0.0,-0.6719694,1,0,0,0,0,0
721472000,-0.0021275505,-0.52581954,5.5244465,0.0,0.8968765,-0.09720095,-0.24103217,-0.35786593,0.0,0.0,-0.672418,1,0,0,0,0,0
721576000,-0.0022270833,-0.5230563,5.5243816,0.0,0.8971933,-0.09675958,-0.23977156,-0.35803822,0.0,0.0,-0.67521375,1,0,0,0,0,0
721688000,-0.0037750283,-0.5242419,5.5243206,0.0,0.8969643,-0.09767309,-0.24002339,-0.35819522,0.0,0.0,-0.6730551,1,0,0,0,0,0
721780000,-0.0030286878,-0.5243066,5.52428,0.0,0.89698565,-0.09735476,-0.24018408,-0.35812074,0.0,0.0,-0.6746161,1,0,0,0,0,0
721872000,-0.0031239241,-0.52411246,5.5242424,0.0,0.89699763,-0.097367324,-0.24007812,-0.3581583,0.0,0.0,-0.67515206,1,0,0,0,0,0
721984000,-0.0024980388,-0.5274017,5.524212,0.0,0.89662486,-0.097678095,-0.24166404,-0.35794035,0.0,0.0,-0.67334694,1,0,0,0,0,0
722080000,-0.002823583,-0.52664876,5.5241857,0.0,0.89669555,-0.09769268,-0.24126682,-0.35802734,0.0,0.0,-0.6744735,1,0,0,0,0,0
722192000,-0.0034603474,-0.5277096,5.524162,0.0,0.89653146,-0.09817053,-0.2416274,-0.3580644,0.0,0.0,-0.6756875,1,0,0,0,0,0
722284000,-0.0035244194,-0.52509964,5.524143,0.0,0.89684117,-0.097735226,-0.24044439,-0.35820422,0.0,0.0,-0.67693967,1,0,0,0,0,0
722376000,-0.0031403122,-0.5243319,5.524138,0.0,0.8969517,-0.09742643,-0.24016851,-0.35819668,0.0,0.0,-0.6758962,1,0,0,0,0,0
722488000,-0.0035139634,-0.5267202,5.5241327,0.0,0.89664364,-0.098021336,-0.24117264,-0.35813093,0.0,0.0,-0.67684513,1,0,0,0,0,0
722584000,-0.0032571726,-0.5281826,5.5241375,0.0,0.8964796,-0.0981669,-0.2418747,-0.3580282,0.0,0.0,-0.6761025,1,0,0,0,0,0
722676000,-0.0052175373,-0.527869,5.5241413,0.0,0.8964218,-0.0989891,-0.24138315,-0.35827827,0.0,0.0,-0.6757222,1,0,0,0,0,0
722788000,-0.0050999983,-0.5270964,5.52415,0.0,0.89652306,-0.098797455,-0.24105813,-0.35829666,0.0,0.0,-0.6760899,1,0,0,0,0,0
722880000,-0.004242005,-0.5277991,5.524171,0.0,0.89648384,-0.09853579,-0.24152802,-0.35815045,0.0,0.0,-0.6753463,1,0,0,0,0,0
722976000,-0.004515593,-0.52939254,5.524184,0.0,0.8962787,-0.09894129,-0.24219418,-0.3581021,0.0,0.0,-0.6775626,1,0,0,0,0,0
723088000,-0.0048569464,-0.53187096,5.5242033,0.0,0.8959623,-0.09953422,-0.24324505,-0.3580172,0.0,0.0,-0.67710346,1,0,0,0,0,0
723180000,-0.0051148334,-0.53247774,5.524212,0.0,0.8958767,-0.09975691,-0.24347124,-0.35801587,0.0,0.0,-0.67880195,1,0,0,0,0,0
723276000,-0.0066255024,-0.5321983,5.5242195,0.0,0.8958367,-0.100382835,-0.2430759,-0.35820943,0.0,0.0,-0.67882746,1,0,0,0,0,0
723388000,-0.0057173213,-0.5327033,5.5242248,0.0,0.8958212,-0.10006548,-0.24346517,-0.35807264,0.0,0.0,-0.6796628,1,0,0,0,0,0
723480000,-0.0059898035,-0.5324925,5.5242343,0.0,0.8958351,-0.10014878,-0.2433224,-0.35811156,0.0,0.0,-0.6794944,1,0,0,0,0,0
723576000,-0.0060394015,-0.5331899,5.5242453,0.0,0.895749,-0.100293994,-0.24362658,-0.35807964,0.0,0.0,-0.6797393,1,0,0,0,0,0
723688000,-0.006585321,-0.53500295,5.5242643,0.0,0.8955017,-0.100859344,-0.24434233,-0.35805163,0.0,0.0,-0.6801594,1,0,0,0,0,0
723780000,-0.007303807,-0.5343716,5.5242825,0.0,0.8955465,-0.10106633,-0.24393167,-0.35816112,0.0,0.0,-0.68112624,1,0,0,0,0,0
723892000,-0.0067985603,-0.53737307,5.524309,0.0,0.8952059,-0.1013716,-0.2453682,-0.357945,0.0,0.0,-0.6794983,1,0,0,0,0,0
723984000,-0.0069133984,-0.5381907,5.524344,0.0,0.89510494,-0.101564385,-0.24571566,-0.3579045,0.0,0.0,-0.6794729,1,0,0,0,0,0
724080000,-0.0065640314,-0.53706074,5.524387,0.0,0.8952704,-0.101201445,-0.24527419,-0.35789627,0.0,0.0,-0.6804391,1,0,0,0,0,0
724176000,-0.006057916,-0.5369959,5.5244246,0.0,0.89531076,-0.10095872,-0.24533762,-0.35782045,0.0,0.0,-0.6811244,1,0,0,0,0,0
724288000,-0.0070063546,-0.537149,5.524473,0.0,0.89525247,-0.1014046,-0.24523896,-0.3579077,0.0,0.0,-0.68129015,1,0,0,0,0,0
724380000,-0.008027872,-0.53647745,5.524522,0.0,0.8952925,-0.10173634,-0.24475774,-0.3580429,0.0,0.0,-0.6828469,1,0,0,0,0,0
724492000,-0.007492557,-0.53896415,5.524583,0.0,0.89502215,-0.1019319,-0.24597058,-0.3578319,0.0,0.0,-0.68127036,1,0,0,0,0,0
724584000,-0.008780921,-0.54009247,5.524645,0.0,0.8948268,-0.10270154,-0.24624857,-0.3579091,0.0,0.0,-0.6824523,1,0,0,0,0,0
724680000,-0.007880666,-0.5406297,5.5247025,0.0,0.89481634,-0.1023872,-0.24665317,-0.35774684,0.0,0.0,-0.6819669,1,0,0,0,0,0
724772000,-0.007649975,-0.5407654,5.52477,0.0,0.89482325,-0.10229983,-0.24675864,-0.35768187,0.0,0.0,-0.6833147,1,0,0,0,0,0
724884000,-0.008521785,-0.539768,5.5248485,0.0,0.894917,-0.10250281,-0.24616009,-0.35780156,0.0,0.0,-0.6825957,1,0,0,0,0,0
724976000,-0.008043605,-0.5418841,5.524932,0.0,0.8946923,-0.102654874,-0.24719751,-0.3576045,0.0,0.0,-0.68252486,1,0,0,0,0,0
725088000,-0.009548829,-0.5434621,5.525032,0.0,0.894435,-0.10359619,-0.24763997,-0.35767078,0.0,0.0,-0.68205595,1,0,0,0,0,0
725184000,-0.009113374,-0.5438145,5.525114,0.0,0.89442796,-0.103453875,-0.24787983,-0.35756338,0.0,0.0,-0.6825736,1,0,0,0,0,0
725276000,-0.007282127,-0.5439451,5.525203,0.0,0.89452183,-0.10264704,-0.24827018,-0.35729012,0.0,0.0,-0.68296546,1,0,0,0,0,0
725388000,-0.00722879,-0.5457996,5.525319,0.0,0.89431226,-0.10293832,-0.24911568,-0.35714236,0.0,0.0,-0.68265224,1,0,0,0,0,0
725480000,-0.007422305,-0.54537606,5.5254183,0.0,0.8943733,-0.10293726,-0.24889667,-0.35714257,0.0,0.0,-0.6820074,1,0,0,0,0,0
725576000,-0.008019112,-0.5434309,5.5255165,0.0,0.8946044,-0.102846466,-0.24792445,-0.35726607,0.0,0.0,-0.68447316,1,0,0,0,0,0
725688000,-0.009404677,-0.54517937,5.5256386,0.0,0.894335,-0.10376142,-0.24846594,-0.35729995,0.0,0.0,-0.68426204,1,0,0,0,0,0
725780000,-0.008704989,-0.547105,5.525749,0.0,0.8941482,-0.103776544,-0.24945854,-0.35707128,0.0,0.0,-0.6828176,1,0,0,0,0,0
725892000,-0.008036536,-0.54698086,5.525876,0.0,0.8942211,-0.10343981,-0.24952884,-0.35693714,0.0,0.0,-0.6848922,1,0,0,0,0,0
725984000,-0.008237461,-0.54597497,5.525994,0.0,0.8943586,-0.10333649,-0.2490489,-0.35695785,0.0,0.0,-0.6850033,1,0,0,0,0,0
726080000,-0.008414445,-0.54677004,5.5260954,0.0,0.8942674,-0.10354401,-0.24937838,-0.35689634,0.0,0.0,-0.68621606,1,0,0,0,0,0
726192000,-0.006651963,-0.54945546,5.5262384,0.0,0.8940445,-0.10321455,-0.25090173,-0.35648215,0.0,0.0,-0.6838161,1,0,0,0,0,0
726284000,-0.00833752,-0.54866225,5.5263615,0.0,0.8940796,-0.10381195,-0.2502527,-0.3566767,0.0,0.0,-0.6849009,1,0,0,0,0,0
726376000,-0.008478348,-0.54749334,5.526499,0.0,0.8942447,-0.10365051,-0.24971159,-0.3566892,0.0,0.0,-0.685394,1,0,0,0,0,0
726488000,-0.009097938,-0.5483612,5.5266576,0.0,0.89413106,-0.104061514,-0.24999775,-0.356654,0.0,0.0,-0.68458736,1,0,0,0,0,0
726584000,-0.0096540935,-0.5482996,5.5267897,0.0,0.89413345,-0.1042827,-0.24987787,-0.35666737,0.0,0.0,-0.68530995,1,0,0,0,0,0
726676000,-0.009186483,-0.54873633,5.526922,0.0,0.8941261,-0.10413447,-0.2501636,-0.3565287,0.0,0.0,-0.68562067,1,0,0,0,0,0
726788000,-0.008455274,-0.5515959,5.5270877,0.0,0.8938305,-0.104293235,-0.25158203,-0.3562253,0.0,0.0,-0.685594,1,0,0,0,0,0
726880000,-0.00703246,-0.55003405,5.5272264,0.0,0.8941275,-0.10336322,-0.25114387,-0.35606012,0.0,0.0,-0.6864605,1,0,0,0,0,0
726992000,-0.0068271863,-0.5500695,5.527402,0.0,0.8941649,-0.10325567,-0.2512053,-0.35595414,0.0,0.0,-0.6866784,1,0,0,0,0,0
727088000,-0.007314312,-0.5522268,5.5275316,0.0,0.8938886,-0.103839055,-0.2520904,-0.35585266,0.0,0.0,-0.6860723,1,0,0,0,0,0
727184000,-0.008749244,-0.55313957,5.5276766,0.0,0.8937232,-0.10462358,-0.25225097,-0.35592455,0.0,0.0,-0.68602437,1,0,0,0,0,0
727276000,-0.008336426,-0.5520645,5.527812,0.0,0.89390594,-0.10423187,-0.25185058,-0.355864,0.0,0.0,-0.68689114,1,0,0,0,0,0
727388000,-0.008233128,-0.5523263,5.527972,0.0,0.89390653,-0.10421182,-0.2519944,-0.35576665,0.0,0.0,-0.68854064,1,0,0,0,0,0
727480000,-0.007841926,-0.5526894,5.5281014,0.0,0.8939036,-0.10408487,-0.25223312,-0.35564202,0.0,0.0,-0.6874238,1,0,0,0,0,0
727576000,-0.0077827093,-0.5537633,5.5282307,0.0,0.89379257,-0.10423195,-0.25273073,-0.3555246,0.0,0.0,-0.68769366,1,0,0,0,0,0
727688000,-0.0066498793,-0.55436087,5.528397,0.0,0.8938047,-0.10381029,-0.25320795,-0.3552778,0.0,0.0,-0.6882264,1,0,0,0,0,0
727780000,-0.0063635847,-0.55557317,5.528551,0.0,0.8936919,-0.103877135,-0.25380898,-0.35511324,0.0,0.0,-0.6864836,1,0,0,0,0,0
727872000,-0.006850629,-0.55467546,5.5286994,0.0,0.8938077,-0.103917345,-0.25332877,-0.3551527,0.0,0.0,-0.6877327,1,0,0,0,0,0
727984000,-0.006988509,-0.55384314,5.5288754,0.0,0.89393824,-0.10380962,-0.2529411,-0.3551322,0.0,0.0,-0.68854344,1,0,0,0,0,0
728080000,-0.0060415165,-0.5552338,5.5290074,0.0,0.893833,-0.103615366,-0.25373808,-0.35488513,0.0,0.0,-0.6887168,1,0,0,0,0,0
728192000,-0.006322998,-0.55548364,5.529146,0.0,0.89381105,-0.10376766,-0.25380704,-0.35484654,0.0,0.0,-0.6887394,1,0,0,0,0,0
728284000,-0.007315534,-0.5577693,5.5292897,0.0,0.8934915,-0.10459641,-0.2546605,-0.35479644,0.0,0.0,-0.6901283,1,0,0,0,0,0
728376000,-0.0069651185,-0.5591166,5.529426,0.0,0.89336056,-0.10466024,-0.25533214,-0.35462475,0.0,0.0,-0.68978906,1,0,0,0,0,0
728488000,-0.0061210524,-0.5606444,5.5295925,0.0,0.89323705,-0.10453145,-0.25617334,-0.35436708,0.0,0.0,-0.6907153,1,0,0,0,0,0
728584000,-0.0061906525,-0.5632628,5.5297256,0.0,0.89291793,-0.105007194,-0.25733805,-0.3541866,0.0,0.0,-0.6879311,1,0,0,0,0,0
728676000,-0.006922367,-0.56346375,5.5298624,0.0,0.8928777,-0.105351664,-0.2573054,-0.35420963,0.0,0.0,-0.68793225,1,0,0,0,0,0
728788000,-0.005453439,-0.5635237,5.5300226,0.0,0.8929754,-0.1046858,-0.25760067,-0.35394612,0.0,0.0,-0.6897483,1,0,0,0,0,0
728880000,-0.0056022475,-0.5636436,5.5301695,0.0,0.89297795,-0.10475445,-0.25763562,-0.35389364,0.0,0.0,-0.69105095,1,0,0,0,0,0
728976000,-0.005776951,-0.5402138,5.5302906,0.0,0.8959707,-0.10068178,-0.24712539,-0.35500523,0.0,0.0,-0.6803943,1,0,0,0,0,0
729088000,-0.0048825634,-0.47436836,5.5304427,0.0,0.90375406,-0.088568114,-0.21764714,-0.35779056,0.0,0.0,-0.67476827,1,0,0,0,0,0
729180000,-0.005615397,-0.4281278,5.5305595,0.0,0.908576,-0.08061905,-0.19655895,-0.3596593,0.0,0.0,-0.6763337,1,0,0,0,0,0
729292000,-0.005347931,-0.40747747,5.530713,0.0,0.9106158,-0.0767766,-0.18721703,-0.36032498,0.0,0.0,-0.6669601,1,0,0,0,0,0
729384000,-0.003435783,-0.40508157,5.530834,0.0,0.91093606,-0.07546396,-0.1864746,-0.3601776,0.0,0.0,-0.65732074,1,0,0,0,0,0
729480000,-0.0033825892,-0.38955405,5.5309453,0.0,0.91238797,-0.07263612,-0.17940843,-0.36067283,0.0,0.0,-0.64866877,1,0,0,0,0,0
729592000,-0.0018931422,-0.37034735,5.531069,0.0,0.914154,-0.06848369,-0.17090927,-0.36114046,0.0,0.0,-0.64515746,1,0,0,0,0,0
729684000,-0.00087353826,-0.35420686,5.5311832,0.0,0.91556305,-0.06509351,-0.16371338,-0.36153165,0.0,0.0,-0.6422844,1,0,0,0,0,0
729776000,-0.0015430094,-0.34048742,5.531287,0.0,0.9166645,-0.06291164,-0.15731077,-0.36196923,0.0,0.0,-0.6391182,1,0,0,0,0,0
729888000,-0.0020265838,-0.3239634,5.531406,0.0,0.9179445,-0.060134,-0.14964716,-0.3624466,0.0,0.0,-0.63572854,1,0,0,0,0,0
729984000,-0.0016650099,-0.30600795,5.531486,0.0,0.9192824,-0.056708544,-0.14146698,-0.36289278,0.0,0.0,-0.6299269,1,0,0,0,0,0
730076000,-0.0015699482,-0.2955929,5.5315876,0.0,0.9200308,-0.054768585,-0.13669746,-0.36312196,0.0,0.0,-0.62738514,1,0,0,0,0,0
730188000,0.00029779668,-0.27990916,5.5317,0.0,0.92114747,-0.051053565,-0.12982021,-0.36335608,0.0,0.0,-0.6234548,1,0,0,0,0,0
730280000,0.00024994594,-0.2722029,5.5317907,0.0,0.9216557,-0.049669307,-0.12626357,-0.36351243,0.0,0.0,-0.6201819,1,0,0,0,0,0
730376000,0.0010318294,-0.25349155,5.531861,0.0,0.9228265,-0.045901086,-0.117779434,-0.363885,0.0,0.0,-0.61771995,1,0,0,0,0,0
730488000,0.0013821747,-0.23806818,5.531954,0.0,0.92372894,-0.042925697,-0.11072564,-0.36417308,0.0,0.0,-0.61312634,1,0,0,0,0,0
730580000,0.002100746,-0.23101193,5.5320263,0.0,0.92414016,-0.041304123,-0.10759852,-0.3642547,0.0,0.0,-0.60988426,1,0,0,0,0,0
730692000,0.0035750011,-0.21828832,5.532117,0.0,0.9248461,-0.038298223,-0.10198815,-0.36440542,0.0,0.0,-0.60778594,1,0,0,0,0,0
730784000,0.004026836,-0.21238846,5.5321856,0.0,0.92516,-0.037009597,-0.09934353,-0.36447242,0.0,0.0,-0.6051885,1,0,0,0,0,0
730880000,0.0032063634,-0.19939952,5.5322456,0.0,0.9257728,-0.03501619,-0.093185484,-0.36473972,0.0,0.0,-0.59978133,1,0,0,0,0,0
730992000,0.004107635,-0.1862906,5.532301,0.0,0.9263807,-0.032202967,-0.08728172,-0.36491594,0.0,0.0,-0.6014214,1,0,0,0,0,0
731084000,0.0047379113,-0.17819348,5.532329,0.0,0.9267352,-0.030430658,-0.08364653,-0.36501935,0.0,0.0,-0.5990463,1,0,0,0,0,0
731176000,0.0049258815,-0.17231385,5.532341,0.0,0.9269769,-0.02926869,-0.0809567,-0.36510703,0.0,0.0,-0.59753615,1,0,0,0,0,0
731288000,0.003734213,-0.16438414,5.532348,0.0,0.9272681,-0.028371526,-0.07706382,-0.36528093,0.0,0.0,-0.5941411,1,0,0,0,0,0
731384000,0.004630483,-0.15291154,5.532343,0.0,0.9276978,-0.025858529,-0.07190784,-0.36542782,0.0,0.0,-0.59152377,1,0,0,0,0,0
731476000,0.0064687524,-0.1472549,5.5323367,0.0,0.9279139,-0.0239713,-0.069619946,-0.36545068,0.0,0.0,-0.5922892,1,0,0,0,0,0
731588000,0.0071875174,-0.13826928,5.5323257,0.0,0.92821264,-0.021993952,-0.065582365,-0.36556315,0.0,0.0,-0.58994883,1,0,0,0,0,0
731680000,0.008052833,-0.13373753,5.532321,0.0,0.9283611,-0.02076302,-0.06363753,-0.36560187,0.0,0.0,-0.58891314,1,0,0,0,0,0
731776000,0.007960803,-0.123291664,5.532309,0.0,0.9286624,-0.018893698,-0.058771998,-0.36575267,0.0,0.0,-0.5870395,1,0,0,0,0,0
731888000,0.01175257,-0.1165457,5.532278,0.0,0.9288717,-0.015898237,-0.056333162,-0.36574745,0.0,0.0,-0.5857002,1,0,0,0,0,0
731980000,0.013658909,-0.11227198,5.532241,0.0,0.9289879,-0.014230825,-0.054697085,-0.3657692,0.0,0.0,-0.585416,1,0,0,0,0,0
732092000,0.025789851,-0.10415404,5.5321827,0.0,0.9292315,-0.0071085906,-0.053145107,-0.36558688,0.0,0.0,-0.5858767,1,0,0,0,0,0
732184000,0.0675782,-0.08039306,5.532116,0.0,0.92952746,0.016672527,-0.049744356,-0.3650016,0.0,0.0,-0.5977735,1,0,0,0,0,0
732280000,-0.38988042,0.09412227,5.532008,0.023194635,0.9150037,-0.16307558,0.11391277,-0.35099632,0.0,0.0,-0.5662501,1,0,0,0,0,0
732392000,-0.4154438,0.096300036,5.531802,0.023194635,0.91284376,-0.17434463,0.119393796,-0.34937844,0.0,0.0,-0.5083054,1,0,0,0,0,0
732484000,-0.24432147,0.053960063,5.531871,0.023194635,0.92420405,-0.10349478,0.06959972,-0.36095932,0.0,0.0,-0.56764346,1,0,0,0,0,0
732576000,-0.1251461,0.021872895,5.532504,0.023194635,0.92875713,-0.054174162,0.033077247,-0.3652139,0.0,0.0,-0.591237,1,0,0,0,0,0
732688000,-0.098813355,0.012596562,5.533861,0.023194635,0.9295911,-0.04365771,0.023927243,-0.36521482,0.0,0.0,-0.5794819,1,0,0,0,0,0
732784000,-0.11045574,0.017977402,5.535166,0.023194635,0.9295943,-0.048102774,0.028520925,-0.36431727,0.0,0.0,-0.5761139,1,0,0,0,0,0
732876000,-0.115786344,0.016133556,5.5366745,0.023194635,0.92972517,-0.050938513,0.028596865,-0.36359125,0.0,0.0,-0.57653934,1,0,0,0,0,0
732988000,-0.11604468,0.016663173,5.538492,0.023194635,0.9300522,-0.050988317,0.028843604,-0.36272734,0.0,0.0,-0.5754767,1,0,0,0,0,0
733080000,-0.11352461,0.014443322,5.540058,0.023194635,0.93038464,-0.050241377,0.027315214,-0.36209685,0.0,0.0,-0.57531136,1,0,0,0,0,0
733176000,-0.11217719,0.015852496,5.541524,0.023194635,0.9306928,-0.049379174,0.027690418,-0.36139438,0.0,0.0,-0.5748741,1,0,0,0,0,0
733288000,-0.1109994,0.0139885,5.5434294,0.023194635,0.9310534,-0.04919399,0.026563589,-0.36057448,0.0,0.0,-0.5757208,1,0,0,0,0,0
733380000,-0.11136877,0.01367373,5.5450225,0.023194635,0.931329,-0.049443886,0.02644432,-0.35983637,0.0,0.0,-0.57527536,1,0,0,0,0,0
733492000,-0.11070534,0.014510476,5.5468864,0.023194635,0.9316859,-0.049008973,0.026668822,-0.35895437,0.0,0.0,-0.57524055,1,0,0,0,0,0
733584000,-0.1101228,0.014488702,5.548479,0.023194635,0.93198556,-0.04876265,0.026515309,-0.35822064,0.0,0.0,-0.5769013,1,0,0,0,0,0
733680000,-0.11025868,0.016033202,5.5499563,0.023194635,0.9322564,-0.04856886,0.027223272,-0.3574885,0.0,0.0,-0.5746583,1,0,0,0,0,0
733792000,-0.11201908,0.017137375,5.551836,0.023194635,0.93255556,-0.049217924,0.028006153,-0.35655764,0.0,0.0,-0.57557076,1,0,0,0,0,0
733884000,-0.111385636,0.016112031,5.5534678,0.023194635,0.9328555,-0.04912817,0.02737522,-0.3558337,0.0,0.0,-0.5761248,1,0,0,0,0,0
733976000,-0.11116752,0.014928431,5.555072,0.023194635,0.93313855,-0.049258973,0.026745033,-0.3551207,0.0,0.0,-0.5751744,1,0,0,0,0,0
