timestamp,timestamp_sample,xyz[0],xyz[1],xyz[2]
686480000,686480000,0.001995001,-0.0020063831,-6.776396e-05
686492000,686492000,0.0020760195,0.0046590064,-5.039503e-05
686504000,686504000,0.0014267585,0.0010229009,-0.00436119
686512000,686512000,0.0031649095,-0.0005270513,0.0033983341
686528000,686528000,-0.0003725178,-0.00096421037,0.0008499515
686536000,686536000,0.0013096916,0.00090907235,-0.001711465
686552000,686552000,0.0008978216,-0.003101612,-0.00046713144
686564000,686564000,-0.00093017425,-0.0009079119,0.0024233633
686572000,686572000,-0.0018814902,0.0069173607,0.0038858429
686584000,686584000,-0.004668765,0.008480791,-0.0023406874
686600000,686600000,-0.0033291948,0.0019997167,0.00087884086
686612000,686612000,-0.0015667779,-0.0010667769,-0.0005299237
686624000,686624000,-0.0015510046,-0.001345898,-0.00075865985
686632000,686632000,-0.0014449932,0.00046096742,-0.0028019813
686644000,686644000,-0.00081040955,-0.0060081985,0.0021622146
686660000,686660000,0.0033587315,0.0028133034,-0.0029299513
686672000,686672000,0.0025786697,0.0028948549,0.0024797248
686684000,686684000,-0.0010651257,0.0022470793,0.0010322575
686696000,686696000,-0.0037381942,-0.00086661614,0.0051235454
686708000,686708000,-0.0035485546,-0.0027341852,-0.0005177609
686720000,686720000,-0.0039930055,0.0010404252,-0.0013062581
686732000,686732000,-0.0022683162,0.004715981,0.0024731234
686744000,686744000,-0.0012661775,6.136997e-05,0.00042146328
686756000,686756000,-0.0062965946,-0.0009148987,0.0038978043
686768000,686768000,-0.0007947818,-0.0005592746,-0.0008190936
686780000,686780000,0.0018939774,0.002772781,-0.0060557458
686792000,686792000,0.0009853592,-0.001030481,-0.00067498826
686804000,686804000,-0.00050539075,-0.0008204165,-0.003052626
686816000,686816000,-0.0015560096,0.0022329981,-0.006345367
686828000,686828000,0.0021371292,-0.001229702,-0.0015402606
686840000,686840000,0.004380175,-7.6952856e-05,-0.001984038
686852000,686852000,0.0043153856,-0.00095293904,0.0050218515
686864000,686864000,0.0028428903,-0.0019861646,0.004047299
686872000,686872000,0.00080721366,0.0001488449,0.003834248
686888000,686888000,-0.00426831,0.001099621,-0.0028871724
686900000,686900000,0.00017157668,-0.000869981,-0.0034885523
686912000,686912000,0.0056844195,0.0031697014,-0.00078677305
686924000,686924000,0.0015130964,-0.0006415709,-0.0007230059
686936000,686936000,-0.004043844,-0.001844713,0.00017577608
686948000,686948000,-0.0034677526,-0.0049568764,-0.0025502266
686960000,686960000,-0.0034633572,0.0005950313,-0.0017791595
686972000,686972000,-0.0038002003,0.0067510693,-0.0018128182
686980000,686980000,-0.00067964854,0.0062583536,0.0031075773
686996000,686996000,-0.007953006,0.0038643093,0.0016839242
687008000,687008000,-0.00044739974,0.0005753683,-0.0032538376
687020000,687020000,0.0029375437,0.0028154794,-0.00011135981
687032000,687032000,0.0007350839,-0.0019027432,-0.0029517175
687044000,687044000,0.0025788858,-0.004180096,-0.0052416176
687056000,687056000,0.0028892597,0.0013205186,0.00010952592
687068000,687068000,0.004444257,-0.00019713538,-0.0010849666
687080000,687080000,0.008226979,-0.0022029583,0.005297988
687092000,687092000,-0.00030752923,0.00079159904,-0.0037587269
687104000,687104000,-0.0008513599,0.0014884127,-0.0025150736
687116000,687116000,0.0026930429,-0.00045083044,-0.0020585605
687128000,687128000,0.001547134,0.0055093477,0.0009618932
687140000,687140000,0.0010484359,0.0036271361,0.0014560339
687148000,687148000,0.0015213045,0.004334875,0.003243963
687164000,687164000,0.0028363485,0.0007727244,0.0019468842
687176000,687176000,9.288319e-05,0.0033947004,-0.0028063369
687188000,687188000,0.0026476886,0.0034346492,-0.0006349814
687200000,687200000,0.0011503117,-0.0021696845,0.0018171129
687212000,687212000,-0.0011170841,-0.00061359303,0.0044400203
687224000,687224000,0.0015089638,0.0029458823,-0.0056269085
687232000,687232000,-0.0012538267,0.0029836544,-0.0012466769
687248000,687248000,-0.00080373645,-0.00039421674,-0.000604711
687260000,687260000,-0.0010066619,0.0007420783,4.412688e-05
687272000,687272000,0.0009992113,0.0013463236,0.0004516224
687280000,687280000,0.0046401406,-0.000721985,0.000862796
687296000,687296000,-0.00041211367,0.0030903732,0.0021343909
687308000,687308000,0.0017252234,-3.034994e-05,0.0011241927
687320000,687320000,-0.00021322636,-0.0015383386,-0.0039695255
687332000,687332000,-0.0018072871,-0.0024227463,-0.0002906606
687340000,687340000,0.0020762454,-0.00076078717,-0.0027383186
687356000,687356000,-0.0032858173,-0.0014140736,-0.002276624
687368000,687368000,-0.0007362165,-0.0002914695,-0.0029579871
687380000,687380000,0.0034900068,-1.296401e-06,-0.0013124628
687392000,687392000,0.003744633,8.628797e-05,-0.00020612369
687404000,687404000,0.0025890227,-0.0055884975,0.0010335792
687416000,687416000,0.002930024,-0.0007895562,-0.00083442463
687424000,687424000,-0.00073375617,-0.004879371,-0.0015480588
687440000,687440000,-5.508843e-05,-0.00026917225,-0.0007100578
687452000,687452000,0.0008386964,-0.0034038243,0.00080255937
687464000,687464000,0.00021328224,0.005537629,0.0014567624
687476000,687476000,-0.0066483915,0.0005503525,-0.0001980312
687488000,687488000,-0.0028855035,0.0018214253,0.0013742417
687500000,687500000,0.0020590331,0.0018181554,0.005968014
687512000,687512000,0.0002738241,0.0017289529,-0.0003562462
687520000,687520000,-0.0012572906,0.00066690985,-0.0022950065
687536000,687536000,0.0017774277,0.00814954,-0.0048604566
687548000,687548000,0.0023133971,0.0019115801,-0.0033143123
687560000,687560000,0.0011344583,0.0022538383,0.0024032937
687572000,687572000,-0.0030229609,0.006510472,-0.0035542136
687580000,687580000,-0.00017449429,0.0011808625,-0.0032814706
687596000,687596000,-0.0016227242,0.0009948201,-0.0028018889
687604000,687604000,-0.0004692251,0.0010827533,-0.0010529993
687620000,687620000,0.0013740568,0.00044838898,-0.0007327887
687632000,687632000,-0.0010015888,-0.00078199804,0.00096572906
687644000,687644000,0.00010085694,-4.0585175e-05,0.0010203319
687656000,687656000,0.0006069278,0.0014040293,0.00094257155
687668000,687668000,0.0010153936,0.0038296373,-0.008664967
687680000,687680000,-0.001777546,0.000432753,0.0011925213
687688000,687688000,0.0041234777,0.0005289577,0.0027134796
687704000,687704000,0.003777198,-0.003758364,0.00028357247
687716000,687716000,-0.002941545,0.0008314294,0.00047231582
687728000,687728000,0.00017131795,0.0020811446,-3.067177e-05
687740000,687740000,0.003259442,-0.0013221237,-0.00085495244
687748000,687748000,0.0030063302,-0.0014152504,0.0017761801
687764000,687764000,0.0010255334,0.0020107534,0.0016716856
687776000,687776000,-0.0016925005,-0.0023144633,0.0038799227
687784000,687784000,-0.004209424,-0.001279993,-0.00073063816
687800000,687800000,0.0051526693,-0.00010323804,0.0011512199
687812000,687812000,0.0021895112,-0.0014662752,0.0002933629
687824000,687824000,0.0027896534,0.0009695715,0.0014120061
687836000,687836000,-0.00034031266,0.001664171,0.0023112409
687844000,687844000,-0.0024215712,-0.0021946179,0.00021290354
687860000,687860000,-0.0004286911,-0.0013030982,0.00467905
687872000,687872000,0.0018093153,0.002620172,0.004529716
687880000,687880000,0.00045602024,0.0027207648,0.009211983
687896000,687896000,-0.0029174064,0.002244013,-0.00025511486
687908000,687908000,-0.001786008,0.00027501257,0.0015425079
687920000,687920000,-0.007032396,0.0017466112,0.0018192576
687928000,687928000,-0.0047801863,-0.0017179591,0.0035279575
687940000,687940000,0.0024103294,-0.0023727003,0.0048272186
687956000,687956000,0.0012715693,-0.00048309378,0.0029092096
687968000,687968000,0.0018897108,0.0037260423,-0.0020472514
687980000,687980000,0.0020982858,-0.0011294861,-0.0006985344
687992000,687992000,0.00039296993,0.0005747443,-0.0031402735
688000000,688000000,-0.0021215344,0.0017772266,-0.002566645
688012000,688012000,0.0023729443,0.0041409484,0.00010220974
688028000,688028000,-0.0023190086,0.0014970764,0.0023922722
688040000,688040000,0.0011291592,0.0023403475,0.0021463658
688048000,688048000,-0.0004660652,-0.0004059379,0.0019292082
688064000,688064000,0.0005624739,0.0013876599,-0.0005247076
688072000,688072000,-0.002184151,0.001695415,0.0031280292
688088000,688088000,-0.0021665401,-0.0025893664,0.00034755567
688100000,688100000,0.0018230911,-0.0055494094,-0.0033537836
688112000,688112000,0.0056141214,-0.0014466885,0.0009354172
688124000,688124000,0.0023665796,0.0010669804,-0.0017163937
688136000,688136000,-0.0010817659,0.00017729215,0.00052003324
688148000,688148000,-0.0041876775,-0.0008377228,-0.005678674
688156000,688156000,-0.002769096,-0.0035062674,-0.0027474887
688172000,688172000,-0.00081035326,0.0004334012,-0.0018791612
688184000,688184000,-0.0024716659,0.00022308063,0.0014903959
688196000,688196000,0.0020017833,0.0015301118,0.0023807683
688208000,688208000,0.0007724803,-0.00093388604,0.0014481798
688220000,688220000,0.0047940966,0.006240875,0.0009658825
688228000,688228000,0.00028282928,0.0051360335,-0.0024466675
688244000,688244000,-7.461745e-05,-0.00024992134,-0.00052696717
688256000,688256000,0.00266601,-0.0032842783,-0.0045555914
688268000,688268000,-0.0010926031,-0.0119789485,0.0023555146
688280000,688280000,-0.0010622167,-0.030228918,0.0014424694
688292000,688292000,-0.00075087696,-0.05725619,-0.0008847541
688304000,688304000,-0.0026170218,-0.096647836,-0.0008617111
688316000,688316000,0.00030107715,-0.13269353,0.0022740741
688328000,688328000,-0.0074156644,-0.1692551,0.004055688
688340000,688340000,-0.026498973,-0.20234953,0.00058204675
688352000,688352000,-0.028130919,-0.2188626,0.0036907215
688364000,688364000,-0.030742051,-0.21095674,0.0043702186
688376000,688376000,-0.034412038,-0.19561227,0.0017884211
688384000,688384000,-0.028385345,-0.17861006,0.00019808474
688400000,688400000,-0.021064306,-0.15374489,-0.0002601511
688412000,688412000,-0.01713795,-0.1283891,0.0033947246
688424000,688424000,-0.019497713,-0.10860881,-0.0005100845
688436000,688436000,-0.019275507,-0.09186753,-0.0034731638
688448000,688448000,-0.014804208,-0.0762052,-0.00030376238
688460000,688460000,-0.015286085,-0.06615625,0.0016206153
688468000,688468000,-0.013185732,-0.048291184,-0.0035699257
688484000,688484000,-0.0050109234,-0.021170143,-0.00634805
688496000,688496000,0.001211459,-0.002496955,0.0027872592
688508000,688508000,0.0058660842,0.004852613,-0.00039870257
688516000,688516000,0.011230802,0.00875914,-0.0011554267
688532000,688532000,0.0126574645,0.023318484,-0.0019981598
688540000,688540000,0.012906453,0.03224029,-0.006164828
688556000,688556000,0.008858533,0.042964254,-0.003099535
688568000,688568000,0.003939671,0.05511603,-0.004097744
688580000,688580000,0.0038497145,0.05853068,-0.007485016
688592000,688592000,0.00518375,0.06615288,-0.0025105565
688604000,688604000,0.007213889,0.060049184,-0.0019727785
688616000,688616000,0.005726597,0.06103808,-0.0056868084
688628000,688628000,0.0023506656,0.06393475,-0.001830988
688640000,688640000,0.004114757,0.0687686,-0.002178647
688652000,688652000,0.0057898345,0.07025411,-0.0044704825
688660000,688660000,0.0050726384,0.07128238,0.0006881438
688676000,688676000,0.00048615257,0.07016772,0.0035352604
688688000,688688000,-0.00084689667,0.06615435,0.0013451385
688700000,688700000,-0.0043668523,0.06595951,0.003176173
688712000,688712000,-0.0027501383,0.06789612,-0.0008364415
688720000,688720000,-0.0024525356,0.0662053,-0.0022873846
688736000,688736000,0.00029996393,0.05759926,-0.0013510245
688748000,688748000,0.00066007266,0.053846747,-0.002015649
688760000,688760000,-0.0035330043,0.05816545,-0.0051797186
688772000,688772000,-0.0062159533,0.05411076,-0.001363515
688780000,688780000,-0.002844207,0.04963336,-0.001623852
688796000,688796000,-0.002538844,0.042078108,-0.0031036255
688808000,688808000,-0.0055616745,0.036167085,-0.0024755052
688820000,688820000,0.0020097098,0.032468926,0.001303069
688828000,688828000,0.0020331163,0.029866405,0.0011681373
688844000,688844000,-0.0061533293,0.028243454,0.0006072521
688856000,688856000,-0.0051599382,0.028245639,-0.00077617064
688868000,688868000,-0.008895527,0.02654542,0.00027523452
688880000,688880000,-0.0082271695,0.026568763,0.0017664914
688888000,688888000,-0.008006692,0.021360837,0.001693757
688904000,688904000,-0.005927102,0.015819218,0.00064172986
688916000,688916000,-0.0055060587,0.01751803,-0.0027465401
688928000,688928000,-0.011463475,0.018787615,0.0035962213
688940000,688940000,-0.010545011,0.01718245,0.0036983667
688952000,688952000,-0.0104910815,0.016061308,0.0027499152
688964000,688964000,-0.0061063324,0.015892759,0.0020459332
688976000,688976000,-0.006682295,0.016037876,-0.004921348
688988000,688988000,-0.004806885,0.0137507,-0.0032464396
689000000,689000000,-0.009332261,0.00966726,0.0017798981
689012000,689012000,-0.007988478,0.003474202,0.0026788465
689024000,689024000,-0.007911485,0.005415206,0.0014922187
689036000,689036000,-0.009752271,0.0038941943,-0.0018365285
689048000,689048000,-0.010605896,-0.0010161242,0.0004797033
689060000,689060000,-0.005105526,-9.131152e-05,-0.00089048623
689072000,689072000,0.0026202458,-0.00863288,-0.0055282176
689084000,689084000,-0.007863627,-0.010521898,0.0026630168
689096000,689096000,-0.0060288277,-0.0037551383,0.0038513856
689104000,689104000,-0.0066428566,-0.0017171204,0.0030391759
689120000,689120000,-0.0052315732,0.0029916235,-0.0027662609
689132000,689132000,-0.0038407461,-0.0019467105,-0.0030281916
689144000,689144000,-0.0025988184,-0.0047994903,-0.0016974036
689156000,689156000,-0.008498002,0.0009939796,0.0036228367
689168000,689168000,-0.0094977105,0.0029336857,-0.0035847004
689180000,689180000,-0.012912186,0.0076301694,-0.00032030448
689192000,689192000,-0.010259757,0.00568699,0.0039745336
689204000,689204000,-0.006699124,0.005358483,0.0012732018
689216000,689216000,4.011288e-05,-0.0031965328,-0.004575195
689228000,689228000,0.003443472,-0.0042259847,0.00041543576
689240000,689240000,0.000120749115,0.0038154104,0.0027383189
689252000,689252000,0.0018631344,0.006256648,0.0007788345
689264000,689264000,-0.0025310593,0.0063243983,-0.0008219
689276000,689276000,-0.010684449,0.0049300585,0.0009518445
689288000,689288000,-0.0057240287,0.005189818,0.0018553007
689300000,689300000,-0.002088343,0.006423945,-0.0015722394
689308000,689308000,0.0010149301,0.0062204953,-0.0033588968
689324000,689324000,-0.00207123,-0.0022209515,-0.004656128
689336000,689336000,-0.0085968645,-0.0029833997,-0.001269174
689348000,689348000,-0.008270756,-0.0031090202,0.00019443833
689360000,689360000,-0.0044992836,-0.0026105572,0.00040204654
689372000,689372000,-0.0027857844,-0.0036255117,-0.0052767387
689384000,689384000,-0.0053753215,-0.003288732,0.0029920833
689392000,689392000,-0.0068228142,-0.00043192971,-0.0010602756
689408000,689408000,0.0015605609,-0.0017875414,-0.0042600124
689420000,689420000,0.0017928404,0.001289499,-0.0013242882
689428000,689428000,0.001069145,0.0027673698,-2.315815e-05
689444000,689444000,0.002450357,0.0006265836,-0.0049980516
689456000,689456000,0.004794682,-0.00032690307,-0.0048887674
689468000,689468000,0.004736568,-0.006666168,0.0013062947
689476000,689476000,0.004317476,-0.007832814,0.0013504389
689492000,689492000,-0.0015017963,-0.0054545323,-6.103702e-05
689500000,689500000,0.0008032617,-0.006328955,0.002915361
689516000,689516000,-0.003328835,-6.549433e-05,-0.001751021
689528000,689528000,0.0002069308,-0.003254599,-0.00080997555
689540000,689540000,0.005118784,-0.0012304815,0.0024458836
689552000,689552000,0.0059853443,-0.0023432896,0.0037341197
689560000,689560000,6.621296e-06,-0.0034830915,0.0019703684
689576000,689576000,-0.005329615,-0.006979242,-0.0021394435
689584000,689584000,-0.00317109,-0.0074192267,-0.0022267136
689596000,689596000,-0.0036890819,-0.0044203736,0.00030715705
689612000,689612000,-0.0035407303,-0.00031541847,0.003283202
689624000,689624000,-0.00661363,0.00074666925,0.001417565
689632000,689632000,-0.0012655432,-0.0011494141,-0.0003351246
689648000,689648000,-0.0011370811,-0.0047305305,-0.001285604
689660000,689660000,-0.004092489,0.0012702253,-0.00091625814
689672000,689672000,-0.004368056,0.00026717084,0.0013954372
689680000,689680000,-0.005574268,0.0011722445,0.0030150753
689696000,689696000,-0.0032063804,-0.0032669543,0.002228909
689708000,689708000,-0.00023402274,-0.0044329166,0.0005595765
689716000,689716000,-0.0033253836,-0.0011202972,-0.0006245474
689732000,689732000,-0.00618454,0.0019867113,-0.00064114155
689744000,689744000,-0.0065883193,0.003211145,-0.0038940513
689756000,689756000,-0.008965273,-0.0031532655,-0.0011736647
689768000,689768000,-0.0013461431,-0.0023557385,-0.0033806604
689780000,689780000,-0.0021613138,0.0032579359,-0.0077772634
689792000,689792000,-0.00026486948,0.005420608,0.0013645495
689804000,689804000,0.005604786,0.0075762356,0.0045521557
689812000,689812000,0.008918859,0.00547793,0.00072301656
689828000,689828000,0.0028951345,0.0038318927,-0.001270659
689840000,689840000,-0.00024280249,-0.0070745745,0.00021401868
689852000,689852000,-0.0045356764,-0.004858337,0.0012406947
689864000,689864000,-0.00053515274,-0.0054024067,-0.003643623
689872000,689872000,0.0015965623,-0.0022939276,0.0008198705
689888000,689888000,0.0044975714,0.0008855681,-9.702379e-05
689900000,689900000,0.008879404,-0.0048223897,-0.006316589
689912000,689912000,0.0060621756,0.0023585863,-0.003400206
689924000,689924000,0.0055217445,0.004148626,-0.0002501835
689936000,689936000,0.010493462,-0.002376799,-0.0018041447
689948000,689948000,0.0104722595,-0.0040372633,-0.003163917
689960000,689960000,0.010150201,-0.001728313,-1.2059172e-05
689968000,689968000,0.0041065826,0.0031042355,-0.0046022874
689984000,689984000,0.0046852403,0.0044625,-0.00017627701
689996000,689996000,0.002445172,-0.00067353994,-0.00080245663
690008000,690008000,-0.0024556755,0.0052369256,-0.0013455631
690020000,690020000,-0.0038219562,0.006357569,-0.004226866
690032000,690032000,-0.0064858706,0.011357396,-0.0019779878
690044000,690044000,0.0016120537,0.013099801,-0.0056997575
690056000,690056000,0.011098462,0.010878918,-0.0046565486
690068000,690068000,0.009018985,0.011635134,-0.00648057
690080000,690080000,0.014434659,0.007975702,-0.004914968
690092000,690092000,0.010520886,0.011576891,-0.008227255
690104000,690104000,-0.001030437,0.00496909,-0.003988821
690116000,690116000,0.0028212413,0.0052413493,-0.002233364
690124000,690124000,0.0063823536,0.006506536,-0.004690981
690140000,690140000,0.010279943,0.0066257883,-0.007859188
690152000,690152000,0.01744469,0.013724379,-0.0070034675
690164000,690164000,0.021755936,0.010603853,-0.0042902613
690176000,690176000,0.015896432,0.003912664,-0.009601795
690188000,690188000,0.0069695646,-0.00035544904,-0.011731063
690200000,690200000,0.002659658,-0.0005503553,-0.009400118
690212000,690212000,0.0033313218,0.0034647065,-0.009870147
690224000,690224000,0.0077779023,0.005683721,-0.008998838
690232000,690232000,0.0074973684,0.004042667,-0.011180575
690248000,690248000,0.0066488497,0.006944103,-0.010350067
690260000,690260000,0.0093880715,0.0073039904,-0.0021529633
690272000,690272000,0.003601627,0.01606343,-0.0049525015
690280000,690280000,0.010709949,0.017436145,-0.0061451886
690296000,690296000,0.004509927,0.014701282,-0.0044470425
690308000,690308000,0.0075809425,0.015755953,-0.007976724
690320000,690320000,0.0033553261,0.017613137,-0.00623049
690328000,690328000,0.00012181589,0.015252801,-0.0049808784
690340000,690340000,-0.0009263946,0.014119891,-0.005717116
690356000,690356000,0.0050241747,0.015560748,-0.0056361593
690364000,690364000,0.0031369578,0.016640121,-0.0020866762
690376000,690376000,-0.0006734845,0.01765681,-0.00065266003
690392000,690392000,0.0012614354,0.016188998,0.0013762139
690404000,690404000,0.001876503,0.015919473,0.00052064087
690416000,690416000,0.0055142064,0.010548729,7.883867e-05
690428000,690428000,-0.0010411933,0.012982085,-0.0005724776
690440000,690440000,-0.010491445,0.008712633,-0.0009904433
690452000,690452000,-0.0024286008,0.006238174,-0.0024730973
690460000,690460000,0.00016845082,-0.0026948792,-0.0008684285
690472000,690472000,0.005260492,-0.0060587865,-0.0029003005
690488000,690488000,6.825308e-05,-0.009029058,-0.0010328687
690500000,690500000,0.0044675553,-0.005285392,-0.002529762
690512000,690512000,0.0037073588,-0.0018870174,-0.00304445
690524000,690524000,0.002662571,0.0029540805,-0.0013373604
690536000,690536000,0.0060556103,0.0046377284,-0.0020751532
690544000,690544000,0.0057587363,0.0039751385,-0.00075647776
690560000,690560000,0.0015847033,-0.0042939484,0.0046548895
690572000,690572000,0.0048792134,-0.0061703767,-0.0043160077
690584000,690584000,0.0016156081,-0.0048654685,-0.0046617994
690596000,690596000,-0.0012363221,-0.0010081464,-0.0030261704
690604000,690604000,0.0045927865,-0.00050751865,-0.00633882
690620000,690620000,0.003762689,-0.00043801265,-0.0018608251
690628000,690628000,0.00284365,0.00057162764,0.004126977
690640000,690640000,-0.0049228976,0.001806112,0.0017750812
690656000,690656000,-0.003588945,0.0035337585,-0.004690229
690664000,690664000,-0.0007118646,0.0006744936,-0.005175138
690680000,690680000,0.0032605594,0.00092587434,0.00024551456
690692000,690692000,0.002376451,-0.0026581497,-0.0015834521
690704000,690704000,-0.0029924284,-0.0012522545,-0.0022536176
690716000,690716000,-0.00047839264,-0.0032893103,-0.00064857263
690728000,690728000,0.0021238527,0.0028943587,-0.0008318894
690740000,690740000,-0.0021205246,0.0056533096,-0.003615939
690752000,690752000,0.008445235,0.0038272298,-0.0020767497
690764000,690764000,0.0026332792,0.00023457548,-0.002056004
690772000,690772000,0.00055328896,-0.0007909024,-0.0005525163
690788000,690788000,-0.0065756533,0.0019282247,0.0031903568
690800000,690800000,-0.001279803,-0.002587311,0.0008512597
690812000,690812000,-3.4910976e-05,0.001210256,-0.00465525
690824000,690824000,0.0039692665,-9.088637e-05,-0.0060538976
690836000,690836000,-0.0010737546,0.0024749131,-0.006706371
690848000,690848000,-0.001914711,0.00089572556,-0.003884629
690860000,690860000,0.00037832302,-0.0015123091,-0.004771553
690872000,690872000,-0.006312172,0.0019503003,0.00031340704
690884000,690884000,-0.00036059215,0.0020078802,-0.00019902433
690892000,690892000,0.0030741787,0.0018166872,0.0034933263
690908000,690908000,-0.0040218593,0.0017994507,0.0036684652
690920000,690920000,-0.008352564,0.00360099,0.0023838477
690932000,690932000,-0.010242232,0.0060082795,0.0064402395
690944000,690944000,-0.011437604,0.0062551196,0.0017208911
690956000,690956000,-0.01134542,0.010024013,0.0061501954
690968000,690968000,-0.008304765,0.0060483324,0.003931713
690980000,690980000,-0.006115125,0.0045002825,-0.00506652
690992000,690992000,-0.005930135,0.008797837,-0.0009672673
691004000,691004000,-0.0029886172,0.012029176,0.0017190371
691016000,691016000,-0.0054987157,0.016870202,0.0030492835
691028000,691028000,-0.006992522,0.014800005,0.0034889115
691036000,691036000,-0.008811621,0.007899651,0.00012589555
691052000,691052000,-0.0011539578,0.007890934,-0.0010108477
691064000,691064000,0.0027936166,0.0033026044,0.0021761404
691076000,691076000,-0.0014550267,0.0011543003,0.0039440193
691088000,691088000,0.0026852544,-0.0025452054,-0.0034709694
691100000,691100000,0.0034253243,-0.0017059017,-4.7156238e-05
691112000,691112000,-0.000256826,0.005347876,0.0008885837
691120000,691120000,-0.003919091,0.004642186,0.004003317
691136000,691136000,-0.0005870591,0.0012252359,0.0046203285
691148000,691148000,-0.0016456982,-0.0059268395,-0.00066591485
691156000,691156000,-0.001753171,-0.0061323005,-0.0032413094
691172000,691172000,0.0011204614,-0.0024793115,0.001697063
691180000,691180000,0.00011032971,-0.0037158276,0.0026201333
691192000,691192000,0.007644689,0.004667341,0.0003309914
691208000,691208000,0.008953707,-0.0025802124,0.007216661
691220000,691220000,0.008392834,0.0005551977,0.0036506294
691232000,691232000,0.010574932,-0.00389907,0.0015600693
691244000,691244000,0.009321494,-0.0011137561,0.0007057976
691256000,691256000,0.01067865,0.0033438653,0.0035198077
691268000,691268000,0.011704047,0.0046931813,0.0060016126
691276000,691276000,0.008525882,0.0016653603,0.0005275737
691292000,691292000,0.0072977133,-0.000973057,0.0003402317
691304000,691304000,0.00667738,0.0029420385,-0.0034132288
691312000,691312000,0.0065730684,0.0028792701,-0.0027249414
691324000,691324000,0.0099465735,0.0070071537,0.0044323946
691340000,691340000,0.0038718982,0.007265809,-0.0016546997
691348000,691348000,0.003319629,0.007228407,-0.003834331
691364000,691364000,-0.0009061508,0.012708457,-0.0004551877
691376000,691376000,-0.001154186,0.012865324,0.0011100285
691384000,691384000,-0.0013454848,0.013781146,-0.0013101962
691400000,691400000,0.0021360642,0.00865949,-0.00093698665
691412000,691412000,-0.0011356776,0.009724357,0.00038154563
691420000,691420000,-0.0016140093,0.0067949514,0.0015092102
691436000,691436000,-0.009534233,0.0040835347,0.0010634393
691448000,691448000,-0.006355288,0.0076770224,0.0011478604
691460000,691460000,-0.004143498,0.007433722,0.005052011
691468000,691468000,-0.0014845573,0.003090734,0.009089754
691484000,691484000,-0.0057734847,-0.00055463053,0.0009222449
691496000,691496000,-0.0045527555,-0.0043524513,-0.0007650401
691508000,691508000,-0.000111643516,-0.0018890006,-0.00094538834
691520000,691520000,-0.011672234,-0.00986319,0.0021024183
691532000,691532000,-0.012123797,-0.0070142164,0.006773995
691544000,691544000,-0.014458448,-0.0050974214,0.0010283837
691556000,691556000,-0.007697462,-0.0021269326,0.0021595056
691568000,691568000,-0.0031937903,0.0012180693,0.0048808684
691580000,691580000,-0.003456942,-0.0008378057,0.00065612624
691592000,691592000,0.0017069621,0.0004502805,0.00088500447
691604000,691604000,-0.003348764,-0.0036174771,0.00015025376
691616000,691616000,-0.010021393,-0.0018390943,-0.004230392
691628000,691628000,-0.0040308656,-0.0007165312,-0.00163237
691640000,691640000,-0.0061068637,-0.0027084365,-0.0012576493
691652000,691652000,-0.006311559,-0.0029366915,0.00076047814
691660000,691660000,-0.0029869026,0.00092924805,-5.3882657e-05
691676000,691676000,-0.0065267393,0.00067229476,-0.0022243436
691688000,691688000,-0.004283297,-0.004046685,0.0015837402
691700000,691700000,-0.008465896,0.0039848145,0.0033992594
691708000,691708000,-0.011973915,0.0044396045,0.0011937622
691724000,691724000,-0.011091634,0.0011214032,0.00021746865
691736000,691736000,-0.012458514,0.00094214035,-0.00038650655
691748000,691748000,-0.012642784,0.0006230734,-0.0014289039
691760000,691760000,-0.0134421205,-0.00053116353,0.002160246
691772000,691772000,-0.0086841015,-0.0018820902,-0.0034717952
691784000,691784000,-0.0038889986,0.0038955011,0.0033972817
691796000,691796000,0.00045813233,0.0060981973,0.0034514978
691808000,691808000,0.00037064255,0.0036248676,0.005589134
691816000,691816000,-0.0020219658,0.006087008,0.0016387365
691832000,691832000,-0.00054399116,0.0038139913,0.0023478437
691844000,691844000,-0.003930496,0.0071510766,0.0002372411
691856000,691856000,-0.0018014861,-0.0003647711,-0.0003561987
691868000,691868000,-0.0035360563,-0.008360682,-0.0024587968
691880000,691880000,0.0013408769,-0.0028762333,-0.0008607327
691888000,691888000,-0.0011894517,-0.0014982903,0.0017383744
691900000,691900000,0.0011456772,-0.004845069,0.0035878648
691916000,691916000,0.004063242,-0.0052252025,0.0033370464
691928000,691928000,-0.0002540631,-0.0042522666,0.0018518278
691940000,691940000,0.0004135927,-0.00020225625,0.0008265492
691952000,691952000,0.00042606858,0.0035167206,0.0034357563
691964000,691964000,-0.00091156224,0.0008704113,0.0023371251
691976000,691976000,0.0019651102,-0.0029676845,0.003574549
691984000,691984000,0.002308198,-0.0039199777,0.0030020208
692000000,692000000,0.00872323,-0.00796897,0.0019723198
692012000,692012000,0.0052641593,-0.0047113863,-0.0014727627
692020000,692020000,0.0038749676,-0.004311012,0.0030233185
692036000,692036000,0.0058538476,-0.0019197552,-9.658269e-05
692048000,692048000,0.006820841,-0.0047412138,0.001724065
692060000,692060000,0.007154323,-0.0014919583,0.0043550474
692072000,692072000,0.0020745005,-0.003449819,0.0044202493
692084000,692084000,0.005435764,-0.003444993,-0.0015795585
692096000,692096000,0.0048210784,-0.0021910453,0.00045629276
692108000,692108000,0.0059498227,-0.004109243,-0.0006085391
692116000,692116000,0.00919599,-0.003351761,-0.0016494694
692132000,692132000,0.007268826,0.0012956746,-0.005184938
692144000,692144000,0.0029768054,0.00073711714,-0.0033487338
692156000,692156000,-0.00020225509,0.004684611,-0.0012794705
692164000,692164000,-0.00067820697,0.0058980417,0.0006487757
692176000,692176000,-0.00026320008,0.010466717,0.00056722347
692192000,692192000,0.008784466,0.009791346,-0.002986913
692204000,692204000,0.010023266,0.0018690526,0.0022183172
692216000,692216000,0.014409123,0.002080894,0.0011655954
692228000,692228000,0.01455071,-0.00016407203,0.0019892044
692240000,692240000,0.018259268,-0.0033324822,0.0014307435
692252000,692252000,0.013735004,-0.0030336552,0.0014891982
692264000,692264000,0.013402279,-0.0025557019,0.00052776205
692276000,692276000,0.009125806,-0.004038401,0.00016031862
692288000,692288000,0.008472338,-0.0047755353,-0.00285569
692296000,692296000,0.0070109186,-0.0028672088,-0.0033282558
692312000,692312000,0.010249666,-0.0019310578,0.0004546271
692324000,692324000,0.010415227,-0.00332496,0.0021372736
692336000,692336000,0.018392196,-0.0033718497,0.004128485
692348000,692348000,0.016508397,-0.0043603545,0.0032706773
692360000,692360000,0.015710622,0.00072975736,0.0010476095
692372000,692372000,0.011438424,-0.0017506122,0.0040311744
692384000,692384000,0.013275999,-0.0022362205,0.00038122048
692396000,692396000,0.012418744,0.002504074,0.0011922724
692408000,692408000,0.012064407,0.0063537573,-0.00092176895
692420000,692420000,0.0060566776,0.010685755,0.0046090265
692428000,692428000,0.0066050864,0.009918921,0.0018199862
692444000,692444000,0.0018065226,0.008277973,-0.0026729074
692456000,692456000,0.005281623,0.0056101973,-0.0085283555
692468000,692468000,0.002021741,0.01077809,-0.007317118
692480000,692480000,-0.007787901,0.0050973766,-0.003021941
692492000,692492000,-0.008659209,-0.002642204,-0.0049684234
692500000,692500000,-0.0077955406,0.0016209297,-0.003409037
692516000,692516000,-0.011039721,0.0025095707,0.0020375852
692528000,692528000,-0.013978783,-0.00016347738,-0.0024606409
692540000,692540000,-0.011745396,-0.0017065182,-0.00047143144
692552000,692552000,-0.0031748447,-0.005557796,0.0018206951
692564000,692564000,-0.003578897,-0.0015357444,0.0021022265
692576000,692576000,-0.0009483495,-0.00638456,-0.004884026
692588000,692588000,-0.0014308353,-0.009193856,-0.005726833
692600000,692600000,0.005012991,-0.011950921,-0.0025161211
692608000,692608000,0.0026960857,-0.00664725,-0.00042226235
692624000,692624000,0.00059969944,-0.0084851775,-0.0021762068
692636000,692636000,0.0029130199,-0.008388226,-0.00054877973
692648000,692648000,0.002447359,-0.009260469,0.0026288992
692660000,692660000,0.0026996313,-0.007356108,0.0018928607
692672000,692672000,-0.0005952663,-0.0046546697,0.0025808387
692684000,692684000,-0.002577661,-0.0036613913,0.0033354175
692696000,692696000,0.0008583113,2.2815075e-05,0.00025720656
692708000,692708000,0.00092935027,0.0028152934,0.0033667383
692720000,692720000,0.0038311642,0.0052907253,-0.0007361082
692732000,692732000,0.008592296,2.1301676e-05,0.003513017
692744000,692744000,0.012898626,0.0041316357,-0.003572002
692756000,692756000,0.0024871137,0.0056364127,-0.003372558
692768000,692768000,-0.0013367247,-0.0016092979,-0.0073251007
692780000,692780000,0.0038919216,-7.732259e-05,0.0004924145
692788000,692788000,0.0068151355,0.0023787403,0.0015484565
692804000,692804000,0.007160087,0.005783055,0.0012918077
692816000,692816000,0.0050708773,0.00880033,0.0024250234
692824000,692824000,-0.004052095,0.0044387365,0.002530367
692836000,692836000,-0.0073282653,0.0038467378,-0.0011096268
692852000,692852000,-0.00217398,0.0029595364,-0.0049540666
692864000,692864000,0.0031751457,0.0009386488,0.0018447617
692876000,692876000,-0.002380595,-0.0032704934,0.0018292435
692888000,692888000,-0.0065601952,0.0027848342,0.0010785707
692900000,692900000,-0.0015530182,0.0046829274,0.0039323103
692912000,692912000,-0.00049353426,0.0029218227,0.0006464983
692924000,692924000,-0.0044541876,-0.0014551217,-0.0013086235
692936000,692936000,-0.0043586562,-0.0026458516,0.0051459977
692948000,692948000,-0.0012326905,-0.0022450048,-0.0012625467
692956000,692956000,-0.0026946785,-0.004256765,-0.0055487202
692972000,692972000,-0.0060185157,0.002929766,0.0065909596
692984000,692984000,-0.003214755,0.008490458,-0.0010821484
692996000,692996000,-0.0031620846,0.007709668,0.0017692279
693008000,693008000,0.0042307265,0.004547503,0.00036031153
693020000,693020000,0.0024807276,0.0035358842,0.0008189771
693032000,693032000,0.004863292,-0.0026795343,-0.0025931648
693040000,693040000,0.004362506,-0.004812206,-0.0017944276
693056000,693056000,0.0025363518,0.0014515878,-0.00036311382
693068000,693068000,0.0075198445,0.001389585,-0.0024836145
693080000,693080000,0.009050742,0.00047404272,-0.0037586102
693092000,693092000,0.004991396,0.004120441,0.000117578486
693104000,693104000,0.007963627,0.007292264,0.0051767793
693116000,693116000,0.0071748835,0.0061827693,-0.00013593334
693128000,693128000,0.01167358,0.0050598276,1.373759e-05
693140000,693140000,0.008708781,0.0032551107,0.00047771347
693152000,693152000,0.00282332,-0.0032438966,-0.004800806
693164000,693164000,0.0042595672,0.0014098268,0.002305231
693176000,693176000,0.0036594362,0.0012500072,0.0026355162
693188000,693188000,0.011997138,0.00073041115,-0.0008814353
693200000,693200000,0.006605462,0.0053554797,-0.0039437935
693212000,693212000,-0.00591684,0.007389026,-0.00282206
693224000,693224000,0.002943919,0.012364603,0.0023780367
693236000,693236000,0.0009985305,0.0067433272,0.0005553316
693248000,693248000,-0.0015976263,0.002108499,-0.005417477
693260000,693260000,-0.009250822,0.0038346115,-0.0015171992
693272000,693272000,-0.0056379726,0.0061579,0.0022119367
693280000,693280000,-0.00433141,0.00914201,0.0032164876
693296000,693296000,0.0007612989,0.007279428,0.0028120442
693308000,693308000,-0.0032188622,0.0065965774,0.00055179256
693320000,693320000,-0.0029143249,0.0132300295,0.0012231227
693328000,693328000,-0.002127217,0.0074960245,0.0056226696
693344000,693344000,0.0028809272,0.0076556043,0.00066834374
693356000,693356000,-0.0039591035,0.012187611,-0.0015956215
693368000,693368000,-0.009262718,0.010433603,-0.0057794647
693380000,693380000,-2.2612687e-05,0.010154045,-0.003245166
693388000,693388000,0.0015803231,0.007504128,-0.0029207543
693404000,693404000,-0.0052195084,0.0086312685,-0.00067797594
693416000,693416000,-0.0021959657,0.010445023,0.0014428683
693428000,693428000,-0.0018146285,0.009280728,-0.0029112021
693440000,693440000,0.002966815,0.009630473,0.00071648316
693452000,693452000,0.00048718648,0.009100471,0.0043344414
693464000,693464000,0.0072033857,0.010540427,0.0020548222
693476000,693476000,0.005591386,0.0055667763,0.0011177842
693488000,693488000,0.004767504,0.005692168,-0.0002580912
693500000,693500000,0.00783058,0.0070818374,0.001197837
693512000,693512000,0.0028682225,0.007011091,-0.0031396402
693524000,693524000,-0.0074523813,0.0088010365,-0.0021483763
693536000,693536000,-0.0035190845,0.011842627,-0.0006804181
693544000,693544000,-0.0043385685,0.012791257,-0.0041163405
693560000,693560000,-0.0017815849,0.0015067039,-0.0035254995
693572000,693572000,-0.00266799,-0.0065199086,-0.0016125529
693580000,693580000,-0.0019384507,-0.0053647594,0.0001731434
693596000,693596000,-0.004310318,-0.0056019896,0.0026268438
693608000,693608000,0.0052433647,-0.0051222267,0.0005984447
693620000,693620000,0.008166941,-0.0045104288,0.00051349367
693632000,693632000,0.004908682,-0.00837543,0.0003850204
693644000,693644000,0.0021268125,-0.010842154,-0.00056936394
693656000,693656000,-0.0004889558,-0.01016186,0.00056743034
693668000,693668000,-0.003933009,-0.00916373,-0.002041684
693680000,693680000,-0.000567776,-0.014920026,0.0005377778
693688000,693688000,-0.0018889603,-0.017661864,-0.0006874154
693704000,693704000,-0.0045594824,-0.017059293,-0.0003270802
693716000,693716000,-0.0059729614,-0.016842034,-0.0009942754
693728000,693728000,-0.0029927501,-0.019930417,0.0056509385
693740000,693740000,-0.0036965362,-0.008197652,-0.002167351
693748000,693748000,-0.0053374814,-0.008391226,-0.0006475589
693760000,693760000,-0.0013101813,-0.0030645686,0.0013240199
693776000,693776000,-0.00035012903,-0.0023516025,-0.002140668
693788000,693788000,-0.004015898,-0.0030932622,0.0028955569
693796000,693796000,-0.004452023,-0.0016337819,-0.00097533176
693812000,693812000,0.008812493,0.002883776,0.0038391599
693824000,693824000,0.00927455,0.004851754,0.0031167832
693836000,693836000,0.011818746,0.009449951,0.0024435595
693844000,693844000,0.009199354,0.007562486,0.0020623982
693860000,693860000,0.009448614,0.0034844545,0.0014369173
693872000,693872000,0.012276597,0.008001929,-0.00185945
693884000,693884000,0.015671043,0.0075102183,0.00019597309
693896000,693896000,0.009651048,0.0033898451,-0.0012216794
693908000,693908000,0.008392172,0.01083371,0.0015119027
693920000,693920000,0.0038045323,0.007710316,-0.00074985693
693928000,693928000,0.005204755,0.0047495225,-0.0047276677
693944000,693944000,0.011470275,0.006683928,-1.9538624e-05
693956000,693956000,0.009291686,0.006849774,-0.0023903332
693968000,693968000,0.009033781,-0.0007902561,-0.0015601553
693980000,693980000,0.0017780466,-0.0049716877,0.00045405427
693988000,693988000,0.0071379417,-0.004996565,0.0014639839
694004000,694004000,0.0049661687,0.00028477702,-0.0018913614
694016000,694016000,0.009996298,0.002469521,-0.0009514515
694028000,694028000,0.008022295,0.0023058848,0.0013135201
694040000,694040000,0.0032825833,0.0019958592,-0.0017839763
694052000,694052000,0.0057864557,0.0027159923,0.0028579067
694064000,694064000,0.00672203,0.006645679,-0.0008652103
694076000,694076000,0.008032289,0.00680952,-0.0027222596
694088000,694088000,0.008089138,0.0034428833,-0.0019239086
694100000,694100000,0.0068692104,0.0015318603,0.0006686981
694112000,694112000,0.0021025026,0.006113292,-0.0012075884
694124000,694124000,0.0043094344,0.013061205,-0.004475355
694136000,694136000,0.0029567662,0.010333019,-0.0006793743
694148000,694148000,0.006341676,0.0040717544,0.0015187114
694160000,694160000,0.0051272353,0.0027053487,-0.00046847435
694172000,694172000,0.0014597074,0.005391997,0.0017371615
694180000,694180000,-0.002835305,0.008008796,0.0017985539
694196000,694196000,0.0005940208,0.0042749816,-0.0020638986
694208000,694208000,0.003256069,0.0027729506,-3.7036778e-05
694220000,694220000,-0.00053149107,0.005518455,-0.0019098338
694228000,694228000,-0.0014719018,0.0048281113,-0.0035068425
694244000,694244000,0.0012699562,0.010434828,0.001205817
694256000,694256000,0.0021172331,0.010495533,0.0033576125
694264000,694264000,0.0018142085,0.013591487,0.0045083156
694276000,694276000,0.0005561163,0.0060553984,0.0016522626
694288000,694288000,0.003992508,0.0065201065,0.004798982
694304000,694304000,0.0014930208,0.012240309,0.0035782948
694316000,694316000,0.0010461515,0.0068551307,0.0033716296
694328000,694328000,-0.004831233,0.0075258496,-0.00068870775
694340000,694340000,-0.010034655,0.006200581,0.0019957724
694352000,694352000,-0.0075643333,0.0032586567,0.005581454
694360000,694360000,-0.0052287616,-0.00013472512,0.0033169892
694376000,694376000,0.00085172174,-0.005725332,0.0009948978
694388000,694388000,0.0003737286,0.001704772,0.0023152395
694400000,694400000,0.0030989728,0.004443623,-0.00012525526
694412000,694412000,0.003313586,0.0031212945,0.0058729076
694424000,694424000,0.005390841,0.0031682367,-0.0019554987
694436000,694436000,0.008818764,0.006274819,0.0017343082
694448000,694448000,0.012749056,0.0061386395,0.0042363643
694456000,694456000,0.009395113,0.0070234253,0.003358738
694468000,694468000,0.0063411593,0.0109954085,-0.0013852153
694484000,694484000,0.009290864,0.017864566,-0.0028594364
694496000,694496000,0.006198853,0.014497193,-0.004960376
694508000,694508000,0.0037860058,0.016518332,-0.00019876729
694520000,694520000,0.0054522967,0.013481064,0.003050852
694528000,694528000,0.009230826,0.0073632337,0.00230937
694544000,694544000,0.0042977855,0.0058215377,0.0053395797
694556000,694556000,0.0054575177,0.006375663,0.0004730494
694568000,694568000,0.0019624,-0.0019038082,0.0025045162
694580000,694580000,0.003440597,-0.002822611,-0.0016411005
694592000,694592000,-0.00018513296,-0.007962091,-0.0049675675
694604000,694604000,-0.004201122,-0.0027004895,-0.00089069083
694616000,694616000,-0.017549032,0.0052613197,0.00047197856
694628000,694628000,-0.013930358,0.0065785125,-0.0024533016
694640000,694640000,-0.010088022,0.006942283,0.0024535866
694652000,694652000,-0.0056065074,0.001125494,0.002941317
694664000,694664000,-2.3588538e-05,-0.0042869663,-0.0009032458
694676000,694676000,4.5720895e-05,-0.00086762663,-0.0007671005
694688000,694688000,-0.00364692,-0.0003665001,9.1708265e-05
694700000,694700000,-0.009272474,0.0033396645,0.0019949405
694712000,694712000,-0.003685629,0.0021203295,-0.00010322599
694724000,694724000,-0.0054365676,0.0041576773,-0.0038856468
694736000,694736000,-0.004728527,0.0027562608,-0.006813308
694748000,694748000,0.0019203648,0.0063343337,0.006317041
694760000,694760000,0.0018591502,0.00043918286,0.002583288
694772000,694772000,0.0015427689,0.0016317549,-0.00024774263
694784000,694784000,-7.465598e-06,-0.0033144597,0.00063352933
694792000,694792000,-0.0029593562,0.00018128939,-0.0030365633
694804000,694804000,-0.010646176,0.005472688,-0.0006427706
694820000,694820000,-0.003763145,0.006939519,0.0018421657
694832000,694832000,-0.0035210564,0.009849139,-0.0039070942
694844000,694844000,-0.008018034,0.0124068335,0.0009932366
694856000,694856000,-0.008189643,0.015876155,-0.005215612
694868000,694868000,-0.008092215,0.013155078,0.0008789166
694880000,694880000,-0.006341333,0.004777304,0.003315487
694892000,694892000,-0.00014441332,0.0063291998,0.003188388
694904000,694904000,-0.003856455,-0.0025570793,-3.2589014e-05
694916000,694916000,-0.0030196873,-0.0050480524,0.00051084696
694928000,694928000,-0.002456116,0.00029059593,-0.0017311806
694940000,694940000,-0.0016628554,-7.460639e-05,-0.0027029654
694952000,694952000,-0.0012935408,-0.0016308143,0.00041942723
694964000,694964000,0.0010155413,-0.009902324,-0.0020860771
694976000,694976000,-0.0007531986,-0.0142093105,0.0005525602
694988000,694988000,0.0029259895,-0.014883926,-0.00063923077
695000000,695000000,0.0083628325,-0.015573853,-0.0037770967
695012000,695012000,0.009583607,-0.0106679965,0.0017177822
695024000,695024000,0.0047823065,-0.011945324,0.0019121249
695036000,695036000,-0.0008580152,-0.012000361,0.0013056507
695048000,695048000,-0.0018451633,-0.006665729,0.00020843942
695060000,695060000,-0.006930144,-0.002770341,-0.0021954807
695072000,695072000,-0.0057148146,-0.0041995454,-0.00025379233
695084000,695084000,-0.0069520003,-0.0004765112,0.0036257035
695096000,695096000,-0.006648254,0.003537505,0.0011689442
695104000,695104000,-0.0061107893,0.0003092331,0.0028310393
695120000,695120000,0.00021097047,0.001985333,0.004384879
695132000,695132000,0.0040217456,0.00085920654,0.0011872884
695144000,695144000,0.005922914,0.005911578,0.002176724
695156000,695156000,0.00079747266,0.002228307,0.00199793
695168000,695168000,0.0021317527,0.006382402,-0.0068313694
695180000,695180000,-0.0021452587,0.0018791296,-0.0036117863
695192000,695192000,-0.004275215,0.0024519737,0.0025979958
695204000,695204000,0.0017875484,0.007892437,0.0035101322
695216000,695216000,0.0030398224,0.0016770316,0.001693472
695228000,695228000,0.004526802,-0.003700125,-0.0021609846
695240000,695240000,-0.0035594217,-0.004107523,0.0035558366
695252000,695252000,0.0012740167,-0.00043076836,0.0016875018
695264000,695264000,0.006909383,-0.0011325758,-0.00059899257
695276000,695276000,-0.0011988605,0.0011675544,-0.00300187
695288000,695288000,-0.0030667433,0.0041399477,-0.000164008
695300000,695300000,-0.0013420314,0.0018933532,-0.0007940413
695312000,695312000,-0.0002240988,0.0027080788,0.000100278296
695324000,695324000,0.0026383987,0.0015227529,-0.0012118411
695336000,695336000,0.0043245163,-0.0034567313,-0.0022240758
695348000,695348000,-0.0052878885,-0.008470371,-0.0027440551
695360000,695360000,0.0020713585,-0.010650797,-0.0014304605
695368000,695368000,0.0057699145,-0.0074523273,-0.0018263815
695384000,695384000,0.002260222,-0.0027340092,0.0011203894
695396000,695396000,0.0029563697,-0.008146634,0.0018775335
695408000,695408000,0.0070753302,-0.006195029,0.0013322043
695420000,695420000,0.0010996913,-0.008549273,0.0034302124
695432000,695432000,0.0057494333,0.00042794226,0.00077249244
695444000,695444000,0.0010926119,0.0006583687,0.002535706
695456000,695456000,-0.0031518983,-0.004495515,0.0019620494
695464000,695464000,-0.0030438015,-0.00077546434,-0.003510024
695480000,695480000,0.0036141027,0.005642393,0.0011382056
695492000,695492000,0.0012931204,0.002102912,-0.006244478
695504000,695504000,-0.0009802037,-0.004142118,-0.0016273134
695512000,695512000,-0.003066814,0.0017982237,0.004366052
695528000,695528000,-0.0027020127,0.005532342,-0.0024934523
695540000,695540000,0.00016500417,0.00075753266,0.0012623065
695552000,695552000,0.0022894004,-0.0026336024,-0.0026215073
695564000,695564000,0.0021652416,-0.0014802907,0.000582763
695576000,695576000,-0.0042315056,-0.00024794042,0.003846394
695588000,695588000,-0.0016083694,-0.0039274637,0.0013208254
695600000,695600000,0.0013440361,-0.00332057,-0.0011587638
695608000,695608000,-0.00044946873,-0.0027075931,0.00040808838
695620000,695620000,-0.00442535,0.0044434667,0.0012830351
695636000,695636000,-0.011786913,0.00011754874,0.0027843488
695648000,695648000,-0.01258793,-0.0028073424,0.00062686176
695660000,695660000,-0.012591239,-0.0021974202,-0.005448641
695672000,695672000,-0.009034728,0.0071644606,0.00029870006
695684000,695684000,-0.00754267,0.0009380453,-0.004570001
695696000,695696000,-0.0074124164,-0.004214037,-0.001730609
695704000,695704000,-0.007527199,-0.0047748317,0.002448678
695716000,695716000,-0.0065612383,-0.0019522128,0.006353182
695732000,695732000,-0.006681831,-0.0025335313,7.439242e-05
695744000,695744000,-0.00061971263,0.000415063,-0.0031377887
695756000,695756000,-0.0036759197,-0.0011593723,-0.0071633216
695768000,695768000,-0.009341929,-0.0061911894,-0.0057202354
695780000,695780000,-0.0028264308,-0.012524361,-0.004729541
695792000,695792000,0.002205921,-0.010906097,-0.0020802575
695804000,695804000,-0.0013698265,-0.009716365,-0.00059151347
695816000,695816000,-0.0020548876,-0.0058070635,-9.128067e-05
695828000,695828000,0.0032900297,-0.0040823747,0.0020751748
695840000,695840000,0.0069654672,-0.00085342163,0.0045378585
695852000,695852000,-0.0007882386,-8.2526356e-05,0.000222362
695864000,695864000,-0.0042274226,-0.00077974657,0.0019207745
695876000,695876000,-0.000812913,0.0014059483,0.0068325484
695888000,695888000,0.0023223462,0.0014593438,0.0017143767
695896000,695896000,0.0006180865,0.0058627403,0.0021197773
695912000,695912000,-0.0021892316,-0.00500926,0.0016388509
695924000,695924000,0.0025590428,-0.0011907285,-0.0019059
695936000,695936000,-0.0014006946,-0.0015306128,0.00079749996
695944000,695944000,-0.0007536162,-0.0041873925,0.0021135982
695960000,695960000,0.0054439716,0.0022649663,3.8934464e-05
695968000,695968000,0.0037907297,0.00574617,0.0008731679
695980000,695980000,-0.0037076916,0.0077993697,-0.0020216345
695996000,695996000,-0.0014997472,0.002887265,0.0008177301
696008000,696008000,-0.0012131152,0.00039383117,0.0003386857
696020000,696020000,-0.0029120226,0.0065018907,-0.002608422
696028000,696028000,-0.0020437455,0.0040940596,-0.0041738264
696044000,696044000,0.0034106516,0.0035566834,-0.005793046
696056000,696056000,-0.002772883,-0.0017055236,-0.003608671
696068000,696068000,-0.0020454272,-0.0042459317,0.0027656676
696080000,696080000,-0.0009891995,-0.0034510144,0.0054428773
696092000,696092000,-0.012394976,0.0024361815,-0.0006131439
696104000,696104000,-0.009906377,0.0024704542,0.001119084
696112000,696112000,-0.005435499,0.0023673163,0.0002558318
696128000,696128000,-0.002060989,0.003184361,0.004027305
696140000,696140000,-0.0031125594,-0.0047201565,0.0015550775
696152000,696152000,-0.0034733885,-0.0052890447,0.0024843486
696164000,696164000,0.0057739327,-0.0018513552,0.00045814848
696176000,696176000,-0.008178774,-0.006766177,0.005745707
696184000,696184000,-0.0072874785,-0.008656862,0.0011333614
696200000,696200000,0.0008964616,-0.007430984,-0.00070676545
696212000,696212000,-0.0014040172,-0.0067075756,0.0018249468
696224000,696224000,-0.0009030895,-0.006776902,-0.0019074881
696236000,696236000,0.0073488033,-0.009199299,-0.0014200758
696244000,696244000,0.0055554123,-0.0063456716,-0.0005873174
696260000,696260000,0.0041833604,-0.006750843,-0.0015618233
696272000,696272000,-0.0003087782,-0.008772159,-0.0061345175
696284000,696284000,-0.0036001564,-0.0026387102,-0.004491778
696296000,696296000,-0.0031029861,-0.008416874,-0.0003215188
696304000,696304000,-0.00028380944,-0.010803256,-0.0031346197
696316000,696316000,0.0014917555,-0.010032892,0.0028261202
696332000,696332000,-0.0012703636,-0.009213468,0.0033077528
696344000,696344000,0.002434474,-0.017143704,-0.00091118104
696356000,696356000,0.0002892859,-0.0147028025,-0.0029750085
696368000,696368000,-0.00087890757,-0.0194992,0.0022273818
696380000,696380000,-0.0014330568,-0.016600715,-0.0002028849
696392000,696392000,0.000659378,-0.010679832,0.0004812674
696400000,696400000,-0.0007446795,-0.0061108465,0.0032455293
696416000,696416000,0.002411587,-0.0057388484,0.00439609
696424000,696424000,0.0026977796,-0.006460302,0.001471181
696440000,696440000,0.00060544105,-0.0029418892,0.0034136192
696452000,696452000,-0.0028592707,-0.0057085333,-0.0022642163
696464000,696464000,-0.0020619822,-0.00510734,-0.0046307887
696476000,696476000,-0.00033503887,-0.0069449497,-0.002342605
696488000,696488000,0.0067011984,-0.007122025,0.0028931182
696500000,696500000,0.0036931816,-0.0035402835,0.0037483643
696512000,696512000,0.0035329906,-0.00020808494,-0.0035045482
696524000,696524000,-0.0026410555,-0.003209482,-0.0007207944
696536000,696536000,0.001297708,-0.0026419158,-0.002334645
696548000,696548000,-0.009317299,-0.0069301086,0.0011025902
696560000,696560000,-0.00909513,-0.004815011,-0.0026512537
696572000,696572000,-0.0044415067,-0.008031517,-0.0005264436
696584000,696584000,-0.0038929011,-0.008623214,0.0013500005
696596000,696596000,0.0019333444,-0.0038617677,-0.00085983484
696608000,696608000,0.0008848555,-0.0042144647,0.00036987802
696620000,696620000,-0.00029660534,0.0012785005,0.003178395
696632000,696632000,-0.0019796616,-0.0010291813,0.00035245402
696644000,696644000,-0.0044725165,0.0009531118,-0.003429772
696652000,696652000,-0.00041522022,-0.0010218332,-0.0038504398
696668000,696668000,-0.00046343572,0.0005440959,0.0036319685
696680000,696680000,-4.3897133e-05,-0.0020631715,0.0024503057
696692000,696692000,0.0003508799,-0.0004487126,-0.0015911993
696704000,696704000,-0.0022738536,-0.0030361009,0.0028598271
696716000,696716000,-0.0066148858,-0.008186085,0.0018806913
696728000,696728000,-0.0059404564,-0.005241666,-0.006349965
696740000,696740000,0.0006374153,-0.003668259,0.00045995502
696752000,696752000,-0.0032586213,6.8405643e-06,0.0031780493
696764000,696764000,-0.0040751104,0.00480011,0.00019300921
696776000,696776000,-0.0015486181,0.0045084525,0.0022907788
696788000,696788000,0.0029963162,-0.0015916545,0.0037437927
696800000,696800000,0.0026432804,-0.005174305,0.0035722747
696808000,696808000,0.006068236,-0.0061323545,-0.0011721384
696824000,696824000,0.0008275693,-0.0074687516,-0.0005046908
696836000,696836000,-0.0060649887,-0.010799404,-0.0030105603
696844000,696844000,-0.008516469,-0.010123262,-0.0020284576
696860000,696860000,-0.007315,-0.00479313,-0.006572047
696872000,696872000,-0.003313873,-0.0009834198,-0.006584292
696884000,696884000,-0.004871868,0.0032203335,0.0051776515
696896000,696896000,-0.002663583,0.0042263553,0.0039213784
696908000,696908000,-0.0037390394,0.0018376233,0.004598331
696920000,696920000,-0.0030038906,0.007820064,-0.00065490836
696932000,696932000,0.00026532653,0.010266721,-0.00027526205
696944000,696944000,0.00027710112,0.006055857,-0.0024711152
696956000,696956000,-0.0060659396,0.0023017807,-0.0058414657
696964000,696964000,-0.007990169,-0.00022736285,-0.0032775234
696980000,696980000,-0.0047124387,-0.0005951058,0.0003988195
696988000,696988000,-0.0012698562,0.0051137907,-0.0043513263
697004000,697004000,-0.005357447,0.007512592,0.0015761349
697016000,697016000,-0.00968602,0.0026732895,0.006170974
697024000,697024000,-0.0044018636,0.0015180232,0.0021619205
697040000,697040000,-0.0010036218,0.00207442,0.00072233565
697048000,697048000,-0.00091108895,0.0018933243,0.0009549917
697064000,697064000,-0.0002603521,0.0018466678,0.003215357
697076000,697076000,0.0034343116,0.00023623882,0.00068777625
697088000,697088000,0.0024563884,0.0008653775,-0.00041348411
697100000,697100000,0.0013226187,0.0028075753,0.00039346982
697112000,697112000,0.008625767,-0.0028055818,0.0014421832
697124000,697124000,0.004705235,-0.0007895194,-0.0053981305
697136000,697136000,0.003912035,-0.008549264,-0.002278961
697148000,697148000,-0.000121626304,-0.0070721707,-0.00066648243
697160000,697160000,0.0018642214,-0.007094954,-0.0010897466
697172000,697172000,-0.004433274,-0.010550904,0.003210859
697184000,697184000,-0.00991735,-0.011348021,0.0025576213
697196000,697196000,-0.0057440475,-0.006439481,-0.0011326694
697208000,697208000,-0.007936755,-0.0030727792,0.0027093291
697220000,697220000,-0.008015644,-0.00013718754,-0.0032818755
697232000,697232000,9.835273e-05,0.0016857986,-0.0002909904
697244000,697244000,0.00058954814,0.006695116,6.6162145e-05
697256000,697256000,0.00030592195,0.0029478024,-0.0031658455
697268000,697268000,0.00046567092,0.00064787176,-0.0011302226
697280000,697280000,-0.0026898256,0.0025983967,0.0024127648
697292000,697292000,0.0023215897,-0.001038746,0.0007923924
697304000,697304000,-0.0011296156,-0.006405643,-0.0030631847
697316000,697316000,-0.0028599526,-0.010032578,-0.0014508492
697324000,697324000,-0.0051475065,-0.010635561,-0.00072520046
697340000,697340000,-0.0015620147,-0.011454949,0.0026859473
697352000,697352000,-0.00030474126,-0.0074939015,-0.00016319437
697360000,697360000,-0.0031967615,-0.0031592343,-0.0008072066
697376000,697376000,-0.013189343,-0.0037657907,0.005221199
697388000,697388000,-0.0048127077,-0.0069991704,0.00306805
697400000,697400000,-0.0040733907,-0.007367229,-0.0020632227
697412000,697412000,0.00054784096,-0.008275602,0.00042804063
697424000,697424000,0.00054757413,-0.010110997,-0.00029392884
697432000,697432000,0.0011171349,-0.0063193557,0.0015180705
697448000,697448000,-0.009775247,-0.00034389598,-0.0006311191
697460000,697460000,-0.0040190844,-0.0043909997,-0.0017183749
697472000,697472000,-0.0018792775,0.0017660889,0.0008728824
697480000,697480000,-2.1071639e-05,0.008717756,-0.0009741419
697496000,697496000,-0.0035282264,0.007363023,0.0022808348
697504000,697504000,-0.0062900437,0.0020393766,-0.0012377081
697520000,697520000,-0.00029923854,0.0027757715,0.0010847249
697528000,697528000,-0.0014783989,0.0018017646,-0.0024681112
697544000,697544000,-0.002053179,-0.00034804596,0.0034495564
697552000,697552000,-0.0012182621,0.0031256387,0.0036165472
697568000,697568000,-0.0036036405,-0.0010840017,-0.0038200757
697580000,697580000,-0.0045824614,-0.0018386804,0.0014269892
697592000,697592000,0.0023250254,-0.0040692873,0.0077680824
697604000,697604000,0.013433525,-0.00612127,0.002972772
697616000,697616000,0.009815486,-0.006097129,0.00020913698
697624000,697624000,0.008963447,-0.008811813,-0.0005675901
697640000,697640000,0.007867279,-0.00469919,-0.005429607
697652000,697652000,0.0072657415,-0.0053160787,-0.0007784399
697660000,697660000,0.0028932993,-0.006475156,0.0037942736
697676000,697676000,0.009102594,-0.00629003,-0.0021738745
697688000,697688000,0.008015929,-0.010164176,0.00043837435
697700000,697700000,0.011574476,-0.01216467,0.0012006457
697708000,697708000,0.00956309,-0.007901989,-0.0021011897
697724000,697724000,-0.0040320028,-0.0066626007,0.0025221873
697736000,697736000,-0.0032544218,-0.008318409,-0.0027800747
697748000,697748000,-0.0020164798,-0.0063918005,0.0030564433
697760000,697760000,0.0009801685,-0.0050051487,0.0021370633
697772000,697772000,0.0022756127,-0.01291383,0.0032551002
697784000,697784000,0.0010304138,-0.0024248613,0.0035086004
697792000,697792000,-0.0004265235,-0.0041534556,0.0037906584
697808000,697808000,-0.0024308157,-0.0015016017,0.003206151
697820000,697820000,-0.0044332617,-0.007846199,0.0024434763
697828000,697828000,0.00018030999,-0.012168607,0.0017403297
697844000,697844000,0.0012934536,-0.016202737,0.00058640115
697856000,697856000,0.0015092837,-0.009003682,0.0026315257
697868000,697868000,0.0032075364,-0.008982133,7.1825343e-06
697880000,697880000,0.0023615097,-0.0070600114,-0.0027534412
697892000,697892000,0.0015161231,-0.010590394,-0.0017164082
697904000,697904000,0.002005356,-0.0086352555,-0.0009448163
697916000,697916000,0.004209588,-0.00414587,0.0022859338
697928000,697928000,0.0017082344,-0.00152962,-0.002488148
697940000,697940000,-0.00027994608,0.0008793138,-0.001959317
697952000,697952000,0.0022662547,0.0009956071,-0.00031868106
697960000,697960000,0.0027424884,-0.003377106,-0.0012295569
697976000,697976000,0.0041768355,-0.00023898482,-0.0024705739
697988000,697988000,0.0022524,0.0034651682,0.00327214
698000000,698000000,0.0041953884,0.0024999692,0.00290096
698012000,698012000,0.005811224,-0.0017814916,-0.00016278261
698024000,698024000,0.0024824312,-0.003221244,0.0013452005
698036000,698036000,-0.00064249756,-0.00032538176,-0.002057391
698048000,698048000,-0.008373916,0.0055388277,-0.00445611
698060000,698060000,-0.0037399223,0.00431944,0.0009383524
698072000,698072000,-0.0019684085,0.0041522845,0.0032424803
698084000,698084000,0.008003818,0.00093931286,0.0033028424
698096000,698096000,0.007959528,-0.00051404163,0.0038872445
698108000,698108000,0.0041311746,0.0020742076,0.0008838629
698120000,698120000,0.0032099395,0.0027334748,-0.00094561547
698128000,698128000,-0.0032563359,0.004876774,-0.0022280486
698144000,698144000,0.007278387,-0.0010025254,-0.00021506735
698156000,698156000,0.0073989322,0.0033835839,-0.00021904643
698168000,698168000,0.011079726,-0.0011741105,0.003253206
698180000,698180000,0.004351043,9.413902e-05,0.0026942908
698188000,698188000,0.0061453306,0.0016760067,-0.0029332717
698204000,698204000,0.0026100068,0.0057275817,-0.0033398978
698216000,698216000,0.0018183984,0.001325808,-0.0004876109
698228000,698228000,0.0004946358,-0.0012369216,0.0022967525
698236000,698236000,0.0013948092,0.0041580917,0.001429191
698248000,698248000,0.003303169,-0.0037779114,-0.0036189607
698264000,698264000,0.0047982093,-0.01111768,-0.00022277492
698276000,698276000,0.0044836192,-0.014021436,0.001760216
698288000,698288000,0.0012137502,-0.0077196714,0.004216561
698300000,698300000,0.00015758944,-0.006211396,0.0036682216
698312000,698312000,-3.786781e-05,-0.006406114,0.0016538873
698324000,698324000,0.0029393304,-0.0050093704,0.000219838
698336000,698336000,0.0038291407,-1.629768e-05,0.00460145
698348000,698348000,0.0041385433,-0.0021595773,0.004305098
698360000,698360000,0.0011296454,-0.0025398103,0.0013147818
698372000,698372000,0.005052512,0.00089201704,0.00094930077
698384000,698384000,-0.0012136775,0.0046387706,-0.0014998934
698392000,698392000,5.39787e-05,0.0038594573,0.0027474693
698408000,698408000,0.0071620075,0.005417766,0.0003320537
698416000,698416000,0.0074652717,0.0066125784,-0.0006106836
698432000,698432000,0.009052798,-0.0033525843,0.003077587
698444000,698444000,0.00026613523,-0.0014986661,0.0038330443
698456000,698456000,0.00682643,-0.0072392775,0.0013558379
698468000,698468000,0.0061172745,-0.006415817,0.00017296051
698480000,698480000,0.0011784043,-0.006115125,0.0022820677
698492000,698492000,-0.0022099249,-0.0072822613,-0.0016499837
698504000,698504000,0.0077219424,-0.0010395222,-0.0049304958
698516000,698516000,0.0060614846,0.0030926096,0.000958228
