timestamp,ref_timestamp,ref_lat,ref_lon,x,y,z,delta_xy[0],delta_xy[1],delta_z,vx,vy,vz,z_deriv,delta_vxy[0],delta_vxy[1],delta_vz,ax,ay,az,yaw,ref_alt,dist_bottom,dist_bottom_rate,eph,epv,evh,evv,vxy_max,vz_max,hagl_min,hagl_max,xy_valid,z_valid,v_xy_valid,v_z_valid,xy_reset_counter,z_reset_counter,vxy_reset_counter,vz_reset_counter,xy_global,z_global,dist_bottom_valid
686480000,0,47.3977508,8.5456074,0.21127036,-0.13548309,0.72598267,0.0,0.0,0.0,0.0,0.0,0.0,0.0,0.0,0.0,0.0,0.0,0.0,0.0,0.4116112,488.83002,0.0,0.0,0.0,0.0,0.0,0.0,inf,inf,inf,inf,1,1,1,1,0,0,0,0,1,1,0
686580000,0,47.3977508,8.5456074,0.21127036,-0.13548309,0.72598267,0.0,0.0,0.0,0.0,0.0,0.0,0.0,0.0,0.0,0.0,0.0,0.0,0.0,0.41161105,488.83002,0.0,0.0,0.0,0.0,0.0,0.0,inf,inf,inf,inf,1,1,1,1,0,0,0,0,1,1,0
686680000,0,47.3977508,8.5456074,0.21127036,-0.13548309,0.72598267,0.0,0.0,0.0,0.0,0.0,0.0,0.0,0.0,0.0,0.0,0.0,0.0,0.0,0.41161087,488.83002,0.0,0.0,0.0,0.0,0.0,0.0,inf,inf,inf,inf,1,1,1,1,0,0,0,0,1,1,0
686780000,0,47.3977508,8.5456074,0.21127036,-0.13548309,0.72598267,0.0,0.0,0.0,0.0,0.0,0.0,0.0,0.0,0.0,0.0,0.0,0.0,0.0,0.41161036,488.83002,0.0,0.0,0.0,0.0,0.0,0.0,inf,inf,inf,inf,1,1,1,1,0,0,0,0,1,1,0
686880000,0,47.3977508,8.5456074,0.21127036,-0.13548309,0.72598267,0.0,0.0,0.0,0.0,0.0,0.0,0.0,0.0,0.0,0.0,0.0,0.0,0.0,0.41161123,488.83002,0.0,0.0,0.0,0.0,0.0,0.0,inf,inf,inf,inf,1,1,1,1,0,0,0,0,1,1,0
686980000,0,47.3977508,8.5456074,0.21127036,-0.13548309,0.72598267,0.0,0.0,0.0,0.0,0.0,0.0,0.0,0.0,0.0,0.0,0.0,0.0,0.0,0.4116113,488.83002,0.0,0.0,0.0,0.0,0.0,0.0,inf,inf,inf,inf,1,1,1,1,0,0,0,0,1,1,0
687076000,0,47.3977508,8.5456074,0.21127036,-0.13548309,0.72598267,0.0,0.0,0.0,0.0,0.0,0.0,0.0,0.0,0.0,0.0,0.0,0.0,0.0,0.4116113,488.83002,0.0,0.0,0.0,0.0,0.0,0.0,inf,inf,inf,inf,1,1,1,1,0,0,0,0,1,1,0
687180000,0,47.3977508,8.5456074,0.21127036,-0.13548309,0.72598267,0.0,0.0,0.0,0.0,0.0,0.0,0.0,0.0,0.0,0.0,0.0,0.0,0.0,0.4116114,488.83002,0.0,0.0,0.0,0.0,0.0,0.0,inf,inf,inf,inf,1,1,1,1,0,0,0,0,1,1,0
687280000,0,47.3977508,8.5456074,0.21127036,-0.13548309,0.72598267,0.0,0.0,0.0,0.0,0.0,0.0,0.0,0.0,0.0,0.0,0.0,0.0,0.0,0.41161132,488.83002,0.0,0.0,0.0,0.0,0.0,0.0,inf,inf,inf,inf,1,1,1,1,0,0,0,0,1,1,0
687380000,0,47.3977508,8.5456074,0.21127036,-0.13548309,0.72598267,0.0,0.0,0.0,0.0,0.0,0.0,0.0,0.0,0.0,0.0,0.0,0.0,0.0,0.41161135,488.83002,0.0,0.0,0.0,0.0,0.0,0.0,inf,inf,inf,inf,1,1,1,1,0,0,0,0,1,1,0
687480000,0,47.3977508,8.5456074,0.21127036,-0.13548309,0.72598267,0.0,0.0,0.0,0.0,0.0,0.0,0.0,0.0,0.0,0.0,0.0,0.0,0.0,0.4116115,488.83002,0.0,0.0,0.0,0.0,0.0,0.0,inf,inf,inf,inf,1,1,1,1,0,0,0,0,1,1,0
687580000,0,47.3977508,8.5456074,0.21127036,-0.13548309,0.72598267,0.0,0.0,0.0,0.0,0.0,0.0,0.0,0.0,0.0,0.0,0.0,0.0,0.0,0.4116116,488.83002,0.0,0.0,0.0,0.0,0.0,0.0,inf,inf,inf,inf,1,1,1,1,0,0,0,0,1,1,0
687680000,0,47.3977508,8.5456074,0.21127036,-0.13548309,0.72598267,0.0,0.0,0.0,0.0,0.0,0.0,0.0,0.0,0.0,0.0,0.0,0.0,0.0,0.41161186,488.83002,0.0,0.0,0.0,0.0,0.0,0.0,inf,inf,inf,inf,1,1,1,1,0,0,0,0,1,1,0
687780000,0,47.3977508,8.5456074,0.21127036,-0.13548309,0.72598267,0.0,0.0,0.0,0.0,0.0,0.0,0.0,0.0,0.0,0.0,0.0,0.0,0.0,0.41161188,488.83002,0.0,0.0,0.0,0.0,0.0,0.0,inf,inf,inf,inf,1,1,1,1,0,0,0,0,1,1,0
687876000,0,47.3977508,8.5456074,0.21127036,-0.13548309,0.72598267,0.0,0.0,0.0,0.0,0.0,0.0,0.0,0.0,0.0,0.0,0.0,0.0,0.0,0.41161186,488.83002,0.0,0.0,0.0,0.0,0.0,0.0,inf,inf,inf,inf,1,1,1,1,0,0,0,0,1,1,0
687980000,0,47.3977508,8.5456074,0.21127036,-0.13548309,0.72598267,0.0,0.0,0.0,0.0,0.0,0.0,0.0,0.0,0.0,0.0,0.0,0.0,0.0,0.41161186,488.83002,0.0,0.0,0.0,0.0,0.0,0.0,inf,inf,inf,inf,1,1,1,1,0,0,0,0,1,1,0
688080000,0,47.3977508,8.5456074,0.21127036,-0.13548309,0.72598267,0.0,0.0,0.0,0.0,0.0,0.0,0.0,0.0,0.0,0.0,0.0,0.0,0.0,0.41161186,488.83002,0.0,0.0,0.0,0.0,0.0,0.0,inf,inf,inf,inf,1,1,1,1,0,0,0,0,1,1,0
688176000,0,47.3977508,8.5456074,0.21127036,-0.13548309,0.72598267,0.0,0.0,0.0,0.0,0.0,0.0,0.0,0.0,0.0,0.0,0.0,0.0,0.0,0.41161186,488.83002,0.0,0.0,0.0,0.0,0.0,0.0,inf,inf,inf,inf,1,1,1,1,0,0,0,0,1,1,0
688280000,0,47.3977508,8.5456074,0.21127036,-0.13548309,0.7250061,0.0,0.0,0.0,0.0,0.0,-0.01,0.0,0.0,0.0,0.0,0.0,0.0,0.0,0.41161388,488.83002,0.0,0.0,0.0,0.0,0.0,0.0,inf,inf,inf,inf,1,1,1,1,0,0,0,0,1,1,0
688380000,0,47.3977508,8.5456074,0.21127036,-0.13548309,0.71899414,0.0,0.0,0.0,0.01,0.0,-0.12,0.0,0.0,0.0,0.0,0.0,0.0,0.0,0.41175264,488.83002,0.0,0.0,0.0,0.0,0.0,0.0,inf,inf,inf,inf,1,1,1,1,0,0,0,0,1,1,0
688480000,0,47.3977508,8.5456074,0.21127036,-0.13548309,0.6999817,0.0,0.0,0.0,0.03,0.01,-0.26,0.0,0.0,0.0,0.0,0.0,0.0,0.0,0.41161725,488.83002,0.0,0.0,0.0,0.0,0.0,0.0,inf,inf,inf,inf,1,1,1,1,0,0,0,0,1,1,0
688580000,0,47.3977508,8.5456074,0.22238986,-0.12795626,0.66500854,0.0,0.0,0.0,0.049999997,0.01,-0.39,0.0,0.0,0.0,0.0,0.0,0.0,0.0,0.41136533,488.83002,0.0,0.0,0.0,0.0,0.0,0.0,inf,inf,inf,inf,1,1,1,1,0,0,0,0,1,1,0
688680000,0,47.3977508,8.5456074,0.22238986,-0.12795626,0.61898804,0.0,0.0,0.0,0.06,0.02,-0.52,0.0,0.0,0.0,0.0,0.0,0.0,0.0,0.41127956,488.83002,0.0,0.0,0.0,0.0,0.0,0.0,inf,inf,inf,inf,1,1,1,1,0,0,0,0,1,1,0
688780000,0,47.3977508,8.5456074,0.23350935,-0.12795626,0.5589905,0.0,0.0,0.0,0.07,0.02,-0.65999997,0.0,0.0,0.0,0.0,0.0,0.0,0.0,0.41120595,488.83002,0.0,0.0,0.0,0.0,0.0,0.0,inf,inf,inf,inf,1,1,1,1,0,0,0,0,1,1,0
688880000,0,47.3977508,8.5456074,0.23350935,-0.12795626,0.48599243,0.0,0.0,0.0,0.07,0.01,-0.78999996,0.0,0.0,0.0,0.0,0.0,0.0,0.0,0.41122052,488.83002,0.0,0.0,0.0,0.0,0.0,0.0,inf,inf,inf,inf,1,1,1,1,0,0,0,0,1,1,0
688976000,0,47.3977508,8.5456074,0.24462885,-0.12042941,0.4039917,0.0,0.0,0.0,0.06,0.01,-0.90999997,0.0,0.0,0.0,0.0,0.0,0.0,0.0,0.41121268,488.83002,0.0,0.0,0.0,0.0,0.0,0.0,inf,inf,inf,inf,1,1,1,1,0,0,0,0,1,1,0
689080000,0,47.3977508,8.5456074,0.25574833,-0.12042941,0.30099487,0.0,0.0,0.0,0.06,0.01,-1.06,0.0,0.0,0.0,0.0,0.0,0.0,0.0,0.4111019,488.83002,0.0,0.0,0.0,0.0,0.0,0.0,inf,inf,inf,inf,1,1,1,1,0,0,0,0,1,1,0
689180000,0,47.3977508,8.5456074,0.25574833,-0.12042941,0.1869812,0.0,0.0,0.0,0.06,0.0,-1.1899999,0.0,0.0,0.0,0.0,0.0,0.0,0.0,0.41096947,488.83002,0.0,0.0,0.0,0.0,0.0,0.0,inf,inf,inf,inf,1,1,1,1,0,0,0,0,1,1,0
689280000,0,47.3977508,8.5456074,0.26686782,-0.12042941,0.06100464,0.0,0.0,0.0,0.06,0.0,-1.3199999,0.0,0.0,0.0,0.0,0.0,0.0,0.0,0.41080585,488.83002,0.0,0.0,0.0,0.0,0.0,0.0,inf,inf,inf,inf,1,1,1,1,0,0,0,0,1,1,0
689380000,0,47.3977508,8.5456074,0.26686782,-0.12042941,-0.07901001,0.0,0.0,0.0,0.06,0.0,-1.4599999,0.0,0.0,0.0,0.0,0.0,0.0,0.0,0.4105931,488.83002,0.0,0.0,0.0,0.0,0.0,0.0,inf,inf,inf,inf,1,1,1,1,0,0,0,0,1,1,0
689476000,0,47.3977508,8.5456074,0.27798733,-0.12042941,-0.22601318,0.0,0.0,0.0,0.06,0.0,-1.5799999,0.0,0.0,0.0,0.0,0.0,0.0,0.0,0.41048637,488.83002,0.0,0.0,0.0,0.0,0.0,0.0,inf,inf,inf,inf,1,1,1,1,0,0,0,0,1,1,0
689580000,0,47.3977508,8.5456074,0.27798733,-0.12042941,-0.39801025,0.0,0.0,0.0,0.06,0.0,-1.7199999,0.0,0.0,0.0,0.0,0.0,0.0,0.0,0.41048712,488.83002,0.0,0.0,0.0,0.0,0.0,0.0,inf,inf,inf,inf,1,1,1,1,0,0,0,0,1,1,0
689680000,0,47.3977508,8.5456074,0.28910682,-0.12042941,-0.57699585,0.0,0.0,0.0,0.06,0.0,-1.8499999,0.0,0.0,0.0,0.0,0.0,0.0,0.0,0.4104286,488.83002,0.0,0.0,0.0,0.0,0.0,0.0,inf,inf,inf,inf,1,1,1,1,0,0,0,0,1,1,0
689776000,0,47.3977508,8.5456074,0.3002263,-0.12042941,-0.76101685,0.0,0.0,0.0,0.06,0.0,-1.9699999,0.0,0.0,0.0,0.0,0.0,0.0,0.0,0.4103179,488.83002,0.0,0.0,0.0,0.0,0.0,0.0,inf,inf,inf,inf,1,1,1,1,0,0,0,0,1,1,0
689880000,0,47.3977508,8.5456074,0.3002263,-0.12042941,-0.97299194,0.0,0.0,0.0,0.06,0.0,-2.1,0.0,0.0,0.0,0.0,0.0,0.0,0.0,0.41023982,488.83002,0.0,0.0,0.0,0.0,0.0,0.0,inf,inf,inf,inf,1,1,1,1,0,0,0,0,1,1,0
689976000,0,47.3977508,8.5456074,0.3113458,-0.12042941,-1.1820068,0.0,0.0,0.0,0.06,0.0,-2.23,0.0,0.0,0.0,0.0,0.0,0.0,0.0,0.4101838,488.83002,0.0,0.0,0.0,0.0,0.0,0.0,inf,inf,inf,inf,1,1,1,1,0,0,0,0,1,1,0
690080000,0,47.3977508,8.5456074,0.3113458,-0.12042941,-1.4210205,0.0,0.0,0.0,0.06,0.0,-2.36,0.0,0.0,0.0,0.0,0.0,0.0,0.0,0.40971714,488.83002,0.0,0.0,0.0,0.0,0.0,0.0,inf,inf,inf,inf,1,1,1,1,0,0,0,0,1,1,0
690176000,0,47.3977508,8.5456074,0.3224653,-0.12042941,-1.6549988,0.0,0.0,0.0,0.049999997,-0.01,-2.49,0.0,0.0,0.0,0.0,0.0,0.0,0.0,0.40894648,488.83002,0.0,0.0,0.0,0.0,0.0,0.0,inf,inf,inf,inf,1,1,1,1,0,0,0,0,1,1,0
690280000,0,47.3977508,8.5456074,0.3224653,-0.12795626,-1.9160156,0.0,0.0,0.0,0.049999997,0.0,-2.49,0.0,0.0,0.0,0.0,0.0,0.0,0.0,0.40824118,488.83002,0.0,0.0,0.0,0.0,0.0,0.0,inf,inf,inf,inf,1,1,1,1,0,0,0,0,1,1,0
690380000,0,47.3977508,8.5456074,0.3335848,-0.12795626,-2.15802,0.0,0.0,0.0,0.049999997,0.0,-2.34,0.0,0.0,0.0,0.0,0.0,0.0,0.0,0.4079311,488.83002,0.0,0.0,0.0,0.0,0.0,0.0,inf,inf,inf,inf,1,1,1,1,0,0,0,0,1,1,0
690476000,0,47.3977508,8.5456074,0.3335848,-0.12795626,-2.3789978,0.0,0.0,0.0,0.04,0.0,-2.26,0.0,0.0,0.0,0.0,0.0,0.0,0.0,0.40774524,488.83002,0.0,0.0,0.0,0.0,0.0,0.0,inf,inf,inf,inf,1,1,1,1,0,0,0,0,1,1,0
690576000,0,47.3977508,8.5456074,0.34470427,-0.12795626,-2.6020203,0.0,0.0,0.0,0.04,0.0,-2.19,0.0,0.0,0.0,0.0,0.0,0.0,0.0,0.4075244,488.83002,0.0,0.0,0.0,0.0,0.0,0.0,inf,inf,inf,inf,1,1,1,1,0,0,0,0,1,1,0
690680000,0,47.3977508,8.5456074,0.34470427,-0.12795626,-2.8260193,0.0,0.0,0.0,0.04,0.0,-2.12,0.0,0.0,0.0,0.0,0.0,0.0,0.0,0.4073305,488.83002,0.0,0.0,0.0,0.0,0.0,0.0,inf,inf,inf,inf,1,1,1,1,0,0,0,0,1,1,0
690776000,0,47.3977508,8.5456074,0.34470427,-0.12795626,-3.027008,0.0,0.0,0.0,0.03,0.0,-2.06,0.0,0.0,0.0,0.0,0.0,0.0,0.0,0.40725315,488.83002,0.0,0.0,0.0,0.0,0.0,0.0,inf,inf,inf,inf,1,1,1,1,0,0,0,0,1,1,0
690880000,0,47.3977508,8.5456074,0.35582376,-0.12795626,-3.2380066,0.0,0.0,0.0,0.03,0.0,-2.0,0.0,0.0,0.0,0.0,0.0,0.0,0.0,0.40725893,488.83002,0.0,0.0,0.0,0.0,0.0,0.0,inf,inf,inf,inf,1,1,1,1,0,0,0,0,1,1,0
690976000,0,47.3977508,8.5456074,0.35582376,-0.12795626,-3.427002,0.0,0.0,0.0,0.03,0.0,-1.9399999,0.0,0.0,0.0,0.0,0.0,0.0,0.0,0.40740588,488.83002,0.0,0.0,0.0,0.0,0.0,0.0,inf,inf,inf,inf,1,1,1,1,0,0,0,0,1,1,0
691080000,0,47.3977508,8.5456074,0.35582376,-0.12795626,-3.6270142,0.0,0.0,0.0,0.03,0.0,-1.9,0.0,0.0,0.0,0.0,0.0,0.0,0.0,0.4074593,488.83002,0.0,0.0,0.0,0.0,0.0,0.0,inf,inf,inf,inf,1,1,1,1,0,0,0,0,1,1,0
691180000,0,47.3977508,8.5456074,0.36694327,-0.13548309,-3.8150024,0.0,0.0,0.0,0.02,0.0,-1.8499999,0.0,0.0,0.0,0.0,0.0,0.0,0.0,0.40755925,488.83002,0.0,0.0,0.0,0.0,0.0,0.0,inf,inf,inf,inf,1,1,1,1,0,0,0,0,1,1,0
691280000,0,47.3977508,8.5456074,0.36694327,-0.13548309,-3.998993,0.0,0.0,0.0,0.02,0.0,-1.8199999,0.0,0.0,0.0,0.0,0.0,0.0,0.0,0.40766874,488.83002,0.0,0.0,0.0,0.0,0.0,0.0,inf,inf,inf,inf,1,1,1,1,0,0,0,0,1,1,0
691380000,0,47.3977508,8.5456074,0.36694327,-0.13548309,-4.1799927,0.0,0.0,0.0,0.02,0.0,-1.78,0.0,0.0,0.0,0.0,0.0,0.0,0.0,0.40769914,488.83002,0.0,0.0,0.0,0.0,0.0,0.0,inf,inf,inf,inf,1,1,1,1,0,0,0,0,1,1,0
691480000,0,47.3977508,8.5456074,0.36694327,-0.13548309,-4.3569946,0.0,0.0,0.0,0.02,0.0,-1.76,0.0,0.0,0.0,0.0,0.0,0.0,0.0,0.4078185,488.83002,0.0,0.0,0.0,0.0,0.0,0.0,inf,inf,inf,inf,1,1,1,1,0,0,0,0,1,1,0
691580000,0,47.3977508,8.5456074,0.36694327,-0.13548309,-4.524994,0.0,0.0,0.0,0.01,0.0,-1.73,0.0,0.0,0.0,0.0,0.0,0.0,0.0,0.40787673,488.83002,0.0,0.0,0.0,0.0,0.0,0.0,inf,inf,inf,inf,1,1,1,1,0,0,0,0,1,1,0
691680000,0,47.3977508,8.5456074,0.37806275,-0.13548309,-4.70401,0.0,0.0,0.0,0.01,-0.01,-1.7099999,0.0,0.0,0.0,0.0,0.0,0.0,0.0,0.40788144,488.83002,0.0,0.0,0.0,0.0,0.0,0.0,inf,inf,inf,inf,1,1,1,1,0,0,0,0,1,1,0
691780000,0,47.3977508,8.5456074,0.37806275,-0.13548309,-4.873993,0.0,0.0,0.0,0.01,-0.01,-1.6899999,0.0,0.0,0.0,0.0,0.0,0.0,0.0,0.40802363,488.83002,0.0,0.0,0.0,0.0,0.0,0.0,inf,inf,inf,inf,1,1,1,1,0,0,0,0,1,1,0
691880000,0,47.3977508,8.5456074,0.37806275,-0.14300993,-5.0429993,0.0,0.0,0.0,0.01,-0.01,-1.67,0.0,0.0,0.0,0.0,0.0,0.0,0.0,0.4081974,488.83002,0.0,0.0,0.0,0.0,0.0,0.0,inf,inf,inf,inf,1,1,1,1,0,0,0,0,1,1,0
691980000,0,47.3977508,8.5456074,0.37806275,-0.14300993,-5.209015,0.0,0.0,0.0,0.01,-0.01,-1.65,0.0,0.0,0.0,0.0,0.0,0.0,0.0,0.40835354,488.83002,0.0,0.0,0.0,0.0,0.0,0.0,inf,inf,inf,inf,1,1,1,1,0,0,0,0,1,1,0
692076000,0,47.3977508,8.5456074,0.37806275,-0.14300993,-5.3670044,0.0,0.0,0.0,0.01,-0.01,-1.63,0.0,0.0,0.0,0.0,0.0,0.0,0.0,0.4083659,488.83002,0.0,0.0,0.0,0.0,0.0,0.0,inf,inf,inf,inf,1,1,1,1,0,0,0,0,1,1,0
692176000,0,47.3977508,8.5456074,0.37806275,-0.14300993,-5.529999,0.0,0.0,0.0,0.01,-0.01,-1.62,0.0,0.0,0.0,0.0,0.0,0.0,0.0,0.40825862,488.83002,0.0,0.0,0.0,0.0,0.0,0.0,inf,inf,inf,inf,1,1,1,1,0,0,0,0,1,1,0
692280000,0,47.3977508,8.5456074,0.37806275,-0.14300993,-5.6920166,0.0,0.0,0.0,0.01,-0.01,-1.5999999,0.0,0.0,0.0,0.0,0.0,0.0,0.0,0.40820003,488.83002,0.0,0.0,0.0,0.0,0.0,0.0,inf,inf,inf,inf,1,1,1,1,0,0,0,0,1,1,0
692380000,0,47.3977508,8.5456074,0.38918224,-0.15053676,-5.8580017,0.0,0.0,0.0,0.01,-0.01,-1.5899999,0.0,0.0,0.0,0.0,0.0,0.0,0.0,0.40807447,488.83002,0.0,0.0,0.0,0.0,0.0,0.0,inf,inf,inf,inf,1,1,1,1,0,0,0,0,1,1,0
692480000,0,47.3977508,8.5456074,0.38918224,-0.15053676,-6.0169983,0.0,0.0,0.0,0.01,-0.01,-1.5799999,0.0,0.0,0.0,0.0,0.0,0.0,0.0,0.4077914,488.83002,0.0,0.0,0.0,0.0,0.0,0.0,inf,inf,inf,inf,1,1,1,1,0,0,0,0,1,1,0
692580000,0,47.3977508,8.5456074,0.38918224,-0.15053676,-6.1750183,0.0,0.0,0.0,0.0,-0.01,-1.5699999,0.0,0.0,0.0,0.0,0.0,0.0,0.0,0.4076771,488.83002,0.0,0.0,0.0,0.0,0.0,0.0,inf,inf,inf,inf,1,1,1,1,0,0,0,0,1,1,0
692680000,0,47.3977508,8.5456074,0.38918224,-0.15053676,-6.3260193,0.0,0.0,0.0,0.0,0.0,-1.56,0.0,0.0,0.0,0.0,0.0,0.0,0.0,0.40770048,488.83002,0.0,0.0,0.0,0.0,0.0,0.0,inf,inf,inf,inf,1,1,1,1,0,0,0,0,1,1,0
692776000,0,47.3977508,8.5456074,0.38918224,-0.15053676,-6.4819946,0.0,0.0,0.0,0.0,0.0,-1.55,0.0,0.0,0.0,0.0,0.0,0.0,0.0,0.40770558,488.83002,0.0,0.0,0.0,0.0,0.0,0.0,inf,inf,inf,inf,1,1,1,1,0,0,0,0,1,1,0
692880000,0,47.3977508,8.5456074,0.38918224,-0.15053676,-6.6380005,0.0,0.0,0.0,0.0,0.0,-1.55,0.0,0.0,0.0,0.0,0.0,0.0,0.0,0.40774468,488.83002,0.0,0.0,0.0,0.0,0.0,0.0,inf,inf,inf,inf,1,1,1,1,0,0,0,0,1,1,0
692976000,0,47.3977508,8.5456074,0.38918224,-0.15053676,-6.7929993,0.0,0.0,0.0,0.0,0.0,-1.54,0.0,0.0,0.0,0.0,0.0,0.0,0.0,0.4077875,488.83002,0.0,0.0,0.0,0.0,0.0,0.0,inf,inf,inf,inf,1,1,1,1,0,0,0,0,1,1,0
693080000,0,47.3977508,8.5456074,0.38918224,-0.15053676,-6.95401,0.0,0.0,0.0,0.0,0.0,-1.54,0.0,0.0,0.0,0.0,0.0,0.0,0.0,0.4077688,488.83002,0.0,0.0,0.0,0.0,0.0,0.0,inf,inf,inf,inf,1,1,1,1,0,0,0,0,1,1,0
693180000,0,47.3977508,8.5456074,0.38918224,-0.1580636,-7.1080017,0.0,0.0,0.0,0.0,0.0,-1.54,0.0,0.0,0.0,0.0,0.0,0.0,0.0,0.40774792,488.83002,0.0,0.0,0.0,0.0,0.0,0.0,inf,inf,inf,inf,1,1,1,1,0,0,0,0,1,1,0
693280000,0,47.3977508,8.5456074,0.38918224,-0.1580636,-7.2630005,0.0,0.0,0.0,0.0,0.0,-1.54,0.0,0.0,0.0,0.0,0.0,0.0,0.0,0.4077099,488.83002,0.0,0.0,0.0,0.0,0.0,0.0,inf,inf,inf,inf,1,1,1,1,0,0,0,0,1,1,0
693380000,0,47.3977508,8.5456074,0.38918224,-0.1580636,-7.416992,0.0,0.0,0.0,0.0,0.0,-1.54,0.0,0.0,0.0,0.0,0.0,0.0,0.0,0.4076323,488.83002,0.0,0.0,0.0,0.0,0.0,0.0,inf,inf,inf,inf,1,1,1,1,0,0,0,0,1,1,0
693480000,0,47.3977508,8.5456074,0.38918224,-0.1580636,-7.5720215,0.0,0.0,0.0,0.0,0.0,-1.54,0.0,0.0,0.0,0.0,0.0,0.0,0.0,0.4075902,488.83002,0.0,0.0,0.0,0.0,0.0,0.0,inf,inf,inf,inf,1,1,1,1,0,0,0,0,1,1,0
693576000,0,47.3977508,8.5456074,0.38918224,-0.1580636,-7.71402,0.0,0.0,0.0,0.0,0.0,-1.54,0.0,0.0,0.0,0.0,0.0,0.0,0.0,0.40753862,488.83002,0.0,0.0,0.0,0.0,0.0,0.0,inf,inf,inf,inf,1,1,1,1,0,0,0,0,1,1,0
693680000,0,47.3977508,8.5456074,0.38918224,-0.1580636,-7.881012,0.0,0.0,0.0,0.0,0.0,-1.54,0.0,0.0,0.0,0.0,0.0,0.0,0.0,0.40759543,488.83002,0.0,0.0,0.0,0.0,0.0,0.0,inf,inf,inf,inf,1,1,1,1,0,0,0,0,1,1,0
693776000,0,47.3977508,8.5456074,0.38918224,-0.1580636,-8.028992,0.0,0.0,0.0,0.0,0.0,-1.54,0.0,0.0,0.0,0.0,0.0,0.0,0.0,0.4076729,488.83002,0.0,0.0,0.0,0.0,0.0,0.0,inf,inf,inf,inf,1,1,1,1,0,0,0,0,1,1,0
693880000,0,47.3977508,8.5456074,0.38918224,-0.1580636,-8.188995,0.0,0.0,0.0,0.0,0.0,-1.54,0.0,0.0,0.0,0.0,0.0,0.0,0.0,0.40771586,488.83002,0.0,0.0,0.0,0.0,0.0,0.0,inf,inf,inf,inf,1,1,1,1,0,0,0,0,1,1,0
693980000,0,47.3977508,8.5456074,0.38918224,-0.1580636,-8.343994,0.0,0.0,0.0,0.0,0.0,-1.54,0.0,0.0,0.0,0.0,0.0,0.0,0.0,0.40768752,488.83002,0.0,0.0,0.0,0.0,0.0,0.0,inf,inf,inf,inf,1,1,1,1,0,0,0,0,1,1,0
694080000,0,47.3977508,8.5456074,0.38918224,-0.1580636,-8.498993,0.0,0.0,0.0,0.0,0.0,-1.54,0.0,0.0,0.0,0.0,0.0,0.0,0.0,0.40770194,488.83002,0.0,0.0,0.0,0.0,0.0,0.0,inf,inf,inf,inf,1,1,1,1,0,0,0,0,1,1,0
694180000,0,47.3977508,8.5456074,0.38918224,-0.1580636,-8.653015,0.0,0.0,0.0,-0.01,0.0,-1.54,0.0,0.0,0.0,0.0,0.0,0.0,0.0,0.40775192,488.83002,0.0,0.0,0.0,0.0,0.0,0.0,inf,inf,inf,inf,1,1,1,1,0,0,0,0,1,1,0
694280000,0,47.3977508,8.5456074,0.38918224,-0.1580636,-8.807007,0.0,0.0,0.0,-0.01,0.0,-1.54,0.0,0.0,0.0,0.0,0.0,0.0,0.0,0.4079001,488.83002,0.0,0.0,0.0,0.0,0.0,0.0,inf,inf,inf,inf,1,1,1,1,0,0,0,0,1,1,0
694380000,0,47.3977508,8.5456074,0.38918224,-0.16559044,-8.960999,0.0,0.0,0.0,-0.01,0.0,-1.54,0.0,0.0,0.0,0.0,0.0,0.0,0.0,0.40799594,488.83002,0.0,0.0,0.0,0.0,0.0,0.0,inf,inf,inf,inf,1,1,1,1,0,0,0,0,1,1,0
694480000,0,47.3977508,8.5456074,0.37806275,-0.16559044,-9.115997,0.0,0.0,0.0,-0.01,0.0,-1.54,0.0,0.0,0.0,0.0,0.0,0.0,0.0,0.40796405,488.83002,0.0,0.0,0.0,0.0,0.0,0.0,inf,inf,inf,inf,1,1,1,1,0,0,0,0,1,1,0
694580000,0,47.3977508,8.5456074,0.37806275,-0.16559044,-9.2630005,0.0,0.0,0.0,-0.02,0.0,-1.53,0.0,0.0,0.0,0.0,0.0,0.0,0.0,0.40790543,488.83002,0.0,0.0,0.0,0.0,0.0,0.0,inf,inf,inf,inf,1,1,1,1,0,0,0,0,1,1,0
694676000,0,47.3977508,8.5456074,0.37806275,-0.16559044,-9.416992,0.0,0.0,0.0,-0.02,0.0,-1.53,0.0,0.0,0.0,0.0,0.0,0.0,0.0,0.4078582,488.83002,0.0,0.0,0.0,0.0,0.0,0.0,inf,inf,inf,inf,1,1,1,1,0,0,0,0,1,1,0
694780000,0,47.3977508,8.5456074,0.37806275,-0.16559044,-9.574005,0.0,0.0,0.0,-0.02,0.0,-1.48,0.0,0.0,0.0,0.0,0.0,0.0,0.0,0.40785086,488.83002,0.0,0.0,0.0,0.0,0.0,0.0,inf,inf,inf,inf,1,1,1,1,0,0,0,0,1,1,0
694880000,0,47.3977508,8.5456074,0.37806275,-0.16559044,-9.71402,0.0,0.0,0.0,-0.02,0.0,-1.42,0.0,0.0,0.0,0.0,0.0,0.0,0.0,0.40787426,488.83002,0.0,0.0,0.0,0.0,0.0,0.0,inf,inf,inf,inf,1,1,1,1,0,0,0,0,1,1,0
694980000,0,47.3977508,8.5456074,0.36694327,-0.16559044,-9.860016,0.0,0.0,0.0,-0.02,0.0,-1.38,0.0,0.0,0.0,0.0,0.0,0.0,0.0,0.40792912,488.83002,0.0,0.0,0.0,0.0,0.0,0.0,inf,inf,inf,inf,1,1,1,1,0,0,0,0,1,1,0
695080000,0,47.3977508,8.5456074,0.36694327,-0.16559044,-9.994995,0.0,0.0,0.0,-0.03,0.0,-1.3299999,0.0,0.0,0.0,0.0,0.0,0.0,0.0,0.4080522,488.83002,0.0,0.0,0.0,0.0,0.0,0.0,inf,inf,inf,inf,1,1,1,1,0,0,0,0,1,1,0
695180000,0,47.3977508,8.5456074,0.36694327,-0.16559044,-10.127014,0.0,0.0,0.0,-0.03,0.0,-1.29,0.0,0.0,0.0,0.0,0.0,0.0,0.0,0.40813628,488.83002,0.0,0.0,0.0,0.0,0.0,0.0,inf,inf,inf,inf,1,1,1,1,0,0,0,0,1,1,0
695280000,0,47.3977508,8.5456074,0.36694327,-0.16559044,-10.253998,0.0,0.0,0.0,-0.03,0.0,-1.25,0.0,0.0,0.0,0.0,0.0,0.0,0.0,0.40815884,488.83002,0.0,0.0,0.0,0.0,0.0,0.0,inf,inf,inf,inf,1,1,1,1,0,0,0,0,1,1,0
695376000,0,47.3977508,8.5456074,0.35582376,-0.16559044,-10.372009,0.0,0.0,0.0,-0.03,0.0,-1.2099999,0.0,0.0,0.0,0.0,0.0,0.0,0.0,0.40819848,488.83002,0.0,0.0,0.0,0.0,0.0,0.0,inf,inf,inf,inf,1,1,1,1,0,0,0,0,1,1,0
695476000,0,47.3977508,8.5456074,0.35582376,-0.16559044,-10.490997,0.0,0.0,0.0,-0.03,0.0,-1.17,0.0,0.0,0.0,0.0,0.0,0.0,0.0,0.40826115,488.83002,0.0,0.0,0.0,0.0,0.0,0.0,inf,inf,inf,inf,1,1,1,1,0,0,0,0,1,1,0
695580000,0,47.3977508,8.5456074,0.35582376,-0.16559044,-10.610992,0.0,0.0,0.0,-0.03,0.0,-1.12,0.0,0.0,0.0,0.0,0.0,0.0,0.0,0.40825513,488.83002,0.0,0.0,0.0,0.0,0.0,0.0,inf,inf,inf,inf,1,1,1,1,0,0,0,0,1,1,0
695680000,0,47.3977508,8.5456074,0.34470427,-0.16559044,-10.721008,0.0,0.0,0.0,-0.03,0.0,-1.09,0.0,0.0,0.0,0.0,0.0,0.0,0.0,0.40823054,488.83002,0.0,0.0,0.0,0.0,0.0,0.0,inf,inf,inf,inf,1,1,1,1,0,0,0,0,1,1,0
695780000,0,47.3977508,8.5456074,0.34470427,-0.16559044,-10.82901,0.0,0.0,0.0,-0.03,0.0,-1.05,0.0,0.0,0.0,0.0,0.0,0.0,0.0,0.40818167,488.83002,0.0,0.0,0.0,0.0,0.0,0.0,inf,inf,inf,inf,1,1,1,1,0,0,0,0,1,1,0
695880000,0,47.3977508,8.5456074,0.34470427,-0.16559044,-10.933014,0.0,0.0,0.0,-0.03,0.0,-1.02,0.0,0.0,0.0,0.0,0.0,0.0,0.0,0.4082562,488.83002,0.0,0.0,0.0,0.0,0.0,0.0,inf,inf,inf,inf,1,1,1,1,0,0,0,0,1,1,0
695976000,0,47.3977508,8.5456074,0.3335848,-0.16559044,-11.029999,0.0,0.0,0.0,-0.03,0.0,-0.98999995,0.0,0.0,0.0,0.0,0.0,0.0,0.0,0.40823972,488.83002,0.0,0.0,0.0,0.0,0.0,0.0,inf,inf,inf,inf,1,1,1,1,0,0,0,0,1,1,0
696076000,0,47.3977508,8.5456074,0.3335848,-0.16559044,-11.127014,0.0,0.0,0.0,-0.03,0.0,-0.96,0.0,0.0,0.0,0.0,0.0,0.0,0.0,0.40821978,488.83002,0.0,0.0,0.0,0.0,0.0,0.0,inf,inf,inf,inf,1,1,1,1,0,0,0,0,1,1,0
696180000,0,47.3977508,8.5456074,0.3335848,-0.16559044,-11.226013,0.0,0.0,0.0,-0.03,0.0,-0.93,0.0,0.0,0.0,0.0,0.0,0.0,0.0,0.40829724,488.83002,0.0,0.0,0.0,0.0,0.0,0.0,inf,inf,inf,inf,1,1,1,1,0,0,0,0,1,1,0
696280000,0,47.3977508,8.5456074,0.3335848,-0.16559044,-11.315002,0.0,0.0,0.0,-0.03,0.0,-0.90999997,0.0,0.0,0.0,0.0,0.0,0.0,0.0,0.40824616,488.83002,0.0,0.0,0.0,0.0,0.0,0.0,inf,inf,inf,inf,1,1,1,1,0,0,0,0,1,1,0
696380000,0,47.3977508,8.5456074,0.3224653,-0.16559044,-11.40802,0.0,0.0,0.0,-0.02,0.0,-0.88,0.0,0.0,0.0,0.0,0.0,0.0,0.0,0.40827602,488.83002,0.0,0.0,0.0,0.0,0.0,0.0,inf,inf,inf,inf,1,1,1,1,0,0,0,0,1,1,0
696480000,0,47.3977508,8.5456074,0.3224653,-0.16559044,-11.492004,0.0,0.0,0.0,-0.02,0.0,-0.84999996,0.0,0.0,0.0,0.0,0.0,0.0,0.0,0.4082395,488.83002,0.0,0.0,0.0,0.0,0.0,0.0,inf,inf,inf,inf,1,1,1,1,0,0,0,0,1,1,0
696580000,0,47.3977508,8.5456074,0.3224653,-0.16559044,-11.580017,0.0,0.0,0.0,-0.02,0.0,-0.83,0.0,0.0,0.0,0.0,0.0,0.0,0.0,0.4081566,488.83002,0.0,0.0,0.0,0.0,0.0,0.0,inf,inf,inf,inf,1,1,1,1,0,0,0,0,1,1,0
696680000,0,47.3977508,8.5456074,0.3224653,-0.16559044,-11.662018,0.0,0.0,0.0,-0.02,0.0,-0.81,0.0,0.0,0.0,0.0,0.0,0.0,0.0,0.40809342,488.83002,0.0,0.0,0.0,0.0,0.0,0.0,inf,inf,inf,inf,1,1,1,1,0,0,0,0,1,1,0
696780000,0,47.3977508,8.5456074,0.3113458,-0.16559044,-11.743011,0.0,0.0,0.0,-0.02,0.0,-0.78999996,0.0,0.0,0.0,0.0,0.0,0.0,0.0,0.40804255,488.83002,0.0,0.0,0.0,0.0,0.0,0.0,inf,inf,inf,inf,1,1,1,1,0,0,0,0,1,1,0
696880000,0,47.3977508,8.5456074,0.3113458,-0.16559044,-11.821014,0.0,0.0,0.0,-0.01,0.0,-0.76,0.0,0.0,0.0,0.0,0.0,0.0,0.0,0.40793756,488.83002,0.0,0.0,0.0,0.0,0.0,0.0,inf,inf,inf,inf,1,1,1,1,0,0,0,0,1,1,0
696976000,0,47.3977508,8.5456074,0.3113458,-0.16559044,-11.893005,0.0,0.0,0.0,-0.01,0.0,-0.74,0.0,0.0,0.0,0.0,0.0,0.0,0.0,0.4078974,488.83002,0.0,0.0,0.0,0.0,0.0,0.0,inf,inf,inf,inf,1,1,1,1,0,0,0,0,1,1,0
697080000,0,47.3977508,8.5456074,0.3113458,-0.17311728,-11.968994,0.0,0.0,0.0,-0.01,0.0,-0.71,0.0,0.0,0.0,0.0,0.0,0.0,0.0,0.40787905,488.83002,0.0,0.0,0.0,0.0,0.0,0.0,inf,inf,inf,inf,1,1,1,1,0,0,0,0,1,1,0
697180000,0,47.3977508,8.5456074,0.3113458,-0.17311728,-12.040009,0.0,0.0,0.0,-0.01,0.0,-0.69,0.0,0.0,0.0,0.0,0.0,0.0,0.0,0.4078269,488.83002,0.0,0.0,0.0,0.0,0.0,0.0,inf,inf,inf,inf,1,1,1,1,0,0,0,0,1,1,0
697280000,0,47.3977508,8.5456074,0.3113458,-0.17311728,-12.109009,0.0,0.0,0.0,-0.01,0.0,-0.66999996,0.0,0.0,0.0,0.0,0.0,0.0,0.0,0.4078261,488.83002,0.0,0.0,0.0,0.0,0.0,0.0,inf,inf,inf,inf,1,1,1,1,0,0,0,0,1,1,0
697380000,0,47.3977508,8.5456074,0.3113458,-0.17311728,-12.175995,0.0,0.0,0.0,-0.01,0.0,-0.65,0.0,0.0,0.0,0.0,0.0,0.0,0.0,0.4078936,488.83002,0.0,0.0,0.0,0.0,0.0,0.0,inf,inf,inf,inf,1,1,1,1,0,0,0,0,1,1,0
697480000,0,47.3977508,8.5456074,0.3002263,-0.17311728,-12.240021,0.0,0.0,0.0,0.0,0.0,-0.63,0.0,0.0,0.0,0.0,0.0,0.0,0.0,0.40795952,488.83002,0.0,0.0,0.0,0.0,0.0,0.0,inf,inf,inf,inf,1,1,1,1,0,0,0,0,1,1,0
697580000,0,47.3977508,8.5456074,0.3002263,-0.17311728,-12.303009,0.0,0.0,0.0,0.0,0.0,-0.61,0.0,0.0,0.0,0.0,0.0,0.0,0.0,0.40804568,488.83002,0.0,0.0,0.0,0.0,0.0,0.0,inf,inf,inf,inf,1,1,1,1,0,0,0,0,1,1,0
697680000,0,47.3977508,8.5456074,0.3002263,-0.17311728,-12.364014,0.0,0.0,0.0,0.0,0.0,-0.59999996,0.0,0.0,0.0,0.0,0.0,0.0,0.0,0.4080646,488.83002,0.0,0.0,0.0,0.0,0.0,0.0,inf,inf,inf,inf,1,1,1,1,0,0,0,0,1,1,0
697776000,0,47.3977508,8.5456074,0.3002263,-0.17311728,-12.4210205,0.0,0.0,0.0,0.0,0.0,-0.57,0.0,0.0,0.0,0.0,0.0,0.0,0.0,0.40811986,488.83002,0.0,0.0,0.0,0.0,0.0,0.0,inf,inf,inf,inf,1,1,1,1,0,0,0,0,1,1,0
697876000,0,47.3977508,8.5456074,0.3002263,-0.17311728,-12.477997,0.0,0.0,0.0,0.0,0.0,-0.55,0.0,0.0,0.0,0.0,0.0,0.0,0.0,0.40813848,488.83002,0.0,0.0,0.0,0.0,0.0,0.0,inf,inf,inf,inf,1,1,1,1,0,0,0,0,1,1,0
697980000,0,47.3977508,8.5456074,0.3002263,-0.17311728,-12.535004,0.0,0.0,0.0,0.0,0.0,-0.53,0.0,0.0,0.0,0.0,0.0,0.0,0.0,0.4081472,488.83002,0.0,0.0,0.0,0.0,0.0,0.0,inf,inf,inf,inf,1,1,1,1,0,0,0,0,1,1,0
698076000,0,47.3977508,8.5456074,0.3002263,-0.17311728,-12.584015,0.0,0.0,0.0,0.0,0.0,-0.52,0.0,0.0,0.0,0.0,0.0,0.0,0.0,0.40824088,488.83002,0.0,0.0,0.0,0.0,0.0,0.0,inf,inf,inf,inf,1,1,1,1,0,0,0,0,1,1,0
698180000,0,47.3977508,8.5456074,0.3002263,-0.17311728,-12.639008,0.0,0.0,0.0,0.0,0.0,-0.5,0.0,0.0,0.0,0.0,0.0,0.0,0.0,0.40835458,488.83002,0.0,0.0,0.0,0.0,0.0,0.0,inf,inf,inf,inf,1,1,1,1,0,0,0,0,1,1,0
698280000,0,47.3977508,8.5456074,0.3113458,-0.17311728,-12.688019,0.0,0.0,0.0,0.0,0.0,-0.48999998,0.0,0.0,0.0,0.0,0.0,0.0,0.0,0.40850428,488.83002,0.0,0.0,0.0,0.0,0.0,0.0,inf,inf,inf,inf,1,1,1,1,0,0,0,0,1,1,0
698376000,0,47.3977508,8.5456074,0.3113458,-0.17311728,-12.7369995,0.0,0.0,0.0,0.0,0.0,-0.48,0.0,0.0,0.0,0.0,0.0,0.0,0.0,0.4086588,488.83002,0.0,0.0,0.0,0.0,0.0,0.0,inf,inf,inf,inf,1,1,1,1,0,0,0,0,1,1,0
698476000,0,47.3977508,8.5456074,0.3113458,-0.17311728,-12.785004,0.0,0.0,0.0,0.01,0.0,-0.47,0.0,0.0,0.0,0.0,0.0,0.0,0.0,0.4086623,488.83002,0.0,0.0,0.0,0.0,0.0,0.0,inf,inf,inf,inf,1,1,1,1,0,0,0,0,1,1,0
698580000,0,47.3977508,8.5456074,0.3113458,-0.17311728,-12.830994,0.0,0.0,0.0,0.01,0.0,-0.45999998,0.0,0.0,0.0,0.0,0.0,0.0,0.0,0.40860426,488.83002,0.0,0.0,0.0,0.0,0.0,0.0,inf,inf,inf,inf,1,1,1,1,0,0,0,0,1,1,0
698680000,0,47.3977508,8.5456074,0.3113458,-0.17311728,-12.878998,0.0,0.0,0.0,0.01,0.0,-0.45,0.0,0.0,0.0,0.0,0.0,0.0,0.0,0.40858275,488.83002,0.0,0.0,0.0,0.0,0.0,0.0,inf,inf,inf,inf,1,1,1,1,0,0,0,0,1,1,0
698780000,0,47.3977508,8.5456074,0.3113458,-0.17311728,-12.923004,0.0,0.0,0.0,0.0,0.0,-0.42999998,0.0,0.0,0.0,0.0,0.0,0.0,0.0,0.4086524,488.83002,0.0,0.0,0.0,0.0,0.0,0.0,inf,inf,inf,inf,1,1,1,1,0,0,0,0,1,1,0
698880000,0,47.3977508,8.5456074,0.3113458,-0.17311728,-12.9670105,0.0,0.0,0.0,0.0,0.0,-0.42,0.0,0.0,0.0,0.0,0.0,0.0,0.0,0.40872094,488.83002,0.0,0.0,0.0,0.0,0.0,0.0,inf,inf,inf,inf,1,1,1,1,0,0,0,0,1,1,0
698980000,0,47.3977508,8.5456074,0.3113458,-0.17311728,-13.009003,0.0,0.0,0.0,0.0,0.0,-0.41,0.0,0.0,0.0,0.0,0.0,0.0,0.0,0.4087395,488.83002,0.0,0.0,0.0,0.0,0.0,0.0,inf,inf,inf,inf,1,1,1,1,0,0,0,0,1,1,0
699080000,0,47.3977508,8.5456074,0.3113458,-0.17311728,-13.049011,0.0,0.0,0.0,0.0,0.0,-0.39999998,0.0,0.0,0.0,0.0,0.0,0.0,0.0,0.4087663,488.83002,0.0,0.0,0.0,0.0,0.0,0.0,inf,inf,inf,inf,1,1,1,1,0,0,0,0,1,1,0
699180000,0,47.3977508,8.5456074,0.3113458,-0.17311728,-13.089996,0.0,0.0,0.0,0.0,0.0,-0.39,0.0,0.0,0.0,0.0,0.0,0.0,0.0,0.40876305,488.83002,0.0,0.0,0.0,0.0,0.0,0.0,inf,inf,inf,inf,1,1,1,1,0,0,0,0,1,1,0
699280000,0,47.3977508,8.5456074,0.3113458,-0.17311728,-13.128998,0.0,0.0,0.0,0.0,0.0,-0.37,0.0,0.0,0.0,0.0,0.0,0.0,0.0,0.4087654,488.83002,0.0,0.0,0.0,0.0,0.0,0.0,inf,inf,inf,inf,1,1,1,1,0,0,0,0,1,1,0
699380000,0,47.3977508,8.5456074,0.3113458,-0.17311728,-13.166016,0.0,0.0,0.0,0.0,0.0,-0.35999998,0.0,0.0,0.0,0.0,0.0,0.0,0.0,0.408849,488.83002,0.0,0.0,0.0,0.0,0.0,0.0,inf,inf,inf,inf,1,1,1,1,0,0,0,0,1,1,0
699480000,0,47.3977508,8.5456074,0.3113458,-0.17311728,-13.201996,0.0,0.0,0.0,0.0,0.0,-0.35,0.0,0.0,0.0,0.0,0.0,0.0,0.0,0.40878284,488.83002,0.0,0.0,0.0,0.0,0.0,0.0,inf,inf,inf,inf,1,1,1,1,0,0,0,0,1,1,0
699576000,0,47.3977508,8.5456074,0.3113458,-0.17311728,-13.235992,0.0,0.0,0.0,0.0,0.0,-0.34,0.0,0.0,0.0,0.0,0.0,0.0,0.0,0.40864822,488.83002,0.0,0.0,0.0,0.0,0.0,0.0,inf,inf,inf,inf,1,1,1,1,0,0,0,0,1,1,0
699680000,0,47.3977508,8.5456074,0.3113458,-0.17311728,-13.272003,0.0,0.0,0.0,0.0,0.0,-0.32999998,0.0,0.0,0.0,0.0,0.0,0.0,0.0,0.40862665,488.83002,0.0,0.0,0.0,0.0,0.0,0.0,inf,inf,inf,inf,1,1,1,1,0,0,0,0,1,1,0
699780000,0,47.3977508,8.5456074,0.3113458,-0.17311728,-13.304993,0.0,0.0,0.0,0.0,0.0,-0.32,0.0,0.0,0.0,0.0,0.0,0.0,0.0,0.40863633,488.83002,0.0,0.0,0.0,0.0,0.0,0.0,inf,inf,inf,inf,1,1,1,1,0,0,0,0,1,1,0
699880000,0,47.3977508,8.5456074,0.3113458,-0.17311728,-13.338013,0.0,0.0,0.0,0.0,0.0,-0.31,0.0,0.0,0.0,0.0,0.0,0.0,0.0,0.40873012,488.83002,0.0,0.0,0.0,0.0,0.0,0.0,inf,inf,inf,inf,1,1,1,1,0,0,0,0,1,1,0
699980000,0,47.3977508,8.5456074,0.3113458,-0.17311728,-13.369019,0.0,0.0,0.0,0.0,0.0,-0.29999998,0.0,0.0,0.0,0.0,0.0,0.0,0.0,0.40878814,488.83002,0.0,0.0,0.0,0.0,0.0,0.0,inf,inf,inf,inf,1,1,1,1,0,0,0,0,1,1,0
700080000,0,47.3977508,8.5456074,0.3113458,-0.17311728,-13.399017,0.0,0.0,0.0,0.0,0.0,-0.29,0.0,0.0,0.0,0.0,0.0,0.0,0.0,0.4088753,488.83002,0.0,0.0,0.0,0.0,0.0,0.0,inf,inf,inf,inf,1,1,1,1,0,0,0,0,1,1,0
700180000,0,47.3977508,8.5456074,0.3113458,-0.17311728,-13.429016,0.0,0.0,0.0,0.0,0.0,-0.29,0.0,0.0,0.0,0.0,0.0,0.0,0.0,0.4089143,488.83002,0.0,0.0,0.0,0.0,0.0,0.0,inf,inf,inf,inf,1,1,1,1,0,0,0,0,1,1,0
700280000,0,47.3977508,8.5456074,0.3113458,-0.17311728,-13.457001,0.0,0.0,0.0,0.0,0.0,-0.28,0.0,0.0,0.0,0.0,0.0,0.0,0.0,0.4089027,488.83002,0.0,0.0,0.0,0.0,0.0,0.0,inf,inf,inf,inf,1,1,1,1,0,0,0,0,1,1,0
700376000,0,47.3977508,8.5456074,0.3113458,-0.17311728,-13.484009,0.0,0.0,0.0,0.0,0.0,-0.26999998,0.0,0.0,0.0,0.0,0.0,0.0,0.0,0.40886337,488.83002,0.0,0.0,0.0,0.0,0.0,0.0,inf,inf,inf,inf,1,1,1,1,0,0,0,0,1,1,0
700480000,0,47.3977508,8.5456074,0.3113458,-0.17311728,-13.511017,0.0,0.0,0.0,0.0,0.0,-0.26,0.0,0.0,0.0,0.0,0.0,0.0,0.0,0.408866,488.83002,0.0,0.0,0.0,0.0,0.0,0.0,inf,inf,inf,inf,1,1,1,1,0,0,0,0,1,1,0
700580000,0,47.3977508,8.5456074,0.3113458,-0.17311728,-13.537994,0.0,0.0,0.0,0.0,0.0,-0.25,0.0,0.0,0.0,0.0,0.0,0.0,0.0,0.4088955,488.83002,0.0,0.0,0.0,0.0,0.0,0.0,inf,inf,inf,inf,1,1,1,1,0,0,0,0,1,1,0
700680000,0,47.3977508,8.5456074,0.3113458,-0.17311728,-13.562012,0.0,0.0,0.0,0.0,0.0,-0.24,0.0,0.0,0.0,0.0,0.0,0.0,0.0,0.4089771,488.83002,0.0,0.0,0.0,0.0,0.0,0.0,inf,inf,inf,inf,1,1,1,1,0,0,0,0,1,1,0
700780000,0,47.3977508,8.5456074,0.3113458,-0.17311728,-13.585999,0.0,0.0,0.0,0.0,0.0,-0.22999999,0.0,0.0,0.0,0.0,0.0,0.0,0.0,0.40892872,488.83002,0.0,0.0,0.0,0.0,0.0,0.0,inf,inf,inf,inf,1,1,1,1,0,0,0,0,1,1,0
700880000,0,47.3977508,8.5456074,0.3113458,-0.18064412,-13.610016,0.0,0.0,0.0,0.0,0.0,-0.22,0.0,0.0,0.0,0.0,0.0,0.0,0.0,0.40890568,488.83002,0.0,0.0,0.0,0.0,0.0,0.0,inf,inf,inf,inf,1,1,1,1,0,0,0,0,1,1,0
700980000,0,47.3977508,8.5456074,0.3113458,-0.18064412,-13.632019,0.0,0.0,0.0,0.0,0.0,-0.21,0.0,0.0,0.0,0.0,0.0,0.0,0.0,0.40893355,488.83002,0.0,0.0,0.0,0.0,0.0,0.0,inf,inf,inf,inf,1,1,1,1,0,0,0,0,1,1,0
701080000,0,47.3977508,8.5456074,0.3113458,-0.18064412,-13.653015,0.0,0.0,0.0,0.0,0.0,-0.19999999,0.0,0.0,0.0,0.0,0.0,0.0,0.0,0.4088122,488.83002,0.0,0.0,0.0,0.0,0.0,0.0,inf,inf,inf,inf,1,1,1,1,0,0,0,0,1,1,0
701180000,0,47.3977508,8.5456074,0.3113458,-0.18064412,-13.673004,0.0,0.0,0.0,0.0,0.0,-0.19,0.0,0.0,0.0,0.0,0.0,0.0,0.0,0.40866122,488.83002,0.0,0.0,0.0,0.0,0.0,0.0,inf,inf,inf,inf,1,1,1,1,0,0,0,0,1,1,0
701280000,0,47.3977508,8.5456074,0.3002263,-0.18064412,-13.692017,0.0,0.0,0.0,0.0,0.0,-0.17999999,0.0,0.0,0.0,0.0,0.0,0.0,0.0,0.40860403,488.83002,0.0,0.0,0.0,0.0,0.0,0.0,inf,inf,inf,inf,1,1,1,1,0,0,0,0,1,1,0
701380000,0,47.3977508,8.5456074,0.3002263,-0.18064412,-13.710999,0.0,0.0,0.0,0.0,0.0,-0.17999999,0.0,0.0,0.0,0.0,0.0,0.0,0.0,0.40854663,488.83002,0.0,0.0,0.0,0.0,0.0,0.0,inf,inf,inf,inf,1,1,1,1,0,0,0,0,1,1,0
701480000,0,47.3977508,8.5456074,0.3002263,-0.18064412,-13.727997,0.0,0.0,0.0,0.0,0.0,-0.17,0.0,0.0,0.0,0.0,0.0,0.0,0.0,0.40864706,488.83002,0.0,0.0,0.0,0.0,0.0,0.0,inf,inf,inf,inf,1,1,1,1,0,0,0,0,1,1,0
701580000,0,47.3977508,8.5456074,0.3002263,-0.18064412,-13.746002,0.0,0.0,0.0,0.0,0.0,-0.17,0.0,0.0,0.0,0.0,0.0,0.0,0.0,0.40878096,488.83002,0.0,0.0,0.0,0.0,0.0,0.0,inf,inf,inf,inf,1,1,1,1,0,0,0,0,1,1,0
701676000,0,47.3977508,8.5456074,0.3002263,-0.18064412,-13.7630005,0.0,0.0,0.0,0.0,0.0,-0.17,0.0,0.0,0.0,0.0,0.0,0.0,0.0,0.4089083,488.83002,0.0,0.0,0.0,0.0,0.0,0.0,inf,inf,inf,inf,1,1,1,1,0,0,0,0,1,1,0
701780000,0,47.3977508,8.5456074,0.3002263,-0.18064412,-13.779999,0.0,0.0,0.0,0.0,0.0,-0.16,0.0,0.0,0.0,0.0,0.0,0.0,0.0,0.40888673,488.83002,0.0,0.0,0.0,0.0,0.0,0.0,inf,inf,inf,inf,1,1,1,1,0,0,0,0,1,1,0
701876000,0,47.3977508,8.5456074,0.3002263,-0.18064412,-13.7960205,0.0,0.0,0.0,0.0,0.0,-0.14999999,0.0,0.0,0.0,0.0,0.0,0.0,0.0,0.40879974,488.83002,0.0,0.0,0.0,0.0,0.0,0.0,inf,inf,inf,inf,1,1,1,1,0,0,0,0,1,1,0
701976000,0,47.3977508,8.5456074,0.3002263,-0.18064412,-13.811005,0.0,0.0,0.0,0.0,0.0,-0.14999999,0.0,0.0,0.0,0.0,0.0,0.0,0.0,0.40880334,488.83002,0.0,0.0,0.0,0.0,0.0,0.0,inf,inf,inf,inf,1,1,1,1,0,0,0,0,1,1,0
702080000,0,47.3977508,8.5456074,0.3002263,-0.18064412,-13.826996,0.0,0.0,0.0,0.0,0.0,-0.14,0.0,0.0,0.0,0.0,0.0,0.0,0.0,0.40874565,488.83002,0.0,0.0,0.0,0.0,0.0,0.0,inf,inf,inf,inf,1,1,1,1,0,0,0,0,1,1,0
702180000,0,47.3977508,8.5456074,0.3002263,-0.18064412,-13.8420105,0.0,0.0,0.0,0.0,0.0,-0.14,0.0,0.0,0.0,0.0,0.0,0.0,0.0,0.40867388,488.83002,0.0,0.0,0.0,0.0,0.0,0.0,inf,inf,inf,inf,1,1,1,1,0,0,0,0,1,1,0
702280000,0,47.3977508,8.5456074,0.3002263,-0.18064412,-13.855011,0.0,0.0,0.0,0.0,0.0,-0.13,0.0,0.0,0.0,0.0,0.0,0.0,0.0,0.40868926,488.83002,0.0,0.0,0.0,0.0,0.0,0.0,inf,inf,inf,inf,1,1,1,1,0,0,0,0,1,1,0
702380000,0,47.3977508,8.5456074,0.3002263,-0.18064412,-13.869019,0.0,0.0,0.0,0.0,0.0,-0.12,0.0,0.0,0.0,0.0,0.0,0.0,0.0,0.40881404,488.83002,0.0,0.0,0.0,0.0,0.0,0.0,inf,inf,inf,inf,1,1,1,1,0,0,0,0,1,1,0
702476000,0,47.3977508,8.5456074,0.3002263,-0.17311728,-13.881012,0.0,0.0,0.0,0.0,0.0,-0.12,0.0,0.0,0.0,0.0,0.0,0.0,0.0,0.40892184,488.83002,0.0,0.0,0.0,0.0,0.0,0.0,inf,inf,inf,inf,1,1,1,1,0,0,0,0,1,1,0
702580000,0,47.3977508,8.5456074,0.3002263,-0.17311728,-13.894012,0.0,0.0,0.0,0.0,0.01,-0.12,0.0,0.0,0.0,0.0,0.0,0.0,0.0,0.40889224,488.83002,0.0,0.0,0.0,0.0,0.0,0.0,inf,inf,inf,inf,1,1,1,1,0,0,0,0,1,1,0
702680000,0,47.3977508,8.5456074,0.3002263,-0.17311728,-13.906006,0.0,0.0,0.0,0.0,0.01,-0.12,0.0,0.0,0.0,0.0,0.0,0.0,0.0,0.40883958,488.83002,0.0,0.0,0.0,0.0,0.0,0.0,inf,inf,inf,inf,1,1,1,1,0,0,0,0,1,1,0
702780000,0,47.3977508,8.5456074,0.3002263,-0.17311728,-13.917999,0.0,0.0,0.0,0.0,0.01,-0.11,0.0,0.0,0.0,0.0,0.0,0.0,0.0,0.4087823,488.83002,0.0,0.0,0.0,0.0,0.0,0.0,inf,inf,inf,inf,1,1,1,1,0,0,0,0,1,1,0
702880000,0,47.3977508,8.5456074,0.3002263,-0.17311728,-13.929016,0.0,0.0,0.0,0.0,0.01,-0.11,0.0,0.0,0.0,0.0,0.0,0.0,0.0,0.4087079,488.83002,0.0,0.0,0.0,0.0,0.0,0.0,inf,inf,inf,inf,1,1,1,1,0,0,0,0,1,1,0
702980000,0,47.3977508,8.5456074,0.3002263,-0.17311728,-13.938995,0.0,0.0,0.0,0.0,0.01,-0.099999994,0.0,0.0,0.0,0.0,0.0,0.0,0.0,0.40874082,488.83002,0.0,0.0,0.0,0.0,0.0,0.0,inf,inf,inf,inf,1,1,1,1,0,0,0,0,1,1,0
703080000,0,47.3977508,8.5456074,0.3002263,-0.16559044,-13.950012,0.0,0.0,0.0,0.0,0.01,-0.099999994,0.0,0.0,0.0,0.0,0.0,0.0,0.0,0.40874916,488.83002,0.0,0.0,0.0,0.0,0.0,0.0,inf,inf,inf,inf,1,1,1,1,0,0,0,0,1,1,0
703176000,0,47.3977508,8.5456074,0.3002263,-0.16559044,-13.960022,0.0,0.0,0.0,0.0,0.01,-0.099999994,0.0,0.0,0.0,0.0,0.0,0.0,0.0,0.40874252,488.83002,0.0,0.0,0.0,0.0,0.0,0.0,inf,inf,inf,inf,1,1,1,1,0,0,0,0,1,1,0
703276000,0,47.3977508,8.5456074,0.3002263,-0.16559044,-13.970001,0.0,0.0,0.0,0.0,0.01,-0.089999996,0.0,0.0,0.0,0.0,0.0,0.0,0.0,0.4088341,488.83002,0.0,0.0,0.0,0.0,0.0,0.0,inf,inf,inf,inf,1,1,1,1,0,0,0,0,1,1,0
703380000,0,47.3977508,8.5456074,0.3002263,-0.16559044,-13.979004,0.0,0.0,0.0,-0.01,0.01,-0.089999996,0.0,0.0,0.0,0.0,0.0,0.0,0.0,0.40884528,488.83002,0.0,0.0,0.0,0.0,0.0,0.0,inf,inf,inf,inf,1,1,1,1,0,0,0,0,1,1,0
703480000,0,47.3977508,8.5456074,0.28910682,-0.1580636,-13.989014,0.0,0.0,0.0,-0.01,0.01,-0.08,0.0,0.0,0.0,0.0,0.0,0.0,0.0,0.40884575,488.83002,0.0,0.0,0.0,0.0,0.0,0.0,inf,inf,inf,inf,1,1,1,1,0,0,0,0,1,1,0
703580000,0,47.3977508,8.5456074,0.28910682,-0.1580636,-13.998016,0.0,0.0,0.0,-0.01,0.01,-0.08,0.0,0.0,0.0,0.0,0.0,0.0,0.0,0.40898436,488.83002,0.0,0.0,0.0,0.0,0.0,0.0,inf,inf,inf,inf,1,1,1,1,0,0,0,0,1,1,0
703676000,0,47.3977508,8.5456074,0.28910682,-0.1580636,-14.006012,0.0,0.0,0.0,-0.01,0.01,-0.08,0.0,0.0,0.0,0.0,0.0,0.0,0.0,0.40910125,488.83002,0.0,0.0,0.0,0.0,0.0,0.0,inf,inf,inf,inf,1,1,1,1,0,0,0,0,1,1,0
703776000,0,47.3977508,8.5456074,0.28910682,-0.1580636,-14.014008,0.0,0.0,0.0,-0.01,0.01,-0.08,0.0,0.0,0.0,0.0,0.0,0.0,0.0,0.40900576,488.83002,0.0,0.0,0.0,0.0,0.0,0.0,inf,inf,inf,inf,1,1,1,1,0,0,0,0,1,1,0
703876000,0,47.3977508,8.5456074,0.28910682,-0.15053676,-14.022003,0.0,0.0,0.0,-0.01,0.01,-0.07,0.0,0.0,0.0,0.0,0.0,0.0,0.0,0.40890396,488.83002,0.0,0.0,0.0,0.0,0.0,0.0,inf,inf,inf,inf,1,1,1,1,0,0,0,0,1,1,0
703980000,0,47.3977508,8.5456074,0.28910682,-0.15053676,-14.028992,0.0,0.0,0.0,-0.02,0.01,-0.06,0.0,0.0,0.0,0.0,0.0,0.0,0.0,0.40898967,488.83002,0.0,0.0,0.0,0.0,0.0,0.0,inf,inf,inf,inf,1,1,1,1,0,0,0,0,1,1,0
704080000,0,47.3977508,8.5456074,0.27798733,-0.15053676,-14.036011,0.0,0.0,0.0,-0.02,0.01,-0.06,0.0,0.0,0.0,0.0,0.0,0.0,0.0,0.40905914,488.83002,0.0,0.0,0.0,0.0,0.0,0.0,inf,inf,inf,inf,1,1,1,1,0,0,0,0,1,1,0
704176000,0,47.3977508,8.5456074,0.27798733,-0.15053676,-14.041992,0.0,0.0,0.0,-0.02,0.01,-0.049999997,0.0,0.0,0.0,0.0,0.0,0.0,0.0,0.40902713,488.83002,0.0,0.0,0.0,0.0,0.0,0.0,inf,inf,inf,inf,1,1,1,1,0,0,0,0,1,1,0
704280000,0,47.3977508,8.5456074,0.27798733,-0.15053676,-14.048004,0.0,0.0,0.0,-0.02,0.0,-0.049999997,0.0,0.0,0.0,0.0,0.0,0.0,0.0,0.40907928,488.83002,0.0,0.0,0.0,0.0,0.0,0.0,inf,inf,inf,inf,1,1,1,1,0,0,0,0,1,1,0
704380000,0,47.3977508,8.5456074,0.27798733,-0.15053676,-14.053009,0.0,0.0,0.0,-0.02,0.0,-0.049999997,0.0,0.0,0.0,0.0,0.0,0.0,0.0,0.4091104,488.83002,0.0,0.0,0.0,0.0,0.0,0.0,inf,inf,inf,inf,1,1,1,1,0,0,0,0,1,1,0
704476000,0,47.3977508,8.5456074,0.27798733,-0.15053676,-14.058014,0.0,0.0,0.0,-0.02,0.0,-0.04,0.0,0.0,0.0,0.0,0.0,0.0,0.0,0.40907118,488.83002,0.0,0.0,0.0,0.0,0.0,0.0,inf,inf,inf,inf,1,1,1,1,0,0,0,0,1,1,0
704576000,0,47.3977508,8.5456074,0.26686782,-0.14300993,-14.063019,0.0,0.0,0.0,-0.02,0.0,-0.04,0.0,0.0,0.0,0.0,0.0,0.0,0.0,0.40911603,488.83002,0.0,0.0,0.0,0.0,0.0,0.0,inf,inf,inf,inf,1,1,1,1,0,0,0,0,1,1,0
704680000,0,47.3977508,8.5456074,0.26686782,-0.14300993,-14.067017,0.0,0.0,0.0,-0.02,0.0,-0.04,0.0,0.0,0.0,0.0,0.0,0.0,0.0,0.4089599,488.83002,0.0,0.0,0.0,0.0,0.0,0.0,inf,inf,inf,inf,1,1,1,1,0,0,0,0,1,1,0
704780000,0,47.3977508,8.5456074,0.26686782,-0.14300993,-14.0720215,0.0,0.0,0.0,-0.02,0.0,-0.04,0.0,0.0,0.0,0.0,0.0,0.0,0.0,0.40887228,488.83002,0.0,0.0,0.0,0.0,0.0,0.0,inf,inf,inf,inf,1,1,1,1,0,0,0,0,1,1,0
704880000,0,47.3977508,8.5456074,0.26686782,-0.14300993,-14.076996,0.0,0.0,0.0,-0.02,0.0,-0.04,0.0,0.0,0.0,0.0,0.0,0.0,0.0,0.40877742,488.83002,0.0,0.0,0.0,0.0,0.0,0.0,inf,inf,inf,inf,1,1,1,1,0,0,0,0,1,1,0
704980000,0,47.3977508,8.5456074,0.26686782,-0.14300993,-14.080994,0.0,0.0,0.0,-0.02,0.0,-0.04,0.0,0.0,0.0,0.0,0.0,0.0,0.0,0.40876576,488.83002,0.0,0.0,0.0,0.0,0.0,0.0,inf,inf,inf,inf,1,1,1,1,0,0,0,0,1,1,0
705080000,0,47.3977508,8.5456074,0.26686782,-0.14300993,-14.085022,0.0,0.0,0.0,-0.02,0.0,-0.03,0.0,0.0,0.0,0.0,0.0,0.0,0.0,0.40865004,488.83002,0.0,0.0,0.0,0.0,0.0,0.0,inf,inf,inf,inf,1,1,1,1,0,0,0,0,1,1,0
705180000,0,47.3977508,8.5456074,0.25574833,-0.14300993,-14.08902,0.0,0.0,0.0,-0.01,0.0,-0.03,0.0,0.0,0.0,0.0,0.0,0.0,0.0,0.40851134,488.83002,0.0,0.0,0.0,0.0,0.0,0.0,inf,inf,inf,inf,1,1,1,1,0,0,0,0,1,1,0
705280000,0,47.3977508,8.5456074,0.25574833,-0.14300993,-14.0920105,0.0,0.0,0.0,-0.01,0.0,-0.03,0.0,0.0,0.0,0.0,0.0,0.0,0.0,0.4083862,488.83002,0.0,0.0,0.0,0.0,0.0,0.0,inf,inf,inf,inf,1,1,1,1,0,0,0,0,1,1,0
705380000,0,47.3977508,8.5456074,0.25574833,-0.14300993,-14.095001,0.0,0.0,0.0,-0.01,0.0,-0.03,0.0,0.0,0.0,0.0,0.0,0.0,0.0,0.4083353,488.83002,0.0,0.0,0.0,0.0,0.0,0.0,inf,inf,inf,inf,1,1,1,1,0,0,0,0,1,1,0
705480000,0,47.3977508,8.5456074,0.25574833,-0.14300993,-14.097992,0.0,0.0,0.0,-0.01,0.0,-0.03,0.0,0.0,0.0,0.0,0.0,0.0,0.0,0.4083981,488.83002,0.0,0.0,0.0,0.0,0.0,0.0,inf,inf,inf,inf,1,1,1,1,0,0,0,0,1,1,0
705576000,0,47.3977508,8.5456074,0.25574833,-0.14300993,-14.101013,0.0,0.0,0.0,-0.01,0.0,-0.02,0.0,0.0,0.0,0.0,0.0,0.0,0.0,0.40829465,488.83002,0.0,0.0,0.0,0.0,0.0,0.0,inf,inf,inf,inf,1,1,1,1,0,0,0,0,1,1,0
705680000,0,47.3977508,8.5456074,0.25574833,-0.14300993,-14.104004,0.0,0.0,0.0,-0.01,0.0,-0.02,0.0,0.0,0.0,0.0,0.0,0.0,0.0,0.40822744,488.83002,0.0,0.0,0.0,0.0,0.0,0.0,inf,inf,inf,inf,1,1,1,1,0,0,0,0,1,1,0
705780000,0,47.3977508,8.5456074,0.24462885,-0.14300993,-14.106995,0.0,0.0,0.0,-0.01,0.0,-0.02,0.0,0.0,0.0,0.0,0.0,0.0,0.0,0.40817094,488.83002,0.0,0.0,0.0,0.0,0.0,0.0,inf,inf,inf,inf,1,1,1,1,0,0,0,0,1,1,0
705880000,0,47.3977508,8.5456074,0.24462885,-0.14300993,-14.110016,0.0,0.0,0.0,-0.02,0.0,-0.02,0.0,0.0,0.0,0.0,0.0,0.0,0.0,0.40822607,488.83002,0.0,0.0,0.0,0.0,0.0,0.0,inf,inf,inf,inf,1,1,1,1,0,0,0,0,1,1,0
705976000,0,47.3977508,8.5456074,0.24462885,-0.14300993,-14.1119995,0.0,0.0,0.0,-0.02,0.0,-0.03,0.0,0.0,0.0,0.0,0.0,0.0,0.0,0.40816858,488.83002,0.0,0.0,0.0,0.0,0.0,0.0,inf,inf,inf,inf,1,1,1,1,0,0,0,0,1,1,0
706080000,0,47.3977508,8.5456074,0.24462885,-0.14300993,-14.115021,0.0,0.0,0.0,-0.02,0.0,-0.02,0.0,0.0,0.0,0.0,0.0,0.0,0.0,0.4081746,488.83002,0.0,0.0,0.0,0.0,0.0,0.0,inf,inf,inf,inf,1,1,1,1,0,0,0,0,1,1,0
706176000,0,47.3977508,8.5456074,0.24462885,-0.14300993,-14.118011,0.0,0.0,0.0,-0.02,0.0,-0.02,0.0,0.0,0.0,0.0,0.0,0.0,0.0,0.40816432,488.83002,0.0,0.0,0.0,0.0,0.0,0.0,inf,inf,inf,inf,1,1,1,1,0,0,0,0,1,1,0
706280000,0,47.3977508,8.5456074,0.23350935,-0.14300993,-14.121002,0.0,0.0,0.0,-0.02,0.0,-0.02,0.0,0.0,0.0,0.0,0.0,0.0,0.0,0.4081139,488.83002,0.0,0.0,0.0,0.0,0.0,0.0,inf,inf,inf,inf,1,1,1,1,0,0,0,0,1,1,0
706380000,0,47.3977508,8.5456074,0.23350935,-0.14300993,-14.123016,0.0,0.0,0.0,-0.02,0.0,-0.02,0.0,0.0,0.0,0.0,0.0,0.0,0.0,0.40799385,488.83002,0.0,0.0,0.0,0.0,0.0,0.0,inf,inf,inf,inf,1,1,1,1,0,0,0,0,1,1,0
706480000,0,47.3977508,8.5456074,0.23350935,-0.14300993,-14.126007,0.0,0.0,0.0,-0.02,0.0,-0.02,0.0,0.0,0.0,0.0,0.0,0.0,0.0,0.40781307,488.83002,0.0,0.0,0.0,0.0,0.0,0.0,inf,inf,inf,inf,1,1,1,1,0,0,0,0,1,1,0
706580000,0,47.3977508,8.5456074,0.23350935,-0.14300993,-14.128021,0.0,0.0,0.0,-0.02,0.0,-0.02,0.0,0.0,0.0,0.0,0.0,0.0,0.0,0.4077311,488.83002,0.0,0.0,0.0,0.0,0.0,0.0,inf,inf,inf,inf,1,1,1,1,0,0,0,0,1,1,0
706680000,0,47.3977508,8.5456074,0.22238986,-0.14300993,-14.131012,0.0,0.0,0.0,-0.02,0.0,-0.02,0.0,0.0,0.0,0.0,0.0,0.0,0.0,0.40765977,488.83002,0.0,0.0,0.0,0.0,0.0,0.0,inf,inf,inf,inf,1,1,1,1,0,0,0,0,1,1,0
706780000,0,47.3977508,8.5456074,0.22238986,-0.14300993,-14.132996,0.0,0.0,0.0,-0.02,0.0,-0.02,0.0,0.0,0.0,0.0,0.0,0.0,0.0,0.40764785,488.83002,0.0,0.0,0.0,0.0,0.0,0.0,inf,inf,inf,inf,1,1,1,1,0,0,0,0,1,1,0
706880000,0,47.3977508,8.5456074,0.22238986,-0.14300993,-14.136017,0.0,0.0,0.0,-0.02,0.0,-0.02,0.0,0.0,0.0,0.0,0.0,0.0,0.0,0.40766472,488.83002,0.0,0.0,0.0,0.0,0.0,0.0,inf,inf,inf,inf,1,1,1,1,0,0,0,0,1,1,0
706980000,0,47.3977508,8.5456074,0.22238986,-0.14300993,-14.139008,0.0,0.0,0.0,-0.02,0.0,-0.02,0.0,0.0,0.0,0.0,0.0,0.0,0.0,0.4075786,488.83002,0.0,0.0,0.0,0.0,0.0,0.0,inf,inf,inf,inf,1,1,1,1,0,0,0,0,1,1,0
707080000,0,47.3977508,8.5456074,0.21127036,-0.14300993,-14.141998,0.0,0.0,0.0,-0.02,0.0,-0.02,0.0,0.0,0.0,0.0,0.0,0.0,0.0,0.40745488,488.83002,0.0,0.0,0.0,0.0,0.0,0.0,inf,inf,inf,inf,1,1,1,1,0,0,0,0,1,1,0
707176000,0,47.3977508,8.5456074,0.21127036,-0.14300993,-14.144012,0.0,0.0,0.0,-0.02,0.0,-0.02,0.0,0.0,0.0,0.0,0.0,0.0,0.0,0.40746877,488.83002,0.0,0.0,0.0,0.0,0.0,0.0,inf,inf,inf,inf,1,1,1,1,0,0,0,0,1,1,0
707280000,0,47.3977508,8.5456074,0.21127036,-0.14300993,-14.147003,0.0,0.0,0.0,-0.02,0.0,-0.02,0.0,0.0,0.0,0.0,0.0,0.0,0.0,0.40756884,488.83002,0.0,0.0,0.0,0.0,0.0,0.0,inf,inf,inf,inf,1,1,1,1,0,0,0,0,1,1,0
707380000,0,47.3977508,8.5456074,0.20015088,-0.14300993,-14.149994,0.0,0.0,0.0,-0.02,0.0,-0.02,0.0,0.0,0.0,0.0,0.0,0.0,0.0,0.40777352,488.83002,0.0,0.0,0.0,0.0,0.0,0.0,inf,inf,inf,inf,1,1,1,1,0,0,0,0,1,1,0
707480000,0,47.3977508,8.5456074,0.20015088,-0.14300993,-14.153015,0.0,0.0,0.0,-0.02,0.0,-0.02,0.0,0.0,0.0,0.0,0.0,0.0,0.0,0.40795296,488.83002,0.0,0.0,0.0,0.0,0.0,0.0,inf,inf,inf,inf,1,1,1,1,0,0,0,0,1,1,0
707580000,0,47.3977508,8.5456074,0.20015088,-0.14300993,-14.154999,0.0,0.0,0.0,-0.02,0.0,-0.02,0.0,0.0,0.0,0.0,0.0,0.0,0.0,0.40802673,488.83002,0.0,0.0,0.0,0.0,0.0,0.0,inf,inf,inf,inf,1,1,1,1,0,0,0,0,1,1,0
707680000,0,47.3977508,8.5456074,0.20015088,-0.14300993,-14.15802,0.0,0.0,0.0,-0.02,0.0,-0.02,0.0,0.0,0.0,0.0,0.0,0.0,0.0,0.4079174,488.83002,0.0,0.0,0.0,0.0,0.0,0.0,inf,inf,inf,inf,1,1,1,1,0,0,0,0,1,1,0
707780000,0,47.3977508,8.5456074,0.20015088,-0.14300993,-14.160004,0.0,0.0,0.0,-0.02,0.0,-0.02,0.0,0.0,0.0,0.0,0.0,0.0,0.0,0.40779126,488.83002,0.0,0.0,0.0,0.0,0.0,0.0,inf,inf,inf,inf,1,1,1,1,0,0,0,0,1,1,0
707880000,0,47.3977508,8.5456074,0.18903138,-0.14300993,-14.162994,0.0,0.0,0.0,-0.02,0.0,-0.02,0.0,0.0,0.0,0.0,0.0,0.0,0.0,0.40771145,488.83002,0.0,0.0,0.0,0.0,0.0,0.0,inf,inf,inf,inf,1,1,1,1,0,0,0,0,1,1,0
707980000,0,47.3977508,8.5456074,0.18903138,-0.14300993,-14.165009,0.0,0.0,0.0,-0.02,0.0,-0.02,0.0,0.0,0.0,0.0,0.0,0.0,0.0,0.40769756,488.83002,0.0,0.0,0.0,0.0,0.0,0.0,inf,inf,inf,inf,1,1,1,1,0,0,0,0,1,1,0
708080000,0,47.3977508,8.5456074,0.18903138,-0.14300993,-14.167999,0.0,0.0,0.0,-0.01,0.0,-0.02,0.0,0.0,0.0,0.0,0.0,0.0,0.0,0.40778092,488.83002,0.0,0.0,0.0,0.0,0.0,0.0,inf,inf,inf,inf,1,1,1,1,0,0,0,0,1,1,0
708176000,0,47.3977508,8.5456074,0.18903138,-0.14300993,-14.170013,0.0,0.0,0.0,-0.01,0.0,-0.02,0.0,0.0,0.0,0.0,0.0,0.0,0.0,0.4077907,488.83002,0.0,0.0,0.0,0.0,0.0,0.0,inf,inf,inf,inf,1,1,1,1,0,0,0,0,1,1,0
708280000,0,47.3977508,8.5456074,0.18903138,-0.14300993,-14.173004,0.0,0.0,0.0,-0.01,0.0,-0.02,0.0,0.0,0.0,0.0,0.0,0.0,0.0,0.40780756,488.83002,0.0,0.0,0.0,0.0,0.0,0.0,inf,inf,inf,inf,1,1,1,1,0,0,0,0,1,1,0
708380000,0,47.3977508,8.5456074,0.17791188,-0.14300993,-14.175018,0.0,0.0,0.0,-0.01,0.0,-0.02,0.0,0.0,0.0,0.0,0.0,0.0,0.0,0.40790415,488.83002,0.0,0.0,0.0,0.0,0.0,0.0,inf,inf,inf,inf,1,1,1,1,0,0,0,0,1,1,0
708476000,0,47.3977508,8.5456074,0.17791188,-0.14300993,-14.178009,0.0,0.0,0.0,-0.01,0.0,-0.02,0.0,0.0,0.0,0.0,0.0,0.0,0.0,0.4080894,488.83002,0.0,0.0,0.0,0.0,0.0,0.0,inf,inf,inf,inf,1,1,1,1,0,0,0,0,1,1,0
708580000,0,47.3977508,8.5456074,0.17791188,-0.14300993,-14.179993,0.0,0.0,0.0,0.0,0.0,-0.02,0.0,0.0,0.0,0.0,0.0,0.0,0.0,0.40823996,488.83002,0.0,0.0,0.0,0.0,0.0,0.0,inf,inf,inf,inf,1,1,1,1,0,0,0,0,1,1,0
708680000,0,47.3977508,8.5456074,0.17791188,-0.14300993,-14.183014,0.0,0.0,0.0,0.0,0.0,-0.02,0.0,0.0,0.0,0.0,0.0,0.0,0.0,0.40830806,488.83002,0.0,0.0,0.0,0.0,0.0,0.0,inf,inf,inf,inf,1,1,1,1,0,0,0,0,1,1,0
708780000,0,47.3977508,8.5456074,0.17791188,-0.14300993,-14.184998,0.0,0.0,0.0,0.0,0.0,-0.02,0.0,0.0,0.0,0.0,0.0,0.0,0.0,0.40833756,488.83002,0.0,0.0,0.0,0.0,0.0,0.0,inf,inf,inf,inf,1,1,1,1,0,0,0,0,1,1,0
708880000,0,47.3977508,8.5456074,0.17791188,-0.14300993,-14.187012,0.0,0.0,0.0,0.0,0.0,-0.01,0.0,0.0,0.0,0.0,0.0,0.0,0.0,0.40834072,488.83002,0.0,0.0,0.0,0.0,0.0,0.0,inf,inf,inf,inf,1,1,1,1,0,0,0,0,1,1,0
708976000,0,47.3977508,8.5456074,0.17791188,-0.14300993,-14.188995,0.0,0.0,0.0,0.0,0.0,-0.02,0.0,0.0,0.0,0.0,0.0,0.0,0.0,0.40842208,488.83002,0.0,0.0,0.0,0.0,0.0,0.0,inf,inf,inf,inf,1,1,1,1,0,0,0,0,1,1,0
709080000,0,47.3977508,8.5456074,0.17791188,-0.14300993,-14.1910095,0.0,0.0,0.0,0.0,0.0,-0.02,0.0,0.0,0.0,0.0,0.0,0.0,0.0,0.40851673,488.83002,0.0,0.0,0.0,0.0,0.0,0.0,inf,inf,inf,inf,1,1,1,1,0,0,0,0,1,1,0
709180000,0,47.3977508,8.5456074,0.17791188,-0.14300993,-14.192993,0.0,0.0,0.0,0.0,0.0,-0.02,0.0,0.0,0.0,0.0,0.0,0.0,0.0,0.40847236,488.83002,0.0,0.0,0.0,0.0,0.0,0.0,inf,inf,inf,inf,1,1,1,1,0,0,0,0,1,1,0
709280000,0,47.3977508,8.5456074,0.17791188,-0.14300993,-14.195007,0.0,0.0,0.0,0.0,0.01,-0.01,0.0,0.0,0.0,0.0,0.0,0.0,0.0,0.40848878,488.83002,0.0,0.0,0.0,0.0,0.0,0.0,inf,inf,inf,inf,1,1,1,1,0,0,0,0,1,1,0
709380000,0,47.3977508,8.5456074,0.17791188,-0.13548309,-14.1970215,0.0,0.0,0.0,0.0,0.01,-0.01,0.0,0.0,0.0,0.0,0.0,0.0,0.0,0.40849122,488.83002,0.0,0.0,0.0,0.0,0.0,0.0,inf,inf,inf,inf,1,1,1,1,0,0,0,0,1,1,0
709476000,0,47.3977508,8.5456074,0.17791188,-0.13548309,-14.197998,0.0,0.0,0.0,0.0,0.01,-0.01,0.0,0.0,0.0,0.0,0.0,0.0,0.0,0.4084515,488.83002,0.0,0.0,0.0,0.0,0.0,0.0,inf,inf,inf,inf,1,1,1,1,0,0,0,0,1,1,0
709580000,0,47.3977508,8.5456074,0.17791188,-0.13548309,-14.200012,0.0,0.0,0.0,0.0,0.01,-0.01,0.0,0.0,0.0,0.0,0.0,0.0,0.0,0.40851197,488.83002,0.0,0.0,0.0,0.0,0.0,0.0,inf,inf,inf,inf,1,1,1,1,0,0,0,0,1,1,0
709680000,0,47.3977508,8.5456074,0.17791188,-0.13548309,-14.201019,0.0,0.0,0.0,0.0,0.01,-0.01,0.0,0.0,0.0,0.0,0.0,0.0,0.0,0.40854728,488.83002,0.0,0.0,0.0,0.0,0.0,0.0,inf,inf,inf,inf,1,1,1,1,0,0,0,0,1,1,0
709780000,0,47.3977508,8.5456074,0.17791188,-0.13548309,-14.201996,0.0,0.0,0.0,0.0,0.01,-0.01,0.0,0.0,0.0,0.0,0.0,0.0,0.0,0.40855613,488.83002,0.0,0.0,0.0,0.0,0.0,0.0,inf,inf,inf,inf,1,1,1,1,0,0,0,0,1,1,0
709876000,0,47.3977508,8.5456074,0.17791188,-0.13548309,-14.203003,0.0,0.0,0.0,0.01,0.01,0.0,0.0,0.0,0.0,0.0,0.0,0.0,0.0,0.40857893,488.83002,0.0,0.0,0.0,0.0,0.0,0.0,inf,inf,inf,inf,1,1,1,1,0,0,0,0,1,1,0
709980000,0,47.3977508,8.5456074,0.17791188,-0.12795626,-14.20401,0.0,0.0,0.0,0.01,0.01,0.0,0.0,0.0,0.0,0.0,0.0,0.0,0.0,0.40861169,488.83002,0.0,0.0,0.0,0.0,0.0,0.0,inf,inf,inf,inf,1,1,1,1,0,0,0,0,1,1,0
710080000,0,47.3977508,8.5456074,0.17791188,-0.12795626,-14.205017,0.0,0.0,0.0,0.01,0.01,0.0,0.0,0.0,0.0,0.0,0.0,0.0,0.0,0.40870434,488.83002,0.0,0.0,0.0,0.0,0.0,0.0,inf,inf,inf,inf,1,1,1,1,0,0,0,0,1,1,0
710176000,0,47.3977508,8.5456074,0.18903138,-0.12795626,-14.205994,0.0,0.0,0.0,0.01,0.01,-0.01,0.0,0.0,0.0,0.0,0.0,0.0,0.0,0.40872428,488.83002,0.0,0.0,0.0,0.0,0.0,0.0,inf,inf,inf,inf,1,1,1,1,0,0,0,0,1,1,0
710276000,0,47.3977508,8.5456074,0.18903138,-0.12795626,-14.207001,0.0,0.0,0.0,0.01,0.01,-0.01,0.0,0.0,0.0,0.0,0.0,0.0,0.0,0.4086816,488.83002,0.0,0.0,0.0,0.0,0.0,0.0,inf,inf,inf,inf,1,1,1,1,0,0,0,0,1,1,0
710380000,0,47.3977508,8.5456074,0.18903138,-0.12795626,-14.208008,0.0,0.0,0.0,0.01,0.01,0.0,0.0,0.0,0.0,0.0,0.0,0.0,0.0,0.40869287,488.83002,0.0,0.0,0.0,0.0,0.0,0.0,inf,inf,inf,inf,1,1,1,1,0,0,0,0,1,1,0
710480000,0,47.3977508,8.5456074,0.18903138,-0.12795626,-14.209015,0.0,0.0,0.0,0.01,0.01,0.0,0.0,0.0,0.0,0.0,0.0,0.0,0.0,0.40866843,488.83002,0.0,0.0,0.0,0.0,0.0,0.0,inf,inf,inf,inf,1,1,1,1,0,0,0,0,1,1,0
710576000,0,47.3977508,8.5456074,0.18903138,-0.12042941,-14.210022,0.0,0.0,0.0,0.01,0.01,0.0,0.0,0.0,0.0,0.0,0.0,0.0,0.0,0.40868053,488.83002,0.0,0.0,0.0,0.0,0.0,0.0,inf,inf,inf,inf,1,1,1,1,0,0,0,0,1,1,0
710680000,0,47.3977508,8.5456074,0.18903138,-0.12042941,-14.210022,0.0,0.0,0.0,0.01,0.01,0.0,0.0,0.0,0.0,0.0,0.0,0.0,0.0,0.40866396,488.83002,0.0,0.0,0.0,0.0,0.0,0.0,inf,inf,inf,inf,1,1,1,1,0,0,0,0,1,1,0
710780000,0,47.3977508,8.5456074,0.18903138,-0.12042941,-14.210999,0.0,0.0,0.0,0.01,0.01,0.0,0.0,0.0,0.0,0.0,0.0,0.0,0.0,0.40859476,488.83002,0.0,0.0,0.0,0.0,0.0,0.0,inf,inf,inf,inf,1,1,1,1,0,0,0,0,1,1,0
710876000,0,47.3977508,8.5456074,0.18903138,-0.12042941,-14.210999,0.0,0.0,0.0,0.01,0.01,0.0,0.0,0.0,0.0,0.0,0.0,0.0,0.0,0.4085887,488.83002,0.0,0.0,0.0,0.0,0.0,0.0,inf,inf,inf,inf,1,1,1,1,0,0,0,0,1,1,0
710980000,0,47.3977508,8.5456074,0.20015088,-0.12042941,-14.210999,0.0,0.0,0.0,0.01,0.01,0.0,0.0,0.0,0.0,0.0,0.0,0.0,0.0,0.40861106,488.83002,0.0,0.0,0.0,0.0,0.0,0.0,inf,inf,inf,inf,1,1,1,1,0,0,0,0,1,1,0
711080000,0,47.3977508,8.5456074,0.20015088,-0.12042941,-14.210999,0.0,0.0,0.0,0.01,0.01,0.0,0.0,0.0,0.0,0.0,0.0,0.0,0.0,0.40856636,488.83002,0.0,0.0,0.0,0.0,0.0,0.0,inf,inf,inf,inf,1,1,1,1,0,0,0,0,1,1,0
711180000,0,47.3977508,8.5456074,0.20015088,-0.12042941,-14.210999,0.0,0.0,0.0,0.01,0.01,0.0,0.0,0.0,0.0,0.0,0.0,0.0,0.0,0.40856385,488.83002,0.0,0.0,0.0,0.0,0.0,0.0,inf,inf,inf,inf,1,1,1,1,0,0,0,0,1,1,0
711280000,0,47.3977508,8.5456074,0.20015086,-0.112902574,-14.210999,0.0,0.0,0.0,0.01,0.01,0.0,0.0,0.0,0.0,0.0,0.0,0.0,0.0,0.40867576,488.83002,0.0,0.0,0.0,0.0,0.0,0.0,inf,inf,inf,inf,1,1,1,1,0,0,0,0,1,1,0
711380000,0,47.3977508,8.5456074,0.20015086,-0.112902574,-14.210999,0.0,0.0,0.0,0.01,0.01,0.0,0.0,0.0,0.0,0.0,0.0,0.0,0.0,0.40872437,488.83002,0.0,0.0,0.0,0.0,0.0,0.0,inf,inf,inf,inf,1,1,1,1,0,0,0,0,1,1,0
711480000,0,47.3977508,8.5456074,0.20015086,-0.112902574,-14.210022,0.0,0.0,0.0,0.01,0.01,0.0,0.0,0.0,0.0,0.0,0.0,0.0,0.0,0.4086934,488.83002,0.0,0.0,0.0,0.0,0.0,0.0,inf,inf,inf,inf,1,1,1,1,0,0,0,0,1,1,0
711580000,0,47.3977508,8.5456074,0.20015086,-0.112902574,-14.210022,0.0,0.0,0.0,0.01,0.01,0.0,0.0,0.0,0.0,0.0,0.0,0.0,0.0,0.4087334,488.83002,0.0,0.0,0.0,0.0,0.0,0.0,inf,inf,inf,inf,1,1,1,1,0,0,0,0,1,1,0
711680000,0,47.3977508,8.5456074,0.21127036,-0.112902574,-14.210022,0.0,0.0,0.0,0.02,0.01,0.0,0.0,0.0,0.0,0.0,0.0,0.0,0.0,0.40870988,488.83002,0.0,0.0,0.0,0.0,0.0,0.0,inf,inf,inf,inf,1,1,1,1,0,0,0,0,1,1,0
711780000,0,47.3977508,8.5456074,0.21127036,-0.10537574,-14.210022,0.0,0.0,0.0,0.02,0.01,0.0,0.0,0.0,0.0,0.0,0.0,0.0,0.0,0.40863132,488.83002,0.0,0.0,0.0,0.0,0.0,0.0,inf,inf,inf,inf,1,1,1,1,0,0,0,0,1,1,0
711880000,0,47.3977508,8.5456074,0.21127036,-0.10537574,-14.210022,0.0,0.0,0.0,0.02,0.01,0.0,0.0,0.0,0.0,0.0,0.0,0.0,0.0,0.40861166,488.83002,0.0,0.0,0.0,0.0,0.0,0.0,inf,inf,inf,inf,1,1,1,1,0,0,0,0,1,1,0
711980000,0,47.3977508,8.5456074,0.21127036,-0.10537574,-14.210022,0.0,0.0,0.0,0.02,0.01,0.0,0.0,0.0,0.0,0.0,0.0,0.0,0.0,0.40866762,488.83002,0.0,0.0,0.0,0.0,0.0,0.0,inf,inf,inf,inf,1,1,1,1,0,0,0,0,1,1,0
712076000,0,47.3977508,8.5456074,0.21127036,-0.10537574,-14.210022,0.0,0.0,0.0,0.02,0.01,0.0,0.0,0.0,0.0,0.0,0.0,0.0,0.0,0.4086498,488.83002,0.0,0.0,0.0,0.0,0.0,0.0,inf,inf,inf,inf,1,1,1,1,0,0,0,0,1,1,0
712180000,0,47.3977508,8.5456074,0.22238986,-0.10537574,-14.210999,0.0,0.0,0.0,0.02,0.01,0.0,0.0,0.0,0.0,0.0,0.0,0.0,0.0,0.40855342,488.83002,0.0,0.0,0.0,0.0,0.0,0.0,inf,inf,inf,inf,1,1,1,1,0,0,0,0,1,1,0
712280000,0,47.3977508,8.5456074,0.22238986,-0.0978489,-14.210999,0.0,0.0,0.0,0.03,0.01,0.0,0.0,0.0,0.0,0.0,0.0,0.0,0.0,0.4085618,488.83002,0.0,0.0,0.0,0.0,0.0,0.0,inf,inf,inf,inf,1,1,1,1,0,0,0,0,1,1,0
712380000,0,47.3977508,8.5456074,0.22238986,-0.0978489,-14.210999,0.0,0.0,0.0,0.03,0.01,0.0,0.0,0.0,0.0,0.0,0.0,0.0,0.0,0.4085648,488.83002,0.0,0.0,0.0,0.0,0.0,0.0,inf,inf,inf,inf,1,1,1,1,0,0,0,0,1,1,0
712476000,0,47.3977508,8.5456074,0.23350935,-0.0978489,-14.212006,0.0,0.0,0.0,0.03,0.01,0.0,0.0,0.0,0.0,0.0,0.0,0.0,0.0,0.40855852,488.83002,0.0,0.0,0.0,0.0,0.0,0.0,inf,inf,inf,inf,1,1,1,1,0,0,0,0,1,1,0
712580000,0,47.3977508,8.5456074,0.23350935,-0.0978489,-14.213013,0.0,0.0,0.0,0.03,0.01,0.0,0.0,0.0,0.0,0.0,0.0,0.0,0.0,0.40858626,488.83002,0.0,0.0,0.0,0.0,0.0,0.0,inf,inf,inf,inf,1,1,1,1,0,0,0,0,1,1,0
712680000,0,47.3977508,8.5456074,0.23350935,-0.09032206,-14.213013,0.0,0.0,0.0,0.03,0.01,-0.01,0.0,0.0,0.0,0.0,0.0,0.0,0.0,0.4085122,488.83002,0.0,0.0,0.0,0.0,0.0,0.0,inf,inf,inf,inf,1,1,1,1,0,0,0,0,1,1,0
712776000,0,47.3977508,8.5456074,0.23350935,-0.09032206,-14.21402,0.0,0.0,0.0,0.03,0.01,0.0,0.0,0.0,0.0,0.0,0.0,0.0,0.0,0.40845466,488.83002,0.0,0.0,0.0,0.0,0.0,0.0,inf,inf,inf,inf,1,1,1,1,0,0,0,0,1,1,0
712880000,0,47.3977508,8.5456074,0.24462883,-0.09032206,-14.214996,0.0,0.0,0.0,0.03,0.01,0.0,0.0,0.0,0.0,0.0,0.0,0.0,0.0,0.40848118,488.83002,0.0,0.0,0.0,0.0,0.0,0.0,inf,inf,inf,inf,1,1,1,1,0,0,0,0,1,1,0
712980000,0,47.3977508,8.5456074,0.24462883,-0.09032206,-14.216003,0.0,0.0,0.0,0.03,0.01,0.0,0.0,0.0,0.0,0.0,0.0,0.0,0.0,0.40854353,488.83002,0.0,0.0,0.0,0.0,0.0,0.0,inf,inf,inf,inf,1,1,1,1,0,0,0,0,1,1,0
713080000,0,47.3977508,8.5456074,0.25574833,-0.082795225,-14.2170105,0.0,0.0,0.0,0.03,0.02,0.0,0.0,0.0,0.0,0.0,0.0,0.0,0.0,0.4085556,488.83002,0.0,0.0,0.0,0.0,0.0,0.0,inf,inf,inf,inf,1,1,1,1,0,0,0,0,1,1,0
713176000,0,47.3977508,8.5456074,0.25574833,-0.082795225,-14.218018,0.0,0.0,0.0,0.03,0.02,0.0,0.0,0.0,0.0,0.0,0.0,0.0,0.0,0.408587,488.83002,0.0,0.0,0.0,0.0,0.0,0.0,inf,inf,inf,inf,1,1,1,1,0,0,0,0,1,1,0
713280000,0,47.3977508,8.5456074,0.25574833,-0.082795225,-14.218994,0.0,0.0,0.0,0.03,0.02,0.0,0.0,0.0,0.0,0.0,0.0,0.0,0.0,0.40851852,488.83002,0.0,0.0,0.0,0.0,0.0,0.0,inf,inf,inf,inf,1,1,1,1,0,0,0,0,1,1,0
713376000,0,47.3977508,8.5456074,0.25574833,-0.082795225,-14.220001,0.0,0.0,0.0,0.03,0.02,0.0,0.0,0.0,0.0,0.0,0.0,0.0,0.0,0.40857115,488.83002,0.0,0.0,0.0,0.0,0.0,0.0,inf,inf,inf,inf,1,1,1,1,0,0,0,0,1,1,0
713480000,0,47.3977508,8.5456074,0.26686782,-0.07526838,-14.220001,0.0,0.0,0.0,0.03,0.02,0.0,0.0,0.0,0.0,0.0,0.0,0.0,0.0,0.4086371,488.83002,0.0,0.0,0.0,0.0,0.0,0.0,inf,inf,inf,inf,1,1,1,1,0,0,0,0,1,1,0
713580000,0,47.3977508,8.5456074,0.26686782,-0.07526838,-14.221008,0.0,0.0,0.0,0.03,0.02,0.0,0.0,0.0,0.0,0.0,0.0,0.0,0.0,0.40711814,488.83002,0.0,0.0,0.0,0.0,0.0,0.0,inf,inf,inf,inf,1,1,1,1,0,0,0,0,1,1,0
713680000,0,47.3977508,8.5456074,0.27798733,-0.07526838,-14.231018,0.0,0.0,0.0,0.099999994,0.0,-0.19999999,0.0,0.0,0.0,0.0,0.0,0.0,0.0,0.3143047,488.83002,0.0,0.0,0.0,0.0,0.0,0.0,inf,inf,inf,inf,1,1,1,1,0,0,0,0,1,1,0
713780000,0,47.3977508,8.5456074,0.28910682,-0.07526838,-14.246002,0.0,0.0,0.0,0.17999999,-0.049999997,-0.03,0.0,0.0,0.0,0.0,0.0,0.0,0.0,0.108153276,488.83002,0.0,0.0,0.0,0.0,0.0,0.0,inf,inf,inf,inf,1,1,1,1,0,0,0,0,1,1,0
713880000,0,47.3977508,8.5456074,0.3113458,-0.08279522,-14.242004,0.0,0.0,0.0,0.26,-0.12,0.07,0.0,0.0,0.0,0.0,0.0,0.0,0.0,-0.10572337,488.83002,0.0,0.0,0.0,0.0,0.0,0.0,inf,inf,inf,inf,1,1,1,1,0,0,0,0,1,1,0
713980000,0,47.3977508,8.5456074,0.34470427,-0.10537574,-14.2369995,0.0,0.0,0.0,0.29999998,-0.17,0.01,0.0,0.0,0.0,0.0,0.0,0.0,0.0,-0.27975672,488.83002,0.0,0.0,0.0,0.0,0.0,0.0,inf,inf,inf,inf,1,1,1,1,0,0,0,0,1,1,0
714076000,0,47.3977508,8.5456074,0.36694327,-0.12042941,-14.235992,0.0,0.0,0.0,0.31,-0.19,0.01,0.0,0.0,0.0,0.0,0.0,0.0,0.0,-0.40650666,488.83002,0.0,0.0,0.0,0.0,0.0,0.0,inf,inf,inf,inf,1,1,1,1,0,0,0,0,1,1,0
714180000,0,47.3977508,8.5456074,0.40030172,-0.14300993,-14.234009,0.0,0.0,0.0,0.32,-0.19,0.02,0.0,0.0,0.0,0.0,0.0,0.0,0.0,-0.50884056,488.83002,0.0,0.0,0.0,0.0,0.0,0.0,inf,inf,inf,inf,1,1,1,1,0,0,0,0,1,1,0
714280000,0,47.3977508,8.5456074,0.4336602,-0.1580636,-14.231995,0.0,0.0,0.0,0.32,-0.19999999,0.01,0.0,0.0,0.0,0.0,0.0,0.0,0.0,-0.5807254,488.83002,0.0,0.0,0.0,0.0,0.0,0.0,inf,inf,inf,inf,1,1,1,1,0,0,0,0,1,1,0
714380000,0,47.3977508,8.5456074,0.4670187,-0.18064411,-14.231018,0.0,0.0,0.0,0.32999998,-0.22,0.01,0.0,0.0,0.0,0.0,0.0,0.0,0.0,-0.633203,488.83002,0.0,0.0,0.0,0.0,0.0,0.0,inf,inf,inf,inf,1,1,1,1,0,0,0,0,1,1,0
714480000,0,47.3977508,8.5456074,0.5003772,-0.20322463,-14.229004,0.0,0.0,0.0,0.35,-0.22999999,0.01,0.0,0.0,0.0,0.0,0.0,0.0,0.0,-0.6715086,488.83002,0.0,0.0,0.0,0.0,0.0,0.0,inf,inf,inf,inf,1,1,1,1,0,0,0,0,1,1,0
714580000,0,47.3977508,8.5456074,0.5448551,-0.22580513,-14.227997,0.0,0.0,0.0,0.35999998,-0.24,0.01,0.0,0.0,0.0,0.0,0.0,0.0,0.0,-0.69946104,488.83002,0.0,0.0,0.0,0.0,0.0,0.0,inf,inf,inf,inf,1,1,1,1,0,0,0,0,1,1,0
714680000,0,47.3977508,8.5456074,0.57821363,-0.25591248,-14.22702,0.0,0.0,0.0,0.37,-0.25,0.01,0.0,0.0,0.0,0.0,0.0,0.0,0.0,-0.71970147,488.83002,0.0,0.0,0.0,0.0,0.0,0.0,inf,inf,inf,inf,1,1,1,1,0,0,0,0,1,1,0
714780000,0,47.3977508,8.5456074,0.6115721,-0.27849302,-14.226013,0.0,0.0,0.0,0.38,-0.26,0.0,0.0,0.0,0.0,0.0,0.0,0.0,0.0,-0.73446256,488.83002,0.0,0.0,0.0,0.0,0.0,0.0,inf,inf,inf,inf,1,1,1,1,0,0,0,0,1,1,0
714880000,0,47.3977508,8.5456074,0.6560501,-0.30860037,-14.225006,0.0,0.0,0.0,0.39,-0.26999998,0.0,0.0,0.0,0.0,0.0,0.0,0.0,0.0,-0.74503744,488.83002,0.0,0.0,0.0,0.0,0.0,0.0,inf,inf,inf,inf,1,1,1,1,0,0,0,0,1,1,0
714980000,0,47.3977508,8.5456074,0.68940854,-0.33870772,-14.225006,0.0,0.0,0.0,0.41,-0.28,0.0,0.0,0.0,0.0,0.0,0.0,0.0,0.0,-0.7525559,488.83002,0.0,0.0,0.0,0.0,0.0,0.0,inf,inf,inf,inf,1,1,1,1,0,0,0,0,1,1,0
715080000,0,47.3977508,8.5456074,0.73388654,-0.36881503,-14.225006,0.0,0.0,0.0,0.42,-0.29,0.0,0.0,0.0,0.0,0.0,0.0,0.0,0.0,-0.7578817,488.83002,0.0,0.0,0.0,0.0,0.0,0.0,inf,inf,inf,inf,1,1,1,1,0,0,0,0,1,1,0
715176000,0,47.3977508,8.5456074,0.7783645,-0.39139557,-14.225006,0.0,0.0,0.0,0.42999998,-0.29999998,0.0,0.0,0.0,0.0,0.0,0.0,0.0,0.0,-0.7614002,488.83002,0.0,0.0,0.0,0.0,0.0,0.0,inf,inf,inf,inf,1,1,1,1,0,0,0,0,1,1,0
715276000,0,47.3977508,8.5456074,0.8228425,-0.42902973,-14.225006,0.0,0.0,0.0,0.45,-0.31,0.0,0.0,0.0,0.0,0.0,0.0,0.0,0.0,-0.76382935,488.83002,0.0,0.0,0.0,0.0,0.0,0.0,inf,inf,inf,inf,1,1,1,1,0,0,0,0,1,1,0
715380000,0,47.3977508,8.5456074,0.8673204,-0.45913708,-14.225006,0.0,0.0,0.0,0.47,-0.32999998,0.0,0.0,0.0,0.0,0.0,0.0,0.0,0.0,-0.7655072,488.83002,0.0,0.0,0.0,0.0,0.0,0.0,inf,inf,inf,inf,1,1,1,1,0,0,0,0,1,1,0
