timestamp,noutputs,output[0],output[1],output[2],output[3],output[4],output[5],output[6],output[7],output[8],output[9],output[10],output[11],output[12],output[13],output[14],output[15]
2613228000,6,900.0,900.0,900.0,900.0,900.0,900.0,nan,nan,nan,nan,nan,nan,nan,nan,nan,nan
2613328000,6,1000.0,1000.0,1000.0,1000.0,1500.0,1500.0,nan,nan,nan,nan,nan,nan,nan,nan,nan,nan
2613428000,6,1000.0,1000.0,1000.0,1000.0,1500.0,1500.0,nan,nan,nan,nan,nan,nan,nan,nan,nan,nan
2613528000,6,1000.0,1000.0,1000.0,1000.0,1500.0,1500.0,nan,nan,nan,nan,nan,nan,nan,nan,nan,nan
2613624000,6,1000.0,1000.0,1000.0,1000.0,1500.0,1500.0,nan,nan,nan,nan,nan,nan,nan,nan,nan,nan
2613724000,6,1000.0,1000.0,1000.0,1000.0,1500.0,1500.0,nan,nan,nan,nan,nan,nan,nan,nan,nan,nan
2613828000,6,1000.0,1000.0,1000.0,1000.0,1500.0,1500.0,nan,nan,nan,nan,nan,nan,nan,nan,nan,nan
2613924000,6,1000.0,1000.0,1000.0,1000.0,1500.0,1500.0,nan,nan,nan,nan,nan,nan,nan,nan,nan,nan
2614028000,6,1000.0,1000.0,1000.0,1000.0,1500.0,1500.0,nan,nan,nan,nan,nan,nan,nan,nan,nan,nan
2614124000,6,1000.0,1000.0,1000.0,1000.0,1500.0,1500.0,nan,nan,nan,nan,nan,nan,nan,nan,nan,nan
2614228000,6,1000.0,1000.0,1000.0,1000.0,1500.0,1500.0,nan,nan,nan,nan,nan,nan,nan,nan,nan,nan
2614324000,6,1111.5038,1129.1421,1172.2771,1067.7616,1500.0,1500.0,nan,nan,nan,nan,nan,nan,nan,nan,nan,nan
2614428000,6,1121.7461,1190.8739,1169.0638,1140.4297,1500.0,1500.0,nan,nan,nan,nan,nan,nan,nan,nan,nan,nan
2614524000,6,1184.904,1239.8047,1216.6646,1204.1041,1500.0,1500.0,nan,nan,nan,nan,nan,nan,nan,nan,nan,nan
2614624000,6,1254.6904,1303.635,1285.9895,1270.291,1500.0,1500.0,nan,nan,nan,nan,nan,nan,nan,nan,nan,nan
2614724000,6,1314.6843,1360.8848,1343.7191,1328.5874,1500.0,1500.0,nan,nan,nan,nan,nan,nan,nan,nan,nan,nan
2614824000,6,1388.7814,1428.1937,1416.7115,1401.782,1500.0,1500.0,nan,nan,nan,nan,nan,nan,nan,nan,nan,nan
2614924000,6,1472.9132,1511.2085,1500.129,1484.4352,1500.0,1500.0,nan,nan,nan,nan,nan,nan,nan,nan,nan,nan
2615024000,6,1542.725,1581.9993,1570.6578,1558.6635,1500.0,1500.0,nan,nan,nan,nan,nan,nan,nan,nan,nan,nan
2615128000,6,1623.1329,1610.9121,1616.3528,1617.2548,1500.0,1500.0,nan,nan,nan,nan,nan,nan,nan,nan,nan,nan
2615224000,6,1606.5588,1596.9537,1603.9275,1601.9779,1500.0,1500.0,nan,nan,nan,nan,nan,nan,nan,nan,nan,nan
2615328000,6,1611.1771,1611.1848,1613.5845,1612.3123,1500.0,1500.0,nan,nan,nan,nan,nan,nan,nan,nan,nan,nan
2615424000,6,1614.2771,1620.7589,1617.9856,1615.7773,1500.0,1500.0,nan,nan,nan,nan,nan,nan,nan,nan,nan,nan
2615528000,6,1611.3036,1617.202,1615.4396,1615.7764,1500.0,1500.0,nan,nan,nan,nan,nan,nan,nan,nan,nan,nan
2615628000,6,1613.2632,1615.34,1615.8068,1613.7401,1500.0,1500.0,nan,nan,nan,nan,nan,nan,nan,nan,nan,nan
2615728000,6,1615.2177,1615.3457,1618.021,1617.878,1500.0,1500.0,nan,nan,nan,nan,nan,nan,nan,nan,nan,nan
2615824000,6,1621.3535,1624.884,1621.2366,1625.9001,1500.0,1500.0,nan,nan,nan,nan,nan,nan,nan,nan,nan,nan
2615928000,6,1625.2423,1624.9175,1622.0322,1623.33,1500.0,1500.0,nan,nan,nan,nan,nan,nan,nan,nan,nan,nan
2616024000,6,1625.2742,1624.1609,1624.886,1623.9219,1500.0,1500.0,nan,nan,nan,nan,nan,nan,nan,nan,nan,nan
2616128000,6,1624.2424,1624.9126,1627.5397,1621.9247,1500.0,1500.0,nan,nan,nan,nan,nan,nan,nan,nan,nan,nan
2616228000,6,1627.0698,1625.2438,1622.8489,1624.0181,1500.0,1500.0,nan,nan,nan,nan,nan,nan,nan,nan,nan,nan
2616324000,6,1634.2076,1634.2817,1633.941,1635.3187,1500.0,1500.0,nan,nan,nan,nan,nan,nan,nan,nan,nan,nan
2616424000,6,1547.5934,1546.2405,1544.3506,1548.1752,1500.0,1500.0,nan,nan,nan,nan,nan,nan,nan,nan,nan,nan
2616524000,6,1520.5289,1514.093,1519.7659,1512.412,1500.0,1500.0,nan,nan,nan,nan,nan,nan,nan,nan,nan,nan
2616624000,6,1557.1558,1556.2843,1555.168,1557.8157,1500.0,1500.0,nan,nan,nan,nan,nan,nan,nan,nan,nan,nan
2616724000,6,1552.8365,1554.4044,1555.5725,1552.4471,1500.0,1500.0,nan,nan,nan,nan,nan,nan,nan,nan,nan,nan
2616824000,6,1552.6895,1549.705,1552.8513,1553.0526,1500.0,1500.0,nan,nan,nan,nan,nan,nan,nan,nan,nan,nan
2616924000,6,1554.9537,1551.8544,1552.489,1556.3668,1500.0,1500.0,nan,nan,nan,nan,nan,nan,nan,nan,nan,nan
2617024000,6,1553.8433,1549.0746,1553.1323,1549.8635,1500.0,1500.0,nan,nan,nan,nan,nan,nan,nan,nan,nan,nan
2617124000,6,1553.0167,1557.5365,1556.6251,1554.3186,1500.0,1500.0,nan,nan,nan,nan,nan,nan,nan,nan,nan,nan
2617224000,6,1560.6113,1558.7085,1559.6375,1557.14,1500.0,1500.0,nan,nan,nan,nan,nan,nan,nan,nan,nan,nan
2617324000,6,1559.1954,1557.097,1558.933,1557.4382,1500.0,1500.0,nan,nan,nan,nan,nan,nan,nan,nan,nan,nan
2617428000,6,1561.0028,1554.6241,1557.9916,1557.9436,1500.0,1500.0,nan,nan,nan,nan,nan,nan,nan,nan,nan,nan
2617528000,6,1555.5583,1559.3176,1554.5107,1556.673,1500.0,1500.0,nan,nan,nan,nan,nan,nan,nan,nan,nan,nan
2617624000,6,1557.6847,1561.2202,1559.472,1558.9718,1500.0,1500.0,nan,nan,nan,nan,nan,nan,nan,nan,nan,nan
2617724000,6,1561.2129,1562.2079,1562.6448,1560.5051,1500.0,1500.0,nan,nan,nan,nan,nan,nan,nan,nan,nan,nan
2617824000,6,1560.5134,1561.3473,1562.762,1562.2511,1500.0,1500.0,nan,nan,nan,nan,nan,nan,nan,nan,nan,nan
2617924000,6,1558.5857,1559.9224,1558.4911,1561.7141,1500.0,1500.0,nan,nan,nan,nan,nan,nan,nan,nan,nan,nan
2618028000,6,1557.9762,1562.5975,1560.0834,1560.6804,1500.0,1500.0,nan,nan,nan,nan,nan,nan,nan,nan,nan,nan
2618128000,6,1563.3556,1563.3701,1564.4573,1563.9077,1500.0,1500.0,nan,nan,nan,nan,nan,nan,nan,nan,nan,nan
2618224000,6,1563.661,1560.1241,1562.436,1561.6042,1500.0,1500.0,nan,nan,nan,nan,nan,nan,nan,nan,nan,nan
2618324000,6,1564.4102,1565.1614,1565.2397,1562.7158,1500.0,1500.0,nan,nan,nan,nan,nan,nan,nan,nan,nan,nan
2618424000,6,1566.0614,1560.833,1564.6241,1561.2058,1500.0,1500.0,nan,nan,nan,nan,nan,nan,nan,nan,nan,nan
2618528000,6,1562.6954,1564.9197,1562.4318,1563.7731,1500.0,1500.0,nan,nan,nan,nan,nan,nan,nan,nan,nan,nan
2618628000,6,1561.3365,1564.8494,1565.1344,1562.8085,1500.0,1500.0,nan,nan,nan,nan,nan,nan,nan,nan,nan,nan
2618724000,6,1562.1488,1560.566,1562.256,1562.9097,1500.0,1500.0,nan,nan,nan,nan,nan,nan,nan,nan,nan,nan
2618824000,6,1563.8198,1561.5017,1564.47,1562.8162,1500.0,1500.0,nan,nan,nan,nan,nan,nan,nan,nan,nan,nan
2618928000,6,1562.2742,1565.688,1561.4926,1564.5038,1500.0,1500.0,nan,nan,nan,nan,nan,nan,nan,nan,nan,nan
2619028000,6,1562.7378,1561.3645,1561.5867,1564.3102,1500.0,1500.0,nan,nan,nan,nan,nan,nan,nan,nan,nan,nan
2619124000,6,1562.2552,1563.9227,1560.1733,1563.6288,1500.0,1500.0,nan,nan,nan,nan,nan,nan,nan,nan,nan,nan
2619228000,6,1563.8615,1561.3539,1564.1736,1560.0782,1500.0,1500.0,nan,nan,nan,nan,nan,nan,nan,nan,nan,nan
2619324000,6,1564.8557,1563.3937,1563.5706,1562.73,1500.0,1500.0,nan,nan,nan,nan,nan,nan,nan,nan,nan,nan
2619428000,6,1565.8108,1559.4132,1565.3693,1562.9242,1500.0,1500.0,nan,nan,nan,nan,nan,nan,nan,nan,nan,nan
2619528000,6,1565.4929,1566.165,1564.9164,1565.1544,1500.0,1500.0,nan,nan,nan,nan,nan,nan,nan,nan,nan,nan
2619624000,6,1563.2178,1565.6206,1563.0343,1562.4558,1500.0,1500.0,nan,nan,nan,nan,nan,nan,nan,nan,nan,nan
2619728000,6,1564.7078,1564.4756,1564.169,1562.9744,1500.0,1500.0,nan,nan,nan,nan,nan,nan,nan,nan,nan,nan
2619828000,6,1562.2115,1564.9049,1564.6353,1568.8628,1500.0,1500.0,nan,nan,nan,nan,nan,nan,nan,nan,nan,nan
2619924000,6,1567.4352,1564.9774,1566.2089,1568.154,1500.0,1500.0,nan,nan,nan,nan,nan,nan,nan,nan,nan,nan
2620024000,6,1565.0004,1564.9119,1564.4683,1566.5044,1500.0,1500.0,nan,nan,nan,nan,nan,nan,nan,nan,nan,nan
2620124000,6,1560.9094,1565.4497,1562.1193,1565.7957,1500.0,1500.0,nan,nan,nan,nan,nan,nan,nan,nan,nan,nan
2620224000,6,1562.6207,1566.9244,1562.939,1565.8746,1500.0,1500.0,nan,nan,nan,nan,nan,nan,nan,nan,nan,nan
2620324000,6,1562.9634,1563.8473,1566.1478,1563.5903,1500.0,1500.0,nan,nan,nan,nan,nan,nan,nan,nan,nan,nan
2620428000,6,1563.8174,1566.2555,1565.5002,1563.1946,1500.0,1500.0,nan,nan,nan,nan,nan,nan,nan,nan,nan,nan
2620524000,6,1564.6722,1564.376,1563.8156,1563.7748,1500.0,1500.0,nan,nan,nan,nan,nan,nan,nan,nan,nan,nan
2620624000,6,1563.0688,1564.8915,1563.6481,1564.8477,1500.0,1500.0,nan,nan,nan,nan,nan,nan,nan,nan,nan,nan
2620724000,6,1566.5391,1565.8251,1562.8687,1568.2368,1500.0,1500.0,nan,nan,nan,nan,nan,nan,nan,nan,nan,nan
2620824000,6,1563.1462,1565.8787,1562.9021,1565.3502,1500.0,1500.0,nan,nan,nan,nan,nan,nan,nan,nan,nan,nan
2620924000,6,1566.041,1564.6635,1566.9326,1565.9727,1500.0,1500.0,nan,nan,nan,nan,nan,nan,nan,nan,nan,nan
2621028000,6,1559.5752,1564.6045,1564.0856,1561.6017,1500.0,1500.0,nan,nan,nan,nan,nan,nan,nan,nan,nan,nan
2621128000,6,1567.2402,1556.5421,1562.7723,1557.8082,1500.0,1500.0,nan,nan,nan,nan,nan,nan,nan,nan,nan,nan
2621224000,6,1582.083,1581.0435,1542.1155,1518.6665,1500.0,1500.0,nan,nan,nan,nan,nan,nan,nan,nan,nan,nan
2621324000,6,1613.4603,1608.1564,1545.5321,1504.1082,1500.0,1500.0,nan,nan,nan,nan,nan,nan,nan,nan,nan,nan
2621424000,6,1607.7947,1603.1606,1534.6553,1509.6204,1500.0,1500.0,nan,nan,nan,nan,nan,nan,nan,nan,nan,nan
2621528000,6,1615.4928,1608.5577,1541.6134,1521.2909,1500.0,1500.0,nan,nan,nan,nan,nan,nan,nan,nan,nan,nan
2621624000,6,1604.2809,1615.3219,1530.1125,1543.3524,1500.0,1500.0,nan,nan,nan,nan,nan,nan,nan,nan,nan,nan
2621724000,6,1607.956,1619.8379,1552.3813,1543.8693,1500.0,1500.0,nan,nan,nan,nan,nan,nan,nan,nan,nan,nan
2621828000,6,1630.5493,1622.5743,1566.102,1544.0159,1500.0,1500.0,nan,nan,nan,nan,nan,nan,nan,nan,nan,nan
2621924000,6,1633.96,1628.5677,1562.9004,1557.7987,1500.0,1500.0,nan,nan,nan,nan,nan,nan,nan,nan,nan,nan
2622024000,6,1643.7664,1638.972,1574.1475,1551.939,1500.0,1500.0,nan,nan,nan,nan,nan,nan,nan,nan,nan,nan
2622128000,6,1644.5942,1641.4839,1571.2461,1570.089,1500.0,1500.0,nan,nan,nan,nan,nan,nan,nan,nan,nan,nan
2622224000,6,1659.7964,1649.2089,1606.5311,1556.7812,1500.0,1500.0,nan,nan,nan,nan,nan,nan,nan,nan,nan,nan
2622324000,6,1664.7194,1666.6765,1607.0604,1557.5068,1500.0,1500.0,nan,nan,nan,nan,nan,nan,nan,nan,nan,nan
2622424000,6,1668.5764,1664.9749,1603.8708,1571.5898,1500.0,1500.0,nan,nan,nan,nan,nan,nan,nan,nan,nan,nan
2622524000,6,1668.0013,1663.1296,1603.4656,1586.1174,1500.0,1500.0,nan,nan,nan,nan,nan,nan,nan,nan,nan,nan
2622624000,6,1677.4534,1682.0331,1609.2173,1578.9802,1500.0,1500.0,nan,nan,nan,nan,nan,nan,nan,nan,nan,nan
2622724000,6,1680.3223,1698.0706,1632.2563,1576.6033,1500.0,1500.0,nan,nan,nan,nan,nan,nan,nan,nan,nan,nan
2622824000,6,1679.9647,1693.9454,1629.909,1591.1807,1500.0,1500.0,nan,nan,nan,nan,nan,nan,nan,nan,nan,nan
2622924000,6,1690.1671,1711.8727,1633.5844,1595.0844,1500.0,1500.0,nan,nan,nan,nan,nan,nan,nan,nan,nan,nan
2623028000,6,1688.7664,1723.5664,1648.0928,1602.4683,1500.0,1500.0,nan,nan,nan,nan,nan,nan,nan,nan,nan,nan
2623124000,6,1690.4613,1715.3103,1639.2054,1610.4573,1500.0,1500.0,nan,nan,nan,nan,nan,nan,nan,nan,nan,nan
2623228000,6,1693.1389,1720.8702,1642.4993,1623.7617,1500.0,1500.0,nan,nan,nan,nan,nan,nan,nan,nan,nan,nan
2623328000,6,1688.9854,1739.4314,1655.075,1631.7178,1500.0,1500.0,nan,nan,nan,nan,nan,nan,nan,nan,nan,nan
2623428000,6,1688.7084,1742.4612,1653.7035,1631.6833,1500.0,1500.0,nan,nan,nan,nan,nan,nan,nan,nan,nan,nan
2623524000,6,1686.2466,1734.1968,1654.5626,1637.3066,1500.0,1500.0,nan,nan,nan,nan,nan,nan,nan,nan,nan,nan
2623624000,6,1676.5123,1725.2147,1653.5237,1641.8323,1500.0,1500.0,nan,nan,nan,nan,nan,nan,nan,nan,nan,nan
2623724000,6,1663.7501,1749.3492,1654.3717,1648.3782,1500.0,1500.0,nan,nan,nan,nan,nan,nan,nan,nan,nan,nan
2623828000,6,1658.834,1758.3226,1642.4982,1650.9722,1500.0,1500.0,nan,nan,nan,nan,nan,nan,nan,nan,nan,nan
2623924000,6,1660.2805,1746.196,1643.0592,1650.7253,1500.0,1500.0,nan,nan,nan,nan,nan,nan,nan,nan,nan,nan
2624024000,6,1663.5874,1746.141,1632.14,1649.4718,1500.0,1500.0,nan,nan,nan,nan,nan,nan,nan,nan,nan,nan
2624128000,6,1663.2312,1734.2959,1637.2063,1654.1501,1500.0,1500.0,nan,nan,nan,nan,nan,nan,nan,nan,nan,nan
2624228000,6,1658.6814,1743.9825,1635.097,1663.6885,1500.0,1500.0,nan,nan,nan,nan,nan,nan,nan,nan,nan,nan
2624328000,6,1661.5514,1748.3223,1632.525,1665.086,1500.0,1500.0,nan,nan,nan,nan,nan,nan,nan,nan,nan,nan
2624428000,6,1657.6625,1741.0247,1634.0637,1673.5737,1500.0,1500.0,nan,nan,nan,nan,nan,nan,nan,nan,nan,nan
2624524000,6,1662.5464,1734.8925,1634.8094,1668.8109,1500.0,1500.0,nan,nan,nan,nan,nan,nan,nan,nan,nan,nan
2624624000,6,1638.1758,1711.3741,1654.782,1695.8951,1500.0,1500.0,nan,nan,nan,nan,nan,nan,nan,nan,nan,nan
2624724000,6,1627.2861,1711.0431,1661.0986,1712.244,1500.0,1500.0,nan,nan,nan,nan,nan,nan,nan,nan,nan,nan
2624828000,6,1631.4532,1711.309,1655.4047,1717.0863,1500.0,1500.0,nan,nan,nan,nan,nan,nan,nan,nan,nan,nan
2624928000,6,1641.5311,1704.0966,1655.9916,1709.6595,1500.0,1500.0,nan,nan,nan,nan,nan,nan,nan,nan,nan,nan
2625024000,6,1640.9121,1701.877,1657.1123,1706.9946,1500.0,1500.0,nan,nan,nan,nan,nan,nan,nan,nan,nan,nan
2625124000,6,1639.4609,1714.9731,1649.0732,1720.5035,1500.0,1500.0,nan,nan,nan,nan,nan,nan,nan,nan,nan,nan
2625224000,6,1641.5042,1712.6538,1653.9197,1716.0776,1500.0,1500.0,nan,nan,nan,nan,nan,nan,nan,nan,nan,nan
2625324000,6,1644.1289,1710.705,1651.7037,1712.916,1500.0,1500.0,nan,nan,nan,nan,nan,nan,nan,nan,nan,nan
2625424000,6,1645.5841,1705.2305,1650.7214,1709.7437,1500.0,1500.0,nan,nan,nan,nan,nan,nan,nan,nan,nan,nan
2625524000,6,1649.9342,1706.1462,1650.306,1708.0724,1500.0,1500.0,nan,nan,nan,nan,nan,nan,nan,nan,nan,nan
2625624000,6,1640.4722,1716.4468,1646.0901,1721.6533,1500.0,1500.0,nan,nan,nan,nan,nan,nan,nan,nan,nan,nan
2625724000,6,1643.0436,1712.3176,1649.6827,1711.8317,1500.0,1500.0,nan,nan,nan,nan,nan,nan,nan,nan,nan,nan
2625828000,6,1646.7944,1714.0657,1650.7885,1713.426,1500.0,1500.0,nan,nan,nan,nan,nan,nan,nan,nan,nan,nan
2625924000,6,1642.217,1706.1089,1650.2777,1707.8723,1500.0,1500.0,nan,nan,nan,nan,nan,nan,nan,nan,nan,nan
2626024000,6,1646.9976,1708.7537,1649.6522,1709.358,1500.0,1500.0,nan,nan,nan,nan,nan,nan,nan,nan,nan,nan
2626124000,6,1643.993,1713.7925,1647.8463,1719.6434,1500.0,1500.0,nan,nan,nan,nan,nan,nan,nan,nan,nan,nan
2626228000,6,1644.0397,1716.3748,1648.7333,1717.4478,1500.0,1500.0,nan,nan,nan,nan,nan,nan,nan,nan,nan,nan
2626328000,6,1646.3009,1707.4932,1651.1929,1712.3164,1500.0,1500.0,nan,nan,nan,nan,nan,nan,nan,nan,nan,nan
2626428000,6,1651.395,1706.3645,1653.1536,1710.2966,1500.0,1500.0,nan,nan,nan,nan,nan,nan,nan,nan,nan,nan
2626528000,6,1646.6016,1710.8492,1649.467,1711.6888,1500.0,1500.0,nan,nan,nan,nan,nan,nan,nan,nan,nan,nan
2626624000,6,1643.9397,1718.9541,1647.0731,1719.8245,1500.0,1500.0,nan,nan,nan,nan,nan,nan,nan,nan,nan,nan
2626724000,6,1648.4438,1713.1755,1651.3795,1715.061,1500.0,1500.0,nan,nan,nan,nan,nan,nan,nan,nan,nan,nan
2626828000,6,1645.0608,1714.2454,1648.0236,1716.4445,1500.0,1500.0,nan,nan,nan,nan,nan,nan,nan,nan,nan,nan
2626924000,6,1646.4271,1708.5859,1652.8584,1710.8948,1500.0,1500.0,nan,nan,nan,nan,nan,nan,nan,nan,nan,nan
2627024000,6,1644.6111,1721.5714,1646.6145,1723.355,1500.0,1500.0,nan,nan,nan,nan,nan,nan,nan,nan,nan,nan
2627124000,6,1648.2607,1713.2019,1652.1375,1715.1189,1500.0,1500.0,nan,nan,nan,nan,nan,nan,nan,nan,nan,nan
2627228000,6,1644.5642,1716.0625,1654.561,1712.1869,1500.0,1500.0,nan,nan,nan,nan,nan,nan,nan,nan,nan,nan
2627328000,6,1652.5767,1711.1278,1653.9512,1714.9244,1500.0,1500.0,nan,nan,nan,nan,nan,nan,nan,nan,nan,nan
2627424000,6,1648.0891,1712.1715,1650.646,1715.0121,1500.0,1500.0,nan,nan,nan,nan,nan,nan,nan,nan,nan,nan
2627524000,6,1643.3818,1718.4785,1646.8215,1722.6562,1500.0,1500.0,nan,nan,nan,nan,nan,nan,nan,nan,nan,nan
2627628000,6,1644.3488,1718.1385,1649.0599,1721.5017,1500.0,1500.0,nan,nan,nan,nan,nan,nan,nan,nan,nan,nan
2627728000,6,1645.2817,1721.8044,1650.9988,1720.9249,1500.0,1500.0,nan,nan,nan,nan,nan,nan,nan,nan,nan,nan
2627824000,6,1647.6538,1715.8002,1652.2344,1716.4149,1500.0,1500.0,nan,nan,nan,nan,nan,nan,nan,nan,nan,nan
2627924000,6,1647.5609,1711.0323,1651.7993,1711.4678,1500.0,1500.0,nan,nan,nan,nan,nan,nan,nan,nan,nan,nan
2628024000,6,1650.9591,1711.2908,1655.2118,1711.5222,1500.0,1500.0,nan,nan,nan,nan,nan,nan,nan,nan,nan,nan
2628128000,6,1643.9515,1720.8612,1649.8037,1717.6599,1500.0,1500.0,nan,nan,nan,nan,nan,nan,nan,nan,nan,nan
2628228000,6,1647.4719,1719.0945,1649.4225,1720.4761,1500.0,1500.0,nan,nan,nan,nan,nan,nan,nan,nan,nan,nan
2628324000,6,1649.8279,1711.4528,1650.8441,1714.5531,1500.0,1500.0,nan,nan,nan,nan,nan,nan,nan,nan,nan,nan
2628424000,6,1649.5663,1712.3647,1655.8047,1711.6011,1500.0,1500.0,nan,nan,nan,nan,nan,nan,nan,nan,nan,nan
2628524000,6,1645.7311,1722.1477,1651.3339,1719.7095,1500.0,1500.0,nan,nan,nan,nan,nan,nan,nan,nan,nan,nan
2628628000,6,1645.8661,1723.531,1651.1876,1722.4988,1500.0,1500.0,nan,nan,nan,nan,nan,nan,nan,nan,nan,nan
2628724000,6,1647.9095,1714.3511,1656.3204,1713.6482,1500.0,1500.0,nan,nan,nan,nan,nan,nan,nan,nan,nan,nan
2628824000,6,1645.2292,1717.9535,1650.2637,1716.942,1500.0,1500.0,nan,nan,nan,nan,nan,nan,nan,nan,nan,nan
2628928000,6,1649.9785,1716.7651,1652.8485,1719.9839,1500.0,1500.0,nan,nan,nan,nan,nan,nan,nan,nan,nan,nan
2629028000,6,1648.3694,1713.3069,1653.9252,1712.9131,1500.0,1500.0,nan,nan,nan,nan,nan,nan,nan,nan,nan,nan
2629128000,6,1647.6155,1711.2792,1650.1544,1709.8538,1500.0,1500.0,nan,nan,nan,nan,nan,nan,nan,nan,nan,nan
2629224000,6,1647.6383,1721.7881,1652.3392,1721.1005,1500.0,1500.0,nan,nan,nan,nan,nan,nan,nan,nan,nan,nan
2629324000,6,1646.0015,1717.2748,1649.7632,1716.0726,1500.0,1500.0,nan,nan,nan,nan,nan,nan,nan,nan,nan,nan
2629424000,6,1645.4209,1721.6991,1649.1082,1719.9097,1500.0,1500.0,nan,nan,nan,nan,nan,nan,nan,nan,nan,nan
2629524000,6,1655.0153,1711.9843,1653.9092,1714.5869,1500.0,1500.0,nan,nan,nan,nan,nan,nan,nan,nan,nan,nan
2629624000,6,1647.1515,1723.2697,1650.9539,1721.1523,1500.0,1500.0,nan,nan,nan,nan,nan,nan,nan,nan,nan,nan
2629728000,6,1647.5061,1722.9004,1652.9541,1723.7249,1500.0,1500.0,nan,nan,nan,nan,nan,nan,nan,nan,nan,nan
2629824000,6,1652.9094,1713.7695,1655.4597,1716.5493,1500.0,1500.0,nan,nan,nan,nan,nan,nan,nan,nan,nan,nan
2629924000,6,1651.773,1715.244,1657.8387,1711.6241,1500.0,1500.0,nan,nan,nan,nan,nan,nan,nan,nan,nan,nan
2630024000,6,1651.2644,1718.4885,1658.6831,1716.0336,1500.0,1500.0,nan,nan,nan,nan,nan,nan,nan,nan,nan,nan
2630128000,6,1647.3326,1725.3553,1651.9688,1725.9509,1500.0,1500.0,nan,nan,nan,nan,nan,nan,nan,nan,nan,nan
2630224000,6,1650.9136,1720.0459,1655.8425,1721.4492,1500.0,1500.0,nan,nan,nan,nan,nan,nan,nan,nan,nan,nan
2630328000,6,1653.1404,1719.8673,1658.2793,1718.9175,1500.0,1500.0,nan,nan,nan,nan,nan,nan,nan,nan,nan,nan
2630428000,6,1655.7927,1716.8523,1660.8943,1716.2661,1500.0,1500.0,nan,nan,nan,nan,nan,nan,nan,nan,nan,nan
2630528000,6,1655.9602,1718.9143,1659.6047,1720.0868,1500.0,1500.0,nan,nan,nan,nan,nan,nan,nan,nan,nan,nan
2630628000,6,1650.9534,1729.6086,1653.1342,1729.7228,1500.0,1500.0,nan,nan,nan,nan,nan,nan,nan,nan,nan,nan
2630728000,6,1652.9644,1719.875,1653.8796,1720.1249,1500.0,1500.0,nan,nan,nan,nan,nan,nan,nan,nan,nan,nan
2630824000,6,1653.5267,1719.6049,1660.7538,1717.7317,1500.0,1500.0,nan,nan,nan,nan,nan,nan,nan,nan,nan,nan
2630928000,6,1656.3237,1715.0876,1658.3722,1716.8668,1500.0,1500.0,nan,nan,nan,nan,nan,nan,nan,nan,nan,nan
2631024000,6,1651.6123,1730.3262,1654.2574,1729.6348,1500.0,1500.0,nan,nan,nan,nan,nan,nan,nan,nan,nan,nan
2631124000,6,1653.0012,1721.3195,1655.4341,1724.7257,1500.0,1500.0,nan,nan,nan,nan,nan,nan,nan,nan,nan,nan
2631228000,6,1654.4568,1721.6045,1657.2186,1721.331,1500.0,1500.0,nan,nan,nan,nan,nan,nan,nan,nan,nan,nan
2631324000,6,1655.4104,1718.3947,1659.1477,1716.0251,1500.0,1500.0,nan,nan,nan,nan,nan,nan,nan,nan,nan,nan
2631424000,6,1655.7941,1716.2676,1659.6451,1718.3285,1500.0,1500.0,nan,nan,nan,nan,nan,nan,nan,nan,nan,nan
2631524000,6,1654.0575,1717.4734,1657.1042,1717.8613,1500.0,1500.0,nan,nan,nan,nan,nan,nan,nan,nan,nan,nan
2631628000,6,1648.0359,1728.7805,1654.7395,1728.3518,1500.0,1500.0,nan,nan,nan,nan,nan,nan,nan,nan,nan,nan
2631728000,6,1653.5457,1727.3373,1659.4082,1724.3042,1500.0,1500.0,nan,nan,nan,nan,nan,nan,nan,nan,nan,nan
2631828000,6,1655.4277,1722.7307,1656.5676,1722.6802,1500.0,1500.0,nan,nan,nan,nan,nan,nan,nan,nan,nan,nan
2631928000,6,1655.5409,1720.5303,1658.7943,1718.5424,1500.0,1500.0,nan,nan,nan,nan,nan,nan,nan,nan,nan,nan
2632028000,6,1652.37,1719.3928,1654.87,1720.2931,1500.0,1500.0,nan,nan,nan,nan,nan,nan,nan,nan,nan,nan
2632124000,6,1654.4619,1720.9586,1657.738,1721.0562,1500.0,1500.0,nan,nan,nan,nan,nan,nan,nan,nan,nan,nan
2632224000,6,1652.0863,1725.1428,1654.8502,1726.092,1500.0,1500.0,nan,nan,nan,nan,nan,nan,nan,nan,nan,nan
2632324000,6,1651.69,1722.9265,1657.5505,1722.5835,1500.0,1500.0,nan,nan,nan,nan,nan,nan,nan,nan,nan,nan
2632424000,6,1654.6284,1723.9523,1659.9718,1723.8904,1500.0,1500.0,nan,nan,nan,nan,nan,nan,nan,nan,nan,nan
2632524000,6,1656.3507,1721.4978,1658.8818,1717.6671,1500.0,1500.0,nan,nan,nan,nan,nan,nan,nan,nan,nan,nan
2632624000,6,1652.5825,1722.1531,1657.7819,1722.2242,1500.0,1500.0,nan,nan,nan,nan,nan,nan,nan,nan,nan,nan
2632724000,6,1650.7792,1731.1636,1654.9462,1730.3323,1500.0,1500.0,nan,nan,nan,nan,nan,nan,nan,nan,nan,nan
2632828000,6,1652.3914,1728.0321,1657.7903,1729.5028,1500.0,1500.0,nan,nan,nan,nan,nan,nan,nan,nan,nan,nan
2632928000,6,1657.7366,1722.7179,1658.1334,1724.1593,1500.0,1500.0,nan,nan,nan,nan,nan,nan,nan,nan,nan,nan
2633028000,6,1657.6279,1718.12,1658.4294,1719.9954,1500.0,1500.0,nan,nan,nan,nan,nan,nan,nan,nan,nan,nan
2633128000,6,1655.3475,1719.1515,1660.1791,1718.6001,1500.0,1500.0,nan,nan,nan,nan,nan,nan,nan,nan,nan,nan
2633224000,6,1651.2236,1728.8016,1654.9338,1730.621,1500.0,1500.0,nan,nan,nan,nan,nan,nan,nan,nan,nan,nan
2633328000,6,1655.8575,1722.5986,1659.3213,1721.1239,1500.0,1500.0,nan,nan,nan,nan,nan,nan,nan,nan,nan,nan
2633428000,6,1654.0505,1724.2322,1656.6082,1723.6033,1500.0,1500.0,nan,nan,nan,nan,nan,nan,nan,nan,nan,nan
2633524000,6,1652.4033,1720.2628,1657.0156,1723.0251,1500.0,1500.0,nan,nan,nan,nan,nan,nan,nan,nan,nan,nan
2633628000,6,1650.0844,1729.788,1654.345,1728.6238,1500.0,1500.0,nan,nan,nan,nan,nan,nan,nan,nan,nan,nan
2633728000,6,1653.4248,1726.3356,1654.1108,1728.1243,1500.0,1500.0,nan,nan,nan,nan,nan,nan,nan,nan,nan,nan
2633824000,6,1655.2039,1721.5485,1659.1572,1724.3214,1500.0,1500.0,nan,nan,nan,nan,nan,nan,nan,nan,nan,nan
2633928000,6,1654.1443,1719.6761,1660.6222,1718.75,1500.0,1500.0,nan,nan,nan,nan,nan,nan,nan,nan,nan,nan
2634028000,6,1655.5321,1720.2258,1659.7571,1719.1154,1500.0,1500.0,nan,nan,nan,nan,nan,nan,nan,nan,nan,nan
2634128000,6,1652.0531,1731.3479,1655.5709,1731.9729,1500.0,1500.0,nan,nan,nan,nan,nan,nan,nan,nan,nan,nan
2634224000,6,1658.2415,1721.9187,1658.3403,1726.9749,1500.0,1500.0,nan,nan,nan,nan,nan,nan,nan,nan,nan,nan
2634328000,6,1654.5922,1726.3975,1658.0835,1725.932,1500.0,1500.0,nan,nan,nan,nan,nan,nan,nan,nan,nan,nan
2634424000,6,1654.7698,1722.0646,1660.3135,1725.2175,1500.0,1500.0,nan,nan,nan,nan,nan,nan,nan,nan,nan,nan
2634524000,6,1653.1837,1733.1879,1655.2175,1732.6125,1500.0,1500.0,nan,nan,nan,nan,nan,nan,nan,nan,nan,nan
2634624000,6,1655.4482,1726.7489,1662.3107,1726.252,1500.0,1500.0,nan,nan,nan,nan,nan,nan,nan,nan,nan,nan
2634724000,6,1659.0935,1719.8812,1663.985,1720.0266,1500.0,1500.0,nan,nan,nan,nan,nan,nan,nan,nan,nan,nan
2634828000,6,1659.3279,1723.7098,1665.8702,1724.947,1500.0,1500.0,nan,nan,nan,nan,nan,nan,nan,nan,nan,nan
2634928000,6,1660.4241,1722.9088,1665.1495,1720.7968,1500.0,1500.0,nan,nan,nan,nan,nan,nan,nan,nan,nan,nan
2635028000,6,1656.1727,1726.0521,1660.1764,1726.9491,1500.0,1500.0,nan,nan,nan,nan,nan,nan,nan,nan,nan,nan
2635128000,6,1654.8055,1733.3938,1657.5538,1734.8469,1500.0,1500.0,nan,nan,nan,nan,nan,nan,nan,nan,nan,nan
2635224000,6,1657.1713,1728.8534,1663.6926,1728.2478,1500.0,1500.0,nan,nan,nan,nan,nan,nan,nan,nan,nan,nan
2635324000,6,1660.4045,1723.8867,1663.4604,1726.1567,1500.0,1500.0,nan,nan,nan,nan,nan,nan,nan,nan,nan,nan
2635424000,6,1658.9263,1724.1937,1662.6589,1724.9508,1500.0,1500.0,nan,nan,nan,nan,nan,nan,nan,nan,nan,nan
2635528000,6,1654.396,1735.1299,1658.965,1735.98,1500.0,1500.0,nan,nan,nan,nan,nan,nan,nan,nan,nan,nan
2635628000,6,1654.1938,1735.8029,1662.4264,1733.1675,1500.0,1500.0,nan,nan,nan,nan,nan,nan,nan,nan,nan,nan
2635724000,6,1659.1221,1731.213,1664.3625,1728.4951,1500.0,1500.0,nan,nan,nan,nan,nan,nan,nan,nan,nan,nan
2635828000,6,1661.7133,1727.0024,1662.7124,1724.0688,1500.0,1500.0,nan,nan,nan,nan,nan,nan,nan,nan,nan,nan
2635928000,6,1658.9634,1725.4651,1664.0366,1725.9678,1500.0,1500.0,nan,nan,nan,nan,nan,nan,nan,nan,nan,nan
2636024000,6,1656.0885,1734.7312,1659.1805,1735.318,1500.0,1500.0,nan,nan,nan,nan,nan,nan,nan,nan,nan,nan
2636128000,6,1658.9221,1731.8405,1659.7506,1732.2682,1500.0,1500.0,nan,nan,nan,nan,nan,nan,nan,nan,nan,nan
2636224000,6,1656.7883,1730.2424,1662.78,1728.7821,1500.0,1500.0,nan,nan,nan,nan,nan,nan,nan,nan,nan,nan
2636328000,6,1657.6323,1726.303,1664.6562,1724.419,1500.0,1500.0,nan,nan,nan,nan,nan,nan,nan,nan,nan,nan
2636424000,6,1654.12,1737.8993,1660.6316,1734.0385,1500.0,1500.0,nan,nan,nan,nan,nan,nan,nan,nan,nan,nan
2636524000,6,1658.8037,1733.049,1661.7393,1734.8322,1500.0,1500.0,nan,nan,nan,nan,nan,nan,nan,nan,nan,nan
2636628000,6,1658.4644,1729.1383,1664.9493,1729.0917,1500.0,1500.0,nan,nan,nan,nan,nan,nan,nan,nan,nan,nan
2636724000,6,1659.233,1727.354,1661.3108,1729.7399,1500.0,1500.0,nan,nan,nan,nan,nan,nan,nan,nan,nan,nan
2636824000,6,1662.8761,1723.7217,1665.1327,1724.6487,1500.0,1500.0,nan,nan,nan,nan,nan,nan,nan,nan,nan,nan
2636924000,6,1656.1638,1736.6052,1663.0164,1737.96,1500.0,1500.0,nan,nan,nan,nan,nan,nan,nan,nan,nan,nan
2637024000,6,1659.267,1732.2871,1661.8915,1733.5468,1500.0,1500.0,nan,nan,nan,nan,nan,nan,nan,nan,nan,nan
2637124000,6,1658.7185,1730.1454,1660.7761,1729.9308,1500.0,1500.0,nan,nan,nan,nan,nan,nan,nan,nan,nan,nan
2637228000,6,1659.9645,1727.0835,1660.5216,1730.8564,1500.0,1500.0,nan,nan,nan,nan,nan,nan,nan,nan,nan,nan
2637328000,6,1661.9929,1723.8789,1663.9276,1727.3052,1500.0,1500.0,nan,nan,nan,nan,nan,nan,nan,nan,nan,nan
2637428000,6,1657.0483,1734.6978,1659.4016,1738.1423,1500.0,1500.0,nan,nan,nan,nan,nan,nan,nan,nan,nan,nan
2637524000,6,1659.2386,1731.6829,1661.3429,1731.498,1500.0,1500.0,nan,nan,nan,nan,nan,nan,nan,nan,nan,nan
2637628000,6,1656.729,1731.1401,1662.2521,1731.5638,1500.0,1500.0,nan,nan,nan,nan,nan,nan,nan,nan,nan,nan
2637728000,6,1661.0908,1727.7119,1660.541,1731.0876,1500.0,1500.0,nan,nan,nan,nan,nan,nan,nan,nan,nan,nan
2637824000,6,1659.6416,1725.6455,1663.2975,1725.6564,1500.0,1500.0,nan,nan,nan,nan,nan,nan,nan,nan,nan,nan
2637928000,6,1660.0214,1723.865,1663.7083,1726.448,1500.0,1500.0,nan,nan,nan,nan,nan,nan,nan,nan,nan,nan
2638024000,6,1655.1656,1735.3677,1661.1987,1731.9586,1500.0,1500.0,nan,nan,nan,nan,nan,nan,nan,nan,nan,nan
2638124000,6,1656.4022,1730.2292,1666.3408,1726.9867,1500.0,1500.0,nan,nan,nan,nan,nan,nan,nan,nan,nan,nan
2638228000,6,1659.3877,1730.4586,1661.8049,1728.7415,1500.0,1500.0,nan,nan,nan,nan,nan,nan,nan,nan,nan,nan
2638324000,6,1657.1837,1730.7349,1661.0564,1730.1611,1500.0,1500.0,nan,nan,nan,nan,nan,nan,nan,nan,nan,nan
2638428000,6,1659.7949,1730.7709,1663.3655,1728.5156,1500.0,1500.0,nan,nan,nan,nan,nan,nan,nan,nan,nan,nan
2638528000,6,1662.8171,1725.1534,1663.897,1724.5938,1500.0,1500.0,nan,nan,nan,nan,nan,nan,nan,nan,nan,nan
2638624000,6,1654.8541,1734.4584,1660.4067,1736.662,1500.0,1500.0,nan,nan,nan,nan,nan,nan,nan,nan,nan,nan
2638724000,6,1658.7731,1731.0576,1661.9543,1729.6521,1500.0,1500.0,nan,nan,nan,nan,nan,nan,nan,nan,nan,nan
2638828000,6,1657.206,1734.019,1661.7267,1731.3418,1500.0,1500.0,nan,nan,nan,nan,nan,nan,nan,nan,nan,nan
2638928000,6,1660.7417,1722.5476,1665.3857,1723.6418,1500.0,1500.0,nan,nan,nan,nan,nan,nan,nan,nan,nan,nan
2639024000,6,1653.7926,1737.3625,1659.0354,1735.1058,1500.0,1500.0,nan,nan,nan,nan,nan,nan,nan,nan,nan,nan
2639124000,6,1655.5917,1737.2074,1660.9812,1735.6945,1500.0,1500.0,nan,nan,nan,nan,nan,nan,nan,nan,nan,nan
2639228000,6,1660.428,1731.4282,1662.4705,1729.5078,1500.0,1500.0,nan,nan,nan,nan,nan,nan,nan,nan,nan,nan
2639328000,6,1657.1799,1730.7561,1662.4664,1729.8834,1500.0,1500.0,nan,nan,nan,nan,nan,nan,nan,nan,nan,nan
2639424000,6,1658.0852,1728.2407,1663.3047,1726.1641,1500.0,1500.0,nan,nan,nan,nan,nan,nan,nan,nan,nan,nan
2639524000,6,1654.2854,1736.994,1658.5831,1736.3405,1500.0,1500.0,nan,nan,nan,nan,nan,nan,nan,nan,nan,nan
2639628000,6,1658.041,1734.4193,1660.7313,1738.1868,1500.0,1500.0,nan,nan,nan,nan,nan,nan,nan,nan,nan,nan
2639724000,6,1658.5892,1730.3828,1663.1084,1728.7642,1500.0,1500.0,nan,nan,nan,nan,nan,nan,nan,nan,nan,nan
2639828000,6,1664.4781,1729.9229,1667.6196,1728.4462,1500.0,1500.0,nan,nan,nan,nan,nan,nan,nan,nan,nan,nan
2639928000,6,1664.2921,1726.9641,1665.8484,1729.2297,1500.0,1500.0,nan,nan,nan,nan,nan,nan,nan,nan,nan,nan
2640028000,6,1658.6023,1736.8376,1662.1626,1740.1704,1500.0,1500.0,nan,nan,nan,nan,nan,nan,nan,nan,nan,nan
2640124000,6,1660.0881,1732.4211,1663.9523,1735.5763,1500.0,1500.0,nan,nan,nan,nan,nan,nan,nan,nan,nan,nan
2640224000,6,1660.7557,1731.4915,1666.1904,1731.9812,1500.0,1500.0,nan,nan,nan,nan,nan,nan,nan,nan,nan,nan
2640324000,6,1661.4758,1726.2798,1665.2063,1725.5945,1500.0,1500.0,nan,nan,nan,nan,nan,nan,nan,nan,nan,nan
2640424000,6,1656.5386,1738.083,1662.2408,1736.1704,1500.0,1500.0,nan,nan,nan,nan,nan,nan,nan,nan,nan,nan
2640524000,6,1661.2417,1736.9854,1664.4224,1736.7681,1500.0,1500.0,nan,nan,nan,nan,nan,nan,nan,nan,nan,nan
2640624000,6,1659.8419,1733.8901,1662.1794,1732.5422,1500.0,1500.0,nan,nan,nan,nan,nan,nan,nan,nan,nan,nan
2640724000,6,1661.2303,1729.0483,1663.217,1728.4253,1500.0,1500.0,nan,nan,nan,nan,nan,nan,nan,nan,nan,nan
2640824000,6,1661.606,1723.3502,1666.2323,1725.6337,1500.0,1500.0,nan,nan,nan,nan,nan,nan,nan,nan,nan,nan
2640924000,6,1659.069,1734.3488,1663.1813,1734.941,1500.0,1500.0,nan,nan,nan,nan,nan,nan,nan,nan,nan,nan
2641024000,6,1661.3881,1731.3346,1668.2104,1729.727,1500.0,1500.0,nan,nan,nan,nan,nan,nan,nan,nan,nan,nan
2641128000,6,1660.8751,1731.337,1663.772,1734.8855,1500.0,1500.0,nan,nan,nan,nan,nan,nan,nan,nan,nan,nan
2641228000,6,1663.2375,1731.6248,1665.201,1731.5486,1500.0,1500.0,nan,nan,nan,nan,nan,nan,nan,nan,nan,nan
2641324000,6,1660.7039,1726.4858,1662.279,1728.2693,1500.0,1500.0,nan,nan,nan,nan,nan,nan,nan,nan,nan,nan
2641424000,6,1663.4982,1727.6064,1665.7993,1728.2847,1500.0,1500.0,nan,nan,nan,nan,nan,nan,nan,nan,nan,nan
2641528000,6,1658.081,1740.6736,1659.9055,1742.0216,1500.0,1500.0,nan,nan,nan,nan,nan,nan,nan,nan,nan,nan
2641624000,6,1658.6785,1732.9532,1664.2158,1734.8892,1500.0,1500.0,nan,nan,nan,nan,nan,nan,nan,nan,nan,nan
2641724000,6,1661.9216,1734.253,1665.8533,1734.2732,1500.0,1500.0,nan,nan,nan,nan,nan,nan,nan,nan,nan,nan
2641828000,6,1660.1222,1733.5426,1665.362,1730.6349,1500.0,1500.0,nan,nan,nan,nan,nan,nan,nan,nan,nan,nan
2641924000,6,1660.7904,1728.1562,1665.5483,1727.9617,1500.0,1500.0,nan,nan,nan,nan,nan,nan,nan,nan,nan,nan
2642024000,6,1657.0404,1736.0187,1661.7869,1735.6564,1500.0,1500.0,nan,nan,nan,nan,nan,nan,nan,nan,nan,nan
2642128000,6,1664.5535,1731.7876,1668.3408,1732.1077,1500.0,1500.0,nan,nan,nan,nan,nan,nan,nan,nan,nan,nan
2642228000,6,1662.8947,1733.5697,1667.2346,1730.8534,1500.0,1500.0,nan,nan,nan,nan,nan,nan,nan,nan,nan,nan
2642328000,6,1662.965,1728.9507,1663.5623,1728.9176,1500.0,1500.0,nan,nan,nan,nan,nan,nan,nan,nan,nan,nan
2642424000,6,1656.2949,1739.4188,1662.5132,1737.664,1500.0,1500.0,nan,nan,nan,nan,nan,nan,nan,nan,nan,nan
2642524000,6,1656.1149,1737.3124,1660.6383,1741.0596,1500.0,1500.0,nan,nan,nan,nan,nan,nan,nan,nan,nan,nan
2642624000,6,1657.9312,1734.6667,1664.8849,1732.6344,1500.0,1500.0,nan,nan,nan,nan,nan,nan,nan,nan,nan,nan
2642724000,6,1662.8799,1729.97,1662.9175,1732.4584,1500.0,1500.0,nan,nan,nan,nan,nan,nan,nan,nan,nan,nan
2642824000,6,1662.581,1727.09,1664.2194,1727.0206,1500.0,1500.0,nan,nan,nan,nan,nan,nan,nan,nan,nan,nan
2642928000,6,1656.1449,1736.9291,1661.7559,1738.4508,1500.0,1500.0,nan,nan,nan,nan,nan,nan,nan,nan,nan,nan
2643024000,6,1658.308,1736.3381,1663.1155,1736.1752,1500.0,1500.0,nan,nan,nan,nan,nan,nan,nan,nan,nan,nan
2643124000,6,1657.6372,1732.4874,1663.0748,1733.0028,1500.0,1500.0,nan,nan,nan,nan,nan,nan,nan,nan,nan,nan
2643228000,6,1661.1006,1730.6553,1662.8794,1730.6604,1500.0,1500.0,nan,nan,nan,nan,nan,nan,nan,nan,nan,nan
2643328000,6,1660.042,1728.981,1667.2717,1728.7601,1500.0,1500.0,nan,nan,nan,nan,nan,nan,nan,nan,nan,nan
2643424000,6,1658.6455,1735.2809,1660.2988,1737.4784,1500.0,1500.0,nan,nan,nan,nan,nan,nan,nan,nan,nan,nan
2643524000,6,1656.4062,1733.2131,1663.0122,1731.813,1500.0,1500.0,nan,nan,nan,nan,nan,nan,nan,nan,nan,nan
2643628000,6,1660.6403,1728.5394,1664.7483,1730.0924,1500.0,1500.0,nan,nan,nan,nan,nan,nan,nan,nan,nan,nan
2643724000,6,1664.2439,1724.4069,1666.5266,1723.118,1500.0,1500.0,nan,nan,nan,nan,nan,nan,nan,nan,nan,nan
2643828000,6,1662.0531,1731.2472,1665.0413,1731.7562,1500.0,1500.0,nan,nan,nan,nan,nan,nan,nan,nan,nan,nan
2643928000,6,1660.8997,1732.1748,1662.5802,1737.2002,1500.0,1500.0,nan,nan,nan,nan,nan,nan,nan,nan,nan,nan
2644028000,6,1657.7122,1737.1489,1662.8091,1738.5211,1500.0,1500.0,nan,nan,nan,nan,nan,nan,nan,nan,nan,nan
2644128000,6,1659.992,1730.6136,1663.153,1730.9268,1500.0,1500.0,nan,nan,nan,nan,nan,nan,nan,nan,nan,nan
2644224000,6,1662.0504,1724.7212,1669.1064,1724.8636,1500.0,1500.0,nan,nan,nan,nan,nan,nan,nan,nan,nan,nan
2644324000,6,1658.7305,1728.3953,1663.3684,1726.2603,1500.0,1500.0,nan,nan,nan,nan,nan,nan,nan,nan,nan,nan
2644428000,6,1659.0247,1737.7023,1664.7556,1736.0961,1500.0,1500.0,nan,nan,nan,nan,nan,nan,nan,nan,nan,nan
2644528000,6,1655.9928,1740.4033,1659.2405,1740.0322,1500.0,1500.0,nan,nan,nan,nan,nan,nan,nan,nan,nan,nan
2644628000,6,1660.6548,1731.9641,1661.8292,1734.7471,1500.0,1500.0,nan,nan,nan,nan,nan,nan,nan,nan,nan,nan
2644728000,6,1660.8606,1730.0322,1667.5879,1730.9045,1500.0,1500.0,nan,nan,nan,nan,nan,nan,nan,nan,nan,nan
2644828000,6,1661.1244,1731.9165,1665.9034,1728.5657,1500.0,1500.0,nan,nan,nan,nan,nan,nan,nan,nan,nan,nan
2644928000,6,1661.6791,1735.5863,1666.2942,1738.7134,1500.0,1500.0,nan,nan,nan,nan,nan,nan,nan,nan,nan,nan
2645028000,6,1662.8042,1733.7423,1667.7264,1736.191,1500.0,1500.0,nan,nan,nan,nan,nan,nan,nan,nan,nan,nan
2645124000,6,1666.939,1734.3164,1670.1211,1735.7144,1500.0,1500.0,nan,nan,nan,nan,nan,nan,nan,nan,nan,nan
2645224000,6,1663.2058,1732.474,1666.7102,1732.4626,1500.0,1500.0,nan,nan,nan,nan,nan,nan,nan,nan,nan,nan
2645328000,6,1660.6829,1744.944,1664.8822,1742.9373,1500.0,1500.0,nan,nan,nan,nan,nan,nan,nan,nan,nan,nan
2645428000,6,1659.8533,1744.2134,1666.7867,1740.086,1500.0,1500.0,nan,nan,nan,nan,nan,nan,nan,nan,nan,nan
2645524000,6,1662.8873,1734.9646,1671.9893,1733.5135,1500.0,1500.0,nan,nan,nan,nan,nan,nan,nan,nan,nan,nan
2645624000,6,1664.7032,1733.6436,1670.8301,1731.0392,1500.0,1500.0,nan,nan,nan,nan,nan,nan,nan,nan,nan,nan
2645724000,6,1663.924,1733.9972,1669.227,1731.6332,1500.0,1500.0,nan,nan,nan,nan,nan,nan,nan,nan,nan,nan
2645824000,6,1661.454,1741.7373,1665.4453,1744.5366,1500.0,1500.0,nan,nan,nan,nan,nan,nan,nan,nan,nan,nan
2645928000,6,1660.1722,1742.6409,1662.8691,1742.1862,1500.0,1500.0,nan,nan,nan,nan,nan,nan,nan,nan,nan,nan
2646024000,6,1661.8038,1737.375,1669.5043,1737.2642,1500.0,1500.0,nan,nan,nan,nan,nan,nan,nan,nan,nan,nan
2646124000,6,1663.8348,1732.4279,1668.2312,1733.572,1500.0,1500.0,nan,nan,nan,nan,nan,nan,nan,nan,nan,nan
2646228000,6,1661.6727,1733.9247,1667.5767,1734.6895,1500.0,1500.0,nan,nan,nan,nan,nan,nan,nan,nan,nan,nan
2646328000,6,1659.3578,1744.293,1664.1375,1744.835,1500.0,1500.0,nan,nan,nan,nan,nan,nan,nan,nan,nan,nan
2646428000,6,1659.3488,1736.9031,1663.2317,1738.4841,1500.0,1500.0,nan,nan,nan,nan,nan,nan,nan,nan,nan,nan
2646524000,6,1663.5737,1729.924,1669.6788,1730.24,1500.0,1500.0,nan,nan,nan,nan,nan,nan,nan,nan,nan,nan
2646628000,6,1665.0199,1731.5936,1670.099,1732.2689,1500.0,1500.0,nan,nan,nan,nan,nan,nan,nan,nan,nan,nan
2646724000,6,1662.1545,1744.1514,1664.2261,1741.7429,1500.0,1500.0,nan,nan,nan,nan,nan,nan,nan,nan,nan,nan
2646828000,6,1662.7148,1739.2833,1666.3894,1741.2638,1500.0,1500.0,nan,nan,nan,nan,nan,nan,nan,nan,nan,nan
2646924000,6,1663.875,1736.3544,1667.8673,1735.2513,1500.0,1500.0,nan,nan,nan,nan,nan,nan,nan,nan,nan,nan
2647028000,6,1661.6741,1736.0947,1666.2155,1735.8053,1500.0,1500.0,nan,nan,nan,nan,nan,nan,nan,nan,nan,nan
2647124000,6,1662.0498,1731.0737,1665.1322,1732.0732,1500.0,1500.0,nan,nan,nan,nan,nan,nan,nan,nan,nan,nan
2647228000,6,1660.3335,1742.2515,1665.7897,1741.1239,1500.0,1500.0,nan,nan,nan,nan,nan,nan,nan,nan,nan,nan
2647328000,6,1661.6887,1740.0361,1666.7306,1740.7765,1500.0,1500.0,nan,nan,nan,nan,nan,nan,nan,nan,nan,nan
2647424000,6,1659.5535,1739.8538,1665.4463,1737.0105,1500.0,1500.0,nan,nan,nan,nan,nan,nan,nan,nan,nan,nan
2647524000,6,1663.7076,1733.1593,1665.2672,1733.3502,1500.0,1500.0,nan,nan,nan,nan,nan,nan,nan,nan,nan,nan
2647624000,6,1660.3424,1743.5214,1665.2095,1744.185,1500.0,1500.0,nan,nan,nan,nan,nan,nan,nan,nan,nan,nan
2647724000,6,1660.8604,1740.3461,1666.9752,1743.8518,1500.0,1500.0,nan,nan,nan,nan,nan,nan,nan,nan,nan,nan
2647824000,6,1663.5906,1735.8323,1665.4668,1737.9069,1500.0,1500.0,nan,nan,nan,nan,nan,nan,nan,nan,nan,nan
2647924000,6,1662.2657,1736.5776,1668.7915,1735.8083,1500.0,1500.0,nan,nan,nan,nan,nan,nan,nan,nan,nan,nan
2648028000,6,1666.9641,1728.5709,1668.4794,1730.503,1500.0,1500.0,nan,nan,nan,nan,nan,nan,nan,nan,nan,nan
2648124000,6,1659.5449,1740.4175,1662.0139,1741.6113,1500.0,1500.0,nan,nan,nan,nan,nan,nan,nan,nan,nan,nan
2648228000,6,1659.1353,1741.6809,1663.9775,1738.5673,1500.0,1500.0,nan,nan,nan,nan,nan,nan,nan,nan,nan,nan
2648328000,6,1663.2404,1736.424,1665.8683,1737.7952,1500.0,1500.0,nan,nan,nan,nan,nan,nan,nan,nan,nan,nan
2648428000,6,1662.9288,1733.067,1670.3512,1732.7975,1500.0,1500.0,nan,nan,nan,nan,nan,nan,nan,nan,nan,nan
2648524000,6,1665.5403,1729.2894,1666.519,1733.3684,1500.0,1500.0,nan,nan,nan,nan,nan,nan,nan,nan,nan,nan
2648628000,6,1655.7299,1742.2523,1662.8171,1744.2605,1500.0,1500.0,nan,nan,nan,nan,nan,nan,nan,nan,nan,nan
2648724000,6,1662.5017,1736.8353,1665.9506,1736.7059,1500.0,1500.0,nan,nan,nan,nan,nan,nan,nan,nan,nan,nan
2648824000,6,1664.118,1733.0801,1668.3407,1732.6592,1500.0,1500.0,nan,nan,nan,nan,nan,nan,nan,nan,nan,nan
2648928000,6,1662.6499,1732.1913,1665.9546,1732.7776,1500.0,1500.0,nan,nan,nan,nan,nan,nan,nan,nan,nan,nan
2649028000,6,1663.0946,1729.6523,1667.0269,1731.6442,1500.0,1500.0,nan,nan,nan,nan,nan,nan,nan,nan,nan,nan
2649124000,6,1658.25,1739.8947,1659.9161,1742.3473,1500.0,1500.0,nan,nan,nan,nan,nan,nan,nan,nan,nan,nan
2649224000,6,1659.7161,1733.6885,1663.8347,1735.0052,1500.0,1500.0,nan,nan,nan,nan,nan,nan,nan,nan,nan,nan
2649328000,6,1664.8135,1733.1135,1663.8453,1732.5282,1500.0,1500.0,nan,nan,nan,nan,nan,nan,nan,nan,nan,nan
2649428000,6,1665.3129,1727.3566,1669.7555,1730.9635,1500.0,1500.0,nan,nan,nan,nan,nan,nan,nan,nan,nan,nan
2649524000,6,1657.4281,1743.2518,1659.9633,1744.5986,1500.0,1500.0,nan,nan,nan,nan,nan,nan,nan,nan,nan,nan
2649624000,6,1659.4802,1734.5319,1664.9741,1737.0739,1500.0,1500.0,nan,nan,nan,nan,nan,nan,nan,nan,nan,nan
2649724000,6,1661.3135,1735.4692,1666.5472,1734.6804,1500.0,1500.0,nan,nan,nan,nan,nan,nan,nan,nan,nan,nan
2649824000,6,1665.4803,1731.2119,1665.8804,1734.7358,1500.0,1500.0,nan,nan,nan,nan,nan,nan,nan,nan,nan,nan
2649928000,6,1665.9996,1728.7831,1667.9374,1734.7836,1500.0,1500.0,nan,nan,nan,nan,nan,nan,nan,nan,nan,nan
2650024000,6,1660.2039,1739.9497,1666.6614,1741.5548,1500.0,1500.0,nan,nan,nan,nan,nan,nan,nan,nan,nan,nan
2650124000,6,1665.3591,1734.3506,1669.6849,1735.2264,1500.0,1500.0,nan,nan,nan,nan,nan,nan,nan,nan,nan,nan
2650224000,6,1665.5342,1738.6235,1668.9464,1737.9297,1500.0,1500.0,nan,nan,nan,nan,nan,nan,nan,nan,nan,nan
2650324000,6,1670.7698,1733.4009,1669.1039,1738.0084,1500.0,1500.0,nan,nan,nan,nan,nan,nan,nan,nan,nan,nan
2650428000,6,1666.2007,1735.019,1669.8,1735.095,1500.0,1500.0,nan,nan,nan,nan,nan,nan,nan,nan,nan,nan
2650528000,6,1664.3713,1741.6847,1666.1764,1744.0411,1500.0,1500.0,nan,nan,nan,nan,nan,nan,nan,nan,nan,nan
2650624000,6,1666.9688,1738.7697,1669.9623,1738.7964,1500.0,1500.0,nan,nan,nan,nan,nan,nan,nan,nan,nan,nan
2650724000,6,1670.6201,1732.2262,1673.0781,1732.0375,1500.0,1500.0,nan,nan,nan,nan,nan,nan,nan,nan,nan,nan
2650824000,6,1665.8696,1734.5433,1670.4941,1734.2617,1500.0,1500.0,nan,nan,nan,nan,nan,nan,nan,nan,nan,nan
2650924000,6,1663.012,1745.0857,1666.8735,1744.7878,1500.0,1500.0,nan,nan,nan,nan,nan,nan,nan,nan,nan,nan
2651028000,6,1661.6139,1742.2277,1665.534,1743.8857,1500.0,1500.0,nan,nan,nan,nan,nan,nan,nan,nan,nan,nan
2651124000,6,1665.5042,1738.9153,1670.6273,1736.6973,1500.0,1500.0,nan,nan,nan,nan,nan,nan,nan,nan,nan,nan
2651228000,6,1667.1638,1735.1624,1672.748,1732.3253,1500.0,1500.0,nan,nan,nan,nan,nan,nan,nan,nan,nan,nan
2651328000,6,1664.5405,1735.9304,1666.354,1740.3372,1500.0,1500.0,nan,nan,nan,nan,nan,nan,nan,nan,nan,nan
2651424000,6,1663.4958,1743.9666,1667.9207,1744.2197,1500.0,1500.0,nan,nan,nan,nan,nan,nan,nan,nan,nan,nan
2651528000,6,1666.7609,1738.5354,1669.0857,1740.2473,1500.0,1500.0,nan,nan,nan,nan,nan,nan,nan,nan,nan,nan
2651624000,6,1664.373,1735.6777,1671.5487,1735.4509,1500.0,1500.0,nan,nan,nan,nan,nan,nan,nan,nan,nan,nan
2651728000,6,1665.967,1732.997,1670.4247,1733.7164,1500.0,1500.0,nan,nan,nan,nan,nan,nan,nan,nan,nan,nan
2651828000,6,1666.9535,1735.9319,1668.4133,1735.6812,1500.0,1500.0,nan,nan,nan,nan,nan,nan,nan,nan,nan,nan
2651924000,6,1658.9406,1748.4973,1663.9001,1746.2157,1500.0,1500.0,nan,nan,nan,nan,nan,nan,nan,nan,nan,nan
2652028000,6,1659.9563,1741.1836,1665.6699,1738.2765,1500.0,1500.0,nan,nan,nan,nan,nan,nan,nan,nan,nan,nan
2652128000,6,1667.2971,1737.5892,1667.9147,1739.1251,1500.0,1500.0,nan,nan,nan,nan,nan,nan,nan,nan,nan,nan
2652228000,6,1668.3784,1734.76,1673.1068,1734.3995,1500.0,1500.0,nan,nan,nan,nan,nan,nan,nan,nan,nan,nan
2652324000,6,1665.6913,1745.523,1668.6245,1750.4637,1500.0,1500.0,nan,nan,nan,nan,nan,nan,nan,nan,nan,nan
2652428000,6,1659.405,1747.7336,1666.505,1746.615,1500.0,1500.0,nan,nan,nan,nan,nan,nan,nan,nan,nan,nan
2652528000,6,1666.3658,1736.7968,1669.027,1738.4552,1500.0,1500.0,nan,nan,nan,nan,nan,nan,nan,nan,nan,nan
2652624000,6,1671.1262,1735.237,1671.503,1734.4355,1500.0,1500.0,nan,nan,nan,nan,nan,nan,nan,nan,nan,nan
2652724000,6,1666.2554,1732.5321,1670.8398,1736.0294,1500.0,1500.0,nan,nan,nan,nan,nan,nan,nan,nan,nan,nan
2652824000,6,1664.8794,1742.4183,1671.135,1744.2838,1500.0,1500.0,nan,nan,nan,nan,nan,nan,nan,nan,nan,nan
2652924000,6,1664.326,1741.107,1666.7115,1743.2938,1500.0,1500.0,nan,nan,nan,nan,nan,nan,nan,nan,nan,nan
2653028000,6,1665.6841,1736.7905,1667.9888,1739.8104,1500.0,1500.0,nan,nan,nan,nan,nan,nan,nan,nan,nan,nan
2653124000,6,1665.9305,1733.243,1668.9805,1735.3743,1500.0,1500.0,nan,nan,nan,nan,nan,nan,nan,nan,nan,nan
2653228000,6,1664.6597,1733.9606,1669.979,1733.2296,1500.0,1500.0,nan,nan,nan,nan,nan,nan,nan,nan,nan,nan
2653328000,6,1661.1552,1744.163,1666.833,1743.3566,1500.0,1500.0,nan,nan,nan,nan,nan,nan,nan,nan,nan,nan
2653424000,6,1665.1128,1738.738,1669.4001,1736.8186,1500.0,1500.0,nan,nan,nan,nan,nan,nan,nan,nan,nan,nan
2653524000,6,1664.8408,1740.1626,1669.8951,1736.5599,1500.0,1500.0,nan,nan,nan,nan,nan,nan,nan,nan,nan,nan
2653624000,6,1666.8618,1730.2572,1670.916,1731.0631,1500.0,1500.0,nan,nan,nan,nan,nan,nan,nan,nan,nan,nan
2653724000,6,1662.3894,1741.114,1666.4038,1744.3987,1500.0,1500.0,nan,nan,nan,nan,nan,nan,nan,nan,nan,nan
2653824000,6,1661.7994,1740.762,1665.1501,1744.3486,1500.0,1500.0,nan,nan,nan,nan,nan,nan,nan,nan,nan,nan
2653924000,6,1663.5438,1736.3179,1668.043,1736.9602,1500.0,1500.0,nan,nan,nan,nan,nan,nan,nan,nan,nan,nan
2654024000,6,1668.1371,1730.8549,1670.5625,1733.1412,1500.0,1500.0,nan,nan,nan,nan,nan,nan,nan,nan,nan,nan
2654124000,6,1664.8632,1734.4742,1669.9183,1732.9115,1500.0,1500.0,nan,nan,nan,nan,nan,nan,nan,nan,nan,nan
2654224000,6,1659.583,1740.7694,1664.222,1738.9916,1500.0,1500.0,nan,nan,nan,nan,nan,nan,nan,nan,nan,nan
2654324000,6,1665.1328,1735.2719,1667.2784,1737.5942,1500.0,1500.0,nan,nan,nan,nan,nan,nan,nan,nan,nan,nan
2654428000,6,1664.4637,1735.7026,1666.6411,1736.149,1500.0,1500.0,nan,nan,nan,nan,nan,nan,nan,nan,nan,nan
2654528000,6,1667.489,1730.8627,1669.3142,1730.347,1500.0,1500.0,nan,nan,nan,nan,nan,nan,nan,nan,nan,nan
2654624000,6,1660.077,1740.5886,1667.6056,1741.1564,1500.0,1500.0,nan,nan,nan,nan,nan,nan,nan,nan,nan,nan
2654724000,6,1654.6879,1742.6123,1663.4302,1741.0099,1500.0,1500.0,nan,nan,nan,nan,nan,nan,nan,nan,nan,nan
2654824000,6,1663.0222,1733.1945,1668.4426,1732.5575,1500.0,1500.0,nan,nan,nan,nan,nan,nan,nan,nan,nan,nan
2654928000,6,1664.0713,1733.2579,1665.8035,1733.7671,1500.0,1500.0,nan,nan,nan,nan,nan,nan,nan,nan,nan,nan
2655028000,6,1660.4832,1732.4803,1665.3679,1733.9086,1500.0,1500.0,nan,nan,nan,nan,nan,nan,nan,nan,nan,nan
2655124000,6,1656.9862,1741.4332,1661.5474,1742.4922,1500.0,1500.0,nan,nan,nan,nan,nan,nan,nan,nan,nan,nan
2655228000,6,1659.6965,1741.8645,1663.3153,1740.2965,1500.0,1500.0,nan,nan,nan,nan,nan,nan,nan,nan,nan,nan
2655324000,6,1662.2676,1733.2797,1669.0231,1735.3059,1500.0,1500.0,nan,nan,nan,nan,nan,nan,nan,nan,nan,nan
2655424000,6,1667.3076,1731.7423,1671.6708,1731.5896,1500.0,1500.0,nan,nan,nan,nan,nan,nan,nan,nan,nan,nan
2655524000,6,1663.8745,1735.1871,1672.2377,1735.3396,1500.0,1500.0,nan,nan,nan,nan,nan,nan,nan,nan,nan,nan
2655624000,6,1658.936,1744.9683,1666.1293,1743.0951,1500.0,1500.0,nan,nan,nan,nan,nan,nan,nan,nan,nan,nan
2655728000,6,1662.116,1741.6577,1666.7163,1742.2383,1500.0,1500.0,nan,nan,nan,nan,nan,nan,nan,nan,nan,nan
2655828000,6,1667.1868,1735.8008,1670.3416,1737.4777,1500.0,1500.0,nan,nan,nan,nan,nan,nan,nan,nan,nan,nan
2655924000,6,1666.7443,1734.0463,1672.4252,1735.1758,1500.0,1500.0,nan,nan,nan,nan,nan,nan,nan,nan,nan,nan
2656028000,6,1664.3926,1738.0786,1668.5452,1738.8167,1500.0,1500.0,nan,nan,nan,nan,nan,nan,nan,nan,nan,nan
2656128000,6,1660.008,1747.3446,1667.1171,1743.6289,1500.0,1500.0,nan,nan,nan,nan,nan,nan,nan,nan,nan,nan
2656228000,6,1662.5125,1740.7678,1666.9012,1740.6893,1500.0,1500.0,nan,nan,nan,nan,nan,nan,nan,nan,nan,nan
2656328000,6,1664.7819,1739.502,1672.721,1736.1937,1500.0,1500.0,nan,nan,nan,nan,nan,nan,nan,nan,nan,nan
2656424000,6,1664.2383,1740.0878,1668.5575,1738.4255,1500.0,1500.0,nan,nan,nan,nan,nan,nan,nan,nan,nan,nan
2656524000,6,1665.7462,1734.2677,1672.0332,1732.3965,1500.0,1500.0,nan,nan,nan,nan,nan,nan,nan,nan,nan,nan
2656624000,6,1664.2235,1740.9734,1669.0298,1739.6182,1500.0,1500.0,nan,nan,nan,nan,nan,nan,nan,nan,nan,nan
2656724000,6,1662.2955,1745.5558,1668.4596,1742.3167,1500.0,1500.0,nan,nan,nan,nan,nan,nan,nan,nan,nan,nan
2656828000,6,1665.8871,1739.5122,1666.8383,1739.3615,1500.0,1500.0,nan,nan,nan,nan,nan,nan,nan,nan,nan,nan
2656928000,6,1664.1813,1736.4521,1671.5676,1736.7952,1500.0,1500.0,nan,nan,nan,nan,nan,nan,nan,nan,nan,nan
2657024000,6,1666.9645,1740.6465,1670.2064,1738.0042,1500.0,1500.0,nan,nan,nan,nan,nan,nan,nan,nan,nan,nan
2657124000,6,1665.9265,1732.9288,1671.7765,1731.274,1500.0,1500.0,nan,nan,nan,nan,nan,nan,nan,nan,nan,nan
2657224000,6,1664.0211,1745.1521,1666.6145,1745.0027,1500.0,1500.0,nan,nan,nan,nan,nan,nan,nan,nan,nan,nan
2657324000,6,1664.0109,1739.5581,1668.4088,1740.6614,1500.0,1500.0,nan,nan,nan,nan,nan,nan,nan,nan,nan,nan
2657428000,6,1662.6003,1739.5929,1671.0154,1736.8685,1500.0,1500.0,nan,nan,nan,nan,nan,nan,nan,nan,nan,nan
2657524000,6,1666.603,1736.4403,1670.8156,1732.893,1500.0,1500.0,nan,nan,nan,nan,nan,nan,nan,nan,nan,nan
2657628000,6,1665.6869,1732.511,1670.4888,1733.1292,1500.0,1500.0,nan,nan,nan,nan,nan,nan,nan,nan,nan,nan
2657728000,6,1659.1116,1743.7983,1662.9836,1744.2736,1500.0,1500.0,nan,nan,nan,nan,nan,nan,nan,nan,nan,nan
2657828000,6,1663.6945,1744.3923,1667.8381,1742.0143,1500.0,1500.0,nan,nan,nan,nan,nan,nan,nan,nan,nan,nan
2657924000,6,1662.9373,1738.2808,1666.784,1738.6686,1500.0,1500.0,nan,nan,nan,nan,nan,nan,nan,nan,nan,nan
2658024000,6,1664.9983,1732.8303,1672.5664,1729.3064,1500.0,1500.0,nan,nan,nan,nan,nan,nan,nan,nan,nan,nan
2658124000,6,1664.5094,1732.0391,1670.3982,1732.7125,1500.0,1500.0,nan,nan,nan,nan,nan,nan,nan,nan,nan,nan
2658228000,6,1658.9763,1742.9624,1662.5245,1745.357,1500.0,1500.0,nan,nan,nan,nan,nan,nan,nan,nan,nan,nan
2658324000,6,1664.5338,1734.159,1669.947,1734.1018,1500.0,1500.0,nan,nan,nan,nan,nan,nan,nan,nan,nan,nan
2658424000,6,1660.9401,1739.3678,1666.527,1738.8073,1500.0,1500.0,nan,nan,nan,nan,nan,nan,nan,nan,nan,nan
2658528000,6,1661.1781,1738.4854,1666.1665,1735.004,1500.0,1500.0,nan,nan,nan,nan,nan,nan,nan,nan,nan,nan
2658628000,6,1664.7925,1731.1138,1667.1881,1733.4692,1500.0,1500.0,nan,nan,nan,nan,nan,nan,nan,nan,nan,nan
2658728000,6,1663.0692,1731.0146,1668.561,1732.168,1500.0,1500.0,nan,nan,nan,nan,nan,nan,nan,nan,nan,nan
2658828000,6,1659.2782,1742.2589,1661.6444,1741.0637,1500.0,1500.0,nan,nan,nan,nan,nan,nan,nan,nan,nan,nan
2658924000,6,1662.3666,1738.4744,1666.529,1738.151,1500.0,1500.0,nan,nan,nan,nan,nan,nan,nan,nan,nan,nan
2659024000,6,1662.9995,1735.2589,1666.3228,1736.2075,1500.0,1500.0,nan,nan,nan,nan,nan,nan,nan,nan,nan,nan
2659128000,6,1664.9154,1729.7563,1668.2389,1732.0173,1500.0,1500.0,nan,nan,nan,nan,nan,nan,nan,nan,nan,nan
2659228000,6,1661.0428,1741.5345,1666.0886,1741.69,1500.0,1500.0,nan,nan,nan,nan,nan,nan,nan,nan,nan,nan
2659324000,6,1660.3169,1740.9946,1667.1002,1738.0286,1500.0,1500.0,nan,nan,nan,nan,nan,nan,nan,nan,nan,nan
2659424000,6,1664.5972,1732.6296,1667.7473,1734.8898,1500.0,1500.0,nan,nan,nan,nan,nan,nan,nan,nan,nan,nan
2659524000,6,1662.2946,1735.6171,1664.849,1736.3257,1500.0,1500.0,nan,nan,nan,nan,nan,nan,nan,nan,nan,nan
2659624000,6,1660.418,1734.059,1666.2095,1733.9326,1500.0,1500.0,nan,nan,nan,nan,nan,nan,nan,nan,nan,nan
2659724000,6,1660.0311,1740.6182,1663.5183,1740.4127,1500.0,1500.0,nan,nan,nan,nan,nan,nan,nan,nan,nan,nan
2659824000,6,1663.3809,1734.0696,1668.6466,1733.4562,1500.0,1500.0,nan,nan,nan,nan,nan,nan,nan,nan,nan,nan
2659924000,6,1660.9258,1737.0969,1666.3359,1734.0563,1500.0,1500.0,nan,nan,nan,nan,nan,nan,nan,nan,nan,nan
2660024000,6,1664.3475,1733.1206,1668.2251,1732.6401,1500.0,1500.0,nan,nan,nan,nan,nan,nan,nan,nan,nan,nan
2660128000,6,1661.233,1732.1149,1667.1671,1732.4958,1500.0,1500.0,nan,nan,nan,nan,nan,nan,nan,nan,nan,nan
2660224000,6,1658.6798,1740.0121,1664.8444,1741.7565,1500.0,1500.0,nan,nan,nan,nan,nan,nan,nan,nan,nan,nan
2660324000,6,1661.1244,1742.2709,1660.6566,1744.1332,1500.0,1500.0,nan,nan,nan,nan,nan,nan,nan,nan,nan,nan
2660428000,6,1662.8726,1743.9357,1668.5657,1741.529,1500.0,1500.0,nan,nan,nan,nan,nan,nan,nan,nan,nan,nan
2660524000,6,1663.81,1736.9197,1669.6345,1738.101,1500.0,1500.0,nan,nan,nan,nan,nan,nan,nan,nan,nan,nan
2660624000,6,1667.0347,1736.4175,1670.9849,1736.3396,1500.0,1500.0,nan,nan,nan,nan,nan,nan,nan,nan,nan,nan
2660724000,6,1669.9526,1734.9847,1673.4504,1734.9019,1500.0,1500.0,nan,nan,nan,nan,nan,nan,nan,nan,nan,nan
2660828000,6,1665.7263,1745.7549,1665.4014,1749.7623,1500.0,1500.0,nan,nan,nan,nan,nan,nan,nan,nan,nan,nan
2660928000,6,1666.0815,1747.1881,1668.5233,1746.7498,1500.0,1500.0,nan,nan,nan,nan,nan,nan,nan,nan,nan,nan
2661024000,6,1667.3795,1742.2715,1670.2213,1740.3098,1500.0,1500.0,nan,nan,nan,nan,nan,nan,nan,nan,nan,nan
2661128000,6,1670.6254,1734.336,1674.4465,1738.0054,1500.0,1500.0,nan,nan,nan,nan,nan,nan,nan,nan,nan,nan
2661228000,6,1670.3767,1737.5974,1669.3522,1738.137,1500.0,1500.0,nan,nan,nan,nan,nan,nan,nan,nan,nan,nan
2661324000,6,1665.6744,1746.0977,1666.3169,1747.1976,1500.0,1500.0,nan,nan,nan,nan,nan,nan,nan,nan,nan,nan
2661428000,6,1666.3445,1741.5846,1671.1993,1741.0372,1500.0,1500.0,nan,nan,nan,nan,nan,nan,nan,nan,nan,nan
2661524000,6,1667.5994,1736.4711,1674.0779,1737.827,1500.0,1500.0,nan,nan,nan,nan,nan,nan,nan,nan,nan,nan
2661628000,6,1666.7786,1739.0917,1671.2688,1738.1719,1500.0,1500.0,nan,nan,nan,nan,nan,nan,nan,nan,nan,nan
2661728000,6,1663.9841,1746.967,1667.6671,1748.1508,1500.0,1500.0,nan,nan,nan,nan,nan,nan,nan,nan,nan,nan
2661824000,6,1663.0852,1744.8899,1668.0522,1745.2241,1500.0,1500.0,nan,nan,nan,nan,nan,nan,nan,nan,nan,nan
2661924000,6,1666.1575,1738.9596,1672.0757,1738.0447,1500.0,1500.0,nan,nan,nan,nan,nan,nan,nan,nan,nan,nan
2662024000,6,1671.9585,1734.9801,1672.5845,1737.4232,1500.0,1500.0,nan,nan,nan,nan,nan,nan,nan,nan,nan,nan
2662124000,6,1665.2062,1737.8408,1670.2598,1738.9052,1500.0,1500.0,nan,nan,nan,nan,nan,nan,nan,nan,nan,nan
2662224000,6,1665.4116,1745.4158,1669.4365,1748.0284,1500.0,1500.0,nan,nan,nan,nan,nan,nan,nan,nan,nan,nan
2662324000,6,1667.0956,1739.7917,1670.2656,1743.1089,1500.0,1500.0,nan,nan,nan,nan,nan,nan,nan,nan,nan,nan
2662424000,6,1666.9978,1741.0492,1671.0446,1743.6141,1500.0,1500.0,nan,nan,nan,nan,nan,nan,nan,nan,nan,nan
2662524000,6,1664.3184,1740.801,1670.3304,1737.2687,1500.0,1500.0,nan,nan,nan,nan,nan,nan,nan,nan,nan,nan
2662628000,6,1666.9176,1741.0385,1673.8059,1737.5375,1500.0,1500.0,nan,nan,nan,nan,nan,nan,nan,nan,nan,nan
2662724000,6,1664.3383,1746.7742,1668.815,1748.365,1500.0,1500.0,nan,nan,nan,nan,nan,nan,nan,nan,nan,nan
2662828000,6,1666.6268,1741.3337,1669.2012,1741.406,1500.0,1500.0,nan,nan,nan,nan,nan,nan,nan,nan,nan,nan
2662924000,6,1668.8351,1735.5574,1673.2012,1737.317,1500.0,1500.0,nan,nan,nan,nan,nan,nan,nan,nan,nan,nan
2663028000,6,1666.1074,1735.634,1670.0052,1736.6523,1500.0,1500.0,nan,nan,nan,nan,nan,nan,nan,nan,nan,nan
2663124000,6,1663.5518,1747.8186,1666.6812,1748.3931,1500.0,1500.0,nan,nan,nan,nan,nan,nan,nan,nan,nan,nan
2663224000,6,1665.2351,1739.3499,1667.451,1742.9072,1500.0,1500.0,nan,nan,nan,nan,nan,nan,nan,nan,nan,nan
2663328000,6,1667.0415,1739.3997,1668.8337,1738.9299,1500.0,1500.0,nan,nan,nan,nan,nan,nan,nan,nan,nan,nan
2663424000,6,1666.5388,1733.1616,1668.9882,1736.5234,1500.0,1500.0,nan,nan,nan,nan,nan,nan,nan,nan,nan,nan
2663524000,6,1668.4646,1734.7919,1672.3989,1736.0494,1500.0,1500.0,nan,nan,nan,nan,nan,nan,nan,nan,nan,nan
2663624000,6,1661.4216,1743.8726,1665.9835,1743.6445,1500.0,1500.0,nan,nan,nan,nan,nan,nan,nan,nan,nan,nan
2663724000,6,1664.2418,1740.9249,1667.6727,1740.7639,1500.0,1500.0,nan,nan,nan,nan,nan,nan,nan,nan,nan,nan
2663828000,6,1665.3518,1738.6666,1667.8016,1739.9543,1500.0,1500.0,nan,nan,nan,nan,nan,nan,nan,nan,nan,nan
2663924000,6,1663.9983,1737.9374,1669.3191,1737.6976,1500.0,1500.0,nan,nan,nan,nan,nan,nan,nan,nan,nan,nan
2664028000,6,1667.3542,1731.7432,1671.3628,1732.3789,1500.0,1500.0,nan,nan,nan,nan,nan,nan,nan,nan,nan,nan
2664124000,6,1659.4512,1742.2294,1664.0266,1743.6113,1500.0,1500.0,nan,nan,nan,nan,nan,nan,nan,nan,nan,nan
2664224000,6,1668.1309,1731.4446,1671.7104,1732.9612,1500.0,1500.0,nan,nan,nan,nan,nan,nan,nan,nan,nan,nan
2664328000,6,1667.8364,1737.3381,1669.2031,1735.4406,1500.0,1500.0,nan,nan,nan,nan,nan,nan,nan,nan,nan,nan
2664428000,6,1666.5806,1733.1857,1671.0725,1733.5343,1500.0,1500.0,nan,nan,nan,nan,nan,nan,nan,nan,nan,nan
2664528000,6,1660.7039,1744.7576,1664.3716,1745.4803,1500.0,1500.0,nan,nan,nan,nan,nan,nan,nan,nan,nan,nan
2664624000,6,1661.1947,1741.4822,1668.6439,1741.4175,1500.0,1500.0,nan,nan,nan,nan,nan,nan,nan,nan,nan,nan
2664724000,6,1666.3113,1734.8593,1667.0317,1736.531,1500.0,1500.0,nan,nan,nan,nan,nan,nan,nan,nan,nan,nan
2664828000,6,1665.407,1736.5175,1667.7004,1736.8398,1500.0,1500.0,nan,nan,nan,nan,nan,nan,nan,nan,nan,nan
2664928000,6,1662.9774,1731.5298,1666.5903,1733.3196,1500.0,1500.0,nan,nan,nan,nan,nan,nan,nan,nan,nan,nan
2665024000,6,1662.0807,1742.2595,1663.8239,1743.7596,1500.0,1500.0,nan,nan,nan,nan,nan,nan,nan,nan,nan,nan
2665124000,6,1661.744,1739.9829,1666.1125,1738.3324,1500.0,1500.0,nan,nan,nan,nan,nan,nan,nan,nan,nan,nan
2665228000,6,1664.1146,1736.8495,1669.187,1736.8438,1500.0,1500.0,nan,nan,nan,nan,nan,nan,nan,nan,nan,nan
2665324000,6,1666.9276,1733.4822,1671.2544,1735.0012,1500.0,1500.0,nan,nan,nan,nan,nan,nan,nan,nan,nan,nan
2665428000,6,1667.3549,1735.0875,1669.9841,1734.9827,1500.0,1500.0,nan,nan,nan,nan,nan,nan,nan,nan,nan,nan
2665524000,6,1667.5211,1743.7595,1669.617,1744.5067,1500.0,1500.0,nan,nan,nan,nan,nan,nan,nan,nan,nan,nan
2665624000,6,1667.0366,1738.6885,1671.3649,1740.8053,1500.0,1500.0,nan,nan,nan,nan,nan,nan,nan,nan,nan,nan
2665724000,6,1669.956,1731.2761,1674.5236,1732.9229,1500.0,1500.0,nan,nan,nan,nan,nan,nan,nan,nan,nan,nan
2665828000,6,1668.1292,1736.1758,1671.8431,1734.8679,1500.0,1500.0,nan,nan,nan,nan,nan,nan,nan,nan,nan,nan
2665924000,6,1664.1897,1745.1346,1669.328,1745.6946,1500.0,1500.0,nan,nan,nan,nan,nan,nan,nan,nan,nan,nan
2666024000,6,1666.3419,1742.7164,1670.5809,1738.8457,1500.0,1500.0,nan,nan,nan,nan,nan,nan,nan,nan,nan,nan
2666124000,6,1666.939,1743.0704,1674.1064,1739.5343,1500.0,1500.0,nan,nan,nan,nan,nan,nan,nan,nan,nan,nan
2666224000,6,1668.8301,1735.1443,1673.0953,1733.7384,1500.0,1500.0,nan,nan,nan,nan,nan,nan,nan,nan,nan,nan
2666324000,6,1663.2343,1737.9137,1669.4171,1739.1163,1500.0,1500.0,nan,nan,nan,nan,nan,nan,nan,nan,nan,nan
2666424000,6,1667.7413,1743.9373,1670.8013,1743.9169,1500.0,1500.0,nan,nan,nan,nan,nan,nan,nan,nan,nan,nan
2666528000,6,1670.5839,1744.5983,1670.7261,1744.7933,1500.0,1500.0,nan,nan,nan,nan,nan,nan,nan,nan,nan,nan
2666624000,6,1663.8718,1740.7095,1670.4944,1744.2002,1500.0,1500.0,nan,nan,nan,nan,nan,nan,nan,nan,nan,nan
2666728000,6,1666.0588,1734.6107,1670.3627,1736.085,1500.0,1500.0,nan,nan,nan,nan,nan,nan,nan,nan,nan,nan
2666824000,6,1663.1163,1747.1276,1666.1755,1745.9501,1500.0,1500.0,nan,nan,nan,nan,nan,nan,nan,nan,nan,nan
2666928000,6,1663.5415,1745.6953,1663.4312,1747.0669,1500.0,1500.0,nan,nan,nan,nan,nan,nan,nan,nan,nan,nan
2667028000,6,1665.5823,1738.0026,1668.3696,1737.707,1500.0,1500.0,nan,nan,nan,nan,nan,nan,nan,nan,nan,nan
2667124000,6,1664.3531,1738.053,1670.4722,1737.7866,1500.0,1500.0,nan,nan,nan,nan,nan,nan,nan,nan,nan,nan
2667228000,6,1666.2117,1735.3352,1671.1718,1735.4346,1500.0,1500.0,nan,nan,nan,nan,nan,nan,nan,nan,nan,nan
2667328000,6,1662.9388,1736.4625,1668.428,1732.912,1500.0,1500.0,nan,nan,nan,nan,nan,nan,nan,nan,nan,nan
2667428000,6,1664.2224,1745.3667,1666.2322,1743.4751,1500.0,1500.0,nan,nan,nan,nan,nan,nan,nan,nan,nan,nan
2667524000,6,1666.8766,1736.3009,1672.5732,1736.8346,1500.0,1500.0,nan,nan,nan,nan,nan,nan,nan,nan,nan,nan
2667624000,6,1667.0935,1733.0847,1670.35,1735.0442,1500.0,1500.0,nan,nan,nan,nan,nan,nan,nan,nan,nan,nan
2667728000,6,1668.3469,1734.5964,1668.4125,1735.6837,1500.0,1500.0,nan,nan,nan,nan,nan,nan,nan,nan,nan,nan
2667824000,6,1661.1594,1744.0731,1665.5559,1745.073,1500.0,1500.0,nan,nan,nan,nan,nan,nan,nan,nan,nan,nan
2667924000,6,1662.5831,1738.0277,1668.2389,1739.3739,1500.0,1500.0,nan,nan,nan,nan,nan,nan,nan,nan,nan,nan
2668028000,6,1665.7869,1736.6396,1670.3062,1737.4446,1500.0,1500.0,nan,nan,nan,nan,nan,nan,nan,nan,nan,nan
2668124000,6,1665.5271,1732.2499,1670.9147,1733.7606,1500.0,1500.0,nan,nan,nan,nan,nan,nan,nan,nan,nan,nan
2668228000,6,1664.2444,1734.4307,1667.0479,1733.3757,1500.0,1500.0,nan,nan,nan,nan,nan,nan,nan,nan,nan,nan
2668324000,6,1662.006,1744.1409,1665.2566,1742.6338,1500.0,1500.0,nan,nan,nan,nan,nan,nan,nan,nan,nan,nan
2668424000,6,1664.2441,1736.8984,1667.1234,1741.0168,1500.0,1500.0,nan,nan,nan,nan,nan,nan,nan,nan,nan,nan
2668524000,6,1661.3096,1735.9539,1667.1669,1736.8329,1500.0,1500.0,nan,nan,nan,nan,nan,nan,nan,nan,nan,nan
2668628000,6,1665.4646,1730.2622,1667.4116,1730.9036,1500.0,1500.0,nan,nan,nan,nan,nan,nan,nan,nan,nan,nan
2668728000,6,1658.3481,1742.9054,1662.1691,1743.3955,1500.0,1500.0,nan,nan,nan,nan,nan,nan,nan,nan,nan,nan
2668824000,6,1662.7623,1742.885,1666.0352,1741.1282,1500.0,1500.0,nan,nan,nan,nan,nan,nan,nan,nan,nan,nan
2668924000,6,1662.1615,1738.2574,1667.9869,1737.3042,1500.0,1500.0,nan,nan,nan,nan,nan,nan,nan,nan,nan,nan
2669028000,6,1660.518,1737.5873,1666.4319,1736.7405,1500.0,1500.0,nan,nan,nan,nan,nan,nan,nan,nan,nan,nan
2669124000,6,1662.8247,1729.674,1668.2098,1730.9487,1500.0,1500.0,nan,nan,nan,nan,nan,nan,nan,nan,nan,nan
2669228000,6,1663.8827,1741.6476,1667.5834,1741.5996,1500.0,1500.0,nan,nan,nan,nan,nan,nan,nan,nan,nan,nan
2669324000,6,1663.1034,1734.5671,1669.3081,1734.5107,1500.0,1500.0,nan,nan,nan,nan,nan,nan,nan,nan,nan,nan
