timestamp,timestamp_sample,control[0],control[1],control[2],control[3],control[4],control[5],control[6],control[7]
2613228000,2613228000,0.00042813236,0.0023783732,-0.24094413,-0.0,0.0,0.0,0.0,-1.0
2613328000,2613328000,-0.0007522428,0.0027515935,-0.24173036,-0.0,0.0,0.0,0.0,-1.0
2613428000,2613428000,0.0020299535,0.00405527,-0.24215098,-0.0,0.0,0.0,0.0,-1.0
2613524000,2613524000,0.0017009343,0.0040591643,-0.24116491,-0.0,0.0,0.0,0.0,-1.0
2613628000,2613628000,7.628888e-05,0.0030677053,-0.24128106,-0.0,0.0,0.0,0.0,-1.0
2613728000,2613728000,7.596814e-05,0.0024868993,-0.24208453,-0.0,0.0,0.0,0.0,-1.0
2613828000,2613828000,0.003762816,0.002010082,-0.24098106,-0.0,0.0,0.0,0.0,-1.0
2613928000,2613928000,-0.00020243519,0.0051950673,-0.24129592,-0.0,0.0,0.0,0.0,-1.0
2614028000,2614028000,0.0008834528,0.00095126237,-0.24170549,-0.0,0.0,0.0,0.0,-1.0
2614128000,2614128000,-0.0001103394,0.0015499706,-0.24081023,-0.0,0.0,0.0,0.0,-1.0
2614228000,2614228000,-0.00020187284,0.0013228317,-0.24027169,-0.0,0.0,0.0,0.0,-1.0
2614328000,2614328000,0.06115524,0.030382778,0.0003241536,0.120171174,0.0,0.0,0.0,-1.0
2614428000,2614428000,0.049126767,-0.014316682,0.000885519,0.15552838,0.0,0.0,0.0,-1.0
2614524000,2614524000,0.033780497,-0.01496947,0.001115958,0.21136935,0.0,0.0,0.0,-1.0
2614628000,2614628000,0.03154718,-0.013048144,0.00044704197,0.2786515,0.0,0.0,0.0,-1.0
2614728000,2614728000,0.030356454,-0.0108607095,0.0007882967,0.3369689,0.0,0.0,0.0,-1.0
2614828000,2614828000,0.027662572,-0.008893885,-0.00064818095,0.42109433,0.0,0.0,0.0,-1.0
2614924000,2614924000,0.027275765,-0.007990798,-0.00012531248,0.49217147,0.0,0.0,0.0,-1.0
2615024000,2615024000,0.026181666,-0.009644946,-0.0013020892,0.5635114,0.0,0.0,0.0,-1.0
2615128000,2615128000,-0.0066519286,0.00400183,0.0001239328,0.61691314,0.0,0.0,0.0,-1.0
2615224000,2615224000,-0.003702864,0.0040852423,-0.0006777779,0.60235447,0.0,0.0,0.0,-1.0
2615328000,2615328000,0.0008830773,0.00044702087,-0.0010011885,0.61206466,0.0,0.0,0.0,-1.0
2615424000,2615424000,0.0043001166,-0.0015109952,0.0003605634,0.6171997,0.0,0.0,0.0,-1.0
2615528000,2615528000,0.0029885853,-0.0022044834,-0.00076770055,0.6149304,0.0,0.0,0.0,-1.0
2615628000,2615628000,0.0021544113,-3.5585836e-06,-0.0002673072,0.6145375,0.0,0.0,0.0,-1.0
2615728000,2615728000,0.0004947465,5.1972456e-06,-0.0015112784,0.6166156,0.0,0.0,0.0,-1.0
2615824000,2615824000,-0.00051150005,-0.002897048,-0.00025470016,0.6233436,0.0,0.0,0.0,-1.0
2615928000,2615928000,-0.0011406927,-0.00034396863,0.0013588616,0.6238805,0.0,0.0,0.0,-1.0
2616028000,2616028000,0.00015283981,0.0017428509,0.00032136517,0.6245607,0.0,0.0,0.0,-1.0
2616128000,2616128000,0.0031926257,0.0017482629,-8.763363e-05,0.6246548,0.0,0.0,0.0,-1.0
2616228000,2616228000,-0.0018770476,0.00023226475,0.0015426684,0.62479514,0.0,0.0,0.0,-1.0
2616328000,2616328000,-0.00094309775,-0.0017936253,-0.0004561577,0.63443726,0.0,0.0,0.0,-1.0
2616428000,2616428000,-0.0033481014,-0.0019257601,0.00023889673,0.5465899,0.0,0.0,0.0,-1.0
2616524000,2616524000,0.0002992449,0.004875455,0.0006922404,0.51669997,0.0,0.0,0.0,-1.0
2616628000,2616628000,-0.0032617033,-8.1081e-05,0.00016882189,0.55660594,0.0,0.0,0.0,-1.0
2616728000,2616728000,0.0018192154,0.0021940595,0.00044867015,0.5538151,0.0,0.0,0.0,-1.0
2616828000,2616828000,-0.00066115893,0.00027601357,-0.0010004427,0.5520746,0.0,0.0,0.0,-1.0
2616924000,2616924000,-0.0033837995,-0.00027519942,-0.00058004213,0.553916,0.0,0.0,0.0,-1.0
2617024000,2617024000,-0.0007517813,0.0028417036,-2.2120566e-05,0.55147845,0.0,0.0,0.0,1.0
2617128000,2617128000,0.0023839218,-0.0019489126,-0.0002434183,0.5553742,0.0,0.0,0.0,1.0
2617228000,2617228000,-0.0014619087,0.0012166388,0.0006010227,0.55902433,0.0,0.0,0.0,1.0
2617328000,2617328000,-0.001318576,-0.00028116594,0.00019657561,0.5593814,0.0,0.0,0.0,1.0
2617428000,2617428000,-0.0031742123,0.002272126,-8.731502e-05,0.55789053,0.0,0.0,0.0,1.0
2617528000,2617528000,0.00055821304,-0.002093542,0.0010457677,0.5565149,0.0,0.0,0.0,1.0
2617624000,2617624000,0.0020057876,-0.0010730997,0.00013061403,0.5593372,0.0,0.0,0.0,1.0
2617724000,2617724000,0.0015637946,0.00040465145,7.668187e-05,0.56164265,0.0,0.0,0.0,1.0
2617828000,2617828000,0.0014343335,0.001653777,-0.00063595147,0.5617184,0.0,0.0,0.0,1.0
2617924000,2617924000,-0.0008381164,-0.0016121631,-0.00048068466,0.5596783,0.0,0.0,0.0,1.0
2618028000,2618028000,0.0020437315,-0.0018449731,-5.3834854e-05,0.5603344,0.0,0.0,0.0,1.0
2618128000,2618128000,0.00039468566,0.00018914425,-0.00046434262,0.5637727,0.0,0.0,0.0,1.0
2618224000,2618224000,-0.0013480921,0.0015445125,-7.225528e-05,0.56195635,0.0,0.0,0.0,1.0
2618324000,2618324000,0.0015443619,0.0006267724,0.00045771562,0.5643818,0.0,0.0,0.0,1.0
2618424000,2618424000,-0.0009848529,0.0030570866,0.0003014819,0.5631811,0.0,0.0,0.0,1.0
2618528000,2618528000,0.0003510191,-0.0012605592,0.00039943852,0.563455,0.0,0.0,0.0,1.0
2618628000,2618628000,0.003064488,-0.00041966667,-0.00049763557,0.5635322,0.0,0.0,0.0,1.0
2618728000,2618728000,-0.00090357265,-0.00078434544,-0.0006839613,0.5619701,0.0,0.0,0.0,1.0
2618828000,2618828000,-0.00041175052,0.0006589829,-0.0007397396,0.5631519,0.0,0.0,0.0,1.0
2618928000,2618928000,7.121812e-05,-0.002271616,0.0005568131,0.5634896,0.0,0.0,0.0,1.0
2619028000,2619028000,-0.0019470777,-0.00047741985,-0.0005082845,0.56249976,0.0,0.0,0.0,1.0
2619128000,2619128000,0.0011225267,-0.00018642233,0.0006265467,0.562495,0.0,0.0,0.0,1.0
2619228000,2619228000,0.0007366181,0.0023344764,0.0002729075,0.5623668,0.0,0.0,0.0,1.0
2619328000,2619328000,0.0011165354,0.00042174605,0.00035215245,0.5636375,0.0,0.0,0.0,1.0
2619428000,2619428000,-0.0017887092,0.0031263274,-0.00086940225,0.56337935,0.0,0.0,0.0,1.0
2619528000,2619528000,0.00011262621,-0.0003217887,0.00044953654,0.5654322,0.0,0.0,0.0,1.0
2619628000,2619628000,0.00087457313,-0.0026010838,0.00048009734,0.5635821,0.0,0.0,0.0,1.0
2619728000,2619728000,0.00034876785,0.00050444837,0.0005778344,0.56408167,0.0,0.0,0.0,1.0
2619828000,2619828000,-0.00034605252,-0.0024469094,-0.0018074827,0.5651536,0.0,0.0,0.0,1.0
2619928000,2619928000,-0.002867435,-0.00020223252,-0.0008349853,0.5666939,0.0,0.0,0.0,1.0
2620024000,2620024000,-0.0010010321,-0.00068860245,-0.00030032988,0.56522125,0.0,0.0,0.0,1.0
2620128000,2620128000,0.001384841,-0.0026385312,-0.00030063605,0.56356853,0.0,0.0,0.0,1.0
2620224000,2620224000,0.0006413062,-0.002559519,0.00020721473,0.5645897,0.0,0.0,0.0,1.0
2620328000,2620328000,0.0011089967,0.0016336751,-0.001165424,0.5651676,0.0,0.0,0.0,1.0
2620428000,2620428000,0.0023015118,-4.6871784e-05,0.000390266,0.5646919,0.0,0.0,0.0,1.0
2620528000,2620528000,-0.0025238427,0.0028112582,0.001071265,0.5640604,0.0,0.0,0.0,1.0
2620624000,2620624000,0.00035030593,-0.0010685478,-0.00015161619,0.56411403,0.0,0.0,0.0,1.0
2620728000,2620728000,-0.002975324,-0.0017683175,0.00081456325,0.5658674,0.0,0.0,0.0,1.0
2620824000,2620824000,9.162369e-05,-0.0018315425,0.00021881981,0.5643193,0.0,0.0,0.0,1.0
2620924000,2620924000,-6.311689e-05,0.0008264611,-0.0006233397,0.5659024,0.0,0.0,0.0,1.0
2621028000,2621028000,0.0038927137,-0.0008998874,-0.00042699729,0.56246674,0.0,0.0,0.0,1.0
2621128000,2621128000,-0.0031085066,0.005537412,0.0009068547,0.5610907,0.0,0.0,0.0,1.0
2621224000,2621224000,0.0044424543,0.008657968,0.028987745,0.5559771,0.0,0.0,0.0,1.0
2621324000,2621324000,0.0066898144,0.016520824,0.048710056,0.56781423,0.0,0.0,0.0,1.0
2621428000,2621428000,0.00868401,0.026961887,0.053244844,0.56506747,0.0,0.0,0.0,1.0
2621528000,2621528000,-0.0040557226,0.009636997,0.045642555,0.5717387,0.0,0.0,0.0,1.0
2621628000,2621628000,-0.011267627,-0.01086671,0.039915726,0.5732669,0.0,0.0,0.0,1.0
2621728000,2621728000,-0.0059932484,-0.011720353,0.04375781,0.5780896,0.0,0.0,0.0,1.0
2621828000,2621828000,-0.0024734046,0.010628271,0.040504545,0.5908104,0.0,0.0,0.0,1.0
2621928000,2621928000,-0.0076890457,0.005378286,0.038681548,0.5958067,0.0,0.0,0.0,1.0
2622028000,2622028000,-0.0033639797,0.0077092284,0.042608716,0.60220623,0.0,0.0,0.0,1.0
2622128000,2622128000,-0.010697095,0.0015087863,0.04099655,0.6068533,0.0,0.0,0.0,1.0
2622224000,2622224000,0.009988653,0.02133247,0.041265577,0.6180794,0.0,0.0,0.0,1.0
2622328000,2622328000,0.015675863,0.01853738,0.045553375,0.6239908,0.0,0.0,0.0,1.0
2622428000,2622428000,0.0035339338,0.011255911,0.042758077,0.627253,0.0,0.0,0.0,1.0
2622528000,2622528000,-0.0032884001,0.008879564,0.040036343,0.6301785,0.0,0.0,0.0,1.0
2622628000,2622628000,0.0026386515,0.009696862,0.04679828,0.636921,0.0,0.0,0.0,1.0
2622728000,2622728000,0.025162697,0.013538362,0.046398923,0.6468131,0.0,0.0,0.0,1.0
2622828000,2622828000,0.015607951,0.008342939,0.040926278,0.64874995,0.0,0.0,0.0,1.0
2622928000,2622928000,0.017244574,0.003608886,0.04724977,0.6576771,0.0,0.0,0.0,1.0
2623028000,2623028000,0.029733168,0.0038270783,0.045819737,0.66572344,0.0,0.0,0.0,1.0
2623128000,2623128000,0.029072676,-0.003942174,0.053048868,0.6680557,0.0,0.0,0.0,1.0
2623228000,2623228000,0.013538032,-0.0031797974,0.041847695,0.67006755,0.0,0.0,0.0,1.0
2623328000,2623328000,0.027743617,-0.009577358,0.040113132,0.6788024,0.0,0.0,0.0,1.0
2623428000,2623428000,0.028458446,-0.011219211,0.041291058,0.6791391,0.0,0.0,0.0,1.0
2623528000,2623528000,0.023567569,-0.011745309,0.034437828,0.6780782,0.0,0.0,0.0,1.0
2623628000,2623628000,0.02270193,-0.011400279,0.028160004,0.67427075,0.0,0.0,0.0,1.0
2623724000,2623724000,0.03881943,-0.028144777,0.031255085,0.67896235,0.0,0.0,0.0,1.0
2623828000,2623828000,0.037632935,-0.038170554,0.0350325,0.6776567,0.0,0.0,0.0,1.0
2623924000,2623924000,0.03192837,-0.03308607,0.031918596,0.6750653,0.0,0.0,0.0,1.0
2624024000,2624024000,0.024318922,-0.035314783,0.036287397,0.67283505,0.0,0.0,0.0,1.0
2624128000,2624128000,0.020189349,-0.031115808,0.03007146,0.6722209,0.0,0.0,0.0,1.0
2624228000,2624228000,0.021649608,-0.040267065,0.029422237,0.67536235,0.0,0.0,0.0,1.0
2624328000,2624328000,0.019825414,-0.04219017,0.031796943,0.6768712,0.0,0.0,0.0,1.0
2624428000,2624428000,0.016021539,-0.043441907,0.025788652,0.67658114,0.0,0.0,0.0,1.0
2624528000,2624528000,0.012234312,-0.0405763,0.03149463,0.67628145,0.0,0.0,0.0,1.0
2624624000,2624624000,0.016267741,-0.040415257,-0.00031922944,0.67505676,0.0,0.0,0.0,1.0
2624724000,2624724000,0.018806925,-0.047695134,-0.0099171065,0.67791796,0.0,0.0,0.0,1.0
2624828000,2624828000,0.011166375,-0.050040953,-0.008420309,0.6788133,0.0,0.0,0.0,1.0
2624928000,2624928000,0.0058336044,-0.041094683,-0.00567138,0.6778197,0.0,0.0,0.0,1.0
2625028000,2625028000,0.006454585,-0.038549766,-0.0056841094,0.676724,0.0,0.0,0.0,1.0
2625124000,2625124000,0.0030759256,-0.05195198,-0.004288964,0.6810027,0.0,0.0,0.0,1.0
2625224000,2625224000,0.005600447,-0.047131326,-0.0044863187,0.6810388,0.0,0.0,0.0,1.0
2625328000,2625328000,0.00084618665,-0.046048433,-0.0029150192,0.6798634,0.0,0.0,0.0,1.0
2625424000,2625424000,0.00096238405,-0.041955702,-0.002733361,0.6778199,0.0,0.0,0.0,1.0
2625528000,2625528000,-0.0012909435,-0.040453352,-0.0007556267,0.67861474,0.0,0.0,0.0,1.0
2625624000,2625624000,0.0009338558,-0.053576745,-0.0030659009,0.6811656,0.0,0.0,0.0,1.0
2625728000,2625728000,0.004526515,-0.050641563,-0.0016479762,0.68047994,0.0,0.0,0.0,1.0
2625828000,2625828000,0.0025635064,-0.045929726,-0.0009500645,0.68126863,0.0,0.0,0.0,1.0
2625924000,2625924000,0.0038371189,-0.04295194,-0.0027825711,0.676619,0.0,0.0,0.0,1.0
2626024000,2626024000,0.0012534093,-0.042943306,-0.000923072,0.6786904,0.0,0.0,0.0,1.0
2626128000,2626128000,0.0002890355,-0.05075118,-0.0025028186,0.6813188,0.0,0.0,0.0,1.0
2626228000,2626228000,0.0022141133,-0.049868576,-0.0016332641,0.68164885,0.0,0.0,0.0,1.0
2626328000,2626328000,0.00068646995,-0.043245114,-0.0027516847,0.6793258,0.0,0.0,0.0,1.0
2626428000,2626428000,-0.00071511324,-0.03963771,-0.0016117785,0.68030244,0.0,0.0,0.0,1.0
2626528000,2626528000,0.001270913,-0.04471367,-0.0010493714,0.6796517,0.0,0.0,0.0,1.0
2626628000,2626628000,0.0026423195,-0.05185807,-0.0011971341,0.68244785,0.0,0.0,0.0,1.0
2626724000,2626724000,0.00085341185,-0.045400884,-0.0013655657,0.682015,0.0,0.0,0.0,1.0
2626828000,2626828000,0.00073179277,-0.04865083,-0.0014620302,0.68094355,0.0,0.0,0.0,1.0
2626928000,2626928000,0.0018788122,-0.04180587,-0.0029696776,0.67969155,0.0,0.0,0.0,1.0
2627024000,2627024000,0.00036506448,-0.05434145,-0.0010726256,0.684038,0.0,0.0,0.0,1.0
2627128000,2627128000,0.0025522434,-0.051107462,-0.0015171343,0.6834151,0.0,0.0,0.0,1.0
2627228000,2627228000,0.0074116173,-0.045652237,-0.0017337534,0.68184364,0.0,0.0,0.0,1.0
2627328000,2627328000,-0.0008754353,-0.042258292,-0.0014646854,0.683145,0.0,0.0,0.0,1.0
2627424000,2627424000,0.00021893252,-0.04541334,-0.001528745,0.6814797,0.0,0.0,0.0,1.0
2627524000,2627524000,0.00013865251,-0.053362288,-0.002157562,0.68283457,0.0,0.0,0.0,1.0
2627628000,2627628000,0.0012219965,-0.051700633,-0.0022869562,0.6832622,0.0,0.0,0.0,1.0
2627728000,2627728000,0.0036535806,-0.051777545,-0.0013701217,0.68475246,0.0,0.0,0.0,1.0
2627824000,2627824000,0.0023499625,-0.046784613,-0.0014715055,0.68302584,0.0,0.0,0.0,1.0
2627928000,2627928000,0.0005923351,-0.043875195,-0.0009540268,0.6804651,0.0,0.0,0.0,1.0
2628024000,2628024000,0.0023302035,-0.041239217,-0.0012700432,0.68224597,0.0,0.0,0.0,1.0
2628128000,2628128000,0.0047467896,-0.051182445,-0.00075085275,0.6830691,0.0,0.0,0.0,1.0
2628228000,2628228000,0.00051070005,-0.050443556,-0.00094379624,0.68411624,0.0,0.0,0.0,1.0
2628328000,2628328000,0.0019505837,-0.04644576,-0.0013256187,0.6816695,0.0,0.0,0.0,1.0
2628428000,2628428000,0.004468089,-0.04317811,-0.0017046137,0.6823342,0.0,0.0,0.0,1.0
2628524000,2628524000,0.0042702714,-0.05119177,-0.0008963372,0.6847305,0.0,0.0,0.0,1.0
2628628000,2628628000,0.0034942334,-0.052670974,-0.0012148896,0.68577087,0.0,0.0,0.0,1.0
2628724000,2628724000,0.005116434,-0.043759044,-0.0021831898,0.6830573,0.0,0.0,0.0,1.0
2628824000,2628824000,0.0033210274,-0.04928623,-0.0011394841,0.6825971,0.0,0.0,0.0,1.0
2628928000,2628928000,0.00023243576,-0.04734861,-0.0017245524,0.684894,0.0,0.0,0.0,1.0
2629028000,2629028000,0.0033488185,-0.043814197,-0.0014620138,0.6821286,0.0,0.0,0.0,1.0
2629128000,2629128000,0.0020754177,-0.043615386,-0.00031538378,0.6797257,0.0,0.0,0.0,1.0
2629228000,2629228000,0.0034139983,-0.049766384,-0.0014580432,0.6857165,0.0,0.0,0.0,1.0
2629324000,2629324000,0.0026767743,-0.04864286,-0.0007249494,0.68227804,0.0,0.0,0.0,1.0
2629428000,2629428000,0.0013786498,-0.05222781,-0.0007727891,0.68403447,0.0,0.0,0.0,1.0
2629528000,2629528000,-0.0010442792,-0.04181834,-0.0009118514,0.6838739,0.0,0.0,0.0,1.0
2629624000,2629624000,0.0031004227,-0.051730737,-0.000477231,0.6856319,0.0,0.0,0.0,1.0
2629728000,2629728000,0.002754121,-0.05167718,-0.0017765716,0.68677133,0.0,0.0,0.0,1.0
2629828000,2629828000,0.0008817101,-0.043969706,-0.0015884537,0.684672,0.0,0.0,0.0,1.0
2629924000,2629924000,0.005052039,-0.041456424,-0.00069276436,0.68411994,0.0,0.0,0.0,1.0
2630028000,2630028000,0.005495831,-0.046054296,-0.0009342809,0.6861174,0.0,0.0,0.0,1.0
2630128000,2630128000,0.0023901844,-0.05374185,-0.0014818255,0.68765193,0.0,0.0,0.0,1.0
2630228000,2630228000,0.00091345643,-0.053275004,-0.0015011245,0.68830657,0.0,0.0,0.0,1.0
2630328000,2630328000,0.00335384,-0.045030344,-0.0011865048,0.6875511,0.0,0.0,0.0,1.0
2630428000,2630428000,0.0031732335,-0.0411647,-0.0012789075,0.68745136,0.0,0.0,0.0,1.0
2630528000,2630528000,0.0015708589,-0.043641247,-0.0013643816,0.6886415,0.0,0.0,0.0,1.0
2630628000,2630628000,0.0011969643,-0.05488698,-0.00065004145,0.6908547,0.0,0.0,0.0,1.0
2630728000,2630728000,0.0004140559,-0.0470777,-0.0003300138,0.68671095,0.0,0.0,0.0,1.0
2630824000,2630824000,0.004951715,-0.04350686,-0.0015163985,0.6879043,0.0,0.0,0.0,1.0
2630928000,2630928000,0.00039269612,-0.0414571,-0.0010841744,0.6866626,0.0,0.0,0.0,1.0
2631028000,2631028000,0.0039102705,-0.05483429,-0.0009452706,0.6914576,0.0,0.0,0.0,1.0
2631124000,2631124000,-9.942474e-05,-0.048652384,-0.0016538384,0.6886201,0.0,0.0,0.0,1.0
2631228000,2631228000,0.0016987637,-0.04640752,-0.00070480816,0.68865275,0.0,0.0,0.0,1.0
2631324000,2631324000,0.003173632,-0.04237747,-0.00038738293,0.6872445,0.0,0.0,0.0,1.0
2631424000,2631424000,0.0013000846,-0.042128287,-0.0016744822,0.6875088,0.0,0.0,0.0,1.0
2631524000,2631524000,0.0015722138,-0.043901846,-0.00097281067,0.6866241,0.0,0.0,0.0,1.0
2631628000,2631628000,0.0040204762,-0.054573417,-0.0017773185,0.68997693,0.0,0.0,0.0,1.0
2631728000,2631728000,0.0046790754,-0.049033508,-0.00080141105,0.6911488,0.0,0.0,0.0,1.0
2631824000,2631824000,0.0019375989,-0.049121197,-0.00016998047,0.68935156,0.0,0.0,0.0,1.0
2631928000,2631928000,0.0027298909,-0.044101354,-0.00035841417,0.688352,0.0,0.0,0.0,1.0
2632028000,2632028000,0.0010355603,-0.046826687,-0.00096306566,0.68673146,0.0,0.0,0.0,1.0
2632128000,2632128000,0.0028430936,-0.045504376,-0.0012485279,0.6885537,0.0,0.0,0.0,1.0
2632228000,2632228000,0.0013062295,-0.05172972,-0.0013698845,0.68954283,0.0,0.0,0.0,1.0
2632328000,2632328000,0.0014554202,-0.052681785,-0.0017157318,0.6903667,0.0,0.0,0.0,1.0
2632428000,2632428000,0.0025296535,-0.045921206,-0.0014794875,0.6906107,0.0,0.0,0.0,1.0
2632528000,2632528000,0.0011020122,-0.048149593,-0.00023608407,0.68960357,0.0,0.0,0.0,1.0
2632628000,2632628000,0.003405822,-0.046692252,-0.0017869967,0.6886854,0.0,0.0,0.0,1.0
2632728000,2632728000,0.0027719834,-0.055947,-0.0010657394,0.6918053,0.0,0.0,0.0,1.0
2632828000,2632828000,0.0024432787,-0.052097224,-0.0019457445,0.6919291,0.0,0.0,0.0,1.0
2632928000,2632928000,-0.00040381355,-0.046318024,-0.00052062416,0.6906868,0.0,0.0,0.0,1.0
2633028000,2633028000,-0.000362298,-0.04315395,-0.0007582184,0.6885432,0.0,0.0,0.0,1.0
2633128000,2633128000,0.0030036925,-0.043213047,-0.0012123252,0.68831956,0.0,0.0,0.0,1.0
2633228000,2633228000,0.0025270928,-0.05315653,-0.00079416775,0.69139504,0.0,0.0,0.0,1.0
2633328000,2633328000,0.002625717,-0.04544706,-0.00056334154,0.68972534,0.0,0.0,0.0,1.0
2633428000,2633428000,0.0017374757,-0.048499316,-0.0005462884,0.68962353,0.0,0.0,0.0,1.0
2633528000,2633528000,0.00016670593,-0.04667129,-0.0020448398,0.68817675,0.0,0.0,0.0,1.0
2633628000,2633628000,0.0029454045,-0.054440975,-0.00087703083,0.6907103,0.0,0.0,0.0,1.0
2633728000,2633728000,-0.00039047003,-0.05194551,-0.00070096826,0.6904989,0.0,0.0,0.0,1.0
2633824000,2633824000,0.0010470805,-0.046495363,-0.0019051324,0.69005775,0.0,0.0,0.0,1.0
2633928000,2633928000,0.0041090306,-0.043720264,-0.0015724313,0.68829817,0.0,0.0,0.0,1.0
2634028000,2634028000,0.0029015907,-0.043858945,-0.0008821216,0.6886576,0.0,0.0,0.0,1.0
2634128000,2634128000,0.0017378717,-0.05504708,-0.0011733999,0.6927362,0.0,0.0,0.0,1.0
2634228000,2634228000,-0.0017865633,-0.05338188,-0.0018616323,0.69268066,0.0,0.0,0.0,1.0
2634328000,2634328000,0.002199828,-0.049375027,-0.00085702876,0.6912513,0.0,0.0,0.0,1.0
2634428000,2634428000,0.0009307674,-0.04659556,-0.0021375087,0.69059134,0.0,0.0,0.0,1.0
2634528000,2634528000,0.0032435935,-0.04734595,0.0003400767,0.6903674,0.0,0.0,0.0,1.0
2634628000,2634628000,0.0035573584,-0.047646347,-0.0015735866,0.69268996,0.0,0.0,0.0,1.0
2634728000,2634728000,0.0017868773,-0.04537888,-0.0014679385,0.6923828,0.0,0.0,0.0,1.0
2634828000,2634828000,0.0031993785,-0.043649208,-0.0022034375,0.69346374,0.0,0.0,0.0,1.0
2634928000,2634928000,0.003626002,-0.041765958,-0.00074021344,0.6923198,0.0,0.0,0.0,1.0
2635028000,2635028000,0.001896681,-0.04831382,-0.0013880578,0.6923376,0.0,0.0,0.0,1.0
2635128000,2635128000,0.00093550317,-0.05511241,-0.001189975,0.69515,0.0,0.0,0.0,1.0
2635228000,2635228000,0.0026835625,-0.049612064,-0.0020666895,0.69449127,0.0,0.0,0.0,1.0
2635328000,2635328000,0.000111719826,-0.048419576,-0.0013489393,0.6952579,0.0,0.0,0.0,1.0
2635428000,2635428000,0.0020470219,-0.045526262,-0.0013176689,0.69268245,0.0,0.0,0.0,1.0
2635524000,2635524000,0.00064947375,-0.053668126,-0.0017236741,0.6961177,0.0,0.0,0.0,1.0
2635628000,2635628000,0.005860152,-0.053863887,-0.0015853411,0.69639766,0.0,0.0,0.0,1.0
2635728000,2635728000,0.003616941,-0.049475946,-0.000808793,0.6957982,0.0,0.0,0.0,1.0
2635828000,2635828000,0.0018548948,-0.044775955,0.00054786156,0.69387424,0.0,0.0,0.0,1.0
2635928000,2635928000,0.0026807222,-0.04540786,-0.0015793217,0.6936082,0.0,0.0,0.0,1.0
2636028000,2636028000,0.0018262952,-0.053067125,-0.00056995975,0.69632953,0.0,0.0,0.0,1.0
2636128000,2636128000,0.0002865272,-0.051419377,-0.00035582768,0.69569534,0.0,0.0,0.0,1.0
2636224000,2636224000,0.0040647015,-0.049305208,-0.0012834077,0.6946482,0.0,0.0,0.0,1.0
2636328000,2636328000,0.004840295,-0.045408007,-0.0014557943,0.6932526,0.0,0.0,0.0,1.0
2636428000,2636428000,0.0027575288,-0.048348796,-0.0010147982,0.6931244,0.0,0.0,0.0,1.0
2636524000,2636524000,0.00089810754,-0.05209183,-0.0013365246,0.697106,0.0,0.0,0.0,1.0
2636628000,2636628000,0.003728324,-0.04766473,-0.0018235969,0.6954109,0.0,0.0,0.0,1.0
2636728000,2636728000,0.0015795435,-0.047718946,-0.0011373378,0.69440943,0.0,0.0,0.0,1.0
2636828000,2636828000,0.0003662801,-0.04335709,-0.0012949517,0.6940948,0.0,0.0,0.0,1.0
2636928000,2636928000,0.0032321971,-0.054317802,-0.0026164856,0.6984363,0.0,0.0,0.0,1.0
2637024000,2637024000,0.0009493091,-0.0511505,-0.0011001485,0.6967481,0.0,0.0,0.0,1.0
2637124000,2637124000,0.0012703191,-0.049703095,-0.00052199606,0.6948927,0.0,0.0,0.0,1.0
2637228000,2637228000,-0.0013324134,-0.048597284,-0.0012264499,0.6946065,0.0,0.0,0.0,1.0
2637328000,2637328000,-0.00039303675,-0.044287324,-0.0015184534,0.69427615,0.0,0.0,0.0,1.0
2637428000,2637428000,-0.00016170915,-0.05529229,-0.0016421764,0.6973225,0.0,0.0,0.0,1.0
2637524000,2637524000,0.0012839622,-0.050416473,-0.00054359186,0.6959406,0.0,0.0,0.0,1.0
2637628000,2637628000,0.0029724562,-0.050813712,-0.0016843926,0.6954213,0.0,0.0,0.0,1.0
2637728000,2637728000,-0.0017914425,-0.048496123,-0.0008004131,0.6951079,0.0,0.0,0.0,1.0
2637828000,2637828000,0.0008938508,-0.048712675,-0.00067528465,0.6955194,0.0,0.0,0.0,1.0
2637928000,2637928000,0.0009777314,-0.04475399,-0.0017758375,0.69351065,0.0,0.0,0.0,1.0
2638024000,2638024000,0.0049411664,-0.053373042,-0.00074324245,0.6959227,0.0,0.0,0.0,1.0
2638128000,2638128000,0.0044435663,-0.05142825,-0.0024844774,0.69673264,0.0,0.0,0.0,1.0
2638228000,2638228000,0.0021334905,-0.04879302,-0.00019831356,0.69509816,0.0,0.0,0.0,1.0
2638328000,2638328000,0.0009304887,-0.05140695,-0.0008536255,0.694784,0.0,0.0,0.0,1.0
2638428000,2638428000,0.003028295,-0.04812776,-0.0003725298,0.6956117,0.0,0.0,0.0,1.0
2638528000,2638528000,0.00086235115,-0.04349875,-0.00014732493,0.69411534,0.0,0.0,0.0,1.0
2638624000,2638624000,0.0022104448,-0.05510465,-0.002196855,0.6965953,0.0,0.0,0.0,1.0
2638728000,2638728000,0.0018064063,-0.05119182,-0.0006367833,0.6953593,0.0,0.0,0.0,1.0
2638828000,2638828000,0.003756186,-0.051770166,-0.00052210956,0.6960734,0.0,0.0,0.0,1.0
2638928000,2638928000,0.0021764664,-0.042448338,-0.001625296,0.69307923,0.0,0.0,0.0,1.0
2639028000,2639028000,0.0051828697,-0.04666806,-0.001079897,0.6932582,0.0,0.0,0.0,1.0
2639128000,2639128000,0.004076513,-0.056783255,-0.0009133842,0.6973687,0.0,0.0,0.0,1.0
2639228000,2639228000,0.0020081573,-0.048803706,-3.4589088e-05,0.6959586,0.0,0.0,0.0,1.0
2639328000,2639328000,0.0034044534,-0.049848612,-0.00125019,0.69507146,0.0,0.0,0.0,1.0
2639424000,2639424000,0.0038928748,-0.0470278,-0.0008901729,0.6939487,0.0,0.0,0.0,1.0
2639528000,2639528000,0.0023847413,-0.05626274,-0.0012155826,0.6965507,0.0,0.0,0.0,1.0
2639628000,2639628000,-0.0001103424,-0.05438842,-0.001829069,0.6978446,0.0,0.0,0.0,1.0
2639728000,2639728000,0.003360867,-0.0478831,-0.0011456528,0.6952111,0.0,0.0,0.0,1.0
2639828000,2639828000,0.0024423131,-0.04464367,-0.00047154207,0.6976167,0.0,0.0,0.0,1.0
2639928000,2639928000,-0.00010149856,-0.044566516,-0.0010825223,0.69658357,0.0,0.0,0.0,1.0
2640028000,2640028000,0.0005773823,-0.05524029,-0.0019523541,0.6994432,0.0,0.0,0.0,1.0
2640128000,2640128000,0.0032320549,-0.055180535,-0.001672413,0.69937897,0.0,0.0,0.0,1.0
2640228000,2640228000,0.0035346355,-0.04560204,-0.0013041422,0.6976047,0.0,0.0,0.0,1.0
2640328000,2640328000,0.0039689876,-0.04330855,-0.00064884126,0.6946391,0.0,0.0,0.0,1.0
2640424000,2640424000,0.0040971786,-0.05496833,-0.0010734206,0.6982582,0.0,0.0,0.0,1.0
2640524000,2640524000,0.0019135863,-0.05235751,-0.00083932653,0.6998544,0.0,0.0,0.0,1.0
2640628000,2640628000,0.002369354,-0.050569594,-0.00034373504,0.69711345,0.0,0.0,0.0,1.0
2640724000,2640724000,0.0014085234,-0.04703188,-0.0003862147,0.6954803,0.0,0.0,0.0,1.0
2640824000,2640824000,0.001645952,-0.042831395,-0.0019571355,0.6942055,0.0,0.0,0.0,1.0
2640928000,2640928000,0.0022851704,-0.052359592,-0.0014258967,0.697885,0.0,0.0,0.0,1.0
2641024000,2641024000,0.0046041245,-0.046479195,-0.0014770642,0.69766504,0.0,0.0,0.0,1.0
2641128000,2641128000,0.00010368996,-0.050054472,-0.0018255442,0.6977174,0.0,0.0,0.0,1.0
2641228000,2641228000,0.0011559793,-0.047635943,-0.00053460774,0.697903,0.0,0.0,0.0,1.0
2641324000,2641324000,0.000120271,-0.046588477,-0.00095127814,0.69443446,0.0,0.0,0.0,1.0
2641424000,2641424000,0.001018916,-0.044757586,-0.0008439082,0.69629717,0.0,0.0,0.0,1.0
2641528000,2641528000,0.00045324,-0.058233235,-0.0008985442,0.70017046,0.0,0.0,0.0,1.0
2641624000,2641624000,0.0023189355,-0.05124692,-0.002116731,0.69768417,0.0,0.0,0.0,1.0
2641728000,2641728000,0.0027478768,-0.050155394,-0.0014946872,0.6990753,0.0,0.0,0.0,1.0
2641828000,2641828000,0.0042682188,-0.04903544,-0.0006605653,0.6974154,0.0,0.0,0.0,1.0
2641924000,2641924000,0.002805505,-0.045883834,-0.0012925526,0.69561416,0.0,0.0,0.0,1.0
2642028000,2642028000,0.0023455012,-0.053943094,-0.0011288375,0.6976256,0.0,0.0,0.0,1.0
2642128000,2642128000,0.0020253712,-0.04631581,-0.0011633481,0.6991974,0.0,0.0,0.0,1.0
2642228000,2642228000,0.0036699576,-0.04748003,-0.00045987754,0.6986381,0.0,0.0,0.0,1.0
2642328000,2642328000,0.0003559948,-0.04643601,-0.00015983847,0.69609886,0.0,0.0,0.0,1.0
2642428000,2642428000,0.0012004054,-0.04711834,-0.0019600254,0.6961716,0.0,0.0,0.0,1.0
2642528000,2642528000,0.0014911713,-0.057198334,-0.0025380831,0.69878125,0.0,0.0,0.0,1.0
2642628000,2642628000,0.0032963755,-0.050749138,-0.0011973295,0.6975293,0.0,0.0,0.0,1.0
2642728000,2642728000,0.00083519367,-0.048237327,-0.0008689943,0.6970564,0.0,0.0,0.0,1.0
2642828000,2642828000,0.00061670016,-0.044631265,-0.00051240367,0.69522774,0.0,0.0,0.0,1.0
2642928000,2642928000,0.0025421649,-0.055677265,-0.0020202508,0.69832015,0.0,0.0,0.0,1.0
2643024000,2643024000,0.0028198783,-0.053418286,-0.0013155024,0.6984842,0.0,0.0,0.0,1.0
2643124000,2643124000,0.0028834622,-0.0511868,-0.0016861169,0.69655055,0.0,0.0,0.0,1.0
2643228000,2643228000,0.0010147499,-0.048555456,-0.0005052727,0.69632393,0.0,0.0,0.0,1.0
2643328000,2643328000,0.004230296,-0.04611308,-0.0019851788,0.69626373,0.0,0.0,0.0,1.0
2643424000,2643424000,-1.6275095e-05,-0.054381777,-0.0010906899,0.6979259,0.0,0.0,0.0,1.0
2643528000,2643528000,0.0052353796,-0.056197688,-0.0011299916,0.69777894,0.0,0.0,0.0,1.0
2643628000,2643628000,0.0016692327,-0.047108628,-0.0016033638,0.6960051,0.0,0.0,0.0,1.0
2643728000,2643728000,0.0021565505,-0.04034335,-0.00048299634,0.6945739,0.0,0.0,0.0,1.0
2643828000,2643828000,0.0014857299,-0.048051156,-0.0009905503,0.6975244,0.0,0.0,0.0,1.0
2643928000,2643928000,-0.001238103,-0.051581647,-0.0018993528,0.6982137,0.0,0.0,0.0,1.0
2644028000,2644028000,0.0023137587,-0.05485332,-0.0018323192,0.69904786,0.0,0.0,0.0,1.0
2644128000,2644128000,0.0016702781,-0.04893023,-0.000984001,0.69617134,0.0,0.0,0.0,1.0
2644224000,2644224000,0.0039719874,-0.04187059,-0.0020388896,0.6951854,0.0,0.0,0.0,1.0
2644324000,2644324000,0.003585962,-0.04686585,-0.0007089429,0.6941886,0.0,0.0,0.0,1.0
2644428000,2644428000,0.003979503,-0.05303938,-0.0011683223,0.69939464,0.0,0.0,0.0,1.0
2644528000,2644528000,0.0020193458,-0.058407865,-0.0008147717,0.6989172,0.0,0.0,0.0,1.0
2644628000,2644628000,-0.0005461548,-0.05099198,-0.0011209189,0.69729877,0.0,0.0,0.0,1.0
2644728000,2644728000,0.0034645975,-0.046841644,-0.002152465,0.6973463,0.0,0.0,0.0,1.0
2644828000,2644828000,0.004198624,-0.047183264,-0.0004044901,0.6968775,0.0,0.0,0.0,1.0
2644928000,2644928000,0.0012703466,-0.05173423,-0.002192879,0.70056826,0.0,0.0,0.0,1.0
2645028000,2645028000,0.0017427757,-0.049286313,-0.0020877162,0.700116,0.0,0.0,0.0,1.0
2645128000,2645128000,0.0020411178,-0.046812482,-0.0012651498,0.7017727,0.0,0.0,0.0,1.0
2645228000,2645228000,0.0024871577,-0.047985867,-0.0005643545,0.6987131,0.0,0.0,0.0,1.0
2645328000,2645328000,0.003279137,-0.057387378,-0.0006210331,0.7033616,0.0,0.0,0.0,1.0
2645428000,2645428000,0.005770252,-0.05574101,-0.0007948099,0.7027349,0.0,0.0,0.0,1.0
2645524000,2645524000,0.005838993,-0.047235277,-0.0021670475,0.7008387,0.0,0.0,0.0,1.0
2645624000,2645624000,0.0046425425,-0.045661204,-0.0009976901,0.700054,0.0,0.0,0.0,1.0
2645724000,2645724000,0.004066483,-0.046838522,-0.00083243044,0.69969535,0.0,0.0,0.0,1.0
2645828000,2645828000,0.0016669323,-0.057892505,-0.0014809011,0.7032933,0.0,0.0,0.0,1.0
2645928000,2645928000,0.0017409028,-0.05719986,-0.00063504436,0.7019671,0.0,0.0,0.0,1.0
2646028000,2646028000,0.0033588195,-0.051499918,-0.0021993967,0.7014868,0.0,0.0,0.0,1.0
2646128000,2646128000,0.0003567529,-0.047144867,-0.0012940636,0.6995165,0.0,0.0,0.0,1.0
2646228000,2646228000,0.003040988,-0.049272824,-0.001888789,0.6994659,0.0,0.0,0.0,1.0
2646328000,2646328000,0.002495668,-0.058559958,-0.0015072542,0.70315576,0.0,0.0,0.0,1.0
2646428000,2646428000,0.0015281632,-0.054025337,-0.0015475967,0.6994919,0.0,0.0,0.0,1.0
2646524000,2646524000,0.0033523603,-0.04486997,-0.0018187448,0.6983541,0.0,0.0,0.0,1.0
2646628000,2646628000,0.0026085048,-0.045517743,-0.0016298093,0.69974536,0.0,0.0,0.0,1.0
2646728000,2646728000,0.0018733941,-0.05551343,8.376327e-05,0.70306873,0.0,0.0,0.0,1.0
2646828000,2646828000,0.0012342981,-0.053543154,-0.0016016777,0.70241284,0.0,0.0,0.0,1.0
2646928000,2646928000,0.0021959513,-0.04795998,-0.0004213216,0.700837,0.0,0.0,0.0,1.0
2647028000,2647028000,0.002723163,-0.05091541,-0.00120434,0.6999474,0.0,0.0,0.0,1.0
2647128000,2647128000,-0.00041443924,-0.046514586,-0.0012092807,0.69758224,0.0,0.0,0.0,1.0
2647228000,2647228000,0.003612989,-0.055597022,-0.0012260061,0.70237464,0.0,0.0,0.0,1.0
2647328000,2647328000,0.0025587487,-0.053879187,-0.0016377509,0.702308,0.0,0.0,0.0,1.0
2647424000,2647424000,0.0046133813,-0.053692143,-0.0008637303,0.70046604,0.0,0.0,0.0,1.0
2647524000,2647524000,0.00080809963,-0.048625864,-0.00049578235,0.6988711,0.0,0.0,0.0,1.0
2647624000,2647624000,0.0024923533,-0.057330284,-0.0015665373,0.7033146,0.0,0.0,0.0,1.0
2647728000,2647728000,0.0016233874,-0.054319337,-0.002243515,0.70300835,0.0,0.0,0.0,1.0
2647828000,2647828000,-0.00071749743,-0.05134264,-0.0014173621,0.70069915,0.0,0.0,0.0,1.0
2647924000,2647924000,0.004067759,-0.04996723,-0.0016304646,0.7008608,0.0,0.0,0.0,1.0
2648028000,2648028000,2.094952e-05,-0.043709952,-0.0009764567,0.6986294,0.0,0.0,0.0,1.0
2648128000,2648128000,0.001277576,-0.05807473,-0.00041379832,0.7008969,0.0,0.0,0.0,1.0
2648228000,2648228000,0.004130982,-0.05555572,-0.000489649,0.70084023,0.0,0.0,0.0,1.0
2648328000,2648328000,0.0009024935,-0.051304303,-0.0011327075,0.70083195,0.0,0.0,0.0,1.0
2648428000,2648428000,0.0043616286,-0.046875678,-0.002025943,0.6997861,0.0,0.0,0.0,1.0
2648524000,2648524000,-0.0012251434,-0.04617348,-0.0014325308,0.6986793,0.0,0.0,0.0,1.0
2648628000,2648628000,0.0031734034,-0.059384897,-0.0025761575,0.701265,0.0,0.0,0.0,1.0
2648728000,2648728000,0.00146881,-0.053122588,-0.0007040146,0.7004984,0.0,0.0,0.0,1.0
2648824000,2648824000,0.0025985346,-0.047121778,-0.0010768304,0.6995495,0.0,0.0,0.0,1.0
2648928000,2648928000,0.001632911,-0.04821205,-0.0011020126,0.69839334,0.0,0.0,0.0,1.0
2649028000,2649028000,0.0013767149,-0.046377383,-0.0016779559,0.69785446,0.0,0.0,0.0,1.0
2649128000,2649128000,0.00016761804,-0.05713581,-0.0011451144,0.70010203,0.0,0.0,0.0,1.0
2649228000,2649228000,0.0012405193,-0.05104643,-0.001522922,0.6980611,0.0,0.0,0.0,1.0
2649328000,2649328000,-0.0002973536,-0.04843078,0.00044001662,0.69857514,0.0,0.0,0.0,1.0
2649428000,2649428000,0.00096180546,-0.043576084,-0.0022799408,0.6983471,0.0,0.0,0.0,1.0
2649528000,2649528000,0.00077629567,-0.057534095,-0.001328806,0.70131046,0.0,0.0,0.0,1.0
2649628000,2649628000,0.0011297853,-0.05632244,-0.0019230428,0.7010804,0.0,0.0,0.0,1.0
2649728000,2649728000,0.0041928166,-0.05154322,-0.0012949638,0.6995026,0.0,0.0,0.0,1.0
2649824000,2649824000,-0.001313227,-0.047583684,-0.0011113965,0.6993271,0.0,0.0,0.0,1.0
2649928000,2649928000,-0.0015177161,-0.045830965,-0.0022484032,0.6993759,0.0,0.0,0.0,1.0
2650028000,2650028000,0.0021993322,-0.054635253,-0.0016882187,0.70209247,0.0,0.0,0.0,1.0
2650128000,2650128000,0.0018901713,-0.053413115,-0.0018153675,0.70359254,0.0,0.0,0.0,1.0
2650224000,2650224000,0.0022545927,-0.05023028,-0.000769987,0.70275843,0.0,0.0,0.0,1.0
2650324000,2650324000,-0.0029686056,-0.04650487,-0.000833171,0.7028208,0.0,0.0,0.0,1.0
2650428000,2650428000,0.0020248103,-0.04741615,-0.0010409675,0.70152867,0.0,0.0,0.0,1.0
2650528000,2650528000,9.4179995e-07,-0.054863732,-0.0011787029,0.70406836,0.0,0.0,0.0,1.0
2650628000,2650628000,0.0013579711,-0.050106034,-0.0011854672,0.70362425,0.0,0.0,0.0,1.0
2650728000,2650728000,0.0006197039,-0.0489422,-0.00084397336,0.7037641,0.0,0.0,0.0,1.0
2650824000,2650824000,0.0027673622,-0.04682509,-0.001230128,0.7012922,0.0,0.0,0.0,1.0
2650924000,2650924000,0.002338152,-0.05656428,-0.0010093845,0.7049398,0.0,0.0,0.0,1.0
2651028000,2651028000,0.0015158509,-0.056202725,-0.0015799182,0.7033153,0.0,0.0,0.0,1.0
2651128000,2651128000,0.0022327993,-0.048843812,-0.0009517248,0.702936,0.0,0.0,0.0,1.0
2651228000,2651228000,0.004434203,-0.045104876,-0.0007780992,0.7018499,0.0,0.0,0.0,1.0
2651328000,2651328000,-0.00089137896,-0.05139717,-0.0017617792,0.7017905,0.0,0.0,0.0,1.0
2651428000,2651428000,0.0015489269,-0.05742147,-0.0013760946,0.7049007,0.0,0.0,0.0,1.0
2651528000,2651528000,0.0005801461,-0.050535556,-0.0011433738,0.7036573,0.0,0.0,0.0,1.0
2651628000,2651628000,0.0031308532,-0.048532706,-0.0018665886,0.7017626,0.0,0.0,0.0,1.0
2651728000,2651728000,0.0022337914,-0.046075623,-0.0014663297,0.7007763,0.0,0.0,0.0,1.0
2651828000,2651828000,0.00094443216,-0.04817029,-0.0003424376,0.701745,0.0,0.0,0.0,1.0
2651928000,2651928000,0.004202959,-0.05959,-0.0010004186,0.70438844,0.0,0.0,0.0,1.0
2652028000,2652028000,0.0045388537,-0.054388475,-0.0007948992,0.7012716,0.0,0.0,0.0,1.0
2652128000,2652128000,-0.00031900604,-0.050028726,-0.0006099292,0.70298153,0.0,0.0,0.0,1.0
2652228000,2652228000,0.002861244,-0.04513968,-0.0012371652,0.70266116,0.0,0.0,0.0,1.0
2652328000,2652328000,0.00058649306,-0.058382675,-0.0023268522,0.7075756,0.0,0.0,0.0,1.0
2652428000,2652428000,0.004548884,-0.059552006,-0.0016941389,0.70506465,0.0,0.0,0.0,1.0
2652528000,2652528000,0.00079586694,-0.049447685,-0.0012234866,0.7026612,0.0,0.0,0.0,1.0
2652628000,2652628000,-0.0007133385,-0.044260122,-2.6966678e-05,0.70307547,0.0,0.0,0.0,1.0
2652728000,2652728000,0.00033935648,-0.045371123,-0.0021123148,0.7014142,0.0,0.0,0.0,1.0
2652828000,2652828000,0.0040634093,-0.05376787,-0.0024798494,0.7056791,0.0,0.0,0.0,1.0
2652928000,2652928000,0.00092405675,-0.057512205,-0.001484065,0.7056756,0.0,0.0,0.0,1.0
2653028000,2653028000,-3.6731362e-06,-0.050532635,-0.001508165,0.7025685,0.0,0.0,0.0,1.0
2653128000,2653128000,0.001564304,-0.046470392,-0.0015643437,0.7008821,0.0,0.0,0.0,1.0
2653228000,2653228000,0.0033611888,-0.046864036,-0.0012996267,0.7004572,0.0,0.0,0.0,1.0
2653328000,2653328000,0.0035992616,-0.05640284,-0.0013798014,0.7038769,0.0,0.0,0.0,1.0
2653428000,2653428000,0.0035884464,-0.04973687,-0.00087903277,0.7025174,0.0,0.0,0.0,1.0
2653528000,2653528000,0.0035233255,-0.049430534,-0.00058026233,0.70286465,0.0,0.0,0.0,1.0
2653624000,2653624000,0.0019653665,-0.04367884,-0.0013765605,0.6997745,0.0,0.0,0.0,1.0
2653728000,2653728000,8.0902595e-05,-0.05692361,-0.0019734919,0.70357645,0.0,0.0,0.0,1.0
2653828000,2653828000,-8.940068e-05,-0.057546742,-0.0020321955,0.703015,0.0,0.0,0.0,1.0
2653928000,2653928000,0.0028034826,-0.050807133,-0.0016377477,0.7012162,0.0,0.0,0.0,1.0
2654024000,2654024000,0.00038628746,-0.044299003,-0.0013345227,0.7006739,0.0,0.0,0.0,1.0
2654124000,2654124000,0.0035740878,-0.046882693,-0.0009892132,0.7005418,0.0,0.0,0.0,1.0
2654224000,2654224000,0.0034302743,-0.05513873,-0.00081036775,0.7008915,0.0,0.0,0.0,1.0
2654328000,2654328000,0.0017738736,-0.048839588,-0.001518155,0.70131934,0.0,0.0,0.0,1.0
2654428000,2654428000,0.0010495842,-0.04976156,-0.0007431358,0.70073915,0.0,0.0,0.0,1.0
2654528000,2654528000,0.00126919,-0.043984275,-0.000370902,0.69950324,0.0,0.0,0.0,1.0
2654624000,2654624000,0.0040560663,-0.0544693,-0.0022931655,0.7023569,0.0,0.0,0.0,1.0
2654724000,2654724000,0.005699681,-0.058514506,-0.0020223327,0.70043504,0.0,0.0,0.0,1.0
2654824000,2654824000,0.0033777808,-0.047477603,-0.0013548825,0.6993042,0.0,0.0,0.0,1.0
2654928000,2654928000,0.0007675146,-0.048489917,-0.00063483603,0.69922495,0.0,0.0,0.0,1.0
2655028000,2655028000,0.0021680088,-0.049687624,-0.0017880735,0.69806,0.0,0.0,0.0,1.0
2655128000,2655128000,0.00162102,-0.057398006,-0.0015797362,0.70061475,0.0,0.0,0.0,1.0
2655228000,2655228000,0.002755181,-0.05626771,-0.0005808482,0.70129323,0.0,0.0,0.0,1.0
2655328000,2655328000,0.0029114587,-0.04681911,-0.0027434402,0.69996905,0.0,0.0,0.0,1.0
2655424000,2655424000,0.0025614772,-0.043965653,-0.0011925813,0.70057756,0.0,0.0,0.0,1.0
2655524000,2655524000,0.0047149155,-0.047522683,-0.0024119886,0.70165974,0.0,0.0,0.0,1.0
2655628000,2655628000,0.0049950373,-0.058002044,-0.0013420379,0.7032822,0.0,0.0,0.0,1.0
2655728000,2655728000,0.0023761806,-0.05482326,-0.0014673923,0.70318204,0.0,0.0,0.0,1.0
2655828000,2655828000,0.0010700468,-0.047994908,-0.0013685094,0.7027017,0.0,0.0,0.0,1.0
2655924000,2655924000,0.002753746,-0.0459805,-0.00192901,0.7020979,0.0,0.0,0.0,1.0
2656028000,2656028000,0.002051329,-0.050896667,-0.001385231,0.70245826,0.0,0.0,0.0,1.0
2656128000,2656128000,0.005690448,-0.05792916,-0.00096114207,0.70452464,0.0,0.0,0.0,1.0
2656228000,2656228000,0.0025436932,-0.053755388,-0.0012208577,0.7027177,0.0,0.0,0.0,1.0
2656328000,2656328000,0.00598674,-0.04885855,-0.0013116365,0.7032996,0.0,0.0,0.0,1.0
2656428000,2656428000,0.0054067196,-0.051977497,-0.00091590907,0.7028273,0.0,0.0,0.0,1.0
2656528000,2656528000,0.0050579775,-0.048004467,-0.0014327767,0.7011109,0.0,0.0,0.0,1.0
2656624000,2656624000,0.0033410303,-0.052091897,-0.0009774495,0.7034612,0.0,0.0,0.0,1.0
2656728000,2656728000,0.0035469332,-0.05696761,-0.0009644303,0.7046569,0.0,0.0,0.0,1.0
2656828000,2656828000,0.0006097902,-0.051671177,-0.00022673025,0.70289975,0.0,0.0,0.0,1.0
2656928000,2656928000,0.0040731123,-0.048613064,-0.0021892546,0.70224905,0.0,0.0,0.0,1.0
2657024000,2657024000,0.0030098157,-0.05002064,-0.00016982423,0.70395535,0.0,0.0,0.0,1.0
2657124000,2657124000,0.0040688203,-0.04472445,-0.0011882102,0.70047647,0.0,0.0,0.0,1.0
2657228000,2657228000,0.0019764202,-0.047537543,-0.0008434515,0.70179564,0.0,0.0,0.0,1.0
2657324000,2657324000,0.0020318036,-0.05225511,-0.0015581534,0.7031598,0.0,0.0,0.0,1.0
2657428000,2657428000,0.0060033854,-0.050503537,-0.0016117865,0.7025193,0.0,0.0,0.0,1.0
2657528000,2657528000,0.0023603716,-0.051434755,-0.0001277139,0.7027798,0.0,0.0,0.0,1.0
2657628000,2657628000,0.0024750633,-0.04577258,-0.0015351942,0.70045394,0.0,0.0,0.0,1.0
2657728000,2657728000,0.0020058942,-0.058681615,-0.0012312874,0.70254177,0.0,0.0,0.0,1.0
2657828000,2657828000,0.0034097098,-0.054756176,-0.00050005445,0.7044848,0.0,0.0,0.0,1.0
2657928000,2657928000,0.0013772142,-0.05089295,-0.0010079702,0.70166767,0.0,0.0,0.0,1.0
2658028000,2658028000,0.004746968,-0.0441558,-0.0013924859,0.69992536,0.0,0.0,0.0,1.0
2658128000,2658128000,0.003029356,-0.046763644,-0.0019882084,0.6999148,0.0,0.0,0.0,1.0
2658228000,2658228000,0.000980875,-0.058979254,-0.0016832151,0.7024551,0.0,0.0,0.0,1.0
2658328000,2658328000,0.0020655668,-0.044527307,-0.0018051877,0.69901794,0.0,0.0,0.0,1.0
2658428000,2658428000,0.003168188,-0.05759273,-0.0015993183,0.70309585,0.0,0.0,0.0,1.0
2658528000,2658528000,0.0043754214,-0.051669985,-0.00042690046,0.7002085,0.0,0.0,0.0,1.0
2658628000,2658628000,0.00033908035,-0.04688205,-0.0013456659,0.6991409,0.0,0.0,0.0,1.0
2658728000,2658728000,0.0026352815,-0.046510767,-0.0018821999,0.6987032,0.0,0.0,0.0,1.0
2658828000,2658828000,0.00187589,-0.057417043,-0.0003317083,0.7010613,0.0,0.0,0.0,1.0
2658924000,2658924000,0.0025214427,-0.05223034,-0.0010873396,0.70138025,0.0,0.0,0.0,1.0
2659028000,2659028000,0.00012274063,-0.048993964,-0.0012911843,0.70019716,0.0,0.0,0.0,1.0
2659128000,2659128000,0.00091077876,-0.045473818,-0.0015817242,0.698732,0.0,0.0,0.0,1.0
2659228000,2659228000,0.0028169751,-0.05518723,-0.0014732033,0.702589,0.0,0.0,0.0,1.0
2659324000,2659324000,0.005176275,-0.053600807,-0.0010811872,0.7016101,0.0,0.0,0.0,1.0
2659428000,2659428000,0.0015689376,-0.05003339,-0.0018486485,0.69996595,0.0,0.0,0.0,1.0
2659528000,2659528000,0.0015332319,-0.05102837,-0.0012372254,0.6997716,0.0,0.0,0.0,1.0
2659628000,2659628000,0.002861411,-0.048580408,-0.0016890673,0.6986548,0.0,0.0,0.0,1.0
2659728000,2659728000,0.001102809,-0.055973694,-0.0009655658,0.7011451,0.0,0.0,0.0,1.0
2659824000,2659824000,0.003279222,-0.047905866,-0.0013177145,0.6998883,0.0,0.0,0.0,1.0
2659928000,2659928000,0.0042173946,-0.051621646,-0.0008448163,0.69960374,0.0,0.0,0.0,1.0
2660028000,2660028000,0.003403218,-0.051738426,-0.0008714717,0.70036006,0.0,0.0,0.0,1.0
2660128000,2660128000,0.0032259813,-0.04815774,-0.0017886439,0.69825274,0.0,0.0,0.0,1.0
2660224000,2660224000,0.0027613698,-0.055947825,-0.0022401207,0.70132315,0.0,0.0,0.0,1.0
2660328000,2660328000,-0.0007347325,-0.056816682,-0.00033449515,0.7020463,0.0,0.0,0.0,1.0
2660428000,2660428000,0.0043081436,-0.05445656,-0.0009308669,0.7042257,0.0,0.0,0.0,1.0
2660528000,2660528000,0.0019625335,-0.050897762,-0.001991628,0.7021163,0.0,0.0,0.0,1.0
2660628000,2660628000,0.0011430832,-0.045235932,-0.0011732257,0.7026941,0.0,0.0,0.0,1.0
2660724000,2660724000,0.0020360926,-0.044718694,-0.0009672581,0.7033224,0.0,0.0,0.0,1.0
2660828000,2660828000,-0.0019393696,-0.05812043,-0.0010430047,0.7066612,0.0,0.0,0.0,1.0
2660928000,2660928000,0.0015879152,-0.056332704,-0.0005674434,0.7071357,0.0,0.0,0.0,1.0
2661028000,2661028000,0.0007798264,-0.05134264,-0.0005711577,0.7050455,0.0,0.0,0.0,1.0
2661128000,2661128000,0.0005790753,-0.044996537,-0.002121591,0.70435333,0.0,0.0,0.0,1.0
2661228000,2661228000,-0.0008218617,-0.048085205,0.00013740652,0.7038658,0.0,0.0,0.0,1.0
2661328000,2661328000,0.0003362915,-0.055794947,-0.0004146704,0.70632166,0.0,0.0,0.0,1.0
2661428000,2661428000,0.0030152756,-0.051292844,-0.0012200511,0.7050414,0.0,0.0,0.0,1.0
2661528000,2661528000,0.002469506,-0.050751414,-0.002219995,0.7063646,0.0,0.0,0.0,1.0
2661628000,2661628000,0.0029697237,-0.04922036,-0.0010112673,0.70382774,0.0,0.0,0.0,1.0
2661728000,2661728000,0.001587817,-0.05779412,-0.001378404,0.7066923,0.0,0.0,0.0,1.0
2661824000,2661824000,0.002693658,-0.056206614,-0.0015014841,0.70531285,0.0,0.0,0.0,1.0
2661928000,2661928000,0.0035243973,-0.049652074,-0.001356124,0.7038093,0.0,0.0,0.0,1.0
2662028000,2662028000,-0.00053752656,-0.051033974,-0.00083902944,0.70522463,0.0,0.0,0.0,1.0
2662124000,2662124000,0.0024236967,-0.04995,-0.0017328528,0.703053,0.0,0.0,0.0,1.0
2662228000,2662228000,0.0014262323,-0.05529007,-0.0018118047,0.7070731,0.0,0.0,0.0,1.0
2662328000,2662328000,0.0014183805,-0.05489812,-0.0018083833,0.7069121,0.0,0.0,0.0,1.0
2662428000,2662428000,0.0025067073,-0.050758515,-0.0020432943,0.70567644,0.0,0.0,0.0,1.0
2662524000,2662524000,0.004983111,-0.05070691,-0.000702352,0.7031796,0.0,0.0,0.0,1.0
2662628000,2662628000,0.0054703588,-0.048738215,-0.0009594135,0.70482486,0.0,0.0,0.0,1.0
2662728000,2662728000,0.0039255144,-0.056705963,-0.0016287756,0.7070731,0.0,0.0,0.0,1.0
2662828000,2662828000,0.001440248,-0.051941123,-0.0007495906,0.70464194,0.0,0.0,0.0,1.0
2662924000,2662924000,0.0017264248,-0.046258263,-0.0017350207,0.70372766,0.0,0.0,0.0,1.0
2663028000,2663028000,0.0017830976,-0.048144687,-0.001392426,0.70209974,0.0,0.0,0.0,1.0
2663124000,2663124000,0.001537774,-0.058682375,-0.0010490593,0.70661116,0.0,0.0,0.0,1.0
2663224000,2663224000,-0.0002896106,-0.05288129,-0.0016352553,0.7037358,0.0,0.0,0.0,1.0
2663328000,2663328000,0.0012302257,-0.050365165,-0.00037458044,0.7035512,0.0,0.0,0.0,1.0
2663424000,2663424000,-7.060054e-05,-0.0474321,-0.0016458987,0.701303,0.0,0.0,0.0,1.0
2663528000,2663528000,0.0028981455,-0.04840576,-0.001356048,0.7029262,0.0,0.0,0.0,1.0
2663628000,2663628000,0.0027501336,-0.055859875,-0.0013680471,0.7037306,0.0,0.0,0.0,1.0
2663724000,2663724000,0.0020321081,-0.05295318,-0.0009261711,0.70340085,0.0,0.0,0.0,1.0
2663828000,2663828000,0.00083722826,-0.051430587,-0.0010586084,0.7029436,0.0,0.0,0.0,1.0
2663924000,2663924000,0.0031470219,-0.05031687,-0.0014391685,0.7022381,0.0,0.0,0.0,1.0
2664028000,2664028000,0.0020137734,-0.044337377,-0.001315405,0.70070976,0.0,0.0,0.0,1.0
2664128000,2664128000,0.003969682,-0.05961225,-0.0017037005,0.70232964,0.0,0.0,0.0,1.0
2664224000,2664224000,0.0013829576,-0.04404019,-0.0014434634,0.7010618,0.0,0.0,0.0,1.0
2664328000,2664328000,0.0016116896,-0.047991015,0.00015040941,0.70245457,0.0,0.0,0.0,1.0
2664428000,2664428000,0.0024157306,-0.045631986,-0.0013710554,0.70109326,0.0,0.0,0.0,1.0
2664528000,2664528000,0.0017806501,-0.058393713,-0.0012435484,0.70382833,0.0,0.0,0.0,1.0
2664628000,2664628000,0.0032569496,-0.05411719,-0.0018380726,0.70318455,0.0,0.0,0.0,1.0
2664724000,2664724000,-0.00031953794,-0.048807025,-0.00067758764,0.7011833,0.0,0.0,0.0,1.0
2664828000,2664828000,0.0011702215,-0.0495858,-0.00074088067,0.70161617,0.0,0.0,0.0,1.0
2664928000,2664928000,0.0012825041,-0.047829356,-0.0015302163,0.6986043,0.0,0.0,0.0,1.0
2665024000,2665024000,0.00034024462,-0.056609046,-0.00091863004,0.70298094,0.0,0.0,0.0,1.0
2665128000,2665128000,0.0030773608,-0.057560693,-0.0009971204,0.70319533,0.0,0.0,0.0,1.0
2665228000,2665228000,0.0029026126,-0.049635924,-0.001435049,0.7017487,0.0,0.0,0.0,1.0
2665324000,2665324000,0.0018092161,-0.04606845,-0.0016558215,0.70166636,0.0,0.0,0.0,1.0
2665428000,2665428000,0.0015492348,-0.046927582,-0.00071500323,0.70185226,0.0,0.0,0.0,1.0
2665528000,2665528000,-0.00045522698,-0.052906778,-0.0015199987,0.7063511,0.0,0.0,0.0,1.0
2665628000,2665628000,0.0019688434,-0.04853016,-0.0016853948,0.7044738,0.0,0.0,0.0,1.0
2665724000,2665724000,0.0018909487,-0.042327184,-0.0017601005,0.70216966,0.0,0.0,0.0,1.0
2665828000,2665828000,0.0026958268,-0.046340704,-0.0006814948,0.70275396,0.0,0.0,0.0,1.0
2665924000,2665924000,0.0026927358,-0.055617973,-0.0016139483,0.70608675,0.0,0.0,0.0,1.0
2666028000,2666028000,0.004879591,-0.056346077,-0.0004835875,0.7065815,0.0,0.0,0.0,1.0
2666128000,2666128000,0.004093151,-0.049023405,-0.001495864,0.70591253,0.0,0.0,0.0,1.0
2666228000,2666228000,0.004183353,-0.050306123,-0.00047551462,0.7041747,0.0,0.0,0.0,1.0
2666324000,2666324000,0.0030088394,-0.051045515,-0.0020918455,0.70242035,0.0,0.0,0.0,1.0
2666428000,2666428000,0.0027915256,-0.05319686,-0.0005438249,0.7065992,0.0,0.0,0.0,1.0
2666528000,2666528000,-4.061032e-06,-0.052354753,-9.553321e-05,0.7076754,0.0,0.0,0.0,1.0
2666628000,2666628000,0.0046054837,-0.051420532,-0.002953418,0.70481896,0.0,0.0,0.0,1.0
2666728000,2666728000,0.001815652,-0.047472995,-0.0016365903,0.7017793,0.0,0.0,0.0,1.0
2666824000,2666824000,0.0022643376,-0.057907008,-0.0005329773,0.7055924,0.0,0.0,0.0,1.0
2666928000,2666928000,-0.0006632046,-0.058615424,-0.00035718404,0.7049337,0.0,0.0,0.0,1.0
2667028000,2667028000,0.0017229524,-0.050118905,-0.0007057562,0.70241535,0.0,0.0,0.0,1.0
2667124000,2667124000,0.0036150767,-0.049856044,-0.0016576389,0.7026662,0.0,0.0,0.0,1.0
2667228000,2667228000,0.0027925558,-0.047159187,-0.0014330753,0.7020383,0.0,0.0,0.0,1.0
2667328000,2667328000,0.004692018,-0.048793044,-0.00054908375,0.7001853,0.0,0.0,0.0,1.0
2667428000,2667428000,0.0019767946,-0.055998366,-3.3429475e-05,0.7048241,0.0,0.0,0.0,1.0
2667528000,2667528000,0.000514764,-0.0494671,-0.0018639339,0.70314634,0.0,0.0,0.0,1.0
2667624000,2667624000,0.0010045565,-0.046204254,-0.0014773593,0.70139307,0.0,0.0,0.0,1.0
2667728000,2667728000,-0.00043822126,-0.047206685,-0.000326525,0.7017599,0.0,0.0,0.0,1.0
2667828000,2667828000,0.0013571834,-0.0580199,-0.0013463416,0.70396537,0.0,0.0,0.0,1.0
2667928000,2667928000,0.002485586,-0.05321247,-0.001461491,0.70205593,0.0,0.0,0.0,1.0
2668028000,2668028000,0.0022317031,-0.04878725,-0.0015080584,0.70254433,0.0,0.0,0.0,1.0
2668128000,2668128000,0.0021450506,-0.044966154,-0.0016031032,0.7006131,0.0,0.0,0.0,1.0
2668228000,2668228000,0.002064513,-0.048265014,-0.0004952815,0.6997746,0.0,0.0,0.0,1.0
2668324000,2668324000,0.0025180106,-0.05639608,-0.0004938444,0.70350933,0.0,0.0,0.0,1.0
2668428000,2668428000,0.00047682505,-0.052722063,-0.0020578639,0.7023207,0.0,0.0,0.0,1.0
2668528000,2668528000,0.0016962818,-0.04977954,-0.0016729386,0.7003158,0.0,0.0,0.0,1.0
2668628000,2668628000,0.0008326111,-0.0453572,-0.00073314906,0.6985105,0.0,0.0,0.0,1.0
2668728000,2668728000,0.001970151,-0.05861339,-0.0012210635,0.7017045,0.0,0.0,0.0,1.0
2668828000,2668828000,0.0035180934,-0.056975774,-0.00075912534,0.70320266,0.0,0.0,0.0,1.0
2668924000,2668924000,0.0037478446,-0.05141132,-0.0013800362,0.7014275,0.0,0.0,0.0,1.0
2669028000,2669028000,0.0037518395,-0.052105956,-0.0014351673,0.7003194,0.0,0.0,0.0,1.0
2669124000,2669124000,0.0025211796,-0.045816272,-0.0018863259,0.6979143,0.0,0.0,0.0,1.0
2669224000,2669224000,0.0017709597,-0.053390194,-0.0015406254,0.7036783,0.0,0.0,0.0,1.0
2669328000,2669328000,0.0035530333,-0.05064608,-0.002167441,0.70037234,0.0,0.0,0.0,1.0
2669424000,2669424000,0.0027007787,-0.05267229,-0.0005210779,0.70170045,0.0,0.0,0.0,1.0
2669524000,2669524000,0.0020968819,-0.054657593,-0.0024124538,0.70141965,0.0,0.0,0.0,1.0
2669624000,2669624000,0.0025704294,-0.044277385,-0.0018566684,0.69867283,0.0,0.0,0.0,1.0
2669728000,2669728000,0.003601485,-0.043951873,-0.0017085419,0.6980423,0.0,0.0,0.0,1.0
2669824000,2669824000,0.0031629484,-0.041431826,-0.00067907403,0.69856894,0.0,0.0,0.0,1.0
2669924000,2669924000,0.0008959633,-0.056795876,-0.0017171724,0.70357245,0.0,0.0,0.0,1.0
2670028000,2670028000,0.0010605204,-0.05916667,-0.00086087734,0.7017631,0.0,0.0,0.0,1.0
2670124000,2670124000,0.0035139853,-0.048647262,-0.0018517068,0.7007704,0.0,0.0,0.0,1.0
2670228000,2670228000,0.0028791917,-0.046252,-0.0015698343,0.6982951,0.0,0.0,0.0,1.0
2670328000,2670328000,0.0025955522,-0.04956296,-0.00037114637,0.6993181,0.0,0.0,0.0,1.0
2670428000,2670428000,0.00035525137,-0.057114884,-0.0015307765,0.70299035,0.0,0.0,0.0,1.0
2670528000,2670528000,0.0015626661,-0.054726873,-0.0014495148,0.7036921,0.0,0.0,0.0,1.0
2670628000,2670628000,0.0023071563,-0.04927169,-0.0010132774,0.70260966,0.0,0.0,0.0,1.0
2670724000,2670724000,0.0021360936,-0.042393435,-0.000860794,0.69976604,0.0,0.0,0.0,1.0
2670828000,2670828000,-0.0004970243,-0.044650257,-0.0010651161,0.702305,0.0,0.0,0.0,1.0
2670924000,2670924000,0.0031775062,-0.05644466,-0.0019519735,0.7058143,0.0,0.0,0.0,1.0
2671028000,2671028000,0.003441428,-0.050057378,-0.0007325199,0.7055059,0.0,0.0,0.0,1.0
2671128000,2671128000,0.002014104,-0.04890395,-0.0012888386,0.70433897,0.0,0.0,0.0,1.0
2671228000,2671228000,0.0011443562,-0.046986226,-0.0014629232,0.70299315,0.0,0.0,0.0,1.0
2671324000,2671324000,0.0042942585,-0.05509428,-0.0003304868,0.706853,0.0,0.0,0.0,1.0
2671428000,2671428000,0.0028873226,-0.05756967,-0.0013891339,0.70787966,0.0,0.0,0.0,1.0
2671528000,2671528000,0.0063653877,-0.053857826,-0.0007812681,0.7052541,0.0,0.0,0.0,1.0
2671628000,2671628000,0.004843496,-0.05184323,-0.0017255816,0.70439756,0.0,0.0,0.0,1.0
2671728000,2671728000,0.0023762034,-0.045285966,-0.0012993716,0.7044652,0.0,0.0,0.0,1.0
2671828000,2671828000,0.003516839,-0.057167217,-0.0014155582,0.7068243,0.0,0.0,0.0,1.0
2671928000,2671928000,0.003946899,-0.056889247,-0.0020316169,0.70744276,0.0,0.0,0.0,1.0
2672028000,2672028000,0.0054842792,-0.051707048,-0.0021236457,0.70445025,0.0,0.0,0.0,1.0
2672128000,2672128000,0.0028192266,-0.045516644,-0.0012993874,0.7041087,0.0,0.0,0.0,1.0
2672224000,2672224000,0.0023002606,-0.056917302,-0.0007452846,0.7068571,0.0,0.0,0.0,1.0
2672328000,2672328000,0.0043592267,-0.057845578,-0.0009191319,0.7076623,0.0,0.0,0.0,1.0
2672428000,2672428000,0.00371219,-0.05330591,-0.0009595067,0.7038134,0.0,0.0,0.0,1.0
2672528000,2672528000,0.006273346,-0.0496566,-0.00094478135,0.70404905,0.0,0.0,0.0,1.0
2672624000,2672624000,0.0040102825,-0.048704505,-0.0003063038,0.7026982,0.0,0.0,0.0,1.0
2672724000,2672724000,0.003920135,-0.05687612,-0.0011967204,0.7059278,0.0,0.0,0.0,1.0
2672828000,2672828000,0.005558054,-0.05687797,-0.00039382785,0.70502806,0.0,0.0,0.0,1.0
2672928000,2672928000,0.003073722,-0.05279666,-0.00056741724,0.7037239,0.0,0.0,0.0,1.0
2673028000,2673028000,0.0036254032,-0.043730684,-0.0014098879,0.7026968,0.0,0.0,0.0,1.0
2673124000,2673124000,0.00180969,-0.048253536,-0.0012982541,0.7025016,0.0,0.0,0.0,1.0
2673228000,2673228000,0.0025142932,-0.056044046,-0.0018829743,0.7056478,0.0,0.0,0.0,1.0
2673328000,2673328000,0.0007682855,-0.05097023,-0.0012286032,0.70326877,0.0,0.0,0.0,1.0
2673424000,2673424000,0.0022755384,-0.049108207,-0.0012204554,0.70395017,0.0,0.0,0.0,1.0
2673524000,2673524000,0.003006514,-0.047868263,-0.0014652915,0.70051014,0.0,0.0,0.0,1.0
2673624000,2673624000,0.004855972,-0.055737022,-0.001371566,0.7048724,0.0,0.0,0.0,1.0
2673728000,2673728000,0.003698074,-0.058632452,-0.0016119635,0.70437133,0.0,0.0,0.0,1.0
2673828000,2673828000,0.0021401753,-0.05133305,-0.00045955292,0.70346266,0.0,0.0,0.0,1.0
2673928000,2673928000,-2.4704728e-05,-0.050201885,-0.0023216614,0.7037477,0.0,0.0,0.0,1.0
2674024000,2674024000,0.0035765448,-0.04966401,-0.0025664167,0.6999265,0.0,0.0,0.0,1.0
2674124000,2674124000,0.0036907638,-0.053778343,-0.0010633703,0.70282024,0.0,0.0,0.0,1.0
2674228000,2674228000,0.002862704,-0.054844014,-0.0019407014,0.7034302,0.0,0.0,0.0,1.0
2674328000,2674328000,0.0014361904,-0.051045317,-0.001565137,0.70132995,0.0,0.0,0.0,1.0
2674428000,2674428000,0.0019473073,-0.052156042,-0.0009454184,0.70083123,0.0,0.0,0.0,1.0
2674528000,2674528000,0.002480946,-0.047135502,-0.0009320775,0.6992351,0.0,0.0,0.0,1.0
2674624000,2674624000,0.0019195469,-0.05619867,-0.0009528253,0.7015213,0.0,0.0,0.0,1.0
2674728000,2674728000,0.004994276,-0.053189497,-0.0010734911,0.7000312,0.0,0.0,0.0,1.0
2674828000,2674828000,0.0036461889,-0.0492333,0.0007065905,0.69936,0.0,0.0,0.0,1.0
2674928000,2674928000,0.004338713,-0.045358263,-0.0011826439,0.6989571,0.0,0.0,0.0,1.0
2675028000,2675028000,-0.0005293363,-0.046413317,-0.0013956203,0.698726,0.0,0.0,0.0,1.0
2675128000,2675128000,0.004540099,-0.057701223,-0.00089559914,0.7013109,0.0,0.0,0.0,1.0
2675224000,2675224000,0.005140124,-0.049816888,-0.0017999809,0.6992951,0.0,0.0,0.0,1.0
2675324000,2675324000,0.0018063415,-0.052857697,-0.00047470973,0.7009569,0.0,0.0,0.0,1.0
2675424000,2675424000,0.002041922,-0.04718431,-0.0009404896,0.69775367,0.0,0.0,0.0,1.0
2675528000,2675528000,0.0023959035,-0.054258328,-0.0012134501,0.7014817,0.0,0.0,0.0,1.0
2675628000,2675628000,0.0030742744,-0.054298624,-0.0025072547,0.70231915,0.0,0.0,0.0,1.0
2675728000,2675728000,0.0024183956,-0.047915936,-0.0020426973,0.7017662,0.0,0.0,0.0,1.0
2675824000,2675824000,0.0048975274,-0.04537788,-0.0012178379,0.7016733,0.0,0.0,0.0,1.0
2675928000,2675928000,0.002039793,-0.04505854,-0.0018483051,0.7002527,0.0,0.0,0.0,1.0
2676024000,2676024000,0.0025740904,-0.054747377,-0.001580334,0.70497787,0.0,0.0,0.0,1.0
2676124000,2676124000,0.0016067537,-0.053801727,-0.0009737174,0.7029922,0.0,0.0,0.0,1.0
2676228000,2676228000,0.0029627401,-0.050172854,-0.0014341954,0.70380247,0.0,0.0,0.0,1.0
2676328000,2676328000,0.0059338356,-0.04415521,-0.0012757495,0.70280397,0.0,0.0,0.0,1.0
2676428000,2676428000,0.0019937016,-0.04771028,-0.001751553,0.70254683,0.0,0.0,0.0,1.0
2676528000,2676528000,0.0021469109,-0.05543859,-0.0011597059,0.7053203,0.0,0.0,0.0,1.0
2676628000,2676628000,0.004259602,-0.049848147,-0.0016932376,0.70333636,0.0,0.0,0.0,1.0
2676728000,2676728000,0.0040448927,-0.051768262,-0.0012690949,0.70433486,0.0,0.0,0.0,1.0
2676824000,2676824000,0.0034497115,-0.04838267,-0.0015051435,0.70281684,0.0,0.0,0.0,1.0
2676924000,2676924000,0.004824237,-0.05800225,-0.0017090086,0.7064901,0.0,0.0,0.0,1.0
2677028000,2677028000,5.7620462e-05,-0.05971273,-0.00038136583,0.70485663,0.0,0.0,0.0,1.0
2677124000,2677124000,0.0022110348,-0.049125805,-0.0015583145,0.70234054,0.0,0.0,0.0,1.0
2677224000,2677224000,0.003990493,-0.04510992,-0.0008594991,0.7018394,0.0,0.0,0.0,1.0
2677324000,2677324000,0.002685598,-0.048272155,-0.0019628583,0.7022502,0.0,0.0,0.0,1.0
2677424000,2677424000,0.0010445295,-0.057168,-0.0016435946,0.70800227,0.0,0.0,0.0,1.0
2677528000,2677528000,0.002809776,-0.06083293,-0.002520679,0.7058811,0.0,0.0,0.0,1.0
2677628000,2677628000,0.0030451443,-0.047383234,-0.00045054452,0.70214325,0.0,0.0,0.0,1.0
2677728000,2677728000,0.0021500057,-0.04972784,-0.0015488365,0.70048225,0.0,0.0,0.0,1.0
2677828000,2677828000,0.0026040936,-0.04680244,-0.00092162273,0.70164055,0.0,0.0,0.0,1.0
2677924000,2677924000,0.0009220316,-0.055604573,-0.0013123603,0.704199,0.0,0.0,0.0,1.0
2678028000,2678028000,0.0034987163,-0.053267755,-0.0012575717,0.703825,0.0,0.0,0.0,1.0
2678128000,2678128000,0.0036169048,-0.05318339,-0.0015593129,0.7024205,0.0,0.0,0.0,1.0
2678224000,2678224000,0.0020174475,-0.04857862,-0.0014240702,0.7016388,0.0,0.0,0.0,1.0
2678328000,2678328000,-0.0015190267,-0.05877029,-0.0017595298,0.70328295,0.0,0.0,0.0,1.0
2678428000,2678428000,0.0024900176,-0.056119334,-0.0011083944,0.70310044,0.0,0.0,0.0,1.0
2678528000,2678528000,0.003702281,-0.046772975,-0.0010062956,0.7020908,0.0,0.0,0.0,1.0
2678628000,2678628000,0.0023504356,-0.05072473,-0.0017915696,0.7029023,0.0,0.0,0.0,1.0
2678724000,2678724000,0.0024957063,-0.04956789,-0.00086821814,0.70093644,0.0,0.0,0.0,1.0
2678828000,2678828000,0.0030203373,-0.05969148,-0.0012714431,0.70318824,0.0,0.0,0.0,1.0
2678928000,2678928000,0.0019036012,-0.056779366,-0.0010210973,0.70238763,0.0,0.0,0.0,1.0
2679028000,2679028000,0.0028103227,-0.04913859,-0.0015172332,0.70106393,0.0,0.0,0.0,1.0
2679124000,2679124000,0.002629174,-0.045517936,-0.0022429158,0.69926316,0.0,0.0,0.0,1.0
2679228000,2679228000,0.0021835673,-0.049612444,-0.0012720167,0.6986966,0.0,0.0,0.0,1.0
2679328000,2679328000,0.0038729287,-0.056735158,-0.0014816617,0.7020285,0.0,0.0,0.0,1.0
2679424000,2679424000,0.002266936,-0.051328935,-0.0011669609,0.6996386,0.0,0.0,0.0,1.0
2679528000,2679528000,0.0036101034,-0.048542924,-0.00032318447,0.70024073,0.0,0.0,0.0,1.0
2679628000,2679628000,0.0012756579,-0.044383675,-0.00086560147,0.69887316,0.0,0.0,0.0,1.0
2679728000,2679728000,-0.0005215735,-0.059198275,-0.0015427822,0.70221263,0.0,0.0,0.0,1.0
2679828000,2679828000,0.0032438354,-0.058140557,-0.0017703746,0.7019565,0.0,0.0,0.0,1.0
2679924000,2679924000,0.0026319032,-0.050272334,-0.0017218986,0.69906056,0.0,0.0,0.0,1.0
2680024000,2680024000,0.0031443075,-0.043832816,-0.0010790224,0.6988749,0.0,0.0,0.0,1.0
2680128000,2680128000,0.0020233702,-0.047241483,-0.00023550255,0.6993329,0.0,0.0,0.0,1.0
2680228000,2680228000,0.0027564242,-0.05517006,-0.0011377041,0.7029539,0.0,0.0,0.0,1.0
2680328000,2680328000,0.006438845,-0.058793396,-0.0006518615,0.702111,0.0,0.0,0.0,1.0
2680428000,2680428000,0.0036735092,-0.052011415,-0.0016462012,0.70103294,0.0,0.0,0.0,1.0
2680528000,2680528000,0.0012153347,-0.045973994,-0.0011837487,0.69957745,0.0,0.0,0.0,1.0
2680628000,2680628000,0.0046516564,-0.04545485,-0.0011570551,0.7010944,0.0,0.0,0.0,1.0
2680728000,2680728000,0.004077076,-0.055054408,-7.555145e-05,0.70352954,0.0,0.0,0.0,1.0
2680828000,2680828000,0.0027814542,-0.05116578,-0.001340331,0.7040793,0.0,0.0,0.0,1.0
2680928000,2680928000,0.00058621995,-0.05165317,-0.0012412703,0.7032751,0.0,0.0,0.0,1.0
2681028000,2681028000,0.001321712,-0.04443557,-0.0012060141,0.70370847,0.0,0.0,0.0,1.0
2681124000,2681124000,0.0026028524,-0.05519435,-0.001360601,0.707525,0.0,0.0,0.0,1.0
2681228000,2681228000,0.002548719,-0.05815517,-0.0019794938,0.70740527,0.0,0.0,0.0,1.0
