timestamp,timestamp_sample,xyz[0],xyz[1],xyz[2]
2613228000,2613228000,0.0005535439,0.0014467055,-0.0030712446
2613240000,2613240000,-0.00028260122,0.00034462754,-0.0008218147
2613252000,2613252000,-0.0011060305,0.00534322,-0.0050241277
2613260000,2613260000,-0.0018658601,0.0048445505,-0.005694695
2613276000,2613276000,0.0011443895,-0.001096982,0.002370687
2613288000,2613288000,0.0018296251,-0.001071943,0.00041961455
2613300000,2613300000,-0.00041492842,0.00043846248,-0.0013681401
2613312000,2613312000,0.0016993386,-0.0026033516,0.003735983
2613324000,2613324000,0.0043299915,0.0018931869,0.001165802
2613336000,2613336000,0.0030682723,-0.0017601,0.0019080038
2613344000,2613344000,0.00028675934,0.00052338,0.0032383546
2613360000,2613360000,-0.0018809468,-0.0026091505,0.0012020016
2613372000,2613372000,-0.0028677757,0.00089913514,0.003336485
2613384000,2613384000,-0.0012181224,-0.0001686723,0.0011286114
2613396000,2613396000,-0.00073737535,-0.0036925604,-0.0068489034
2613404000,2613404000,0.0018709365,-0.0021919622,-0.004051806
2613420000,2613420000,-0.0007030128,-0.002500143,0.0011807128
2613432000,2613432000,-0.0025484927,-0.0017790371,0.005000088
2613444000,2613444000,0.00091766857,0.00452879,0.00247589
2613456000,2613456000,-0.0023840547,-0.0034279972,-0.0030783436
2613468000,2613468000,0.0030916072,-0.002037221,-0.003032165
2613476000,2613476000,0.0009676267,0.001724855,-0.002614396
2613492000,2613492000,0.0013978591,0.005243368,-0.0013488609
2613504000,2613504000,0.00022727926,0.0006997101,0.0026976697
2613516000,2613516000,0.00085485075,0.00023958739,0.0010478543
2613528000,2613528000,-0.0029279331,-0.0018467866,-0.002737864
2613540000,2613540000,-0.0018918468,0.00029210607,0.00044533197
2613552000,2613552000,0.0039278613,-0.005817108,0.0033649653
2613564000,2613564000,0.00058414077,-0.0022759745,0.0017785192
2613576000,2613576000,-0.0014419439,0.0035507302,0.0044965236
2613588000,2613588000,0.00026582787,0.0037932626,0.00056991365
2613600000,2613600000,-0.00034739566,-0.0017446061,-0.0030032834
2613612000,2613612000,0.00031123823,0.0007241736,0.0015087755
2613624000,2613624000,-0.0017783234,0.0014808336,-0.0009782219
2613636000,2613636000,-0.0004514712,-0.00041631656,0.0012704161
2613644000,2613644000,0.0016975933,0.00039172592,-0.0016986768
2613660000,2613660000,-0.0006229908,-0.0018195463,0.0018413147
2613672000,2613672000,0.003617479,-0.0024504755,0.003019522
2613684000,2613684000,0.00034487143,0.004940264,0.002518923
2613696000,2613696000,0.004752801,-0.0001086425,-0.0021078358
2613708000,2613708000,0.0009978471,0.0017101704,-0.0032243147
2613720000,2613720000,-0.0010951026,0.0025785347,0.00017545081
2613728000,2613728000,0.0012024879,0.0022352082,0.0027519618
2613744000,2613744000,0.0024805334,-0.0024257246,0.0009437931
2613756000,2613756000,0.0010223195,0.00037435023,-0.0004671932
2613768000,2613768000,-0.0054489807,-0.003689997,0.0002353444
2613780000,2613780000,-0.006696998,0.0043873466,-0.0006492867
2613792000,2613792000,-0.000280431,0.0019770009,0.00090635626
2613804000,2613804000,-0.0039797323,0.0037525855,0.00092814845
2613816000,2613816000,-0.001122271,0.00499089,-0.002192575
2613828000,2613828000,-0.004387727,0.002741562,-0.0027346378
2613840000,2613840000,0.00048191892,0.0028562867,-0.0035339056
2613848000,2613848000,0.0013450263,0.0025890586,-0.0006331203
2613864000,2613864000,-0.0026280396,-0.00029797293,0.0025704277
2613876000,2613876000,-0.0012239343,-0.0021312064,0.0036384806
2613888000,2613888000,0.002889649,-0.002441125,-0.0017581016
2613900000,2613900000,-0.0034570748,-0.00053353515,0.0013169689
2613908000,2613908000,-0.004289182,-0.00027867034,0.0035936635
2613924000,2613924000,-0.0028955617,-0.003615017,-0.001708034
2613936000,2613936000,0.0019249866,-0.0012509776,-0.0024069243
2613948000,2613948000,-0.00044255494,0.002643478,-0.0011720997
2613960000,2613960000,-0.006193904,0.0054802704,0.003168019
2613972000,2613972000,0.004791709,0.0048017604,-0.0016179563
2613984000,2613984000,-0.0032250073,-0.0023501813,-0.0028990288
2613996000,2613996000,-0.003787093,-0.004070782,0.002373479
2614008000,2614008000,0.00059268123,-0.0010083485,0.0005639703
2614020000,2614020000,-0.0007104166,0.0011321846,0.0010822946
2614032000,2614032000,-0.00085010566,0.0042358777,0.0010823184
2614044000,2614044000,-0.0015942547,0.002350072,0.005813703
2614056000,2614056000,-0.0031616709,0.001374851,-0.0018485386
2614064000,2614064000,-0.0021898325,0.0004954641,-0.0059674177
2614076000,2614076000,0.0008038946,0.0012885435,0.0011675409
2614092000,2614092000,0.0008284071,-0.0028126407,0.0017705767
2614104000,2614104000,-0.0022797948,0.0011224782,0.0017533624
2614116000,2614116000,-0.0011279695,-0.0016200463,-0.0019659644
2614128000,2614128000,0.0025772215,-0.0024211216,-0.0032507475
2614140000,2614140000,0.002591289,0.0050489893,0.0006644429
2614152000,2614152000,-0.00024708686,0.0065343934,0.00030294506
2614164000,2614164000,-0.0019945672,-0.004604209,-0.002104733
2614176000,2614176000,-0.0016488333,-0.00054511894,-0.0007121165
2614188000,2614188000,0.0012210436,-0.005966292,-0.0027511807
2614200000,2614200000,0.003564052,0.0019073072,-0.0009627295
2614208000,2614208000,-0.0012363733,0.0007557324,0.0006813821
2614224000,2614224000,0.0008774989,-4.89261e-05,-0.0057355715
2614236000,2614236000,0.000542504,0.0036877538,0.00040970626
2614244000,2614244000,-0.00042271754,-0.0015340764,0.002815395
2614260000,2614260000,-0.0023482535,-0.0023475718,-0.00045412887
2614272000,2614272000,0.0036662098,-0.005628294,0.0022548712
2614284000,2614284000,-0.0018794776,-0.001358957,-0.00095838035
2614296000,2614296000,-0.0034156519,-0.00036708498,0.006114757
2614308000,2614308000,-0.001811449,-0.0030903737,0.00044667948
2614320000,2614320000,0.00023041829,-0.0013326025,-0.0008566409
2614332000,2614332000,-0.00433168,0.00024994742,-0.002771342
2614344000,2614344000,-0.0021718615,0.0040943664,0.0016139122
2614356000,2614356000,-0.0020033699,0.00042257225,0.0036922905
2614368000,2614368000,0.0020253868,-0.0017132303,-0.0017111218
2614380000,2614380000,0.002139181,-0.006545322,-0.0025369322
2614392000,2614392000,0.0010454549,0.00084866304,-0.00052107614
2614404000,2614404000,0.0019108986,0.004895922,4.0341634e-05
2614416000,2614416000,-0.0013898457,7.515401e-05,-0.0019736467
2614428000,2614428000,-0.0035974472,0.00044000847,-0.0016969274
2614440000,2614440000,-0.004261164,-0.00055936724,-0.0036223272
2614452000,2614452000,0.0020418249,-0.0008518691,-0.0055598067
2614464000,2614464000,0.0006367621,0.0043020253,0.0019817415
2614476000,2614476000,-6.5530185e-06,0.0011697765,0.0030559916
2614488000,2614488000,-0.0022024726,-0.00367663,-4.868905e-05
2614500000,2614500000,-0.004185601,-0.00056794006,0.00010326786
2614512000,2614512000,-0.001520999,0.0033495883,0.0002871243
2614524000,2614524000,0.00291913,-0.0019682827,-0.0026230596
2614532000,2614532000,0.0004223528,-0.001615461,-0.0048503783
2614548000,2614548000,0.0011164304,-0.0023409547,-0.00082457723
2614560000,2614560000,0.00090487977,0.000976057,0.00011821399
2614572000,2614572000,-0.0028843635,0.0005068304,0.002027136
2614584000,2614584000,-0.0030979852,-0.005056281,0.0010373566
2614596000,2614596000,-0.00077778473,0.0011692559,0.0005001649
2614608000,2614608000,-0.0007118145,0.00043309154,0.0038924704
2614616000,2614616000,-0.00156659,-0.0013146745,0.0033767743
2614628000,2614628000,0.0025059995,0.004066074,0.00070664706
2614644000,2614644000,0.0012885372,0.0059926105,-0.002443988
2614652000,2614652000,0.0005325782,0.0025053313,-0.0017421666
2614668000,2614668000,0.00046540215,-0.0004134141,-0.005959331
2614680000,2614680000,-0.0046743816,-0.001393084,0.0006430362
2614688000,2614688000,-0.004009622,0.001149171,0.0009064841
2614704000,2614704000,-0.0011389942,0.0011415947,-0.0014921624
2614716000,2614716000,-0.001831335,0.0019640804,-0.0003679045
2614728000,2614728000,0.0015079991,0.0014596325,-0.00029214885
2614740000,2614740000,0.0026850891,0.00095908856,0.003893532
2614748000,2614748000,0.0007860343,-0.0013891924,0.0006868119
2614764000,2614764000,0.00285803,-0.003105912,-0.0018918875
2614776000,2614776000,0.0044541163,-0.0029724077,-0.0020768559
2614784000,2614784000,0.005573454,-0.0013397527,0.0024707203
2614800000,2614800000,3.3279415e-05,0.0031892955,-0.002247198
2614808000,2614808000,0.00013026758,0.0025104005,0.0005589871
2614824000,2614824000,0.0005989964,-0.004260721,0.0059121004
2614836000,2614836000,-0.0012572797,-0.0034761624,0.0035777653
2614848000,2614848000,-0.0024680102,-0.0011918116,0.0016793064
2614860000,2614860000,0.004688303,0.0039184685,0.003953279
2614872000,2614872000,-0.0008646883,0.0048630857,0.0008123288
2614884000,2614884000,-0.0017274092,0.004183538,0.0024731304
2614896000,2614896000,0.00073052663,-0.0011223345,-0.002034821
2614908000,2614908000,-0.0012209029,-0.0030170898,0.0012559047
2614920000,2614920000,-0.004208996,0.0041227555,0.002939091
2614932000,2614932000,0.00068522175,0.0029274004,0.0027208002
2614940000,2614940000,8.5206004e-05,0.00085436227,0.00022443414
2614956000,2614956000,0.0047124606,-0.0071398052,0.0024497416
2614968000,2614968000,-0.005210147,-0.0021273694,0.00020588924
2614980000,2614980000,-0.0029893173,-0.000808652,0.0017815909
2614992000,2614992000,-0.00044484437,0.0017075029,-0.00024812348
2615000000,2615000000,-7.5713266e-05,0.0017048924,-0.0014159766
2615016000,2615016000,-0.003057975,0.00021011569,0.0042235837
2615024000,2615024000,0.0009246273,-0.00074503105,0.009556646
2615040000,2615040000,0.00070599746,0.0041670953,-0.0006624991
2615052000,2615052000,0.000667742,0.0012385012,0.004143299
2615064000,2615064000,0.020053122,0.0033525494,-0.0019129306
2615076000,2615076000,0.053930383,0.003164779,-0.0017535372
2615088000,2615088000,0.08868749,-0.005113657,0.0013643856
2615100000,2615100000,0.11440323,-0.019604085,0.0037250996
2615112000,2615112000,0.12373428,-0.03273262,0.0024395364
2615124000,2615124000,0.123674035,-0.050105903,0.001325573
2615136000,2615136000,0.11116324,-0.053547025,-0.0025275417
2615148000,2615148000,0.09920253,-0.048250083,0.0006358267
2615156000,2615156000,0.09039943,-0.043908197,0.0038549989
2615172000,2615172000,0.07270185,-0.034795057,0.0049552303
2615184000,2615184000,0.06832462,-0.02861666,0.007075052
2615196000,2615196000,0.06023667,-0.026272766,0.0058832453
2615208000,2615208000,0.045774452,-0.029499682,0.0012013369
2615220000,2615220000,0.037323587,-0.024458999,0.0054295673
2615232000,2615232000,0.022971556,-0.021552306,0.0034208384
2615244000,2615244000,0.013670418,-0.02009395,0.0052277017
2615256000,2615256000,0.008091681,-0.016304808,0.00017146043
2615268000,2615268000,0.0026831473,-0.010096609,-0.00094866916
2615280000,2615280000,-0.0026152693,-0.004035905,-0.0010235228
2615292000,2615292000,-0.006419016,0.0008412306,-0.0008125972
2615304000,2615304000,-0.01279709,0.009493481,0.001176034
2615312000,2615312000,-0.018583719,0.0127809215,0.002073938
2615328000,2615328000,-0.03277746,0.009164097,0.006169032
2615340000,2615340000,-0.033948667,0.012101647,0.0018820614
2615348000,2615348000,-0.03647196,0.008767877,-0.0020504945
2615364000,2615364000,-0.036991842,0.007923579,-0.00020290178
2615376000,2615376000,-0.040920634,0.008065125,0.004479288
2615388000,2615388000,-0.036907658,0.012566667,0.0025878442
2615400000,2615400000,-0.03738289,0.013490917,0.0028193174
2615412000,2615412000,-0.03937911,0.013074057,0.001984326
2615424000,2615424000,-0.044444785,0.014479725,-0.0011265882
2615436000,2615436000,-0.05288092,0.010091161,0.0019643076
2615448000,2615448000,-0.050189484,0.011116598,0.0007588238
2615460000,2615460000,-0.051012505,0.008520197,0.00063770014
2615472000,2615472000,-0.038408592,0.012868151,-0.0025554474
2615484000,2615484000,-0.03655268,0.0063074646,-0.003883033
2615496000,2615496000,-0.030889764,0.0074688843,0.0011799672
2615508000,2615508000,-0.028152786,0.012254816,0.005416513
2615516000,2615516000,-0.026917411,0.010709204,0.0029708715
2615532000,2615532000,-0.03164744,0.00971505,0.0032339878
2615540000,2615540000,-0.0332402,0.0049773287,0.00028511087
2615552000,2615552000,-0.030664716,0.0019612033,0.00087266497
2615568000,2615568000,-0.026415223,0.0028355909,-0.0017554335
2615580000,2615580000,-0.018926196,-1.7292332e-05,-4.1962878e-05
2615592000,2615592000,-0.017817866,0.00016464759,6.677554e-05
2615600000,2615600000,-0.016877957,0.0024981636,0.0027801292
2615616000,2615616000,-0.01588273,-0.001273165,0.0008128518
2615628000,2615628000,-0.015943885,0.0029970712,0.00163852
2615640000,2615640000,-0.019692194,-0.0009002527,0.0022837294
2615652000,2615652000,-0.016632408,0.002190811,0.0008525911
2615664000,2615664000,-0.015311185,0.0057664216,0.0019235532
2615676000,2615676000,-0.013868747,0.0035877312,-0.00029366955
2615688000,2615688000,-0.016647011,0.00045470847,-0.00156571
2615700000,2615700000,-0.01104361,-0.00061269384,0.0006027797
2615712000,2615712000,-0.014997996,0.0068420665,-0.0010005427
2615724000,2615724000,-0.010893345,0.0065631326,0.005695991
2615736000,2615736000,-0.012298947,0.0039203786,0.007756245
2615748000,2615748000,-0.002529825,0.004121691,0.0019996846
2615760000,2615760000,-0.006105582,1.8444844e-06,-0.0039990856
2615772000,2615772000,-0.011086369,-0.0003945036,-0.0035072607
2615784000,2615784000,-0.011626065,0.00014090538,-0.0011493453
2615796000,2615796000,-0.009409458,-0.0009136237,0.0022909218
2615808000,2615808000,-0.009164435,-0.0012677964,0.000585542
2615816000,2615816000,-0.011075877,0.004076369,0.0009955172
2615832000,2615832000,-0.0010707276,0.0068447245,0.0010732714
2615844000,2615844000,0.0010719533,0.0068009635,0.00093568186
2615856000,2615856000,-0.0031996458,0.00015328499,0.0019060848
2615868000,2615868000,0.0009915303,-0.0049176803,0.00044923503
2615880000,2615880000,0.0003382397,0.0032505475,-0.002750827
2615892000,2615892000,-0.0020037536,0.0005410672,0.0022546658
2615904000,2615904000,-0.0046191877,0.0045457724,0.0025751917
2615916000,2615916000,-0.009476382,0.010057594,-0.0042525856
2615928000,2615928000,-0.0053346558,0.0046927785,-0.0068252753
2615940000,2615940000,-0.0040510427,0.0060357223,-0.0039271167
2615952000,2615952000,-0.0046368768,0.0016880641,-0.0037127163
2615964000,2615964000,-0.0054367166,-0.0044511515,0.0037971318
2615976000,2615976000,-0.006072833,-0.0027349563,-0.00064477243
2615988000,2615988000,-0.0045445915,-0.0029593627,0.0006332698
2616000000,2616000000,-0.004848385,0.0026527648,0.00438812
2616012000,2616012000,-0.008724147,0.003071716,0.0027640592
2616024000,2616024000,-0.004790513,0.0025122538,-0.00082425773
2616036000,2616036000,-0.0004567674,-0.005787657,0.0017901226
2616048000,2616048000,0.0006375285,-0.003567344,0.0031196952
2616060000,2616060000,0.0015488787,-0.0006517903,0.0018239517
2616072000,2616072000,0.0023764432,0.0011665258,-0.00026231437
2616084000,2616084000,0.005794908,0.0014385274,0.0019000535
2616092000,2616092000,-0.00022568018,0.0044512497,0.002650992
2616108000,2616108000,-0.004317505,0.0020649408,0.0018009383
2616120000,2616120000,-0.0019096185,-0.0005858862,0.0024421914
2616128000,2616128000,-0.00823314,-0.002461818,8.401383e-05
2616140000,2616140000,-0.01019761,0.0021330575,-0.002510302
2616156000,2616156000,-0.003115184,-0.0027583921,-0.0035888827
2616164000,2616164000,-0.003993568,-0.00049987715,-0.0005660082
2616180000,2616180000,-0.0044415323,0.0019959132,-0.001297653
2616192000,2616192000,-0.0050492124,0.006994468,0.0069691613
2616204000,2616204000,-0.0015012454,0.0102408845,0.0014060211
2616212000,2616212000,-0.007527545,0.008210391,0.001529245
2616228000,2616228000,-0.0030043276,0.009995358,-0.0078018084
2616240000,2616240000,-0.0010921285,0.00886765,-0.0031810706
2616252000,2616252000,-0.004562757,0.00971113,0.004834969
2616264000,2616264000,-0.00022515119,0.0107617825,0.002468287
2616272000,2616272000,-0.0021262,0.008852409,0.006030285
2616288000,2616288000,0.00044632517,0.01267536,-0.003257793
2616300000,2616300000,0.0017654464,0.0115881,-0.00349833
2616312000,2616312000,-0.0024461173,0.009323831,0.0005305233
2616324000,2616324000,0.0007598669,0.0051901503,0.0009969014
2616336000,2616336000,0.003079556,0.006771315,0.0003400914
2616344000,2616344000,0.0015501997,0.012339839,-0.0048438497
2616360000,2616360000,0.0073523703,0.007692932,0.0016551451
2616372000,2616372000,0.009025362,0.004861038,0.0023759943
2616384000,2616384000,0.0024184254,0.0027318124,0.0014142557
2616396000,2616396000,0.00355157,0.00028040586,-0.002020512
2616408000,2616408000,0.0025208788,0.0012960138,-0.0028265358
2616420000,2616420000,0.003617622,0.002062716,-0.0011566607
2616432000,2616432000,0.007145309,0.0029791421,-0.0003647569
2616444000,2616444000,0.0043308903,0.0011483955,-0.0031401387
2616456000,2616456000,-0.00029479456,-0.002678676,0.0024042688
2616468000,2616468000,-0.0069501894,-0.00507813,-0.0009318212
2616480000,2616480000,-0.0058036265,-0.0070048734,0.0012485838
2616488000,2616488000,-0.0023547462,-0.008797899,-0.0016452454
2616504000,2616504000,-0.00063719554,-0.004397376,-0.0009984815
2616516000,2616516000,-0.0051473454,-0.0030762288,0.0011980353
2616524000,2616524000,-0.007581449,-0.007710943,-0.0031035536
2616540000,2616540000,-0.010590745,-0.0015979591,0.0006306407
2616552000,2616552000,-0.007917073,-0.00058126636,-0.00032320345
2616564000,2616564000,-0.007596398,0.0075937323,-8.400185e-05
2616576000,2616576000,-0.004149216,0.009338295,-0.0024874888
2616588000,2616588000,-0.0065694675,0.014203999,-0.0014292246
2616600000,2616600000,-0.011334898,0.013924025,0.007290003
2616612000,2616612000,-0.0064306697,0.016630717,0.0019115793
2616624000,2616624000,-0.0054350765,0.014218725,-0.0002952899
2616636000,2616636000,-0.0018290791,0.011455835,-0.0023921158
2616648000,2616648000,0.0017052813,0.010607913,-0.004378871
2616660000,2616660000,-0.0014025366,0.008925265,-0.0019069917
2616672000,2616672000,-0.0039032106,0.011807662,0.0012004904
2616684000,2616684000,-0.0055585583,0.011506412,0.0016928602
2616696000,2616696000,-0.004555486,0.0072209276,-0.0025650728
2616704000,2616704000,-0.007602621,0.009860622,0.0025511268
2616720000,2616720000,-0.012380194,0.011024646,0.005448822
2616728000,2616728000,-0.014354991,0.005233217,-0.0019449544
2616740000,2616740000,-0.012345197,0.0016994723,0.001082748
2616756000,2616756000,-0.010546944,0.0037834393,0.0045091854
2616768000,2616768000,-0.007895434,0.009992305,0.0035172934
2616780000,2616780000,-0.00920859,0.00980893,-0.002878111
2616792000,2616792000,-0.0046454705,0.009717529,0.0003161726
2616804000,2616804000,-0.006818095,0.0029885292,0.004030883
2616812000,2616812000,-0.0058372375,-0.0033768192,-0.00046832865
2616828000,2616828000,0.0013291289,-0.0059101977,0.0008154181
2616840000,2616840000,0.000564095,-0.0036156173,0.0009043118
2616852000,2616852000,0.0037096657,-0.00018046098,-0.0031741487
2616864000,2616864000,0.0061946437,-0.0023796833,-0.0031124267
2616876000,2616876000,0.006008383,-0.0046769986,-0.0030404339
2616884000,2616884000,0.00035989739,-0.006705016,-0.006516711
2616896000,2616896000,0.0017574868,-0.00426639,-0.0015310784
2616912000,2616912000,0.0070716576,0.0034360064,-0.0032374049
2616924000,2616924000,0.008334039,0.002098595,-0.00080044114
2616932000,2616932000,0.011703892,-0.00023842184,-0.0020525549
2616948000,2616948000,0.0052276608,1.462549e-05,-0.00023393218
2616956000,2616956000,-0.0013602846,0.0028091455,-0.0007810447
2616972000,2616972000,0.00264173,-0.004849684,0.0010809442
2616984000,2616984000,-4.3826876e-05,-0.002285209,-0.0014952811
2616996000,2616996000,0.0028776214,-0.003209162,0.0014240185
2617008000,2617008000,-0.0016955757,-0.00042753527,0.0016274867
2617016000,2617016000,-0.0055499794,0.005229171,-0.0013163164
2617028000,2617028000,-0.0025889801,-0.0036620586,-0.002439919
2617040000,2617040000,-0.003137552,-0.0028399643,-0.005943261
2617052000,2617052000,-0.0029388387,0.0009687161,-0.0029207466
2617068000,2617068000,-0.0017819242,-0.0003874693,0.00041757745
2617080000,2617080000,-0.0031091175,0.0011200197,-0.00030596304
2617088000,2617088000,-0.0025565792,-0.0019149659,-0.002693302
2617104000,2617104000,-0.0016881321,-0.0023284461,-0.005532002
2617116000,2617116000,-0.0047511472,0.0021099392,-0.0055881767
2617128000,2617128000,-0.005670006,0.0025358694,0.0016180963
2617140000,2617140000,-0.0033884947,-0.0009812047,-0.0066633746
2617152000,2617152000,-0.0018897383,0.002871361,0.0019979589
2617164000,2617164000,-0.0037683828,-0.0026317537,0.0025315227
2617176000,2617176000,0.0068009715,0.0024587833,-0.00085818884
2617184000,2617184000,0.008947571,0.0017654167,-0.0011316735
2617200000,2617200000,0.0054608434,-0.0019216072,-0.006036635
2617212000,2617212000,0.004694175,-0.0068792854,-0.0034084877
2617224000,2617224000,0.002077064,-0.00309646,-0.0006534984
2617236000,2617236000,0.005031797,0.0028210608,-0.004357311
2617244000,2617244000,0.0023049598,0.0045547416,-0.0057997447
2617260000,2617260000,0.0010824525,0.005171329,0.004927367
2617272000,2617272000,-0.00083474186,0.011485806,0.0040184306
2617284000,2617284000,0.00017979369,0.011901532,0.0033922095
2617296000,2617296000,-0.0059164623,0.009580733,0.006859307
2617304000,2617304000,-0.005880435,0.009854704,0.009872394
2617320000,2617320000,0.0016690711,-8.96859e-05,0.0053787353
2617332000,2617332000,0.0056314226,0.00026187534,0.001145687
2617344000,2617344000,0.007467984,0.0050586993,-0.005199942
2617352000,2617352000,0.004455239,0.0024864953,-0.003169823
2617368000,2617368000,0.0007531706,-0.0041982913,0.005332053
2617380000,2617380000,-0.0005293789,0.0001132749,0.0058619063
2617392000,2617392000,5.1649287e-05,2.029119e-05,0.0015438858
2617404000,2617404000,-0.0020059352,-0.0019259066,0.0027632094
2617416000,2617416000,0.0015408869,0.0028639524,0.0043824515
2617428000,2617428000,0.0071089035,-0.0044227843,0.004369838
2617440000,2617440000,0.010070237,0.005280523,0.004717445
2617452000,2617452000,0.0017116558,0.0057291863,0.003799416
2617464000,2617464000,-0.0010253962,0.0001110225,0.001989201
2617476000,2617476000,-0.005588197,-0.0036189356,0.0073367157
2617488000,2617488000,-0.0034144698,-0.000113139395,-0.00016053204
2617496000,2617496000,0.00075908576,-0.00028143032,-0.0007806887
2617508000,2617508000,-0.0011064692,-0.0028351415,0.00076931185
2617524000,2617524000,0.0066392296,-0.003158559,-0.0019869648
2617536000,2617536000,0.0050382884,-0.0024711667,0.0006565034
2617544000,2617544000,0.004876605,-0.006579438,0.0029611625
2617560000,2617560000,0.006121899,-0.00887621,0.0024527395
2617572000,2617572000,-0.00011933525,-0.0073624137,0.0017279969
2617584000,2617584000,-0.002601389,-0.008877557,0.004027999
2617596000,2617596000,-0.004574724,-0.010261312,0.004883484
2617608000,2617608000,-0.0026692,-0.0066691884,0.0019470488
2617620000,2617620000,-0.0023574661,-0.0036704452,0.0043801805
2617632000,2617632000,-0.007949868,-0.0012015388,0.0023214824
2617644000,2617644000,-0.00010535517,0.000621093,0.0023611253
2617656000,2617656000,0.0016408107,-0.0013735555,0.006704169
2617668000,2617668000,-0.002905721,-0.004221353,0.0022328298
2617680000,2617680000,-0.006448362,-0.007170475,0.005454837
2617692000,2617692000,-0.0068258923,-0.007189107,0.0018052944
2617704000,2617704000,-0.007993271,-0.0061969673,0.006048083
2617716000,2617716000,-0.007859511,-0.0074688196,0.005346919
2617724000,2617724000,-0.009284853,-0.008867785,0.0027317961
2617740000,2617740000,0.001299191,-0.0093396045,0.004075786
2617752000,2617752000,-0.0015164793,-0.015567878,0.0065741115
2617764000,2617764000,-0.0075129736,-0.010471275,0.0018357737
2617776000,2617776000,-0.004830202,-0.008888446,0.0012740102
2617788000,2617788000,-0.006893877,-0.011079492,0.002433455
2617800000,2617800000,-0.0073316265,-0.014276711,0.0024058595
2617812000,2617812000,0.0014700199,-0.00880154,0.004794197
2617824000,2617824000,0.00056745997,-0.0059962478,0.006791721
2617836000,2617836000,-0.0014887506,-0.0027915128,0.0029718734
2617848000,2617848000,-0.002809194,-0.0054667406,0.005518453
2617860000,2617860000,0.0017476666,-0.007969901,0.0061068535
2617872000,2617872000,0.01090848,-0.008486904,0.003825325
2617884000,2617884000,0.008470981,-0.010352114,0.0039529237
2617896000,2617896000,0.0063519953,-0.006967433,0.007822958
2617908000,2617908000,0.003359133,-0.006262504,0.00021875932
2617920000,2617920000,0.0024656723,-0.0013685785,0.0039487835
2617932000,2617932000,0.0042791218,0.0037407456,-0.00068299106
2617944000,2617944000,-0.002964944,5.1248353e-05,-0.00096417655
2617956000,2617956000,-0.009727471,-0.004537382,-0.0022103577
2617968000,2617968000,-0.004522139,-0.00135946,0.0032324633
2617980000,2617980000,0.005474424,0.00083350297,-0.0024076924
2617992000,2617992000,0.0054044966,-0.0014396445,-0.004091572
2618004000,2618004000,0.0025779475,0.0034300974,-0.003223765
2618016000,2618016000,0.0028356828,0.0061240997,-0.0018549688
2618028000,2618028000,0.005227439,0.009631982,0.0026491233
2618036000,2618036000,0.004703827,0.0059597366,-0.0014618767
2618048000,2618048000,0.011188779,0.004195429,-0.0029105733
2618060000,2618060000,0.008289288,-0.0014968999,2.5876216e-07
2618076000,2618076000,0.0050933463,0.000785897,0.0055995216
2618088000,2618088000,0.004555302,0.005081182,0.0028260853
2618100000,2618100000,0.005578841,0.0069259666,-0.0026835268
2618112000,2618112000,-0.00039660628,0.011426741,0.0041999817
2618120000,2618120000,-0.000652652,0.0046064877,0.0018249972
2618136000,2618136000,-0.0043673413,0.0067863083,0.002087203
2618148000,2618148000,-0.0029498688,0.0038207977,0.0002732351
2618160000,2618160000,-0.0025467044,0.011636671,0.00017365573
2618172000,2618172000,0.0011339041,0.008925867,0.005735735
2618180000,2618180000,-0.00094567914,0.0073551633,0.0051283017
2618200000,2618200000,0.0005029765,0.0051234355,-0.00095879176
2618212000,2618212000,0.0032138533,-0.0004676124,0.00061941857
2618224000,2618224000,0.0032187426,0.00045681372,0.0027325551
2618236000,2618236000,-0.0017550921,0.008325033,0.0027496533
2618248000,2618248000,-0.0037823743,0.0063742786,0.002009513
2618260000,2618260000,-0.0017474964,0.0032165213,0.002139803
2618272000,2618272000,-0.004016855,0.0021660472,0.0008068434
2618284000,2618284000,-0.0059517445,0.0073203184,-0.0016811268
2618292000,2618292000,-0.0040072426,0.006282648,-0.0022166385
2618308000,2618308000,-0.002811361,-0.0020787194,0.0037987197
2618320000,2618320000,0.00036030647,-0.003287591,0.003920684
2618328000,2618328000,-0.0008025118,-0.00051204255,-0.00465601
2618340000,2618340000,0.0027406465,0.0040666475,-0.00036844288
2618356000,2618356000,0.0055544283,0.005545071,0.0037731212
2618368000,2618368000,0.0007833168,0.008248946,-1.3630575e-05
2618376000,2618376000,-0.00029909657,0.0011083523,-0.0026579646
2618392000,2618392000,-0.000796902,-0.002834885,0.0009554819
2618404000,2618404000,-0.0051781475,-0.0054468024,0.005251129
2618416000,2618416000,-0.0040363707,-0.008125205,-0.0010529142
2618424000,2618424000,-0.0005975072,-0.010944052,0.00060494745
2618440000,2618440000,0.002866147,-0.009541495,-0.0008204703
2618452000,2618452000,0.0058620265,-0.0050703064,0.00219195
2618464000,2618464000,0.00020310597,-0.0029040338,0.0018027662
2618476000,2618476000,-0.00095041166,0.0039522722,0.0031748824
2618488000,2618488000,-0.0037310077,0.002000409,0.0046901796
2618500000,2618500000,-0.0024497476,0.00045524025,0.00272906
2618512000,2618512000,0.0020320201,-0.0024225418,0.0031649573
2618524000,2618524000,-0.0046570394,-0.0012233136,-0.0002578674
2618532000,2618532000,-0.005000617,-0.0030579953,-0.0003718328
2618548000,2618548000,-0.0017564665,0.0014255876,0.004398151
2618560000,2618560000,0.0005231849,-0.01375578,0.0047006486
2618568000,2618568000,-0.0024581063,-0.0143341515,0.0059703314
2618584000,2618584000,-0.014942496,-0.013333202,0.0018754199
2618596000,2618596000,-0.014557791,-0.008484114,0.0038000369
2618608000,2618608000,-0.011590274,-0.005698943,0.004382229
2618616000,2618616000,-0.008854387,-0.006392391,0.0022046408
2618632000,2618632000,-0.0149568645,-0.0019097654,0.0029826222
2618644000,2618644000,-0.011609229,-0.0059146173,-0.00057581003
2618656000,2618656000,-0.0044898023,-0.0016696458,0.0017010231
2618664000,2618664000,0.0003647129,-0.0020775446,0.0033649006
2618680000,2618680000,-0.001989591,-0.0019226093,0.0013763321
2618692000,2618692000,0.0027334904,-0.0030633803,-0.00090029655
2618704000,2618704000,0.0057474943,0.0010427791,-0.0010841504
2618716000,2618716000,0.002235337,0.0021769824,0.0012376787
2618728000,2618728000,0.0016465032,0.0006748424,0.0032850427
2618740000,2618740000,-0.0028567282,-0.00072672963,0.0028759132
2618752000,2618752000,-0.0013143218,0.0015170141,0.0005509867
2618764000,2618764000,0.0074249045,-0.0015283898,-0.0032183954
2618776000,2618776000,0.0031326916,-0.0009173779,-0.0009957862
2618788000,2618788000,0.0025606502,0.003144239,0.0030881201
2618800000,2618800000,-0.00022890442,0.0010636002,0.002726415
2618808000,2618808000,-0.0029898142,-0.0028758724,-0.0018204877
2618824000,2618824000,-0.0043693846,-0.009198955,0.00220528
2618836000,2618836000,-0.002172434,-0.007082943,0.0021342633
2618848000,2618848000,-0.005218326,-0.003133589,-0.00233627
2618860000,2618860000,0.0011939267,-0.0006646835,-0.0029241825
2618872000,2618872000,0.0002439851,-0.00077376515,0.0032907906
2618884000,2618884000,-0.0054843575,-0.002610588,0.00020734835
2618896000,2618896000,-0.0035418684,0.00040903408,-0.0051985416
2618908000,2618908000,-0.0099309515,0.0017315159,0.0021735227
2618920000,2618920000,5.1819487e-05,-0.0007454967,-0.0024724908
2618932000,2618932000,0.0049453387,0.0071886624,-0.0026076704
2618944000,2618944000,0.0047251335,0.009587141,-0.0018606533
2618956000,2618956000,0.010861347,0.0027986993,-0.0033053386
2618968000,2618968000,0.009502249,0.003577983,-0.0008061949
2618980000,2618980000,0.0080066845,0.002162797,0.0067494186
2618992000,2618992000,0.0075475937,0.0034829383,0.000468622
2619004000,2619004000,0.0104037225,0.009266671,-0.0053927563
2619016000,2619016000,0.0033334873,0.006631088,-0.0013679354
2619028000,2619028000,0.0047682123,0.0069626137,0.002479854
2619040000,2619040000,0.0034167534,0.0041497396,0.004344657
2619052000,2619052000,0.0010211652,0.0040638796,-0.0032006623
2619064000,2619064000,0.00036992505,0.003980051,-0.009357184
2619076000,2619076000,0.0018986148,0.000733105,-0.003957946
2619088000,2619088000,0.0033352058,0.00036941934,0.0012613721
2619100000,2619100000,-0.0013874078,0.0031239379,0.0019325835
2619112000,2619112000,-0.00989593,-0.002723095,0.0027320175
2619120000,2619120000,-0.008304055,0.003775516,-0.002116861
2619136000,2619136000,-0.010129145,0.0030186307,-0.0017136866
2619148000,2619148000,-0.009179376,-0.00034921523,0.003571629
2619160000,2619160000,-0.007418931,-0.0024526967,-0.0009971757
2619168000,2619168000,-0.010870373,-0.0016632224,-0.0026250044
2619184000,2619184000,-0.0033425228,0.0008652699,-0.0012674687
2619196000,2619196000,-0.0024277885,0.0048318524,0.00448547
2619208000,2619208000,-0.00042762933,0.0069090948,0.004981524
2619220000,2619220000,-0.0026744201,0.001939951,-0.0031207514
2619232000,2619232000,0.00093310163,-0.00789716,0.0008820084
2619244000,2619244000,0.0039124805,-0.0039095175,-7.801117e-05
2619256000,2619256000,-0.00067242584,-0.0036739102,0.0017559507
2619268000,2619268000,0.006535847,-0.002222286,0.002575957
2619280000,2619280000,0.008011733,-0.0036261943,0.00057367585
2619292000,2619292000,0.0047332793,-0.008339522,0.0016861265
2619304000,2619304000,0.008264169,-0.010106783,0.0024533935
2619312000,2619312000,0.011827538,-0.00977998,0.0023104418
2619328000,2619328000,0.009316213,-0.013129291,-0.0006248678
2619340000,2619340000,0.0021764564,-0.0130732,0.0037875362
2619352000,2619352000,0.0050276658,-0.010169167,-0.00309427
2619364000,2619364000,0.00047664915,-0.008755392,-0.007006005
2619376000,2619376000,0.0076246634,0.00028569112,-0.00077290065
2619388000,2619388000,0.0047945874,-0.00090673007,0.00020871004
2619400000,2619400000,0.009251755,-0.003227693,-0.0010747995
2619412000,2619412000,0.010813298,-0.0025179866,0.002911876
2619424000,2619424000,0.011114058,-0.004011018,0.0042936355
2619436000,2619436000,0.0065698465,-0.004976585,0.002086712
2619444000,2619444000,0.0022682545,-0.0023382236,-0.0002860592
2619460000,2619460000,0.0019387689,-0.0027758018,0.00506498
2619472000,2619472000,0.00917648,-0.0011624559,0.0013509431
2619484000,2619484000,0.005961449,-0.00071982853,0.0012181078
2619496000,2619496000,0.008691951,0.0037450392,-0.00033923626
2619508000,2619508000,0.0107690245,-0.00029390398,-0.00043070305
2619520000,2619520000,0.0066537983,0.0033537098,-0.0022049695
2619532000,2619532000,0.003810497,0.0035441513,0.00023534449
2619544000,2619544000,0.0048691737,0.0018159039,-0.00197731
2619556000,2619556000,0.002280637,0.0029551187,-0.00017830155
2619568000,2619568000,0.008433987,0.0044073006,0.0039825127
2619580000,2619580000,0.008814508,0.0049098283,0.0009799375
2619592000,2619592000,0.0023196712,0.0031897412,0.0023740763
2619604000,2619604000,0.00046640076,0.0034572738,0.0038158167
2619616000,2619616000,-0.007010958,0.0023189217,-0.00070603
2619628000,2619628000,-0.005699345,0.0059658308,2.0527164e-05
2619640000,2619640000,0.002492196,0.008283423,0.0011465553
2619648000,2619648000,0.00014981651,0.0069557456,0.004032957
2619664000,2619664000,7.496821e-05,0.0049053454,0.010383192
2619676000,2619676000,0.002766837,0.0039704735,0.011555994
2619688000,2619688000,0.0066142404,0.0018422385,7.4388336e-05
2619700000,2619700000,0.006989341,0.009152684,-0.00014700844
2619712000,2619712000,0.011583636,0.0060517853,-0.0020895232
2619724000,2619724000,0.005856652,0.006228457,-0.0033542365
2619736000,2619736000,0.005013792,0.008576262,0.003285256
2619748000,2619748000,0.0069108186,0.010345006,0.0020498943
2619760000,2619760000,0.002165093,0.006346939,0.004520396
2619772000,2619772000,0.0062754024,0.0037591625,0.0020125415
2619784000,2619784000,0.0031456002,0.0007820097,0.0036285687
2619796000,2619796000,-0.00047501805,0.0077800583,-0.0014584131
2619808000,2619808000,0.0069087544,0.002861861,0.000689754
2619820000,2619820000,0.008777872,0.0031519867,0.006462046
2619832000,2619832000,0.0049654217,0.00474393,0.009173136
2619844000,2619844000,-0.0009253414,0.002472734,-0.00028959996
2619856000,2619856000,0.0012613608,0.0016448156,-0.0033435489
2619868000,2619868000,0.0031926436,0.0008420055,0.0011907337
2619880000,2619880000,-0.00092554046,-0.0018992624,0.0036472254
2619892000,2619892000,-0.0049527837,-0.004742838,0.0026378229
2619900000,2619900000,-0.0014903948,0.0010798862,0.002299394
2619916000,2619916000,-0.0015287481,-0.0072434223,-0.0011132467
2619928000,2619928000,-5.2453717e-05,-0.0047609955,0.0039687147
2619936000,2619936000,-0.0028029685,-0.002281953,0.0008342487
2619952000,2619952000,-0.0036106042,0.00093244435,0.00030020316
2619964000,2619964000,-0.00736843,0.004429624,-0.002217489
2619976000,2619976000,-0.010846645,0.0022056478,-0.005464859
2619988000,2619988000,-0.0069676535,-1.6769394e-05,-0.005341864
2620000000,2620000000,-0.016074196,0.0030318478,-0.0022591485
2620012000,2620012000,-0.015160533,0.0022737784,0.0022300393
2620024000,2620024000,-0.011173364,0.0032179016,0.0014709412
2620036000,2620036000,-0.0029361423,-0.003504417,0.003301306
2620048000,2620048000,-0.0055656414,-0.0032008155,0.007483907
2620060000,2620060000,-0.0062473123,-0.0003688163,-0.001266136
2620072000,2620072000,-0.009985747,0.009895184,-0.0030810486
2620084000,2620084000,-0.010143674,0.010439608,0.0014083143
2620092000,2620092000,-0.0116442535,0.0088912845,-0.0007744069
2620108000,2620108000,-0.0041815247,0.0019127894,0.0049805595
2620120000,2620120000,-0.0004072385,0.008582568,0.0012664755
2620132000,2620132000,-0.0011058771,0.014560249,-0.00025927398
2620140000,2620140000,-0.00045756157,0.016078942,-0.0004630845
2620152000,2620152000,0.0066937967,0.015699498,-0.0031161963
2620168000,2620168000,0.003918301,0.010975267,-0.0014136669
2620180000,2620180000,0.0018382376,0.005392191,-0.0021187922
2620192000,2620192000,0.0037222942,0.008578872,-0.0028425504
2620200000,2620200000,0.002675547,0.007881653,0.00090911373
2620216000,2620216000,0.008305833,-0.00044863857,0.00062171416
2620228000,2620228000,0.008355449,0.002855726,-0.0018081048
2620240000,2620240000,0.0077308062,-0.003576036,-6.680899e-05
2620252000,2620252000,0.009829166,-0.002804258,0.0018945184
2620264000,2620264000,0.01122305,-0.002080406,0.000260794
2620276000,2620276000,0.0063865376,-0.0074070157,0.003733336
2620288000,2620288000,0.0066414624,-0.0099634025,0.0020801742
2620300000,2620300000,0.0052300305,-0.008892265,-0.0056774714
2620312000,2620312000,0.009853961,-0.009141748,-0.003926267
2620324000,2620324000,0.0087633515,-0.010490508,0.00446237
2620332000,2620332000,0.004534281,-0.010615163,0.0037163638
2620348000,2620348000,0.008321006,-0.012684859,-0.0002400333
2620356000,2620356000,0.010619058,-0.0066715027,-0.001805343
2620368000,2620368000,0.012421957,-0.0031355056,-0.000910127
2620384000,2620384000,0.0063259765,-0.0061653354,0.0033136627
2620396000,2620396000,0.0071702898,-0.008859773,-0.002111356
2620408000,2620408000,0.0069648596,-0.0015996099,0.0033264065
2620420000,2620420000,0.0052202707,-0.0030723237,-0.00094087777
2620432000,2620432000,-0.0020798084,-0.002459317,-0.003190329
2620444000,2620444000,-0.0026929684,-0.0012366758,-0.0049951095
2620456000,2620456000,-0.00014926353,3.6047306e-05,-0.0012266356
2620468000,2620468000,-0.00032673194,-0.0021986682,-0.0010643092
2620480000,2620480000,-0.007722675,5.0096773e-05,-0.0006762119
2620492000,2620492000,-0.008889877,-0.0012694402,0.0030827224
2620504000,2620504000,-0.0067924084,-0.0001789094,0.004191007
2620516000,2620516000,-0.0063265646,0.0009205479,0.005510843
2620528000,2620528000,-0.0023633258,0.0019352217,-0.004848078
2620540000,2620540000,0.0077364934,0.0003760662,-0.00435502
2620552000,2620552000,0.00424343,0.005437961,-0.0012102731
2620564000,2620564000,-0.0029687225,0.0030698455,-0.0017342336
2620576000,2620576000,-0.00066367025,0.009811751,-0.0020538322
2620588000,2620588000,-0.0014225929,0.010525252,0.00026829744
2620600000,2620600000,0.0015432897,0.012268314,0.002487798
2620612000,2620612000,0.0034293996,0.01881973,0.0017608217
2620624000,2620624000,0.000846084,0.014173744,0.0017026765
2620636000,2620636000,0.0016825147,0.019185115,0.0014226908
2620648000,2620648000,7.131719e-05,0.016694002,0.0011642192
2620660000,2620660000,-0.0050662267,0.008441437,0.0033432024
2620672000,2620672000,-0.005761677,0.0085120415,0.00024663532
2620684000,2620684000,-0.00543206,0.006299943,0.005582029
2620696000,2620696000,-0.0039050519,-0.00181218,0.0048490176
2620708000,2620708000,-8.853129e-05,-0.0025429484,0.0039458177
2620720000,2620720000,0.00088482164,-0.0014146902,0.001387808
2620732000,2620732000,0.002554011,0.001563906,-0.0034649994
2620744000,2620744000,-0.007941203,-0.0027798358,0.0014229233
2620756000,2620756000,-0.010018534,0.00035528932,-0.00071553385
2620768000,2620768000,-0.0025392566,-0.004179239,-0.0036345113
2620780000,2620780000,-0.0030508146,-0.0050617023,-0.001052413
2620792000,2620792000,-0.006968002,-0.004780846,0.0010220333
2620804000,2620804000,-0.009331261,-0.0055670785,-0.0034404718
2620816000,2620816000,-0.010516561,-0.010239366,-0.0034624424
2620824000,2620824000,-0.007850114,-0.00620792,-0.0006032277
2620840000,2620840000,-0.009584496,-0.010250576,0.0027554214
2620848000,2620848000,-0.006660065,-0.010207441,0.00018986645
2620864000,2620864000,-0.003429502,-0.009426609,-0.0010330987
2620876000,2620876000,0.0013091586,-0.0054238257,-0.0008886531
2620888000,2620888000,0.0010764308,-0.007516339,0.0031573826
2620900000,2620900000,0.0023491103,-0.0031813523,-0.00034963252
2620912000,2620912000,0.0040140287,0.0012733196,0.004141085
2620924000,2620924000,0.00041605672,-0.0012175576,0.0030208582
2620936000,2620936000,0.0011193114,-0.0008918196,0.0014142136
2620948000,2620948000,0.004330474,-0.0021835691,0.007899722
2620960000,2620960000,0.0038375186,-0.005432094,0.0028252455
2620972000,2620972000,0.007764398,-0.010150707,0.0047113197
2620984000,2620984000,0.0007689174,-0.0071082385,0.0013710539
2620996000,2620996000,-0.004780905,-0.003621248,-0.005355728
2621008000,2621008000,-0.0049430504,0.0006110673,-0.0021409506
2621020000,2621020000,-0.0034422851,0.0034601344,0.000119747616
2621032000,2621032000,-0.005052658,0.0008431552,0.0004040961
2621044000,2621044000,0.0004109795,-0.0024268841,-0.0034896445
2621056000,2621056000,0.005604023,0.0019092197,-0.00427177
2621068000,2621068000,0.002657378,0.0020222901,0.0033460155
2621080000,2621080000,0.0051713185,-0.0058071557,0.005969301
2621092000,2621092000,0.008257978,-0.008966244,-0.0015187723
2621104000,2621104000,0.014280943,-0.0065669725,-0.0012937633
2621116000,2621116000,0.009317399,-0.0036451854,-0.0027773676
2621128000,2621128000,0.012069938,-0.001982099,-0.0044711637
2621140000,2621140000,0.008874098,0.0008615537,-0.00515109
2621152000,2621152000,0.0041539026,0.0027532931,-0.0015552095
2621164000,2621164000,0.009823956,0.014189798,-0.00027369778
2621176000,2621176000,0.0043879566,0.024799021,0.008398219
2621188000,2621188000,1.2193341e-06,0.03936909,0.0027376916
2621200000,2621200000,-0.004370264,0.05857153,0.009373927
2621212000,2621212000,-0.0033371008,0.071122,0.020295551
2621224000,2621224000,0.0067416932,0.0862625,0.024655754
2621236000,2621236000,0.020849317,0.10063194,0.03597089
2621244000,2621244000,0.03328337,0.110841885,0.04646454
2621260000,2621260000,0.06167212,0.13439974,0.066672325
2621272000,2621272000,0.07740927,0.15030086,0.081000164
2621284000,2621284000,0.0857269,0.170108,0.09714714
2621296000,2621296000,0.10315315,0.1961842,0.11105198
2621308000,2621308000,0.1316398,0.22275203,0.13294356
2621320000,2621320000,0.14812891,0.24445222,0.15825526
2621332000,2621332000,0.1691845,0.27243477,0.17271355
2621344000,2621344000,0.19221886,0.29366434,0.18342593
2621352000,2621352000,0.20649144,0.3050637,0.1989247
2621364000,2621364000,0.21820335,0.33151472,0.2199635
2621376000,2621376000,0.2289272,0.35598445,0.24128488
2621388000,2621388000,0.25156656,0.37340835,0.25861037
2621400000,2621400000,0.26665434,0.39243537,0.27579027
2621416000,2621416000,0.27392435,0.4351732,0.2973158
2621428000,2621428000,0.28183636,0.45813322,0.31166404
2621440000,2621440000,0.2946102,0.47664243,0.33196455
2621452000,2621452000,0.3035006,0.5060745,0.349898
2621464000,2621464000,0.31511143,0.5415985,0.36299562
2621476000,2621476000,0.3305366,0.5625848,0.38038278
2621488000,2621488000,0.3379448,0.56392294,0.39465418
2621500000,2621500000,0.34415755,0.57432604,0.41018113
2621512000,2621512000,0.355462,0.59818053,0.41238415
2621520000,2621520000,0.37125847,0.60675275,0.42205122
2621536000,2621536000,0.3796314,0.60620546,0.43975833
2621548000,2621548000,0.37521634,0.6050801,0.44640732
2621556000,2621556000,0.37809354,0.613169,0.45442733
2621572000,2621572000,0.3882009,0.61372143,0.47078803
2621584000,2621584000,0.38140333,0.6179924,0.4797438
2621596000,2621596000,0.3850778,0.621342,0.48978224
2621608000,2621608000,0.39376685,0.6163452,0.49899912
2621620000,2621620000,0.3915945,0.6070222,0.5123316
2621632000,2621632000,0.37970898,0.6022937,0.5180437
2621644000,2621644000,0.37901244,0.5961377,0.5268271
2621656000,2621656000,0.3833811,0.57823545,0.5355168
2621668000,2621668000,0.3658227,0.5631322,0.5399214
2621680000,2621680000,0.35802448,0.5599602,0.5535821
2621688000,2621688000,0.35584635,0.5561825,0.55985415
2621704000,2621704000,0.3652589,0.5302619,0.56736916
2621716000,2621716000,0.34232992,0.50480807,0.57539636
2621728000,2621728000,0.3197146,0.48913917,0.5788344
2621740000,2621740000,0.32130867,0.471258,0.5848807
2621752000,2621752000,0.33254313,0.4464707,0.5887373
2621764000,2621764000,0.3163645,0.43206924,0.59695566
2621776000,2621776000,0.29950264,0.40894532,0.60129464
2621788000,2621788000,0.29426375,0.3824795,0.61022186
2621800000,2621800000,0.293663,0.3662461,0.6145693
2621812000,2621812000,0.2833805,0.36995786,0.61715853
2621820000,2621820000,0.28101817,0.3653552,0.62450606
2621836000,2621836000,0.27265874,0.32632115,0.6300353
2621848000,2621848000,0.262252,0.3141202,0.6371281
2621860000,2621860000,0.25543156,0.31591097,0.6366109
2621872000,2621872000,0.2515622,0.30220744,0.6476967
2621884000,2621884000,0.24558346,0.26581457,0.6534988
2621892000,2621892000,0.24084921,0.24727386,0.6578403
2621908000,2621908000,0.22599316,0.23204538,0.65995085
2621920000,2621920000,0.22248563,0.22447535,0.6660172
2621932000,2621932000,0.21411338,0.20414637,0.667889
2621944000,2621944000,0.20432973,0.19368467,0.67278117
2621956000,2621956000,0.19448403,0.1873838,0.6837549
2621968000,2621968000,0.19212337,0.17762685,0.68821084
2621980000,2621980000,0.20024565,0.17144302,0.6908249
2621992000,2621992000,0.19246395,0.16589837,0.6919597
2622004000,2622004000,0.17903253,0.15181161,0.69630116
2622016000,2622016000,0.17070657,0.13558017,0.7018762
2622028000,2622028000,0.17012034,0.13158654,0.70335746
2622040000,2622040000,0.1655414,0.13151714,0.70546997
2622052000,2622052000,0.1632853,0.12567466,0.71386397
2622064000,2622064000,0.15746407,0.11686348,0.71574634
2622072000,2622072000,0.15527675,0.11197687,0.7168592
2622088000,2622088000,0.16405755,0.11627185,0.72554666
2622096000,2622096000,0.16264598,0.11197966,0.7295349
2622112000,2622112000,0.14818645,0.10712364,0.72832114
2622124000,2622124000,0.13736013,0.1004886,0.74020463
2622136000,2622136000,0.14597082,0.09985543,0.73538226
2622148000,2622148000,0.14896823,0.09369837,0.73540187
2622160000,2622160000,0.1348014,0.08906422,0.7407873
2622172000,2622172000,0.123921655,0.08054168,0.7495764
2622184000,2622184000,0.12586778,0.07816859,0.74874365
2622196000,2622196000,0.1395227,0.07699721,0.74860144
2622204000,2622204000,0.1404438,0.080576666,0.7500985
2622216000,2622216000,0.14329976,0.07426258,0.7550105
2622228000,2622228000,0.13715252,0.06449078,0.76213324
2622244000,2622244000,0.13216573,0.06625992,0.7677756
2622256000,2622256000,0.13053659,0.071513645,0.77099526
2622268000,2622268000,0.122522496,0.07126728,0.7728947
2622280000,2622280000,0.121216,0.06502926,0.77197725
2622292000,2622292000,0.11590465,0.06305763,0.7754364
2622300000,2622300000,0.11617551,0.062235568,0.775809
2622316000,2622316000,0.12381048,0.066562645,0.7828922
2622328000,2622328000,0.12046766,0.064797714,0.7873165
2622340000,2622340000,0.11244521,0.062226657,0.785969
2622352000,2622352000,0.1133282,0.054652784,0.78697544
2622364000,2622364000,0.12123827,0.05846806,0.7919899
2622376000,2622376000,0.11809994,0.06754007,0.7894579
2622388000,2622388000,0.1148034,0.06676601,0.7944815
2622396000,2622396000,0.11057073,0.06280397,0.7990966
2622412000,2622412000,0.11727871,0.06284759,0.80225
2622424000,2622424000,0.12527396,0.059448864,0.8075737
2622436000,2622436000,0.1209978,0.060809687,0.8079067
2622444000,2622444000,0.11210451,0.05885646,0.80990857
2622460000,2622460000,0.105232485,0.053727217,0.8148533
2622472000,2622472000,0.11367414,0.052832473,0.81813014
2622484000,2622484000,0.12181689,0.049486846,0.8175493
2622496000,2622496000,0.11624203,0.05568185,0.82336277
2622508000,2622508000,0.10614165,0.05148816,0.8256578
2622520000,2622520000,0.10856466,0.047372807,0.82481235
2622532000,2622532000,0.11279662,0.044537544,0.8268218
2622540000,2622540000,0.11234398,0.045707203,0.82468945
2622556000,2622556000,0.10590928,0.034777634,0.8316804
2622568000,2622568000,0.10618392,0.03020544,0.8294301
2622580000,2622580000,0.1108851,0.03417798,0.83342963
2622588000,2622588000,0.117671415,0.035336666,0.8339781
2622604000,2622604000,0.12882479,0.03188791,0.84173405
2622616000,2622616000,0.12901492,0.030353062,0.8469206
2622628000,2622628000,0.12695603,0.027496088,0.8476845
2622640000,2622640000,0.13628201,0.026992735,0.8497047
2622652000,2622652000,0.14096896,0.021688655,0.85073763
2622664000,2622664000,0.13624385,0.022264924,0.8500823
2622672000,2622672000,0.12514378,0.022429347,0.85901195
2622688000,2622688000,0.11923608,0.022875987,0.85956
2622700000,2622700000,0.1254732,0.021276705,0.8593337
2622712000,2622712000,0.12515348,0.025178436,0.86105424
2622724000,2622724000,0.12216601,0.016571268,0.86272955
2622732000,2622732000,0.120886266,0.010371592,0.8609386
2622744000,2622744000,0.12107886,0.010891611,0.86273926
2622760000,2622760000,0.13348626,0.016034236,0.8680126
2622772000,2622772000,0.13690992,0.012483014,0.8720774
2622784000,2622784000,0.13547446,0.010267661,0.8735608
2622796000,2622796000,0.13740005,0.00710271,0.87780327
2622808000,2622808000,0.14660454,0.006971539,0.88011116
2622820000,2622820000,0.14546901,0.0039743097,0.8829325
2622832000,2622832000,0.14307302,0.0013995736,0.889119
2622844000,2622844000,0.1407481,0.0043117544,0.887504
2622856000,2622856000,0.1339528,0.0017797973,0.8853772
2622864000,2622864000,0.13745955,-0.0020641638,0.8874321
2622876000,2622876000,0.14134699,9.254785e-05,0.89617044
2622892000,2622892000,0.13221368,-0.0027958998,0.8968651
2622904000,2622904000,0.12561049,-0.0057781506,0.8958892
2622916000,2622916000,0.12747923,-0.006253485,0.8928506
2622928000,2622928000,0.13151968,-0.004065297,0.8956568
2622936000,2622936000,0.13246484,0.0019120655,0.89478475
2622952000,2622952000,0.119454764,0.001794093,0.89464086
2622960000,2622960000,0.11163685,-0.003973553,0.89685583
2622976000,2622976000,0.11132661,-0.0056125456,0.8941597
2622984000,2622984000,0.11177594,-0.004427019,0.8915563
2623000000,2623000000,0.11204124,-0.0074914726,0.8987468
2623012000,2623012000,0.112039186,-0.017101064,0.89843035
2623020000,2623020000,0.10442252,-0.017502433,0.90164894
2623036000,2623036000,0.097473614,-0.017733578,0.9038457
2623048000,2623048000,0.09402318,-0.015530037,0.9062854
2623060000,2623060000,0.105662115,-0.013302211,0.9065887
2623072000,2623072000,0.12420146,-0.014895086,0.90620536
2623084000,2623084000,0.14041817,-0.02396796,0.9067472
2623096000,2623096000,0.14223696,-0.02219897,0.90622216
2623108000,2623108000,0.13550211,-0.020436041,0.9068662
2623120000,2623120000,0.13375518,-0.025007002,0.9010909
2623132000,2623132000,0.13645059,-0.026241593,0.9084799
2623144000,2623144000,0.14236343,-0.030292675,0.91590023
2623156000,2623156000,0.14922903,-0.031030066,0.9166993
2623168000,2623168000,0.14951804,-0.038145088,0.91906035
2623180000,2623180000,0.15087774,-0.03912274,0.9227884
2623192000,2623192000,0.15616407,-0.041615672,0.9221166
2623204000,2623204000,0.15303566,-0.04078249,0.9219979
2623216000,2623216000,0.13920224,-0.0393386,0.9173787
2623228000,2623228000,0.121608004,-0.03088231,0.91402197
2623240000,2623240000,0.1135478,-0.03406154,0.9178266
2623252000,2623252000,0.1141379,-0.039331194,0.91600937
2623264000,2623264000,0.1010495,-0.038751177,0.9170614
2623276000,2623276000,0.08578005,-0.032340966,0.91556126
2623288000,2623288000,0.078365214,-0.028988548,0.9092308
2623300000,2623300000,0.072886586,-0.02551832,0.91110283
2623312000,2623312000,0.0669427,-0.023855442,0.9094163
2623324000,2623324000,0.056701455,-0.019074498,0.91141564
2623336000,2623336000,0.035277285,-0.015218182,0.9116591
2623344000,2623344000,0.02358697,-0.014810205,0.91061026
2623360000,2623360000,0.02011347,-0.017251758,0.90765995
2623368000,2623368000,0.013618218,-0.010105012,0.90600544
2623384000,2623384000,-0.013630862,-0.005337233,0.90414065
2623396000,2623396000,-0.02322612,0.0052393232,0.9029553
2623408000,2623408000,-0.029000405,0.012959383,0.8981089
2623420000,2623420000,-0.032020073,0.01068393,0.8962088
2623432000,2623432000,-0.04790976,0.0178414,0.89486456
2623444000,2623444000,-0.060942348,0.022697514,0.8912689
2623456000,2623456000,-0.071944386,0.028616786,0.88739806
2623468000,2623468000,-0.07261479,0.022423463,0.8820115
2623480000,2623480000,-0.07559623,0.026622057,0.8832351
2623492000,2623492000,-0.089577556,0.044236783,0.8791708
2623500000,2623500000,-0.095534794,0.04703862,0.8792882
2623516000,2623516000,-0.107870504,0.049509995,0.87098867
2623528000,2623528000,-0.106757365,0.053852554,0.86806816
2623540000,2623540000,-0.1117615,0.057780094,0.8662131
2623552000,2623552000,-0.12180253,0.057957806,0.8617073
2623564000,2623564000,-0.119517595,0.060236618,0.85443103
2623576000,2623576000,-0.119311064,0.06724746,0.85507387
2623588000,2623588000,-0.12620062,0.06939604,0.8521442
2623600000,2623600000,-0.13319091,0.078057475,0.84804094
2623612000,2623612000,-0.13540438,0.08341718,0.8438427
2623624000,2623624000,-0.13839899,0.091722526,0.840168
2623636000,2623636000,-0.13546757,0.09045756,0.8389618
2623644000,2623644000,-0.13566676,0.09096916,0.8347811
2623660000,2623660000,-0.13158998,0.09743896,0.82868606
2623672000,2623672000,-0.1335368,0.103506796,0.8287986
2623684000,2623684000,-0.13904655,0.10333247,0.81786007
2623696000,2623696000,-0.13007031,0.105873875,0.8189019
2623708000,2623708000,-0.12585385,0.10887685,0.81518143
2623720000,2623720000,-0.12962909,0.11445095,0.8051261
2623732000,2623732000,-0.13055183,0.118711375,0.80155164
2623744000,2623744000,-0.12362813,0.11079143,0.80102587
2623756000,2623756000,-0.12209836,0.10741522,0.7977697
2623768000,2623768000,-0.11608863,0.10692115,0.79007405
2623780000,2623780000,-0.10431546,0.10983176,0.78963107
2623792000,2623792000,-0.09340643,0.10433441,0.79734653
2623804000,2623804000,-0.08988052,0.0968769,0.79092723
2623816000,2623816000,-0.07534484,0.09226353,0.78367186
2623828000,2623828000,-0.07362315,0.09864684,0.78196055
2623836000,2623836000,-0.07434404,0.091904655,0.78260624
2623852000,2623852000,-0.057307698,0.08157134,0.7825437
2623864000,2623864000,-0.0472565,0.075559646,0.78188276
2623876000,2623876000,-0.03706668,0.07061227,0.780099
2623888000,2623888000,-0.035757836,0.07014592,0.7787361
2623900000,2623900000,-0.034859095,0.060156547,0.7785583
2623912000,2623912000,-0.027090069,0.042905357,0.77341527
2623924000,2623924000,-0.02164184,0.036302656,0.7749624
2623936000,2623936000,-0.019716937,0.033929717,0.7733643
2623944000,2623944000,-0.01757406,0.029579248,0.77321064
2623960000,2623960000,-0.010439494,0.022550477,0.77047676
2623968000,2623968000,-0.004346971,0.02181134,0.7696351
2623984000,2623984000,0.012307042,0.0144563615,0.7672651
2623996000,2623996000,0.0058565107,0.01129109,0.76851857
2624004000,2624004000,0.0073623396,0.010310529,0.769671
2624020000,2624020000,0.012509098,-0.0031858506,0.7670358
2624032000,2624032000,0.01668215,-0.005900019,0.75929344
2624040000,2624040000,0.01804775,-0.004698571,0.75905246
2624052000,2624052000,0.016317097,-0.009349098,0.7596588
2624068000,2624068000,0.012431349,-0.013970966,0.75979763
2624080000,2624080000,0.01296369,-0.02190065,0.7620113
2624092000,2624092000,0.015405749,-0.022893183,0.7598788
2624104000,2624104000,0.014344634,-0.020787967,0.75466985
2624116000,2624116000,0.0156008145,-0.019037975,0.7558591
2624128000,2624128000,0.022147015,-0.021959513,0.7548867
2624136000,2624136000,0.022396257,-0.023349866,0.74996793
2624152000,2624152000,0.021680983,-0.021156657,0.75172853
2624164000,2624164000,0.022966785,-0.029666048,0.74993503
2624176000,2624176000,0.019863531,-0.025824834,0.7528889
2624188000,2624188000,0.017999345,-0.023331415,0.7470246
2624200000,2624200000,0.011975637,-0.01903707,0.7446695
2624212000,2624212000,0.010749665,-0.016574686,0.7451542
2624224000,2624224000,0.012627945,-0.015923047,0.7407924
2624236000,2624236000,0.012935803,-0.011755239,0.734859
2624248000,2624248000,0.011735072,-0.014224486,0.7375936
2624260000,2624260000,0.008809341,-0.020111792,0.74141127
2624272000,2624272000,0.009253062,-0.010866668,0.7382658
2624284000,2624284000,0.012252487,-0.0011772844,0.73364854
2624296000,2624296000,0.005175659,-0.0014667222,0.73169124
2624308000,2624308000,0.004673427,0.0018924461,0.7349158
2624320000,2624320000,0.0021628123,0.0006224774,0.7334674
2624332000,2624332000,0.0040627345,0.0019237257,0.7351221
2624344000,2624344000,0.006763786,0.0047257207,0.73028564
2624356000,2624356000,0.0047395034,0.0079750065,0.735741
2624368000,2624368000,0.008623443,0.0044699186,0.7326809
2624380000,2624380000,0.0077311993,-0.0011851466,0.7260367
2624392000,2624392000,0.00078020745,0.0006967024,0.7236702
2624404000,2624404000,-0.0052598277,-0.0004968541,0.7254189
2624416000,2624416000,-0.007930249,-0.0011522383,0.7258225
2624428000,2624428000,-0.0043243165,0.0033132164,0.7278906
2624440000,2624440000,-0.0073006814,0.00020816596,0.72595847
2624452000,2624452000,-0.007455807,-0.0012111119,0.7224511
2624464000,2624464000,0.0010148995,-0.0015023095,0.7153908
2624476000,2624476000,0.00026256894,-0.007637603,0.7128816
2624484000,2624484000,-0.0037334906,-0.0072718295,0.70963216
2624500000,2624500000,0.002169192,-0.011208403,0.7121729
2624512000,2624512000,-0.00020281528,-0.01220713,0.7167931
2624524000,2624524000,0.003970164,-0.019236581,0.71524453
2624536000,2624536000,0.010966289,-0.030673593,0.7134059
2624548000,2624548000,0.014390979,-0.030320697,0.7115754
2624560000,2624560000,0.012144702,-0.0315419,0.70990443
2624568000,2624568000,0.0114503745,-0.028363016,0.7056382
2624584000,2624584000,0.0039552604,-0.031844135,0.70898193
2624596000,2624596000,0.006154514,-0.030065397,0.703497
2624608000,2624608000,0.0015351153,-0.029861836,0.6958772
2624620000,2624620000,-0.005209351,-0.028196968,0.68278825
2624628000,2624628000,-0.0055969153,-0.02686958,0.67741615
2624644000,2624644000,-0.010437231,-0.023075739,0.6659782
2624656000,2624656000,-0.012344317,-0.029899815,0.64967304
2624668000,2624668000,-0.014409886,-0.027591262,0.6327497
2624680000,2624680000,-0.017795045,-0.026025407,0.6144846
2624688000,2624688000,-0.018544648,-0.023876354,0.60532707
2624704000,2624704000,-0.009697115,-0.035724178,0.5725776
2624716000,2624716000,-0.003423816,-0.034754533,0.5584193
2624724000,2624724000,-0.005742047,-0.035776943,0.54630494
2624740000,2624740000,-0.0028579987,-0.028426766,0.5172658
2624752000,2624752000,-0.0012692171,-0.027755346,0.49558714
2624764000,2624764000,0.0015647622,-0.028560814,0.48000005
2624776000,2624776000,9.0477755e-05,-0.031282604,0.4657117
2624788000,2624788000,0.0046390453,-0.027085926,0.4495454
2624800000,2624800000,0.0031100982,-0.030812893,0.43107405
2624812000,2624812000,0.0036771563,-0.031807654,0.42220074
2624824000,2624824000,0.015946193,-0.029357983,0.3998886
2624836000,2624836000,0.023983767,-0.018716013,0.38089493
2624848000,2624848000,0.023478312,-0.021208923,0.36223558
2624860000,2624860000,0.02611581,-0.021000473,0.34943652
2624868000,2624868000,0.03162296,-0.025390044,0.338564
2624880000,2624880000,0.0298979,-0.028385658,0.3269956
2624896000,2624896000,0.03000978,-0.020881077,0.3030248
2624908000,2624908000,0.032921515,-0.016852159,0.2954174
2624920000,2624920000,0.028892305,-0.023627248,0.28301206
2624932000,2624932000,0.033325568,-0.02492082,0.2737108
2624944000,2624944000,0.03355352,-0.014946813,0.2632101
2624956000,2624956000,0.028607238,-0.007192694,0.24852332
2624968000,2624968000,0.031368412,-0.009856793,0.24028906
2624980000,2624980000,0.030379007,-0.015702717,0.23649824
2624988000,2624988000,0.028136663,-0.015702007,0.23132218
2625004000,2625004000,0.021906458,-0.0054084733,0.22351435
2625016000,2625016000,0.020780107,-0.0047885287,0.21362777
2625028000,2625028000,0.009438998,-0.0022927225,0.2051287
2625040000,2625040000,0.0046818275,-0.0039457683,0.19667545
2625048000,2625048000,0.004139233,-0.00437855,0.19328588
2625064000,2625064000,0.0022550027,-0.0037941951,0.18407631
2625076000,2625076000,-0.0051727113,0.0040560695,0.17292967
2625088000,2625088000,-0.00765981,0.004299146,0.16800565
2625100000,2625100000,0.00072464533,0.005773605,0.16156588
2625108000,2625108000,0.0021190427,0.0114568705,0.15626764
2625120000,2625120000,-0.0010486571,0.01623654,0.14507009
2625136000,2625136000,0.0052121463,0.017415855,0.13988306
2625148000,2625148000,0.0010827585,0.02027436,0.12979135
2625160000,2625160000,-0.0021332577,0.0169366,0.1258401
2625172000,2625172000,-0.0027246464,0.013824185,0.12280885
2625184000,2625184000,-0.0063661607,0.011913428,0.11331985
2625192000,2625192000,-0.007850152,0.0099004395,0.11203558
2625208000,2625208000,0.002619203,0.004868197,0.10697842
2625220000,2625220000,0.0026245946,0.0051166085,0.10564682
2625232000,2625232000,-0.0023536023,-0.0005667005,0.10273224
2625240000,2625240000,3.1071715e-05,0.0020264585,0.09703153
2625256000,2625256000,0.0071691233,-0.0005743061,0.092782505
2625268000,2625268000,0.0075961538,-0.0021572812,0.084059685
