timestamp,roll,pitch,yaw,thrust_body[0],thrust_body[1],thrust_body[2]
2613228000,0.0043915734,0.014481446,-1.2077484,0.0,0.0,0.0
2613244000,0.004342467,0.014386125,-1.2076812,0.0,0.0,0.0
2613268000,0.00449356,0.013803784,-1.2073891,0.0,0.0,0.0
2613288000,0.004325253,0.01388284,-1.2074459,0.0,0.0,0.0
2613308000,0.0043510967,0.014061043,-1.2073798,0.0,0.0,0.0
2613328000,0.0037504616,0.013943138,-1.2075387,0.0,0.0,0.0
2613344000,0.0035168151,0.013950523,-1.2076367,0.0,0.0,0.0
2613364000,0.0036461842,0.014313477,-1.2077756,0.0,0.0,0.0
2613388000,0.0038878247,0.014350558,-1.2079129,0.0,0.0,0.0
2613404000,0.003825896,0.014655806,-1.2076483,0.0,0.0,0.0
2613424000,0.0037516006,0.015096621,-1.2076848,0.0,0.0,0.0
2613448000,0.0037575436,0.0147454385,-1.2078685,0.0,0.0,0.0
2613468000,0.00359555,0.015113652,-1.2077044,0.0,0.0,0.0
2613484000,0.0035731727,0.014722156,-1.2075466,0.0,0.0,0.0
2613508000,0.0035309065,0.014419572,-1.2076193,0.0,0.0,0.0
2613528000,0.003437711,0.014516424,-1.2075237,0.0,0.0,0.0
2613544000,0.0035980232,0.014515252,-1.207563,0.0,0.0,0.0
2613568000,0.0032770159,0.015031405,-1.2076871,0.0,0.0,0.0
2613584000,0.0033465293,0.014694056,-1.2078681,0.0,0.0,0.0
2613604000,0.003281119,0.0147240795,-1.2077646,0.0,0.0,0.0
2613628000,0.003346217,0.01460053,-1.2077428,0.0,0.0,0.0
2613640000,0.0031678907,0.014579759,-1.2077466,0.0,0.0,0.0
2613668000,0.0030978306,0.014704969,-1.2077274,0.0,0.0,0.0
2613684000,0.003048193,0.014463804,-1.2078617,0.0,0.0,0.0
2613708000,0.0025359648,0.014337156,-1.2076744,0.0,0.0,0.0
2613728000,0.0024818396,0.01400022,-1.2077148,0.0,0.0,0.0
2613748000,0.002338617,0.014250506,-1.2078102,0.0,0.0,0.0
2613764000,0.002423403,0.014458956,-1.2077829,0.0,0.0,0.0
2613784000,0.0030976534,0.014266773,-1.2077729,0.0,0.0,0.0
2613808000,0.0033986028,0.013864245,-1.2077729,0.0,0.0,0.0
2613824000,0.0036984277,0.013491615,-1.2076399,0.0,0.0,0.0
2613844000,0.0036619492,0.013103256,-1.2074451,0.0,0.0,0.0
2613868000,0.003889106,0.013111853,-1.2075081,0.0,0.0,0.0
2613888000,0.0036770732,0.0134476125,-1.2075596,0.0,0.0,0.0
2613908000,0.004005143,0.0134416465,-1.2075837,0.0,0.0,0.0
2613928000,0.0040304624,0.013705524,-1.207545,0.0,0.0,0.0
2613948000,0.004007931,0.013534312,-1.2074155,0.0,0.0,0.0
2613968000,0.0041615292,0.012840867,-1.2074199,0.0,0.0,0.0
2613988000,0.004439499,0.013011689,-1.2072906,0.0,0.0,0.0
2614008000,0.0044545773,0.013325607,-1.2073553,0.0,0.0,0.0
2614024000,0.004389768,0.013150953,-1.2073908,0.0,0.0,0.0
2614048000,0.004583904,0.01281767,-1.2075975,0.0,0.0,0.0
2614064000,0.004884461,0.012799475,-1.2073511,0.0,0.0,0.0
2614088000,0.004676149,0.012869522,-1.2073907,0.0,0.0,0.0
2614108000,0.0047908043,0.01271111,-1.2074358,0.0,0.0,0.0
2614128000,0.004524749,0.013046196,-1.2072071,0.0,0.0,0.0
2614148000,0.0044125365,0.012381522,-1.2072239,0.0,0.0,0.0
2614168000,0.004568877,0.012664365,-1.2070694,0.0,0.0,0.0
2614188000,0.004560186,0.013035674,-1.2069559,0.0,0.0,0.0
2614204000,0.0042875917,0.012870532,-1.2068604,0.0,0.0,0.0
2614228000,0.0042886725,0.012998423,-1.2065811,0.0,0.0,0.0
2614244000,0.6448007,1.091606,-0.02697283,0.0,0.0,-0.12268087
2614268000,0.4740115,0.8112765,-0.012762845,0.0,0.0,-0.1214453
2614288000,0.33734867,0.49951124,-0.004547596,0.0,0.0,-0.12058043
2614308000,0.28362587,0.28934574,-0.0013325214,0.0,0.0,-0.120255984
2614328000,0.2937001,0.15455198,0.00012177229,0.0,0.0,-0.120171174
2614348000,0.31406707,0.04410491,0.0013400316,0.0,0.0,-0.12015949
2614368000,0.33905077,-0.047771115,0.0024946332,0.0,0.0,-0.1201909
2614384000,0.3192035,-0.051145814,0.002574563,0.0,0.0,-0.1300471
2614404000,0.27067095,-0.056545585,0.0025777817,0.0,0.0,-0.14302477
2614428000,0.24225157,-0.06717959,0.002763033,0.0,0.0,-0.15552838
2614444000,0.2413622,-0.05843513,0.0029293299,0.0,0.0,-0.16465855
2614460000,0.2178365,-0.07412784,0.0030485988,0.0,0.0,-0.17715953
2614484000,0.1974141,-0.0769721,0.0029745698,0.0,0.0,-0.18976852
2614504000,0.16306683,-0.07722274,0.0029327273,0.0,0.0,-0.21136935
2614524000,0.16287832,-0.07713528,0.0029584765,0.0,0.0,-0.21136935
2614548000,0.14351195,-0.058594108,0.0030142665,0.0,0.0,-0.23256668
2614564000,0.14362524,-0.053395726,0.0029944181,0.0,0.0,-0.24498697
2614588000,0.14082424,-0.049875397,0.002928257,0.0,0.0,-0.25745624
2614608000,0.14204867,-0.046449583,0.0028420687,0.0,0.0,-0.2666627
2614624000,0.14144161,-0.03876632,0.002722621,0.0,0.0,-0.2786515
2614644000,0.1376619,-0.0396531,0.0028127432,0.0,0.0,-0.2903842
2614664000,0.1445018,-0.04349286,0.0029345155,0.0,0.0,-0.29928914
2614688000,0.14172986,-0.041106097,0.0030997396,0.0,0.0,-0.31136817
2614708000,0.1277963,-0.038359772,0.0031548142,0.0,0.0,-0.32566258
2614728000,0.11183463,-0.03948853,0.003211856,0.0,0.0,-0.35237113
2614744000,0.111517645,-0.039625846,0.0030748844,0.0,0.0,-0.35237113
2614768000,0.0905807,-0.027214307,0.0031633973,0.0,0.0,-0.3789809
2614784000,0.09154674,-0.026833149,0.0031371117,0.0,0.0,-0.394025
2614808000,0.08941128,-0.029862072,0.0031961203,0.0,0.0,-0.40886715
2614828000,0.0870646,-0.03145852,0.003020525,0.0,0.0,-0.42109433
2614844000,0.086756244,-0.027375352,0.0029971004,0.0,0.0,-0.43585902
2614868000,0.08571431,-0.025501657,0.0027301311,0.0,0.0,-0.45056707
2614880000,0.08289769,-0.01789842,0.0026888251,0.0,0.0,-0.46224245
2614904000,0.08118737,-0.014222147,0.0027843118,0.0,0.0,-0.47701558
2614924000,0.077499464,-0.019063942,0.002633214,0.0,0.0,-0.49217147
2614944000,0.07185362,-0.02525259,0.002640903,0.0,0.0,-0.5047387
2614968000,0.069547854,-0.026147095,0.0025595427,0.0,0.0,-0.5199547
2614984000,0.069983214,-0.026668563,0.002511084,0.0,0.0,-0.5353929
2615008000,0.074778974,-0.026476644,0.0025253892,0.0,0.0,-0.54776126
2615024000,0.07262406,-0.02739624,0.002246976,0.0,0.0,-0.5635114
2615040000,0.07446884,-0.023654357,0.0021201968,0.0,0.0,-0.57891566
2615064000,0.05877547,-0.024116557,0.0020454526,0.0,0.0,-0.6031958
2615084000,0.040897302,-0.019831263,0.0020976663,0.0,0.0,-0.6128555
2615108000,0.026139356,-0.016822197,0.0018825531,0.0,0.0,-0.6130188
2615124000,0.011234529,-0.01243954,0.0018491149,0.0,0.0,-0.61691314
2615144000,-0.0024506878,-0.0069134734,0.0019862652,0.0,0.0,-0.6196882
2615168000,-0.025585776,-9.215763e-05,0.0017766953,0.0,0.0,-0.61065125
2615184000,-0.03413407,-0.00055272155,0.0015086532,0.0,0.0,-0.61066467
2615204000,-0.042181093,0.005542284,0.001283884,0.0,0.0,-0.6111337
2615224000,-0.056494262,0.015978867,0.0010240674,0.0,0.0,-0.60235447
2615244000,-0.065285385,0.02326448,0.00081056356,0.0,0.0,-0.604747
2615268000,-0.071535714,0.028199421,0.00078624487,0.0,0.0,-0.60759974
2615288000,-0.08749393,0.029654782,0.00092715025,0.0,0.0,-0.60743624
2615308000,-0.08617117,0.028784422,0.0009037256,0.0,0.0,-0.60743624
2615328000,-0.09238156,0.033614058,0.0006108284,0.0,0.0,-0.6084779
2615344000,-0.0905656,0.027824625,0.0006043911,0.0,0.0,-0.61252904
2615368000,-0.08687389,0.029054698,0.00057828426,0.0,0.0,-0.61633956
2615384000,-0.09844768,0.02600453,0.00038695335,0.0,0.0,-0.611481
2615404000,-0.09040198,0.023351666,0.00027233362,0.0,0.0,-0.6141048
2615424000,-0.0815679,0.023766074,0.00023889542,0.0,0.0,-0.6171997
2615444000,-0.08110975,0.023929674,0.00023388863,0.0,0.0,-0.6111686
2615468000,-0.06927752,0.023325825,0.00029039383,0.0,0.0,-0.61376536
2615484000,-0.06675063,0.020329855,0.00040340424,0.0,0.0,-0.6171231
2615508000,-0.0637352,0.018468658,0.00020867586,0.0,0.0,-0.61129767
2615528000,-0.06296629,0.015979834,1.4305115e-05,0.0,0.0,-0.6149304
2615544000,-0.06173584,0.013892063,2.4139881e-05,0.0,0.0,-0.6185381
2615568000,-0.055380523,0.009384005,3.272295e-05,0.0,0.0,-0.6130059
2615584000,-0.054017153,0.0108725205,4.6670437e-05,0.0,0.0,-0.6157887
2615604000,-0.053335603,0.015306063,5.2928925e-05,0.0,0.0,-0.61930645
2615624000,-0.043592136,0.017143006,-9.763241e-05,0.0,0.0,-0.6145375
2615648000,-0.049194045,0.018201308,-0.00013017654,0.0,0.0,-0.6206027
2615668000,-0.047495097,0.01622435,-0.00021028519,0.0,0.0,-0.61491585
2615688000,-0.042700063,0.015588339,-0.00015985966,0.0,0.0,-0.61797625
2615708000,-0.039894298,0.014266999,-0.00017023087,0.0,0.0,-0.6211554
2615728000,-0.0414441,0.011189332,-0.00038427114,0.0,0.0,-0.6166156
2615748000,-0.042563863,0.0098693315,-0.000639081,0.0,0.0,-0.619636
2615768000,-0.039725855,0.012876844,-0.00044935942,0.0,0.0,-0.62303543
2615788000,-0.03251195,0.014815368,-0.00039035082,0.0,0.0,-0.61700636
2615804000,-0.031877544,0.015271054,-0.0004271865,0.0,0.0,-0.6202622
2615820000,-0.030551217,0.012658261,-0.00047904253,0.0,0.0,-0.6233436
2615848000,-0.028913133,0.017762061,-0.0005158782,0.0,0.0,-0.617384
2615868000,-0.029798666,0.016070683,-0.00055110455,0.0,0.0,-0.62368304
2615884000,-0.02976278,0.015776042,-0.00043666363,0.0,0.0,-0.62368304
2615908000,-0.032859504,0.010885112,-0.00056898594,0.0,0.0,-0.6205664
2615928000,-0.033539675,0.007831471,-0.00023013353,0.0,0.0,-0.6238805
2615948000,-0.035404637,0.010665383,6.633997e-05,0.0,0.0,-0.618557
2615964000,-0.030872319,0.007657879,4.541874e-05,0.0,0.0,-0.6217318
2615984000,-0.025873745,0.0076946374,4.8995018e-05,0.0,0.0,-0.6255565
2616008000,-0.018285861,0.010994789,-0.00018489361,0.0,0.0,-0.62093025
2616028000,-0.02291375,0.010688772,-0.00013518333,0.0,0.0,-0.6245607
2616048000,-0.026255853,0.009242688,-0.00028431416,0.0,0.0,-0.62877935
2616068000,-0.027647499,0.007992908,-0.00030648708,0.0,0.0,-0.62393
2616084000,-0.027739827,0.005684808,-0.00034976006,0.0,0.0,-0.62690145
2616104000,-0.026645798,0.006169416,-0.00040751696,0.0,0.0,-0.63036346
2616128000,-0.02655621,0.01756566,-0.0005019307,0.0,0.0,-0.6266285
2616148000,-0.025552573,0.015696807,-0.00031918287,0.0,0.0,-0.6288012
2616164000,-0.025122456,0.015873121,-0.00021672249,0.0,0.0,-0.6288012
2616184000,-0.022210129,0.012655489,-0.0002002716,0.0,0.0,-0.62273425
2616204000,-0.025365064,0.01788494,-0.00042754412,0.0,0.0,-0.6289546
2616224000,-0.022200892,0.017454414,-0.00024855137,0.0,0.0,-0.62479514
2616244000,-0.018681232,0.017092519,-7.742643e-05,0.0,0.0,-0.6283152
2616264000,-0.01735905,0.0147437975,-0.00024443865,0.0,0.0,-0.632441
2616288000,-0.01395149,0.014909495,-0.00037014484,0.0,0.0,-0.6277132
2616304000,-0.0156703,0.01168708,-0.00024229288,0.0,0.0,-0.6312257
2616328000,-0.015200438,0.010340523,-0.00028967857,0.0,0.0,-0.63443726
2616344000,-0.010812432,0.011132758,-0.00017112494,0.0,0.0,-0.62857926
2616360000,-0.014848734,0.007651243,-0.00018203259,0.0,0.0,-0.62288034
2616384000,-0.015332138,0.0069605517,-0.00027930737,0.0,0.0,-0.6017301
2616408000,-0.016110832,0.0014206467,-0.000110685825,0.0,0.0,-0.5657973
2616428000,-0.02255942,-0.0006286546,0.0,0.0,0.0,-0.5465899
2616448000,-0.023730699,0.0054782545,0.00013875961,0.0,0.0,-0.5128253
2616464000,-0.02351715,0.0057350225,3.129244e-05,0.0,0.0,-0.5128253
2616484000,-0.022517217,0.0017013447,4.0769577e-05,0.0,0.0,-0.50993985
2616508000,-0.025223779,0.012931148,0.00016504526,0.0,0.0,-0.51669997
2616524000,-0.025835238,0.020110415,0.00022852421,0.0,0.0,-0.5256697
2616544000,-0.022516185,0.021124475,0.00020331144,0.0,0.0,-0.5356179
2616564000,-0.0152789205,0.018516768,0.0002655387,0.0,0.0,-0.54355335
2616588000,-0.014401808,0.01979618,0.00041484833,0.0,0.0,-0.5505848
2616608000,-0.013538459,0.01800466,9.62019e-05,0.0,0.0,-0.5561419
2616628000,-0.023405965,0.0116745345,0.0001373291,0.0,0.0,-0.55660594
2616648000,-0.025493152,0.012036877,0.0003039837,0.0,0.0,-0.5579597
2616664000,-0.022702858,0.011225594,0.00039625168,0.0,0.0,-0.5589836
2616688000,-0.02370131,0.015159778,0.00035119057,0.0,0.0,-0.5545492
2616704000,-0.023180367,0.014382781,0.00040644407,0.0,0.0,-0.5545492
2616728000,-0.016491769,0.005543329,0.00016343594,0.0,0.0,-0.5490425
2616744000,-0.014350949,0.004406444,8.7976456e-05,0.0,0.0,-0.5489041
2616764000,-0.012575523,0.0024361317,-0.00011318922,0.0,0.0,-0.55004996
2616784000,-0.009445828,0.0028076938,9.834766e-06,0.0,0.0,-0.5477572
2616804000,-0.009682488,0.003136861,-0.0043469667,0.0,0.0,-0.5494098
2616828000,-0.008625949,0.0013348886,-0.0042589903,0.0,0.0,-0.5520746
2616844000,-0.0073116003,-0.001008877,-0.004253447,0.0,0.0,-0.5512607
2616868000,-0.0052464018,0.0025080433,-0.0040923357,0.0,0.0,-0.5533987
2616884000,-0.0070110667,0.005499346,-0.003864348,0.0,0.0,-0.5552704
2616904000,-0.007602987,0.002154228,-0.0037572384,0.0,0.0,-0.55309325
2616924000,-0.01407913,-0.0006530809,-0.003634572,0.0,0.0,-0.553916
2616944000,-0.009602521,0.0019426981,-0.0033710003,0.0,0.0,-0.55489093
2616964000,-0.009038225,0.0027423482,-0.0031172633,0.0,0.0,-0.5517528
2616984000,-0.012589455,0.005131063,-0.0027419329,0.0,0.0,-0.55246836
2617004000,-0.012291511,0.005361028,-0.0024860501,0.0,0.0,-0.55364084
2617020000,-0.0102425255,0.002954009,-0.0020370483,0.0,0.0,-0.55147845
2617048000,-0.013485842,0.0029026167,-0.0012706518,0.0,0.0,-0.55495244
2617064000,-0.015333712,0.0038551237,-0.0008470416,0.0,0.0,-0.55392635
2617088000,-0.014820423,0.003742556,-0.00040966272,0.0,0.0,-0.5554674
2617104000,-0.010165943,0.004831738,-5.185604e-06,0.0,0.0,-0.5572795
2617128000,-0.000107724394,0.0008275991,0.0005106926,0.0,0.0,-0.5553742
2617144000,-0.0018832365,0.0002812869,0.0010560751,0.0,0.0,-0.55672914
2617168000,-0.004616346,0.003364285,0.001393497,0.0,0.0,-0.5583732
2617184000,-0.009317271,0.005642078,0.0017645359,0.0,0.0,-0.55670637
2617204000,-0.005947522,0.010391408,0.0025439858,0.0,0.0,-0.5580606
2617228000,-0.007908801,0.012751849,0.002931118,0.0,0.0,-0.55902433
2617244000,-0.009728187,0.010173399,0.0033813715,0.0,0.0,-0.5562779
2617264000,-0.008787702,0.01091473,0.0034444928,0.0,0.0,-0.5572641
2617284000,-0.006426366,0.0032783048,0.0034502149,0.0,0.0,-0.55846816
2617304000,-0.005405472,0.004522581,0.003242612,0.0,0.0,-0.5568615
2617328000,-0.0036431053,0.001350949,0.0031217337,0.0,0.0,-0.5593814
2617344000,-0.0062591955,-0.0003766003,0.003546238,0.0,0.0,-0.5565998
2617368000,-0.0049263723,0.0049379184,0.0036293864,0.0,0.0,-0.55741817
2617388000,-0.0062591066,0.0061227595,0.003700018,0.0,0.0,-0.5590224
2617404000,-0.0047101756,0.001827602,0.0037686825,0.0,0.0,-0.5569247
2617424000,-0.007046656,-0.00057146454,0.0037388206,0.0,0.0,-0.55789053
2617444000,-0.009431437,-0.003633138,0.0036436915,0.0,0.0,-0.55926263
2617468000,-0.007401768,0.00022916787,0.0036689043,0.0,0.0,-0.55700916
2617488000,-0.0059900926,-0.0005588215,0.0036118627,0.0,0.0,-0.5577047
2617508000,-0.006068171,-0.0029854048,0.0037255883,0.0,0.0,-0.55852205
2617528000,-0.0021420002,-0.0041169636,0.0039457083,0.0,0.0,-0.5571124
2617544000,-0.002744916,-0.0034292042,0.0039466023,0.0,0.0,-0.5571124
2617568000,-0.010460235,-0.00064452086,0.003995061,0.0,0.0,-0.5570222
2617588000,-0.011477042,0.00064230105,0.0039165616,0.0,0.0,-0.5582151
2617604000,-0.014034528,-0.0006780289,0.003832519,0.0,0.0,-0.5593372
2617624000,-0.009835109,-0.009076622,0.00370574,0.0,0.0,-0.557821
2617644000,-0.012094514,-0.00713526,0.003651023,0.0,0.0,-0.5589568
2617668000,-0.009610772,-0.0090097515,0.0033996105,0.0,0.0,-0.56037337
2617688000,-0.015729437,-0.0059092278,0.003227055,0.0,0.0,-0.55909455
2617704000,-0.012566688,-0.008046754,0.002974391,0.0,0.0,-0.5604129
2617724000,-0.00690284,-0.0077656335,0.0028182864,0.0,0.0,-0.56164265
2617744000,-0.0083601745,-0.007182559,0.0025983453,0.0,0.0,-0.56051415
2617764000,-0.009588855,-0.009091326,0.0023978949,0.0,0.0,-0.56185174
2617784000,-0.0024615142,-0.005399012,0.002389133,0.0,0.0,-0.56322867
2617808000,-0.0018742529,-0.0028343778,0.0022426844,0.0,0.0,-0.5617184
2617828000,-0.0019554973,-0.0019231093,0.001954794,0.0,0.0,-0.5617184
2617844000,0.0014630451,-0.0036606481,0.0017995834,0.0,0.0,-0.56228316
2617864000,-0.0014939499,-0.0013617331,0.0015197396,0.0,0.0,-0.56079066
2617880000,-0.0026139393,-0.000271464,0.0014140606,0.0,0.0,-0.56079066
2617908000,-0.0031523618,-0.0013803137,0.0012220144,0.0,0.0,-0.559208
2617924000,-0.0018450993,0.0035388712,0.001124382,0.0,0.0,-0.5596783
2617948000,-0.0030601365,0.005357083,0.0013666749,0.0,0.0,-0.56128365
2617968000,-0.001283005,0.00768012,0.0014812946,0.0,0.0,-0.55919325
2617984000,0.0015470576,0.006841168,0.0016806722,0.0,0.0,-0.5602036
2618008000,0.0002996904,-0.0010757366,0.0020416975,0.0,0.0,-0.5615628
2618028000,0.004889707,0.0040910915,0.0021625757,0.0,0.0,-0.5603344
2618048000,0.00083367544,0.006981152,0.0024576187,0.0,0.0,-0.5613008
2618064000,-0.0046630115,0.0062795337,0.0026174784,0.0,0.0,-0.5626298
2618088000,-0.00829003,0.0022125267,0.0024898052,0.0,0.0,-0.56203264
2618104000,-0.004987986,0.0055526244,0.0025586486,0.0,0.0,-0.5626738
2618128000,-0.0027297516,0.011507179,0.0024286509,0.0,0.0,-0.5619241
2618148000,-0.00541016,0.005140943,0.0024951696,0.0,0.0,-0.5624301
2618164000,-0.0052325064,0.004191517,0.0025248528,0.0,0.0,-0.5624301
2618184000,-0.0035156866,0.0014830346,0.002167225,0.0,0.0,-0.5611917
2618204000,-0.0063771578,0.0030264668,0.0021378994,0.0,0.0,-0.563627
2618224000,-0.0057438733,0.00875522,0.0020724535,0.0,0.0,-0.56195635
2618248000,-0.008029768,0.0028657117,0.0019834042,0.0,0.0,-0.5622271
2618268000,-0.0011032734,0.00092342764,0.0019041896,0.0,0.0,-0.56247324
2618288000,0.00072851154,0.0034677275,0.0020290017,0.0,0.0,-0.56342405
2618304000,0.0011209871,0.0033744103,0.0019962788,0.0,0.0,-0.56342405
2618324000,-0.0073228735,-0.002160555,0.0017745495,0.0,0.0,-0.56282294
2618344000,-0.006432195,-0.0039088065,0.0018780828,0.0,0.0,-0.563116
2618368000,-0.0017326258,-0.00066495995,0.0018024445,0.0,0.0,-0.5640459
2618380000,-0.0015037935,-0.008263978,0.0018498302,0.0,0.0,-0.5625053
2618404000,-0.0038887733,-0.0064879577,0.0016729832,0.0,0.0,-0.56308544
2618424000,-0.0026046936,0.0012525616,0.0017042756,0.0,0.0,-0.5631811
2618448000,-0.0017882965,0.0011451716,0.0016450882,0.0,0.0,-0.5619118
2618464000,-0.004407661,-0.0010435347,0.0015406609,0.0,0.0,-0.5625549
2618484000,-0.008258597,-0.005375698,0.0013582706,0.0,0.0,-0.5637529
2618508000,-0.009541704,-0.008671847,0.0012050271,0.0,0.0,-0.563455
2618528000,-0.009122956,-0.008437298,0.0011104345,0.0,0.0,-0.563455
2618548000,-0.014490176,-0.0087874,0.0009934902,0.0,0.0,-0.562734
2618568000,-0.011225367,-0.005040939,0.0007174015,0.0,0.0,-0.5629437
2618588000,-0.008110352,-0.0019999382,0.00063318014,0.0,0.0,-0.5640217
2618608000,-0.003149461,0.0010669807,0.00034940243,0.0,0.0,-0.5625941
2618628000,-0.0021934218,0.0034442507,0.00019526482,0.0,0.0,-0.5635322
2618648000,-0.00014479284,0.002786451,0.00011461973,0.0,0.0,-0.5645188
2618664000,-4.425994e-06,0.003037657,-5.3465366e-05,0.0,0.0,-0.5626799
2618684000,-0.001973735,-0.0011133493,-0.00021386147,0.0,0.0,-0.56264436
2618708000,0.0005625703,-0.0029145638,-0.00019311905,0.0,0.0,-0.5632091
2618728000,-0.0053410092,-0.0006719049,-0.00037175417,0.0,0.0,-0.5619701
2618744000,-0.003170731,0.002738797,-0.00049746037,0.0,0.0,-0.56228554
2618768000,-0.0030766083,-0.0033620242,-0.00043916702,0.0,0.0,-0.56269926
2618788000,-0.0033500912,-0.0055950945,-0.00052285194,0.0,0.0,-0.56185526
2618804000,-0.0051788604,-0.0032160142,-0.00064462423,0.0,0.0,-0.56278825
2618828000,0.00073491165,0.0007397791,-0.00075405836,0.0,0.0,-0.56262195
2618844000,-0.0045162276,0.0034694667,-0.00075763464,0.0,0.0,-0.56329215
2618864000,-0.0063937283,0.0024585945,-0.00066304207,0.0,0.0,-0.564254
2618884000,0.003255585,0.0042103864,-0.00075781345,0.0,0.0,-0.56254363
2618904000,0.006380806,0.005423826,-0.0006220937,0.0,0.0,-0.5629993
2618928000,0.0057640485,0.0030963002,-0.00055933,0.0,0.0,-0.5634896
2618944000,0.006913968,0.006373556,-0.00047564507,0.0,0.0,-0.56171215
2618968000,0.0048124855,0.0047485284,-0.00026232004,0.0,0.0,-0.5623878
2618988000,0.0051873666,0.0011431419,-0.00047439337,0.0,0.0,-0.5633567
2619004000,0.0004551328,0.0040109195,-0.0002912879,0.0,0.0,-0.5620153
2619028000,-0.0023310974,0.0040919627,-0.00015717745,0.0,0.0,-0.56249976
2619048000,-0.0046119373,0.0045252996,-0.00027376413,0.0,0.0,-0.56331396
2619064000,-0.009657456,0.00030681153,0.00032293797,0.0,0.0,-0.56277114
2619088000,-0.011529978,0.0017837074,0.0005133748,0.0,0.0,-0.56397855
2619108000,-0.009710498,0.0024753213,0.00045150518,0.0,0.0,-0.562495
2619128000,-0.008053464,-0.0017963599,0.000623703,0.0,0.0,-0.5627662
2619148000,-0.0022772215,-0.0011804531,0.000659287,0.0,0.0,-0.5634359
2619168000,-0.0018250215,0.0005238033,0.0008266568,0.0,0.0,-0.56224287
2619184000,-0.001067523,-0.0017621502,0.0009582639,0.0,0.0,-0.5629925
2619204000,0.0024564005,0.00072160363,0.0007969737,0.0,0.0,-0.5635704
2619228000,0.006265411,-0.006926591,0.00085026026,0.0,0.0,-0.5623668
2619244000,0.0062226816,-0.007859995,0.0008904934,0.0,0.0,-0.5624829
2619268000,0.005544298,-0.009526986,0.00077855587,0.0,0.0,-0.5630801
2619284000,0.008383797,-0.00857513,0.0008443594,0.0,0.0,-0.5624985
2619308000,0.0038096006,-0.007681247,0.0008184314,0.0,0.0,-0.5628407
2619328000,0.0025150885,-0.0084526865,0.00096291304,0.0,0.0,-0.5636375
2619348000,0.0058406345,-0.0026129512,0.0009863377,0.0,0.0,-0.56391764
2619368000,0.0049096188,-0.0056638736,0.0014301538,0.0,0.0,-0.5647926
2619388000,0.0037136711,-0.0015083572,0.0015603304,0.0,0.0,-0.5631834
2619408000,0.0035750899,0.0010250916,0.0016996264,0.0,0.0,-0.56337935
2619428000,0.0070106825,0.0022858893,0.0015733838,0.0,0.0,-0.56424165
2619444000,0.00838019,0.0020904373,0.0016517043,0.0,0.0,-0.5633396
2619468000,0.009889824,0.0016476973,0.0015351176,0.0,0.0,-0.5639929
2619488000,0.004569187,0.0035527307,0.0015488863,0.0,0.0,-0.56508946
2619508000,0.0007903216,0.0042409454,0.0016754866,0.0,0.0,-0.5647657
2619528000,-0.0016090935,0.0022184933,0.0018478632,0.0,0.0,-0.5654322
2619548000,-0.0031351037,0.0013605691,0.0020263195,0.0,0.0,-0.56567717
2619564000,-0.003767847,0.005798741,0.0020534992,0.0,0.0,-0.5642287
2619584000,-0.0043811267,0.005484498,0.002050817,0.0,0.0,-0.5643968
2619604000,0.00052921555,0.0047195656,0.0019651651,0.0,0.0,-0.56471986
2619628000,0.007168861,0.0049551907,0.0020501018,0.0,0.0,-0.56401074
2619648000,0.0072101033,0.0040087365,0.0019687414,0.0,0.0,-0.56401074
2619668000,0.0041366965,0.0107503645,0.001478076,0.0,0.0,-0.5639844
2619688000,0.0061737774,0.0114633385,0.0012087822,0.0,0.0,-0.5642881
2619708000,0.0056957277,0.006251416,0.0012052059,0.0,0.0,-0.5650852
2619728000,0.007278891,0.005473417,0.0013643503,0.0,0.0,-0.56408167
2619748000,0.006420145,0.004310594,0.0011883974,0.0,0.0,-0.5641267
2619768000,0.005351103,-0.0032455134,0.0009784698,0.0,0.0,-0.56450695
2619784000,0.00089991745,0.0002210369,0.0007440448,0.0,0.0,-0.5634693
2619804000,-0.00048784475,0.0027959244,0.0007646084,0.0,0.0,-0.5643136
2619828000,-0.0021190909,-0.003289255,0.00031989813,0.0,0.0,-0.5651536
2619844000,-0.0016348067,-0.003025619,0.00015735626,0.0,0.0,-0.5645001
2619864000,-0.0049602985,-0.0027322066,0.0001655817,0.0,0.0,-0.56537247
2619884000,-0.006089763,-0.0020592797,-3.0398369e-06,0.0,0.0,-0.5659057
2619908000,-0.008600276,-0.00014671439,-0.0002526641,0.0,0.0,-0.5660983
2619928000,-0.010931421,-0.00015782844,-0.00040215254,0.0,0.0,-0.5666939
2619948000,-0.012123587,0.0049020126,-0.0004105568,0.0,0.0,-0.5659774
2619968000,-0.008693889,0.0021560204,-0.0003941059,0.0,0.0,-0.566042
2619988000,-0.009963556,-0.0013497258,-0.00015038252,0.0,0.0,-0.5665688
2620004000,-0.0104071535,0.0057498445,-8.046627e-05,0.0,0.0,-0.56522125
2620024000,-0.007449707,0.012890319,-0.00017988682,0.0,0.0,-0.5650498
2620048000,-0.004596738,0.008857478,-0.0006465912,0.0,0.0,-0.5652967
2620064000,-0.006812706,0.008319378,-0.00059330463,0.0,0.0,-0.56439257
2620084000,-0.0047024614,0.012141949,-0.0005711317,0.0,0.0,-0.5639897
2620108000,0.0061805565,0.008389568,-0.00066912174,0.0,0.0,-0.56450516
2620128000,0.0042207893,0.0059633986,-0.0007368922,0.0,0.0,-0.56356853
2620148000,0.003116203,0.005863324,-0.0007093549,0.0,0.0,-0.56445473
2620168000,0.005805248,0.0005775947,-0.0005337596,0.0,0.0,-0.56507504
2620188000,0.0088801775,-0.0022455892,-0.0003091693,0.0,0.0,-0.5640447
2620204000,0.010851801,-0.00036199088,-0.00031775236,0.0,0.0,-0.5643113
2620228000,0.0075611873,-0.010602021,-0.00021028519,0.0,0.0,-0.5633517
2620248000,0.0054718778,-0.0090914285,-0.00011622906,0.0,0.0,-0.56318325
2620268000,0.0071197464,-0.008010165,-0.00011533499,0.0,0.0,-0.5635175
2620288000,0.0074112136,-0.0077707856,-0.000264287,0.0,0.0,-0.5633523
2620304000,0.012541593,-0.0083667515,4.9173832e-05,0.0,0.0,-0.5641372
2620328000,0.004767698,-0.0050216536,3.0577183e-05,0.0,0.0,-0.5651676
2620344000,0.0044009257,-0.007094749,0.00010871887,0.0,0.0,-0.56437707
2620360000,0.0015876903,-0.004625871,0.0002773404,0.0,0.0,-0.56472176
2620388000,-0.0028320916,-0.00017777973,0.00019419193,0.0,0.0,-0.565079
2620408000,-0.0018137116,-0.0011224239,0.00020849705,0.0,0.0,-0.564352
2620428000,-0.0021011163,-0.0011889435,0.00029611588,0.0,0.0,-0.5646919
2620448000,-0.0023011523,-0.0027961584,0.00059098005,0.0,0.0,-0.56516963
2620464000,-0.0024839162,0.0043685623,0.00066769123,0.0,0.0,-0.56510895
2620484000,-0.0040443414,0.004486267,0.0007247329,0.0,0.0,-0.5651691
2620508000,-0.005014782,0.008204764,0.00048851967,0.0,0.0,-0.56415963
2620528000,-0.00112625,0.010503546,0.0005031824,0.0,0.0,-0.5640604
2620544000,-0.0018634968,0.010527022,0.0006836057,0.0,0.0,-0.5640604
2620564000,0.0034503993,0.0167347,0.00080895424,0.0,0.0,-0.56386656
2620588000,0.0024981732,0.0146967955,0.000921607,0.0,0.0,-0.5637973
2620608000,-0.0034258245,0.009083813,0.0008212924,0.0,0.0,-0.5645256
2620620000,-0.001810079,0.0032432578,0.0007485151,0.0,0.0,-0.56411403
2620648000,-0.0015874512,0.0014203775,0.0006766319,0.0,0.0,-0.5640671
2620668000,-0.0056883697,-8.076208e-05,0.0005503893,0.0,0.0,-0.56498075
2620688000,-0.004066207,0.0005100353,0.00031381845,0.0,0.0,-0.5645767
2620708000,-0.0049548196,-0.00079695834,0.00011444092,0.0,0.0,-0.5652071
2620724000,-0.0070456415,-0.003222225,2.3961067e-05,0.0,0.0,-0.5658674
2620740000,-0.005421257,-0.008128345,8.547306e-05,0.0,0.0,-0.5649327
2620768000,-0.007972548,-0.006463061,0.00014126301,0.0,0.0,-0.5649825
2620788000,-0.004168747,-0.008571481,0.000100672245,0.0,0.0,-0.5640212
2620808000,-0.001906269,-0.007610161,0.00024300814,0.0,0.0,-0.5643193
2620824000,-0.0011764939,-0.003959847,0.0002757311,0.0,0.0,-0.56490684
2620844000,-0.00012651418,-0.0015610076,0.00017595291,0.0,0.0,-0.5650783
2620868000,0.0018122685,-0.00025349765,0.00020438433,0.0,0.0,-0.5653289
2620888000,0.0054146247,-0.0017302223,6.0260296e-05,0.0,0.0,-0.5663839
2620904000,0.00022001116,-0.001282027,5.596876e-05,0.0,0.0,-0.5660221
2620924000,-0.0019776956,-0.005252538,-0.00022029877,0.0,0.0,-0.5659024
2620948000,-0.00022283586,-0.0031919056,-0.0004899502,0.0,0.0,-0.56595945
2620968000,-0.00035811297,0.003176867,-0.0007109642,0.0,0.0,-0.5646405
2620984000,0.0021440967,0.0015971503,-0.00087046623,0.0,0.0,-0.5635153
2621004000,0.0053364,0.0017363385,-0.000639081,0.0,0.0,-0.56329405
2621028000,0.005105905,-0.008005683,-0.00068986416,0.0,0.0,-0.5623173
2621044000,0.0052214726,-0.0076894555,-0.00061279535,0.0,0.0,-0.5623173
2621068000,0.008819466,-0.0053043156,-1.2516975e-06,0.0,0.0,-0.5632203
2621088000,0.007918847,0.002891108,-0.00023907423,0.0,0.0,-0.5634224
2621104000,0.002235942,0.021585722,-0.00016665459,0.0,0.0,-0.5610907
2621128000,-0.0025519605,0.043290485,7.6174736e-05,0.0,0.0,-0.5573536
2621144000,-0.0057125837,0.06495594,0.044319928,0.0,0.0,-0.5541078
2621168000,-0.0004672506,0.092908986,0.08835161,0.0,0.0,-0.55300885
2621184000,0.018777393,0.11390329,0.123108745,0.0,0.0,-0.55388516
2621204000,0.04042936,0.14406517,0.16633809,0.0,0.0,-0.5559771
2621224000,0.067238145,0.17591596,0.20901614,0.0,0.0,-0.55979455
2621244000,0.09569547,0.21036735,0.2504881,0.0,0.0,-0.5629325
2621264000,0.12364368,0.2476663,0.29027474,0.0,0.0,-0.5658062
2621284000,0.14612189,0.26656857,0.31990206,0.0,0.0,-0.5667143
2621308000,0.16765606,0.30326015,0.35489845,0.0,0.0,-0.5673368
2621324000,0.1996214,0.34921166,0.3902877,0.0,0.0,-0.56781423
2621344000,0.21044822,0.36479688,0.41429007,0.0,0.0,-0.5662304
2621364000,0.23271024,0.40790355,0.44414306,0.0,0.0,-0.56600636
2621388000,0.2739343,0.49477965,0.5017866,0.0,0.0,-0.56368667
2621404000,0.29606217,0.54029256,0.52605504,0.0,0.0,-0.5638077
2621428000,0.32346696,0.58308357,0.5482081,0.0,0.0,-0.56506747
2621448000,0.3168988,0.5676126,0.56228095,0.0,0.0,-0.5645408
2621468000,0.34935853,0.60241026,0.58018667,0.0,0.0,-0.5665894
2621488000,0.36965096,0.63110113,0.59621465,0.0,0.0,-0.56984854
2621508000,0.33967575,0.5890825,0.6067164,0.0,0.0,-0.5696269
2621528000,0.3567502,0.6107477,0.62005806,0.0,0.0,-0.5717387
2621548000,0.37086958,0.6236006,0.6324899,0.0,0.0,-0.57387084
2621564000,0.33719537,0.5789381,0.64591366,0.0,0.0,-0.57226735
2621588000,0.34542394,0.5803335,0.6502007,0.0,0.0,-0.57402223
2621608000,0.3544231,0.58674526,0.659204,0.0,0.0,-0.5761809
2621628000,0.2948895,0.501123,0.66688013,0.0,0.0,-0.5732669
2621644000,0.31847763,0.5234406,0.6798327,0.0,0.0,-0.57553965
2621664000,0.329153,0.52058136,0.6872252,0.0,0.0,-0.57786924
2621684000,0.26614702,0.42456305,0.69483876,0.0,0.0,-0.576051
2621704000,0.28077877,0.4321655,0.69985914,0.0,0.0,-0.5783796
2621728000,0.25374627,0.38291252,0.738562,0.0,0.0,-0.5780896
2621748000,0.2786672,0.39956948,0.7422874,0.0,0.0,-0.5819112
2621764000,0.29806805,0.41525286,0.7533982,0.0,0.0,-0.58481216
2621784000,0.21511683,0.31037176,0.76212645,0.0,0.0,-0.5827114
2621808000,0.23731475,0.32131177,0.75826764,0.0,0.0,-0.5867229
2621828000,0.25500554,0.329514,0.762012,0.0,0.0,-0.5908104
2621844000,0.17245232,0.23273155,0.7779633,0.0,0.0,-0.58777225
2621864000,0.20652066,0.2524657,0.78064585,0.0,0.0,-0.59183544
2621884000,0.23037426,0.2632531,0.7840065,0.0,0.0,-0.5954034
2621908000,0.2006696,0.22121888,0.82288206,0.0,0.0,-0.5958067
2621928000,0.23099059,0.24324556,0.8251133,0.0,0.0,-0.5986009
2621944000,0.21188557,0.22393844,0.79511654,0.0,0.0,-0.5986009
2621968000,0.18185413,0.18684787,0.8333806,0.0,0.0,-0.5982786
2621988000,0.21765402,0.20967047,0.8353236,0.0,0.0,-0.6015051
2622008000,0.120176554,0.12715343,0.8417026,0.0,0.0,-0.5973821
2622024000,0.16833034,0.15900461,0.84283876,0.0,0.0,-0.60220623
2622044000,0.200584,0.18753375,0.8435998,0.0,0.0,-0.60549206
2622064000,0.10476154,0.11260548,0.857175,0.0,0.0,-0.601378
2622088000,0.15408835,0.13748637,0.85069585,0.0,0.0,-0.6061745
2622108000,0.18861213,0.16412692,0.85142255,0.0,0.0,-0.6102105
2622128000,0.095755845,0.092333525,0.8557824,0.0,0.0,-0.6068533
2622148000,0.15009105,0.12297329,0.8566643,0.0,0.0,-0.6113043
2622168000,0.1878857,0.14368585,0.85847104,0.0,0.0,-0.61453605
2622184000,0.09584266,0.08299653,0.86970735,0.0,0.0,-0.6103144
2622204000,0.14727965,0.116540596,0.86984503,0.0,0.0,-0.6144377
2622224000,0.18581656,0.14053729,0.870983,0.0,0.0,-0.6180794
2622248000,0.16076061,0.11685008,0.9081899,0.0,0.0,-0.617439
2622268000,0.19925576,0.13572286,0.90979135,0.0,0.0,-0.62161785
2622284000,0.103239655,0.08856091,0.91797817,0.0,0.0,-0.6173632
2622304000,0.1570985,0.11097251,0.91981137,0.0,0.0,-0.62063175
2622328000,0.19759905,0.12382007,0.9135572,0.0,0.0,-0.6239908
2622344000,0.100625396,0.08165637,0.92034817,0.0,0.0,-0.6201471
2622368000,0.15088454,0.106740564,0.91205263,0.0,0.0,-0.62441844
2622388000,0.19440874,0.115119696,0.91578627,0.0,0.0,-0.6278573
2622404000,0.099601775,0.077629566,0.91227865,0.0,0.0,-0.6233277
2622428000,0.15418285,0.09329134,0.914531,0.0,0.0,-0.627253
2622444000,0.20000312,0.108148366,0.92569435,0.0,0.0,-0.630396
2622468000,0.1055823,0.06714839,0.91308904,0.0,0.0,-0.6261032
2622488000,0.21137327,0.09607601,0.9644383,0.0,0.0,-0.6337761
2622508000,0.11473748,0.061226696,0.95906603,0.0,0.0,-0.6301785
2622528000,0.1761235,0.07142195,0.9628272,0.0,0.0,-0.6342485
2622548000,0.22164363,0.07699916,0.9669095,0.0,0.0,-0.6378503
2622568000,0.13479513,0.044607192,0.96187127,0.0,0.0,-0.6337036
2622588000,0.19176123,0.058944046,0.9645932,0.0,0.0,-0.6376508
2622608000,0.23295406,0.062159657,0.9687846,0.0,0.0,-0.641044
2622628000,0.13777909,0.03653866,0.96106374,0.0,0.0,-0.636921
2622644000,0.19067171,0.04699248,0.9735764,0.0,0.0,-0.64153296
2622668000,0.23039165,0.049788862,0.9682789,0.0,0.0,-0.6446989
2622684000,0.14417195,0.03161958,0.968251,0.0,0.0,-0.63988894
2622704000,0.1968356,0.033869684,0.97280574,0.0,0.0,-0.64394134
2622728000,0.23541284,0.03527078,0.9669603,0.0,0.0,-0.6468131
2622744000,0.14272848,0.019753575,0.96611166,0.0,0.0,-0.6424059
2622768000,0.25669795,0.023049563,1.0145563,0.0,0.0,-0.6499991
2622784000,0.2438542,0.020321488,0.9755906,0.0,0.0,-0.6499991
2622804000,0.22000623,0.0069150925,1.0181437,0.0,0.0,-0.64874995
2622828000,0.2577711,0.0037438273,1.0128629,0.0,0.0,-0.65223867
2622848000,0.16153148,0.0038192868,0.99688876,0.0,0.0,-0.64711845
2622864000,0.21256122,0.00024604797,1.0117464,0.0,0.0,-0.65179825
2622888000,0.2489014,-0.005071342,1.0058702,0.0,0.0,-0.656718
2622904000,0.15049294,-0.0015224218,0.99823594,0.0,0.0,-0.652995
2622928000,0.19561806,-0.011800289,0.9941869,0.0,0.0,-0.6576771
2622948000,0.2368742,-0.021296918,0.99919546,0.0,0.0,-0.6623891
2622968000,0.1367349,-0.017513752,0.9812275,0.0,0.0,-0.6580721
2622984000,0.19238484,-0.02733618,0.9969717,0.0,0.0,-0.66277874
2623008000,0.15426913,-0.02350974,0.98298705,0.0,0.0,-0.66155666
2623028000,0.20612115,-0.035592735,0.98865974,0.0,0.0,-0.66572344
2623048000,0.25083,-0.044478,0.99266124,0.0,0.0,-0.6695422
2623064000,0.16928995,-0.034560442,0.98355925,0.0,0.0,-0.6634998
2623088000,0.21977913,-0.051939905,0.9801986,0.0,0.0,-0.6672334
2623108000,0.19095388,-0.056269348,1.0162897,0.0,0.0,-0.6638586
2623128000,0.23769164,-0.073220015,1.0223626,0.0,0.0,-0.6680557
2623148000,0.27209124,-0.08762187,1.0262983,0.0,0.0,-0.67193735
2623168000,0.16956943,-0.057585776,1.0007,0.0,0.0,-0.66725206
2623188000,0.20355499,-0.07338059,1.0043685,0.0,0.0,-0.67212665
2623208000,0.22633561,-0.08677983,1.0066563,0.0,0.0,-0.6757954
2623224000,0.12157121,-0.06003052,0.9816184,0.0,0.0,-0.67006755
2623248000,0.15033343,-0.07347894,0.9834974,0.0,0.0,-0.6741355
2623264000,0.1752415,-0.084351,0.99419475,0.0,0.0,-0.6775414
2623284000,0.07328707,-0.050165534,0.967309,0.0,0.0,-0.6718026
2623308000,0.10272539,-0.06339598,0.9582578,0.0,0.0,-0.6757391
2623328000,0.12128341,-0.07866597,0.9581548,0.0,0.0,-0.6788024
2623344000,0.019690275,-0.03361416,0.93858325,0.0,0.0,-0.67247045
2623364000,0.04837355,-0.048526883,0.92818344,0.0,0.0,-0.67596316
2623388000,-0.02329284,-0.016967833,0.94804037,0.0,0.0,-0.6724336
2623408000,0.0061861575,-0.035387456,0.9470669,0.0,0.0,-0.67617667
2623428000,0.026207417,-0.050145864,0.944649,0.0,0.0,-0.6791391
2623448000,-0.060943276,-0.0036004186,0.9158356,0.0,0.0,-0.67429
2623464000,-0.0281564,-0.019505203,0.92383254,0.0,0.0,-0.67812914
2623484000,-0.0010958612,-0.033290327,0.92098475,0.0,0.0,-0.6810892
2623508000,-0.07029587,0.008223295,0.88435435,0.0,0.0,-0.6757593
2623528000,-0.04147142,-0.012437046,0.882308,0.0,0.0,-0.6780782
2623548000,-0.019501448,-0.02938199,0.87894595,0.0,0.0,-0.6804372
2623568000,-0.07918811,0.020642817,0.8527322,0.0,0.0,-0.67524457
2623584000,-0.0551084,0.00017166138,0.86008394,0.0,0.0,-0.6773109
2623608000,-0.026271522,-0.018753648,0.8473284,0.0,0.0,-0.6785475
2623628000,-0.07864058,0.026548505,0.82290566,0.0,0.0,-0.67427075
2623644000,-0.04977241,0.010970056,0.8293998,0.0,0.0,-0.67646253
2623668000,-0.079203576,0.04054731,0.84144473,0.0,0.0,-0.6739866
2623680000,-0.06624931,0.030641198,0.80465376,0.0,0.0,-0.6739866
2623704000,-0.035365194,0.003991127,0.8032061,0.0,0.0,-0.6765334
2623724000,-0.052518636,0.018009424,0.8188795,0.0,0.0,-0.67586344
2623740000,-0.026486814,-0.008488119,0.82695115,0.0,0.0,-0.67745
2623764000,0.0023148358,-0.037991166,0.8169304,0.0,0.0,-0.6781846
2623784000,-0.019940257,-0.0065326095,0.8083806,0.0,0.0,-0.67446125
2623804000,0.0054011643,-0.035170376,0.8074368,0.0,0.0,-0.6760363
2623828000,0.026431829,-0.06755465,0.798146,0.0,0.0,-0.6776567
2623848000,0.007848814,-0.047109783,0.7826761,0.0,0.0,-0.6747844
2623868000,0.027895108,-0.07583624,0.78218615,0.0,0.0,-0.6763386
2623888000,0.049776748,-0.105380595,0.78182817,0.0,0.0,-0.6777216
2623908000,0.044725344,-0.10211599,0.8095765,0.0,0.0,-0.6750653
2623924000,0.04586622,-0.10729033,0.76631784,0.0,0.0,-0.6750653
2623944000,0.060305133,-0.12724668,0.7737869,0.0,0.0,-0.67606145
2623964000,0.05436641,-0.122834265,0.7930441,0.0,0.0,-0.6735006
2623988000,0.06068203,-0.14381129,0.7917806,0.0,0.0,-0.6745855
2624004000,0.034733757,-0.119882226,0.78637755,0.0,0.0,-0.6717072
2624024000,0.04376936,-0.14204514,0.7852217,0.0,0.0,-0.67283505
2624044000,0.05077046,-0.15733212,0.7752063,0.0,0.0,-0.67431945
2624064000,0.03358707,-0.12140161,0.7696631,0.0,0.0,-0.67166287
2624088000,0.044040754,-0.13960022,0.7597187,0.0,0.0,-0.6732555
2624108000,0.051256746,-0.15928191,0.7583161,0.0,0.0,-0.67481464
2624128000,0.026471034,-0.13055205,0.74505365,0.0,0.0,-0.6722209
2624148000,0.027087182,-0.14145273,0.7430291,0.0,0.0,-0.67363876
2624164000,0.03118658,-0.15038127,0.74927384,0.0,0.0,-0.6746812
2624188000,0.013991922,-0.11046231,0.7276082,0.0,0.0,-0.67199033
2624204000,0.019813523,-0.1263923,0.73420733,0.0,0.0,-0.67372394
2624228000,0.007540852,-0.10079116,0.75281435,0.0,0.0,-0.67294186
2624244000,0.0055259317,-0.099707365,0.7199237,0.0,0.0,-0.67294186
2624264000,0.012500145,-0.12952065,0.757247,0.0,0.0,-0.6764026
2624284000,-0.0046431273,-0.094622254,0.745402,0.0,0.0,-0.67379385
2624308000,-0.00068986416,-0.113138795,0.73553306,0.0,0.0,-0.6752145
2624328000,0.0023767054,-0.12903553,0.73346436,0.0,0.0,-0.6768712
2624348000,-0.015330099,-0.09464228,0.713817,0.0,0.0,-0.67442715
2624368000,-0.01415395,-0.11801201,0.72006047,0.0,0.0,-0.6763053
2624388000,-0.010176033,-0.13732177,0.7182618,0.0,0.0,-0.67768675
2624408000,-0.028923512,-0.097043574,0.69929856,0.0,0.0,-0.6751418
2624424000,-0.020334542,-0.123656094,0.7055617,0.0,0.0,-0.67658114
2624444000,-0.011349399,-0.14304918,0.70354074,0.0,0.0,-0.678189
2624468000,-0.013902102,-0.13253546,0.73202944,0.0,0.0,-0.67728424
2624484000,-0.014755435,-0.13167375,0.70024407,0.0,0.0,-0.67728424
2624504000,-0.009542484,-0.15518224,0.69864595,0.0,0.0,-0.6782149
2624528000,-0.020254668,-0.13865232,0.7134901,0.0,0.0,-0.67628145
2624548000,-0.017132113,-0.15781939,0.67360663,0.0,0.0,-0.67783505
2624564000,-0.02264146,-0.11369544,0.6342008,0.0,0.0,-0.67501426
2624588000,-0.022245828,-0.13342273,0.59446526,0.0,0.0,-0.6766847
2624608000,-0.021679059,-0.15473825,0.55514514,0.0,0.0,-0.6779046
2624624000,-0.024965202,-0.11500239,0.52467394,0.0,0.0,-0.67505676
2624644000,-0.021755908,-0.13214725,0.48717558,0.0,0.0,-0.67612845
2624668000,-0.012441659,-0.15141624,0.43677676,0.0,0.0,-0.67757016
2624684000,-0.019762442,-0.105817795,0.41634893,0.0,0.0,-0.67476505
2624704000,-0.018397609,-0.12937886,0.38340646,0.0,0.0,-0.67633396
2624724000,-0.015666358,-0.14895809,0.3521872,0.0,0.0,-0.67791796
2624748000,-0.017389113,-0.10176587,0.31757975,0.0,0.0,-0.67552817
2624764000,-0.012902462,-0.118475676,0.29571435,0.0,0.0,-0.6768847
2624788000,-0.0051839123,-0.09345013,0.26479357,0.0,0.0,-0.67633367
2624804000,-0.0042807944,-0.11984986,0.24530165,0.0,0.0,-0.67763346
2624828000,-0.004893724,-0.13276398,0.2177555,0.0,0.0,-0.6788133
2624848000,-0.0033340557,-0.08986133,0.19698867,0.0,0.0,-0.6757526
2624868000,-0.006004477,-0.10592562,0.17751539,0.0,0.0,-0.6769738
2624888000,-0.009569719,-0.1204564,0.15924208,0.0,0.0,-0.6783785
2624904000,-0.017254502,-0.07395548,0.14580444,0.0,0.0,-0.67639154
2624924000,-0.019590214,-0.09498829,0.12663303,0.0,0.0,-0.6778197
2624948000,-0.028411048,-0.11092794,0.11166132,0.0,0.0,-0.6793403
2624968000,-0.03603418,-0.061166883,0.09806185,0.0,0.0,-0.6768934
2624984000,-0.041406803,-0.07638681,0.08737184,0.0,0.0,-0.67796856
2625004000,-0.04778897,-0.09188318,0.07457218,0.0,0.0,-0.6797412
2625028000,-0.05500567,-0.06397855,0.06037076,0.0,0.0,-0.6785278
2625048000,-0.055982675,-0.06319696,0.04931563,0.0,0.0,-0.6785278
2625068000,-0.053303774,-0.036095202,0.03895638,0.0,0.0,-0.67750216
2625088000,-0.053570703,-0.056043506,0.02934397,0.0,0.0,-0.67916554
2625104000,-0.05376798,-0.05648017,0.022052363,0.0,0.0,-0.67916554
2625124000,-0.05560331,-0.034731925,0.012189411,0.0,0.0,-0.6784418
2625148000,-0.056870822,-0.06060934,0.003112547,0.0,0.0,-0.6799635
2625168000,-0.054900877,-0.08724314,-0.002516225,0.0,0.0,-0.6813941
2625184000,-0.047970492,-0.044974923,-0.0076855123,0.0,0.0,-0.6780485
2625208000,-0.04866715,-0.06546074,-0.015105441,0.0,0.0,-0.679512
2625224000,-0.049272783,-0.0842489,-0.019890781,0.0,0.0,-0.6810388
2625244000,-0.051971186,-0.041083217,-0.025361773,0.0,0.0,-0.678253
2625268000,-0.050946984,-0.062838614,-0.03139072,0.0,0.0,-0.6799401
2625288000,-0.051653825,-0.08373767,-0.036032584,0.0,0.0,-0.68134236
2625304000,-0.04929132,-0.045048237,-0.039309572,0.0,0.0,-0.67869556
2625328000,-0.049543932,-0.08673602,-0.043866444,0.0,0.0,-0.68133193
2625348000,-0.04507803,-0.041902006,-0.047532577,0.0,0.0,-0.6787279
2625364000,-0.04388305,-0.06332213,-0.05022586,0.0,0.0,-0.67987144
2625384000,-0.04457278,-0.08588219,-0.053374507,0.0,0.0,-0.68121845
2625408000,-0.04733572,-0.04741037,-0.056787707,0.0,0.0,-0.6778199
2625424000,-0.04732378,-0.064249456,-0.058782052,0.0,0.0,-0.67886376
2625444000,-0.048604295,-0.08204752,-0.061124593,0.0,0.0,-0.68054366
2625468000,-0.050657652,-0.032433987,-0.06385565,0.0,0.0,-0.67766553
2625488000,-0.047282144,-0.054283977,-0.06559987,0.0,0.0,-0.67945355
2625508000,-0.050511394,-0.069428265,-0.06772035,0.0,0.0,-0.68105656
2625524000,-0.05150468,-0.028564453,-0.06862637,0.0,0.0,-0.67861474
2625548000,-0.054469623,-0.046817064,-0.069997,0.0,0.0,-0.6803595
2625568000,-0.051676948,-0.07117635,-0.07129456,0.0,0.0,-0.6815764
2625584000,-0.049585275,-0.032876372,-0.07238063,0.0,0.0,-0.6792061
2625604000,-0.046625163,-0.055235088,-0.07375634,0.0,0.0,-0.6803441
2625624000,-0.0476864,-0.078344285,-0.07493743,0.0,0.0,-0.6811656
2625648000,-0.0420948,-0.051190853,-0.07585241,0.0,0.0,-0.67864597
2625668000,-0.041351683,-0.07140738,-0.07653996,0.0,0.0,-0.68013597
2625684000,-0.035591673,-0.027130723,-0.07678397,0.0,0.0,-0.6774431
2625708000,-0.03498945,-0.04532075,-0.07725167,0.0,0.0,-0.6792189
2625728000,-0.03699447,-0.06536114,-0.07761975,0.0,0.0,-0.68047994
2625748000,-0.039030768,-0.012305617,-0.07815982,0.0,0.0,-0.67850465
2625768000,-0.04347902,-0.03026247,-0.07850757,0.0,0.0,-0.6810146
2625788000,-0.044924155,-0.045274794,-0.078891724,0.0,0.0,-0.68285847
2625808000,-0.04153308,-0.003148377,-0.07924031,0.0,0.0,-0.6801097
2625828000,-0.04248334,-0.028697312,-0.07901916,0.0,0.0,-0.68126863
2625848000,-0.04459949,-0.05320841,-0.07908004,0.0,0.0,-0.6820618
2625868000,-0.044840153,-0.015166283,-0.07934257,0.0,0.0,-0.6787085
2625884000,-0.04370322,-0.034941316,-0.07960785,0.0,0.0,-0.6796668
2625908000,-0.039020587,-0.016070366,-0.07970669,0.0,0.0,-0.676619
2625924000,-0.039719388,-0.04218042,-0.07986003,0.0,0.0,-0.6784508
2625948000,-0.036751404,-0.06372571,-0.079863384,0.0,0.0,-0.6802152
2625964000,-0.030641187,-0.024718523,-0.079737335,0.0,0.0,-0.67799795
2625984000,-0.031893354,-0.044104815,-0.07960352,0.0,0.0,-0.67969847
2626008000,-0.032570362,-0.06402075,-0.07915136,0.0,0.0,-0.68143994
2626024000,-0.034796756,-0.02209282,-0.07872264,0.0,0.0,-0.6786904
2626044000,-0.03467331,-0.041775584,-0.07830623,0.0,0.0,-0.6799711
2626068000,-0.0345944,-0.05778873,-0.07772874,0.0,0.0,-0.6815489
2626084000,-0.03152655,-0.01362437,-0.07721605,0.0,0.0,-0.67878836
2626104000,-0.034318827,-0.03204149,-0.076770544,0.0,0.0,-0.6801192
2626128000,-0.033073768,-0.05182743,-0.07635899,0.0,0.0,-0.6813188
2626144000,-0.034192923,-0.007846355,-0.07598906,0.0,0.0,-0.6783888
2626164000,-0.03523959,-0.031365037,-0.07540697,0.0,0.0,-0.6804329
2626188000,-0.027921326,-0.010094583,-0.07491484,0.0,0.0,-0.6792167
2626208000,-0.028633201,-0.033817828,-0.07431484,0.0,0.0,-0.68077004
2626228000,-0.02757559,-0.049904466,-0.07383698,0.0,0.0,-0.68164885
2626244000,-0.028319763,-0.0065497756,-0.073264375,0.0,0.0,-0.6786029
2626268000,-0.024965074,-0.023382425,-0.072592616,0.0,0.0,-0.67980266
2626284000,-0.02564127,-0.039245725,-0.07221081,0.0,0.0,-0.68035585
2626304000,-0.016899616,0.01036495,-0.07169404,0.0,0.0,-0.67769843
2626328000,-0.018240541,-0.014021516,-0.07125364,0.0,0.0,-0.6793258
2626344000,-0.018984145,-0.037914276,-0.07097052,0.0,0.0,-0.6811159
2626364000,-0.022325065,0.0060444474,-0.07028888,0.0,0.0,-0.679765
2626388000,-0.02501531,-0.014244854,-0.069823354,0.0,0.0,-0.68183476
2626408000,-0.025559083,-0.03955114,-0.06948453,0.0,0.0,-0.683667
2626428000,-0.026203427,0.0060741305,-0.068801716,0.0,0.0,-0.68030244
2626448000,-0.02208266,-0.039572597,-0.06824373,0.0,0.0,-0.68275446
2626468000,-0.020080023,0.0074946284,-0.06741303,0.0,0.0,-0.6795757
2626480000,-0.01991615,0.0067563057,-0.06687201,0.0,0.0,-0.6795757
2626504000,-0.018441433,-0.03892529,-0.06635599,0.0,0.0,-0.68196416
2626528000,-0.018242128,-0.0010832548,-0.065624416,0.0,0.0,-0.6796517
2626544000,-0.017759107,-0.026270986,-0.06487183,0.0,0.0,-0.68087995
2626564000,-0.014808923,-0.052690744,-0.06397845,0.0,0.0,-0.6819285
2626580000,-0.009098204,-0.01196301,-0.06354298,0.0,0.0,-0.679711
2626608000,-0.008008316,-0.0363822,-0.063003466,0.0,0.0,-0.6811523
2626628000,-0.012115784,-0.05789119,-0.062291034,0.0,0.0,-0.68244785
2626640000,-0.0097725,-0.013114214,-0.06146017,0.0,0.0,-0.6796405
2626664000,-0.010696946,-0.030839145,-0.060572192,0.0,0.0,-0.6816875
2626684000,-0.0075283516,-0.051202834,-0.06009392,0.0,0.0,-0.6832893
2626704000,-0.007969122,-0.00592643,-0.059690136,0.0,0.0,-0.6804906
2626724000,-0.009577978,-0.02622056,-0.058944102,0.0,0.0,-0.682015
2626744000,-0.00915177,-0.043791533,-0.058439523,0.0,0.0,-0.68308014
2626768000,-0.012851201,-0.022403419,-0.057741668,0.0,0.0,-0.6815927
2626784000,-0.018464595,-0.040483296,-0.057339706,0.0,0.0,-0.68301666
2626808000,-0.01830083,-0.0029296875,-0.056812953,0.0,0.0,-0.6800173
2626828000,-0.020157376,-0.023019254,-0.056302942,0.0,0.0,-0.68094355
2626844000,-0.021599617,-0.04323131,-0.05577751,0.0,0.0,-0.6820519
2626864000,-0.022377726,0.008961618,-0.055408638,0.0,0.0,-0.6786174
2626888000,-0.025969746,-0.011833727,-0.054563005,0.0,0.0,-0.6802342
2626908000,-0.026543666,-0.033513665,-0.054264486,0.0,0.0,-0.6820048
2626928000,-0.025803119,0.00902921,-0.053915687,0.0,0.0,-0.67969155
2626948000,-0.023370272,-0.011888981,-0.053443987,0.0,0.0,-0.6816655
2626964000,-0.019993935,-0.034085333,-0.05309843,0.0,0.0,-0.6833625
2626988000,-0.019350786,-0.015056312,-0.052562132,0.0,0.0,-0.6822782
2627008000,-0.021644522,-0.039675236,-0.052108046,0.0,0.0,-0.684038
2627024000,-0.019915022,-0.03958243,-0.051651288,0.0,0.0,-0.684038
2627044000,-0.017374601,-0.013132811,-0.050907947,0.0,0.0,-0.6825456
2627064000,-0.017130509,-0.012687027,-0.050216697,0.0,0.0,-0.6825456
2627084000,-0.013997376,0.014421523,-0.049633138,0.0,0.0,-0.6805176
2627108000,-0.01629204,-0.010414124,-0.049067236,0.0,0.0,-0.68217975
2627128000,-0.014155023,-0.03545916,-0.0487486,0.0,0.0,-0.6834151
2627148000,-0.011729155,0.010597587,-0.047954265,0.0,0.0,-0.6805935
2627164000,-0.011824273,-0.014287412,-0.04759923,0.0,0.0,-0.68175405
2627188000,-0.011589188,-0.03606391,-0.047107156,0.0,0.0,-0.68296134
2627208000,-0.009069532,0.0076003075,-0.04674195,0.0,0.0,-0.6800982
2627228000,-0.005616339,-0.012162387,-0.04642497,0.0,0.0,-0.68184364
2627248000,-0.004757803,-0.030697346,-0.046059273,0.0,0.0,-0.6833961
2627268000,-0.004955303,0.015152693,-0.04529974,0.0,0.0,-0.68101996
2627288000,-0.0061986856,-0.02641958,-0.04469719,0.0,0.0,-0.6842711
2627308000,-0.0055437908,0.021689594,-0.04377497,0.0,0.0,-0.681289
2627324000,-0.006630158,0.0025983453,-0.043524105,0.0,0.0,-0.683145
2627348000,-0.006498227,-0.018231153,-0.04295084,0.0,0.0,-0.68465483
2627368000,-0.0076415297,0.02289319,-0.042517517,0.0,0.0,-0.68194354
2627388000,-0.009343397,-0.002178669,-0.042140197,0.0,0.0,-0.68344086
2627408000,-0.0074178,-0.026048005,-0.04170959,0.0,0.0,-0.68517226
2627420000,-0.009176172,0.013039291,-0.041401405,0.0,0.0,-0.6814797
2627448000,-0.0062526986,-0.008598089,-0.041244697,0.0,0.0,-0.6823202
2627468000,-0.006165538,-0.033352554,-0.040806,0.0,0.0,-0.6831947
2627484000,-0.0072627068,0.011134565,-0.040352616,0.0,0.0,-0.67995477
2627508000,-0.009163974,-0.012510717,-0.039809737,0.0,0.0,-0.681368
2627524000,-0.008024253,-0.037264824,-0.03967765,0.0,0.0,-0.68283457
2627544000,-0.011139745,0.0034822226,-0.039294373,0.0,0.0,-0.68025804
2627564000,-0.012054378,-0.015301645,-0.039096113,0.0,0.0,-0.6817724
2627580000,-0.0065688416,-0.039249837,-0.03885221,0.0,0.0,-0.68310726
2627604000,-0.006882252,0.003563583,-0.03848922,0.0,0.0,-0.68058306
2627624000,-0.009309886,-0.03662628,-0.038341172,0.0,0.0,-0.6832622
2627644000,-0.009230247,0.015072942,-0.038144287,0.0,0.0,-0.68003803
2627668000,-0.0075277314,-0.00667727,-0.037750024,0.0,0.0,-0.68159807
2627688000,-0.0016396903,0.018894374,-0.037199233,0.0,0.0,-0.680601
2627704000,-0.00063562207,-0.00020778179,-0.036658008,0.0,0.0,-0.6826561
2627728000,0.00090792216,-0.024203718,-0.03614622,0.0,0.0,-0.68475246
2627748000,0.0014054105,0.018928885,-0.035555284,0.0,0.0,-0.6819215
2627764000,0.0008742437,-0.005051315,-0.035184782,0.0,0.0,-0.68320173
2627784000,0.0004897993,-0.030631006,-0.034775265,0.0,0.0,-0.68451744
2627808000,0.0010678768,0.008749723,-0.03413576,0.0,0.0,-0.6813177
2627824000,-0.0023931284,-0.010697544,-0.03387916,0.0,0.0,-0.68302584
2627844000,-0.0022479873,-0.029916644,-0.033548232,0.0,0.0,-0.68461734
2627868000,-0.008895066,0.013879001,-0.033178188,0.0,0.0,-0.68139184
2627884000,-0.010204716,-0.00615263,-0.03287254,0.0,0.0,-0.6827178
2627908000,-0.012134615,0.0126543045,-0.0322464,0.0,0.0,-0.6804651
2627928000,-0.012903376,-0.009135067,-0.032047145,0.0,0.0,-0.6823035
2627944000,-0.012465835,-0.03377223,-0.031759277,0.0,0.0,-0.68349886
2627968000,-0.008733507,0.007511437,-0.031178255,0.0,0.0,-0.6812683
2627984000,-0.0069155395,-0.014756978,-0.031089373,0.0,0.0,-0.6832733
2628008000,-0.0061968975,-0.034532547,-0.03057829,0.0,0.0,-0.68514615
2628024000,-0.005142303,0.014070153,-0.030271523,0.0,0.0,-0.68224597
2628040000,-0.008926196,-0.007677555,-0.030085176,0.0,0.0,-0.68338513
2628068000,-0.01173201,-0.03042376,-0.029627882,0.0,0.0,-0.68430823
2628088000,-0.007278336,0.016920984,-0.02914656,0.0,0.0,-0.68071014
2628108000,-0.0062090848,-0.0031013489,-0.028785657,0.0,0.0,-0.6820804
2628128000,-0.0007280689,-0.026581407,-0.02853534,0.0,0.0,-0.6830691
2628148000,-0.0046355557,0.0146532655,-0.027996618,0.0,0.0,-0.6805085
2628168000,-0.002509201,-0.031610727,-0.027793173,0.0,0.0,-0.68432415
2628188000,-0.00190158,0.009712279,-0.027418155,0.0,0.0,-0.6816216
2628208000,-0.004934605,-0.012361407,-0.027178131,0.0,0.0,-0.68300086
2628228000,-0.004074661,-0.032458305,-0.0268678,0.0,0.0,-0.68411624
2628244000,0.00076845847,0.01650542,-0.026565738,0.0,0.0,-0.6806056
2628264000,-0.00051182695,-0.007596731,-0.026251964,0.0,0.0,-0.6819378
2628288000,-0.0055279825,-0.029820442,-0.02611535,0.0,0.0,-0.68327475
2628304000,-0.006711116,0.016035855,-0.026000798,0.0,0.0,-0.67977846
2628328000,-0.011412889,-0.0026886463,-0.02580722,0.0,0.0,-0.6816695
2628348000,-0.013027461,-0.022201896,-0.025500454,0.0,0.0,-0.6835409
2628368000,-0.013222363,0.021942794,-0.02512727,0.0,0.0,-0.6814112
2628388000,-0.0091289375,-0.0034714937,-0.024833769,0.0,0.0,-0.6834573
2628408000,-0.0045377836,-0.026902914,-0.024698049,0.0,0.0,-0.68480414
2628428000,-0.0006101355,0.018659413,-0.02434554,0.0,0.0,-0.6823342
2628440000,-0.00485738,-0.00545758,-0.024279501,0.0,0.0,-0.68333864
2628468000,-0.010354361,0.018472731,-0.023788836,0.0,0.0,-0.681923
2628484000,-0.010099836,0.018077016,-0.023779113,0.0,0.0,-0.681923
2628508000,-0.006872434,-0.031743944,-0.023600645,0.0,0.0,-0.6847305
2628524000,-0.0032121018,0.013051093,-0.023224711,0.0,0.0,-0.68250334
2628544000,-0.003621105,-0.011715531,-0.023027916,0.0,0.0,-0.68376046
2628564000,-0.0051586367,-0.03134823,-0.023051642,0.0,0.0,-0.68544817
2628588000,-0.0024633743,0.012859225,-0.022712387,0.0,0.0,-0.6828718
2628608000,-0.002345128,-0.01174432,-0.022602037,0.0,0.0,-0.6842634
2628628000,0.000115044415,-0.033411384,-0.02227198,0.0,0.0,-0.68577087
2628644000,-0.0025468357,0.015146077,-0.021951098,0.0,0.0,-0.6828915
2628668000,-0.002881229,-0.009197295,-0.021556143,0.0,0.0,-0.68398064
2628688000,-0.003427606,-0.029290259,-0.021377016,0.0,0.0,-0.68526477
2628708000,-0.0027557183,0.017416477,-0.021015108,0.0,0.0,-0.6817757
2628724000,0.0010962691,-0.0033323765,-0.021093048,0.0,0.0,-0.6830573
2628748000,-0.0005249195,0.017357111,-0.020855013,0.0,0.0,-0.6809839
2628764000,0.0016989615,-0.0059196353,-0.02055711,0.0,0.0,-0.6825957
2628788000,0.0072723515,0.0146945715,-0.020342521,0.0,0.0,-0.68091166
2628804000,0.0073134005,0.0145154,-0.020231612,0.0,0.0,-0.68091166
2628824000,0.012290167,-0.027891576,-0.020063952,0.0,0.0,-0.68452847
2628848000,0.006962439,0.025452375,-0.019601986,0.0,0.0,-0.68164194
2628868000,0.0051113237,0.0047678947,-0.019079145,0.0,0.0,-0.6839064
2628888000,0.0005414095,-0.017157912,-0.01875187,0.0,0.0,-0.6855285
2628908000,-0.003703555,0.031700134,-0.018203896,0.0,0.0,-0.6833143
2628928000,-0.0038621854,0.010734737,-0.018239312,0.0,0.0,-0.684894
2628948000,-0.0036505926,-0.014330685,-0.0182815,0.0,0.0,-0.6861269
2628968000,-0.004799528,0.025408566,-0.01799218,0.0,0.0,-0.6824613
2628988000,-0.0017741583,-0.0031691194,-0.018095803,0.0,0.0,-0.6833852
2629004000,-0.0009863544,-0.032977402,-0.018109951,0.0,0.0,-0.68486536
2629028000,-0.0016101748,-0.019996941,-0.017925717,0.0,0.0,-0.6829457
2629044000,-0.0014376417,-0.019708514,-0.017691739,0.0,0.0,-0.6829457
2629064000,-5.334243e-05,-0.04358375,-0.017594945,0.0,0.0,-0.68387634
2629088000,0.0022479203,-0.016427457,-0.017458934,0.0,0.0,-0.68154806
2629104000,0.00047389604,-0.032297015,-0.017408319,0.0,0.0,-0.6830543
2629128000,-0.0035022162,0.012682021,-0.016915865,0.0,0.0,-0.6797257
2629144000,-0.0038655829,-0.01327157,-0.016622834,0.0,0.0,-0.68152165
2629164000,-0.0026582927,-0.03364384,-0.01654552,0.0,0.0,-0.68350136
2629188000,0.00038596988,0.016181946,-0.01620195,0.0,0.0,-0.6819543
2629208000,0.005924497,-0.010200083,-0.016222794,0.0,0.0,-0.68437743
2629228000,0.003994396,-0.028602183,-0.016153112,0.0,0.0,-0.6857165
2629244000,0.0046275705,0.026967466,-0.015904035,0.0,0.0,-0.6822108
2629264000,0.00029854104,0.008780301,-0.01572882,0.0,0.0,-0.68362004
2629288000,0.0016170256,-0.015777826,-0.015673175,0.0,0.0,-0.6846936
2629304000,0.0057793558,0.029988348,-0.015547436,0.0,0.0,-0.68125504
2629324000,0.007043062,0.0040821433,-0.015316285,0.0,0.0,-0.68227804
2629344000,0.0055724066,-0.021046042,-0.015117992,0.0,0.0,-0.6839694
2629364000,0.009646788,0.0023446083,-0.014828034,0.0,0.0,-0.68408006
2629388000,0.009096108,-0.025036097,-0.014476787,0.0,0.0,-0.68589693
2629404000,0.011124384,0.01366514,-0.014134347,0.0,0.0,-0.68303955
2629428000,0.011970112,-0.011492729,-0.013785258,0.0,0.0,-0.68403447
2629444000,0.004993044,-0.035694122,-0.01372122,0.0,0.0,-0.6857374
2629468000,0.006666301,0.006105244,-0.013481319,0.0,0.0,-0.6829769
2629488000,0.009978594,-0.014879286,-0.013263814,0.0,0.0,-0.6849819
2629508000,0.008065145,-0.034999073,-0.0132460445,0.0,0.0,-0.68656445
2629528000,0.0039101075,0.007869065,-0.012854062,0.0,0.0,-0.6838739
2629548000,0.00021053664,-0.017172039,-0.012704708,0.0,0.0,-0.6853488
2629564000,-0.0026465915,-0.043299794,-0.012474038,0.0,0.0,-0.68636155
2629588000,-0.006395705,-0.0033543706,-0.012499765,0.0,0.0,-0.6831675
2629604000,-0.004543612,-0.031249344,-0.012448445,0.0,0.0,-0.6844699
2629624000,-0.0041920412,-0.055775642,-0.012305371,0.0,0.0,-0.6856319
2629648000,0.002840314,-0.037679493,-0.01212953,0.0,0.0,-0.68444794
2629668000,-0.0017263927,-0.06111467,-0.012028679,0.0,0.0,-0.6859435
2629684000,0.0043467265,-0.015693784,-0.012056217,0.0,0.0,-0.6838796
2629708000,0.00212631,-0.035294652,-0.0119488835,0.0,0.0,-0.6853817
2629728000,-0.00084142573,-0.05618584,-0.011991844,0.0,0.0,-0.68677133
2629748000,-0.0015355591,-0.004974246,-0.011734217,0.0,0.0,-0.6839233
2629764000,-0.0023429543,-0.023939967,-0.011818774,0.0,0.0,-0.6853484
2629788000,-0.0034674536,-0.04219544,-0.011808179,0.0,0.0,-0.68613017
2629808000,-0.0032254905,0.0030645132,-0.011565931,0.0,0.0,-0.6832291
2629828000,-0.003930727,-0.012519479,-0.011568859,0.0,0.0,-0.684672
2629848000,-0.003183011,-0.037415028,-0.011322029,0.0,0.0,-0.6860652
2629864000,-0.0023551472,0.0074715614,-0.011165075,0.0,0.0,-0.6833041
2629888000,0.0009010993,-0.013251901,-0.011149608,0.0,0.0,-0.68530023
2629908000,-0.00041327253,0.0208987,-0.011154458,0.0,0.0,-0.68411994
2629924000,-0.00045310892,0.0013103485,-0.01092495,0.0,0.0,-0.6860874
2629948000,-0.0031611566,-0.015732765,-0.010739699,0.0,0.0,-0.68808836
2629968000,-0.0033862777,0.037657857,-0.010627359,0.0,0.0,-0.6856985
2629988000,-0.0032011718,0.015577197,-0.010831296,0.0,0.0,-0.6879034
2630008000,-0.0034788586,-0.007302761,-0.010628276,0.0,0.0,-0.68952405
2630028000,-0.0018110052,0.035391748,-0.010469981,0.0,0.0,-0.6861174
2630044000,0.0016742796,0.009954214,-0.010120802,0.0,0.0,-0.68760294
2630064000,-0.00084896944,-0.0150693655,-0.010141768,0.0,0.0,-0.6889298
2630084000,-0.0033449717,0.02412951,-0.009893507,0.0,0.0,-0.6858187
2630108000,-0.0049010664,-0.0052717924,-0.009928733,0.0,0.0,-0.6869258
2630128000,-0.0024823733,-0.030713439,-0.009931572,0.0,0.0,-0.68765193
2630148000,-0.008859096,0.007359624,-0.009819165,0.0,0.0,-0.6848593
2630160000,-0.0075680874,-0.01759851,-0.009873189,0.0,0.0,-0.68627214
2630184000,-0.008262629,-0.036815643,-0.01003506,0.0,0.0,-0.6879384
2630204000,-0.004506044,0.008084893,-0.009867959,0.0,0.0,-0.6851746
2630228000,-0.002850635,-0.037980437,-0.009799138,0.0,0.0,-0.68830657
2630248000,0.001915399,0.0051430464,-0.009521395,0.0,0.0,-0.6852342
2630264000,0.0041955505,-0.01859665,-0.009382568,0.0,0.0,-0.68718123
2630284000,0.005786877,-0.03771794,-0.009326041,0.0,0.0,-0.6885233
2630304000,0.007946748,0.008675337,-0.008978024,0.0,0.0,-0.6858205
2630328000,0.0064265,-0.008903146,-0.008828603,0.0,0.0,-0.6875511
2630344000,0.0015121344,-0.027245522,-0.008793823,0.0,0.0,-0.68910897
2630364000,-0.0014038458,0.027952194,-0.008562595,0.0,0.0,-0.6868004
2630384000,-0.001184117,0.0101104975,-0.008589752,0.0,0.0,-0.6888245
2630408000,0.000573596,-0.008366346,-0.008225977,0.0,0.0,-0.6901427
2630428000,-0.0026043411,0.039696872,-0.008210197,0.0,0.0,-0.68745136
2630448000,-0.0018955562,0.017977953,-0.008132078,0.0,0.0,-0.6889004
2630464000,-0.0015434381,-0.0029854774,-0.008161649,0.0,0.0,-0.6905039
2630484000,0.00031781383,0.03807825,-0.0077558085,0.0,0.0,-0.68811727
2630508000,-0.0031631012,-0.013281941,-0.007774137,0.0,0.0,-0.69138193
2630528000,-0.0041256677,0.0360471,-0.007577911,0.0,0.0,-0.6886415
2630548000,-0.003359545,0.013998985,-0.007519886,0.0,0.0,-0.6900291
2630568000,-0.00019732676,-0.009191394,-0.007414788,0.0,0.0,-0.6915194
2630588000,0.0018418506,0.027496576,-0.007574916,0.0,0.0,-0.6884957
2630608000,0.002716083,0.0024858713,-0.007390268,0.0,0.0,-0.68997806
2630628000,0.0014402121,-0.024306536,-0.007278912,0.0,0.0,-0.6908547
2630644000,-0.0017260686,0.012413979,-0.007125959,0.0,0.0,-0.68774575
2630668000,-0.004269501,-0.015559316,-0.007275939,0.0,0.0,-0.6887531
2630688000,-0.0016745646,-0.041799903,-0.0073311925,0.0,0.0,-0.689547
2630704000,-0.0017413348,-0.0036799908,-0.0073115453,0.0,0.0,-0.68548614
2630728000,-0.0062803756,-0.050455213,-0.0071145147,0.0,0.0,-0.6884192
2630748000,-0.01357832,-0.007162571,-0.0069197863,0.0,0.0,-0.6860927
2630768000,-0.012075797,-0.02520132,-0.0067800432,0.0,0.0,-0.68777543
2630784000,-0.007244613,-0.03805232,-0.0066940114,0.0,0.0,-0.6895691
2630808000,-0.0018146876,0.013161421,-0.0065895617,0.0,0.0,-0.68683004
2630820000,-0.0009904001,-0.009665966,-0.0067193136,0.0,0.0,-0.6879043
2630844000,0.0005030595,-0.026191235,-0.006746225,0.0,0.0,-0.68937296
2630864000,0.0029484797,0.0167377,-0.0063774884,0.0,0.0,-0.68643296
2630888000,0.0051995683,-0.0033552647,-0.006209895,0.0,0.0,-0.6875551
2630908000,0.0062530283,-0.025050044,-0.005920686,0.0,0.0,-0.68986374
2630928000,0.008402489,0.019882321,-0.0056068227,0.0,0.0,-0.6866626
2630948000,0.007510951,0.006183028,-0.0058109164,0.0,0.0,-0.68830943
2630964000,0.003513459,-0.014832258,-0.0060852394,0.0,0.0,-0.69021213
2630984000,0.0029032398,0.027049541,-0.006187074,0.0,0.0,-0.68785787
