timestamp,roll_body,pitch_body,yaw_body,yaw_sp_move_rate,q_d[0],q_d[1],q_d[2],q_d[3],thrust_body[0],thrust_body[1],thrust_body[2],q_d_valid,roll_reset_integral,pitch_reset_integral,yaw_reset_integral,fw_control_yaw,apply_flaps
2614244000,0.106566936,0.18064411,0.4316794,0.0,0.97246337,0.03252008,0.09934106,0.2082996,0.0,0.0,-0.12268087,1,0,0,0,0,0
2614336000,0.051272143,0.0051481337,0.4323278,0.0,0.9764174,0.024484713,0.00801125,0.21434873,0.0,0.0,-0.12015949,1,0,0,0,0,0
2614428000,0.039135717,-0.011998702,0.4323278,0.0,0.97649765,0.020397415,-0.0016619163,0.21455413,0.0,0.0,-0.16465855,1,0,0,0,0,0
2614540000,0.022819908,-0.012025486,0.4323278,0.0,0.97663146,0.012433519,-0.0034252338,0.21453355,0.0,0.0,-0.23256668,1,0,0,0,0,0
2614636000,0.021822318,-0.008776757,0.4323278,0.0,0.9766496,0.011598095,-0.0019457764,0.21451631,0.0,0.0,-0.2903842,1,0,0,0,0,0
2614748000,0.016928935,-0.008398809,0.4323278,0.0,0.97667617,0.009167977,-0.002286056,0.21450955,0.0,0.0,-0.36711082,1,0,0,0,0,0
2614840000,0.0134659335,-0.0067971954,0.4323278,0.0,0.97669476,0.007305113,-0.0018753248,0.21450062,0.0,0.0,-0.43585902,1,0,0,0,0,0
2614932000,0.01103778,-0.006279979,0.4323278,0.0,0.976704,0.006063864,-0.0018831581,0.21449699,0.0,0.0,-0.5047387,1,0,0,0,0,0
2615044000,0.010226787,-0.006112285,0.4323278,0.0,0.97670674,0.0056498316,-0.0018882413,0.21449585,0.0,0.0,-0.5909136,1,0,0,0,0,0
2615140000,0.006773968,-0.00534057,0.4323278,0.0,0.9767164,0.0038808724,-0.0018816711,0.21449122,0.0,0.0,-0.6196882,1,0,0,0,0,0
2615232000,0.0018447104,-0.0032962547,0.4323278,0.0,0.97672534,0.0012543856,-0.0014119392,0.21448548,0.0,0.0,-0.604747,1,0,0,0,0,0
2615344000,-0.0037084674,-0.0024252213,0.4323278,0.0,0.9767255,-0.0015509928,-0.0015820914,0.21448168,0.0,0.0,-0.61252904,1,0,0,0,0,0
2615436000,-0.0060460214,-0.0020001049,0.4323278,0.0,0.9767231,-0.0027381566,-0.0016251612,0.21448036,0.0,0.0,-0.6111686,1,0,0,0,0,0
2615532000,-0.006399077,-0.0027895896,0.4323278,0.0,0.9767224,-0.0028259084,-0.002048576,0.21447873,0.0,0.0,-0.6185381,1,0,0,0,0,0
2615644000,-0.006396844,-0.0019842023,0.4323278,0.0,0.9767226,-0.0029111905,-0.0016550174,0.2144801,0.0,0.0,-0.6206027,1,0,0,0,0,0
2615736000,-0.0065305065,-0.0029852518,0.4323278,0.0,0.9767222,-0.0028691096,-0.0021582241,0.21447822,0.0,0.0,-0.619636,1,0,0,0,0,0
2615848000,-0.0051837224,-0.0018517904,0.4323278,0.0,0.9767242,-0.0023329484,-0.001460257,0.21448123,0.0,0.0,-0.6208574,1,0,0,0,0,0
2615940000,-0.0063278023,-0.002316077,0.4323278,0.0,0.9767227,-0.0028418817,-0.0018096877,0.21447963,0.0,0.0,-0.618557,1,0,0,0,0,0
2616036000,-0.005255495,-0.0027081908,0.4323278,0.0,0.97672397,-0.0022761566,-0.0018861867,0.21448,0.0,0.0,-0.62877935,1,0,0,0,0,0
2616148000,-0.0053144977,-0.0015093017,0.4323278,0.0,0.97672415,-0.0024335438,-0.001307023,0.21448164,0.0,0.0,-0.6288012,1,0,0,0,0,0
2616240000,-0.0045422036,-0.00072585425,0.4323278,0.0,0.97672504,-0.0021404035,-0.0008415954,0.21448304,0.0,0.0,-0.6283152,1,0,0,0,0,0
2616332000,-0.0032446359,-0.00075928454,0.4323278,0.0,0.97672623,-0.0015031343,-0.0007187682,0.21448348,0.0,0.0,-0.62857926,1,0,0,0,0,0
2616444000,-0.0048777424,-0.0013869093,0.4323278,0.0,0.9767247,-0.0022333744,-0.0012004131,0.21448204,0.0,0.0,-0.5128253,1,0,0,0,0,0
2616540000,-0.005147896,0.0007465969,0.4323278,0.0,0.9767239,-0.002594109,-0.00018746138,0.21448463,0.0,0.0,-0.5356179,1,0,0,0,0,0
2616632000,-0.0061922474,0.00038086352,0.4323278,0.0,0.9767226,-0.0030649086,-0.00047807008,0.21448395,0.0,0.0,-0.5579597,1,0,0,0,0,0
2616744000,-0.0050835013,-7.525498e-05,0.4323278,0.0,0.97672427,-0.0024745243,-0.00058191695,0.21448362,0.0,0.0,-0.5489041,1,0,0,0,0,0
2616836000,-0.004371197,-0.0007160994,0.4323278,0.0,0.9767252,-0.0020579363,-0.00081849244,0.21448313,0.0,0.0,-0.5512607,1,0,0,0,0,0
2616932000,-0.004155569,-0.00039502903,0.4323278,0.0,0.9767254,-0.0019870636,-0.00063856936,0.21448354,0.0,0.0,-0.55489093,1,0,0,0,0,0
2617044000,-0.0048721293,-0.00037532434,0.4323278,0.0,0.9767246,-0.0023391184,-0.0007057916,0.21448332,0.0,0.0,-0.55495244,1,0,0,0,0,0
2617136000,-0.0032356018,-0.0007953436,0.4323278,0.0,0.97672623,-0.0014948554,-0.00073540927,0.21448347,0.0,0.0,-0.55672914,1,0,0,0,0,0
2617228000,-0.0042389636,0.00081861013,0.4323278,0.0,0.976725,-0.0021579436,-5.48168e-05,0.21448475,0.0,0.0,-0.5562779,1,0,0,0,0,0
2617340000,-0.0035164692,-0.00027511604,0.4323278,0.0,0.976726,-0.0016878109,-0.00051147013,0.21448384,0.0,0.0,-0.5565998,1,0,0,0,0,0
2617436000,-0.003826227,-0.0008706223,0.4323278,0.0,0.9767257,-0.0017752219,-0.0008355123,0.21448316,0.0,0.0,-0.55926263,1,0,0,0,0,0
2617548000,-0.0028381888,-0.0005130822,0.4323278,0.0,0.9767265,-0.0013310439,-0.0005549439,0.21448386,0.0,0.0,-0.5589574,1,0,0,0,0,0
2617640000,-0.0042999634,-0.0022159293,0.4323278,0.0,0.9767251,-0.0018623029,-0.0015433137,0.21448146,0.0,0.0,-0.5589568,1,0,0,0,0,0
2617732000,-0.004099115,-0.0028400095,0.4323278,0.0,0.97672504,-0.0016972872,-0.0018265514,0.2144809,0.0,0.0,-0.56051415,1,0,0,0,0,0
2617844000,-0.003083513,-0.0025316935,0.4323278,0.0,0.97672594,-0.0012343698,-0.0015670676,0.21448207,0.0,0.0,-0.5604004,1,0,0,0,0,0
2617940000,-0.0031657924,-0.0021778883,0.4323278,0.0,0.976726,-0.0013124953,-0.0014031063,0.21448234,0.0,0.0,-0.56128365,1,0,0,0,0,0
2618032000,-0.0022553415,-0.0016743761,0.4323278,0.0,0.97672665,-0.00092186267,-0.0010595715,0.21448329,0.0,0.0,-0.5613008,1,0,0,0,0,0
2618144000,-0.0030633132,-0.0015582838,0.4323278,0.0,0.97672623,-0.0013288964,-0.0010895245,0.21448293,0.0,0.0,-0.5624301,1,0,0,0,0,0
2618248000,-0.002905671,-0.001408003,0.4323278,0.0,0.9767264,-0.0012680262,-0.000999227,0.21448311,0.0,0.0,-0.56306857,1,0,0,0,0,0
2618340000,-0.0033498132,-0.0023021712,0.4323278,0.0,0.9767258,-0.0013890358,-0.001483536,0.21448207,0.0,0.0,-0.563116,1,0,0,0,0,0
2618432000,-0.0026108765,-0.0017849939,0.4323278,0.0,0.9767265,-0.0010836299,-0.0011517212,0.21448301,0.0,0.0,-0.5619118,1,0,0,0,0,0
2618544000,-0.0048545026,-0.0034709596,0.4323278,0.0,0.97672397,-0.001998525,-0.0022156911,0.21447931,0.0,0.0,-0.562734,1,0,0,0,0,0
2618640000,-0.0034767822,-0.0024228184,0.4323278,0.0,0.9767257,-0.0014381041,-0.0015560718,0.21448182,0.0,0.0,-0.5645188,1,0,0,0,0,0
2618732000,-0.003923892,-0.0024931151,0.4323278,0.0,0.97672534,-0.001648917,-0.0016383502,0.2144814,0.0,0.0,-0.56228554,1,0,0,0,0,0
2618844000,-0.004160468,-0.002607142,0.4323278,0.0,0.9767251,-0.0017522235,-0.0017194075,0.21448112,0.0,0.0,-0.56329215,1,0,0,0,0,0
2618936000,-0.0023941414,-0.0019973402,0.4323278,0.0,0.9767265,-0.00095501204,-0.0012321805,0.21448295,0.0,0.0,-0.56171215,1,0,0,0,0,0
2619032000,-0.0035641287,-0.0017801349,0.4323278,0.0,0.9767259,-0.0015496842,-0.0012515762,0.21448246,0.0,0.0,-0.56331396,1,0,0,0,0,0
2619144000,-0.0035673142,-0.0025414836,0.4323278,0.0,0.9767256,-0.0014695908,-0.001623732,0.21448167,0.0,0.0,-0.5634359,1,0,0,0,0,0
2619236000,-0.0024451364,-0.003644571,0.4323278,0.0,0.9767256,-0.0008032623,-0.0020420947,0.2144817,0.0,0.0,-0.5624829,1,0,0,0,0,0
2619348000,-0.0018624464,-0.0036044633,0.4323278,0.0,0.97672576,-0.00052299944,-0.0019600198,0.21448232,0.0,0.0,-0.56391764,1,0,0,0,0,0
2619440000,-0.0007744946,-0.003202706,0.4323278,0.0,0.97672623,-3.4769535e-05,-0.0016471432,0.21448351,0.0,0.0,-0.5633396,1,0,0,0,0,0
2619536000,-0.0020748687,-0.0032412577,0.4323278,0.0,0.976726,-0.0006656899,-0.0018054243,0.21448238,0.0,0.0,-0.56567717,1,0,0,0,0,0
2619648000,-0.00035952474,-0.0021432235,0.4323278,0.0,0.9767269,5.42652e-05,-0.0010852286,0.21448407,0.0,0.0,-0.56480086,1,0,0,0,0,0
2619740000,0.00021309743,-0.0016707641,0.4323278,0.0,0.97672707,0.00028324538,-0.0007930873,0.21448442,0.0,0.0,-0.5641267,1,0,0,0,0,0
2619832000,-0.00072063133,-0.0025040014,0.4323278,0.0,0.9767267,-8.339539e-05,-0.0013001448,0.21448375,0.0,0.0,-0.5645001,1,0,0,0,0,0
2619944000,-0.0026274852,-0.0013372054,0.4323278,0.0,0.97672653,-0.001139763,-0.00093481917,0.21448332,0.0,0.0,-0.5659774,1,0,0,0,0,0
2620040000,-0.0023103377,-0.0005784519,0.4323278,0.0,0.9767268,-0.0010662505,-0.0005302604,0.21448395,0.0,0.0,-0.5652967,1,0,0,0,0,0
2620132000,-0.0015401744,-0.00022100692,0.4323278,0.0,0.9767272,-0.0007284638,-0.00027310333,0.21448423,0.0,0.0,-0.56445473,1,0,0,0,0,0
2620244000,-0.00056438625,-0.0022702941,0.4323278,0.0,0.9767268,-3.2154287e-05,-0.001169255,0.21448395,0.0,0.0,-0.56318325,1,0,0,0,0,0
2620336000,-2.7427319e-05,-0.0027212834,0.4323278,0.0,0.97672653,0.00027844182,-0.001331917,0.21448417,0.0,0.0,-0.56437707,1,0,0,0,0,0
2620432000,-0.00056148967,-0.0024451772,0.4323278,0.0,0.9767268,-1.19848655e-05,-0.0012543506,0.2144839,0.0,0.0,-0.56516963,1,0,0,0,0,0
2620544000,-0.00015211142,0.00013108958,0.4323278,0.0,0.9767274,-8.834403e-05,4.7706628e-05,0.21448441,0.0,0.0,-0.5645708,1,0,0,0,0,0
2620636000,-0.0006369638,-0.00045083146,0.4323278,0.0,0.97672737,-0.00026272185,-0.0002884791,0.2144843,0.0,0.0,-0.5640671,1,0,0,0,0,0
2620728000,-0.0015455594,-0.0017967133,0.4323278,0.0,0.9767269,-0.0005621114,-0.0010431984,0.21448359,0.0,0.0,-0.5649327,1,0,0,0,0,0
2620840000,-0.0013859413,-0.0012488554,0.4323278,0.0,0.97672707,-0.00054291333,-0.00075852685,0.21448389,0.0,0.0,-0.5650783,1,0,0,0,0,0
2620936000,-0.0013377033,-0.0019342602,0.4323278,0.0,0.9767269,-0.00044585115,-0.0010880802,0.21448362,0.0,0.0,-0.56595945,1,0,0,0,0,0
2621048000,5.3689814e-06,-0.0029368089,0.4323278,0.0,0.9767264,0.00031757168,-0.0014336545,0.21448417,0.0,0.0,-0.562997,1,0,0,0,0,0
2621140000,-0.0013745315,0.008935534,0.4481975,0.0,0.9749841,-0.001662932,0.004203306,0.22222845,0.0,0.0,-0.5541078,1,0,0,0,0,0
2621236000,0.018760659,0.03729325,0.52359575,0.0,0.9657611,0.0042334157,0.020436766,0.25859225,0.0,0.0,-0.5629325,1,0,0,0,0,0
2621328000,0.056892186,0.07800171,0.59585243,0.0,0.9551594,0.015727906,0.04560078,0.2921364,0.0,0.0,-0.5662304,1,0,0,0,0,0
2621440000,0.119227305,0.14014336,0.6838171,0.0,0.93953365,0.032558884,0.08577127,0.32993895,0.0,0.0,-0.5645408,1,0,0,0,0,0
2621536000,0.18419681,0.18962836,0.75921535,0.0,0.9239461,0.050104707,0.12148616,0.35924134,0.0,0.0,-0.57387084,1,0,0,0,0,0
2621648000,0.24669683,0.21874808,0.84718,0.0,0.9048073,0.066965476,0.14902273,0.39323226,0.0,0.0,-0.57786924,1,0,0,0,0,0
2621740000,0.2859382,0.2201494,0.9194367,0.0,0.8886104,0.07867303,0.16027923,0.42248383,0.0,0.0,-0.5819112,1,0,0,0,0,0
2621832000,0.3122706,0.20553382,0.9916934,0.0,0.8718725,0.08783808,0.1627274,0.45347828,0.0,0.0,-0.58777225,1,0,0,0,0,0
2621944000,0.349889,0.18523927,1.0796579,0.0,0.8493569,0.101850696,0.1672025,0.49016583,0.0,0.0,-0.5945959,1,0,0,0,0,0
2622040000,0.3950447,0.17230669,1.1550561,0.0,0.8276961,0.11773917,0.17743057,0.51920617,0.0,0.0,-0.60549206,1,0,0,0,0,0
2622132000,0.41213858,0.1417249,1.2273127,0.0,0.80658513,0.12695178,0.17419367,0.5504182,0.0,0.0,-0.6113043,1,0,0,0,0,0
2622244000,0.43861005,0.10662624,1.3152772,0.0,0.7784706,0.14014168,0.17395319,0.58658695,0.0,0.0,-0.617439,1,0,0,0,0,0
2622336000,0.44606048,0.07365843,1.3875338,0.0,0.75449914,0.1469803,0.16894698,0.6169156,0.0,0.0,-0.6201471,1,0,0,0,0,0
2622432000,0.47990352,0.041001227,1.462932,0.0,0.7259766,0.16352493,0.17352982,0.645062,0.0,0.0,-0.630396,1,0,0,0,0,0
2622544000,0.49573153,-0.0073932093,1.5508965,0.0,0.69164336,0.17770337,0.1691835,0.67928493,0.0,0.0,-0.6378503,1,0,0,0,0,0
2622636000,0.4993028,-0.048511166,1.6231531,0.0,0.66247296,0.18706663,0.16298525,0.7068037,0.0,0.0,-0.64153296,1,0,0,0,0,0
2622748000,0.5083205,-0.1021659,1.7111176,0.0,0.624209,0.20198298,0.15715864,0.73815125,0.0,0.0,-0.64638126,1,0,0,0,0,0
2622840000,0.504428,-0.14412521,1.7833742,0.0,0.5926688,0.21058787,0.14988524,0.76284397,0.0,0.0,-0.64711845,1,0,0,0,0,0
2622936000,0.515832,-0.19640745,1.8587724,0.0,0.55571014,0.22783843,0.1466646,0.7859805,0.0,0.0,-0.6623891,1,0,0,0,0,0
2623032000,0.5117368,-0.24445242,1.9341706,0.0,0.5197196,0.23970799,0.13983251,0.80800897,0.0,0.0,-0.6695422,1,0,0,0,0,0
2623144000,0.50306433,-0.30404195,2.022135,0.0,0.4763785,0.2549134,0.1305995,0.83128,0.0,0.0,-0.67193735,1,0,0,0,0,0
2623236000,0.4752032,-0.33824095,2.0943916,0.0,0.44471195,0.25767756,0.119136475,0.849494,0.0,0.0,-0.6741355,1,0,0,0,0,0
2623328000,0.43774644,-0.36234865,2.1666481,0.0,0.41516972,0.25543657,0.106314644,0.86665076,0.0,0.0,-0.67247045,1,0,0,0,0,0
2623440000,0.39203078,-0.3888424,2.2546127,0.0,0.37896025,0.25316378,0.0912938,0.8854167,0.0,0.0,-0.67429,1,0,0,0,0,0
2623536000,0.36063218,-0.4157901,2.330011,0.0,0.34597352,0.25583392,0.08107354,0.8990431,0.0,0.0,-0.6804372,1,0,0,0,0,0
2623628000,0.31830782,-0.4201092,2.4022675,0.0,0.3180799,0.24797224,0.07014512,0.9123676,0.0,0.0,-0.67646253,1,0,0,0,0,0
2623740000,0.27528882,-0.43474892,2.490232,0.0,0.28143296,0.24526492,0.058587633,0.92585534,0.0,0.0,-0.67745,1,0,0,0,0,0
2623832000,0.24273731,-0.4470013,2.5624886,0.0,0.25065556,0.24456406,0.050325893,0.93532217,0.0,0.0,-0.6747844,1,0,0,0,0,0
2623944000,0.20652781,-0.46893862,2.650453,0.0,0.21196754,0.24853045,0.041072182,0.9442539,0.0,0.0,-0.6724439,1,0,0,0,0,0
2624040000,0.17418759,-0.49068633,2.7258513,0.0,0.17876534,0.25417352,0.03262573,0.9499338,0.0,0.0,-0.67431945,1,0,0,0,0,0
2624132000,0.13953625,-0.49958503,2.7981079,0.0,0.14821307,0.25451756,0.024410168,0.95533127,0.0,0.0,-0.67363876,1,0,0,0,0,0
2624244000,0.09766027,-0.50636256,2.8860724,0.0,0.11107724,0.2541683,0.014992556,0.9606433,0.0,0.0,-0.67452985,1,0,0,0,0,0
2624336000,0.06103801,-0.50803953,2.958329,0.0,0.08089011,0.2528285,0.0064272936,0.96410227,0.0,0.0,-0.67442715,1,0,0,0,0,0
2624432000,0.02428161,-0.5192026,3.0337272,0.0,0.048984595,0.25693563,-0.0021198997,0.965184,0.0,0.0,-0.678189,1,0,0,0,0,0
2624544000,-0.01038291,-0.52374756,3.1036408,0.0,0.019671403,0.25874564,-0.009925869,0.9656942,0.0,0.0,-0.67783505,1,0,0,0,0,0
2624636000,-0.009601701,-0.52255034,3.1036377,0.0,0.019571988,0.25817513,-0.009538834,0.96585274,0.0,0.0,-0.67612845,1,0,0,0,0,0
2624728000,-0.008933987,-0.52078265,3.1036377,0.0,0.019486308,0.25732782,-0.00920119,0.9660839,0.0,0.0,-0.67552817,1,0,0,0,0,0
2624840000,-0.0053365063,-0.5219328,3.1036377,0.0,0.019022077,0.25791803,-0.007473591,0.9659506,0.0,0.0,-0.6757526,1,0,0,0,0,0
2624936000,-0.0063057784,-0.5277257,3.1036408,0.0,0.019140137,0.26070565,-0.007992035,0.9651955,0.0,0.0,-0.6793403,1,0,0,0,0,0
2625048000,-0.007922246,-0.5242675,3.1036425,0.0,0.019351952,0.25902072,-0.008742019,0.9656383,0.0,0.0,-0.6798448,1,0,0,0,0,0
2625140000,-0.008411889,-0.5194171,3.1036425,0.0,0.019417383,0.25667328,-0.008936601,0.96626186,0.0,0.0,-0.6799635,1,0,0,0,0,0
2625232000,-0.00765867,-0.51553684,3.1036425,0.0,0.019322956,0.2548053,-0.00853901,0.9667616,0.0,0.0,-0.678253,1,0,0,0,0,0
2625344000,-0.0061558248,-0.5158226,3.1036408,0.0,0.019132027,0.25495785,-0.007815285,0.9667313,0.0,0.0,-0.6787279,1,0,0,0,0,0
2625440000,-0.0064916536,-0.5233021,3.103644,0.0,0.019166838,0.25856832,-0.008042672,0.96576935,0.0,0.0,-0.68054366,1,0,0,0,0,0
2625532000,-0.007159858,-0.5182925,3.103644,0.0,0.019256799,0.25614193,-0.008321725,0.96641153,0.0,0.0,-0.6803595,1,0,0,0,0,0
2625644000,-0.005705507,-0.51899016,3.1036408,0.0,0.019071294,0.256493,-0.0076255114,0.96632785,0.0,0.0,-0.67864597,1,0,0,0,0,0
2625736000,-0.005343501,-0.51337767,3.1036377,0.0,0.019032711,0.2537836,-0.0074014263,0.9670454,0.0,0.0,-0.67850465,1,0,0,0,0,0
2625832000,-0.006156507,-0.51993537,3.103636,0.0,0.019130541,0.2569453,-0.007852323,0.9662047,0.0,0.0,-0.6820618,1,0,0,0,0,0
2625944000,-0.005552366,-0.5208666,3.1036315,0.0,0.01905409,0.257401,-0.007569252,0.96608716,0.0,0.0,-0.6802152,1,0,0,0,0,0
2626036000,-0.005745598,-0.51794505,3.1036267,0.0,0.019084329,0.25598758,-0.007637485,0.9664615,0.0,0.0,-0.6799711,1,0,0,0,0,0
2626148000,-0.0061674733,-0.51748925,3.1036205,0.0,0.01914175,0.25576323,-0.007838138,0.96651816,0.0,0.0,-0.6804329,1,0,0,0,0,0
2626240000,-0.005682105,-0.5137962,3.103614,0.0,0.019086657,0.25398263,-0.007571836,0.9669908,0.0,0.0,-0.6786029,1,0,0,0,0,0
2626336000,-0.004283332,-0.51927453,3.1036048,0.0,0.018905899,0.2566438,-0.0069455164,0.96629614,0.0,0.0,-0.6811159,1,0,0,0,0,0
2626448000,-0.0047958447,-0.5188979,3.1036017,0.0,0.018973643,0.25645694,-0.007190192,0.9663426,0.0,0.0,-0.68275446,1,0,0,0,0,0
2626540000,-0.0043057147,-0.5161649,3.1035953,0.0,0.0189177,0.25514075,-0.006929856,0.96669406,0.0,0.0,-0.68087995,1,0,0,0,0,0
2626632000,-0.0028164994,-0.5141708,3.1035938,0.0,0.018731881,0.2541908,-0.00619227,0.96695286,0.0,0.0,-0.6796405,1,0,0,0,0,0
2626744000,-0.001915284,-0.51393247,3.1035922,0.0,0.01861861,0.25408402,-0.0057546063,0.96698576,0.0,0.0,-0.6802844,1,0,0,0,0,0
2626840000,-0.003668135,-0.52171606,3.103589,0.0,0.018830752,0.25782898,-0.0066721425,0.96598405,0.0,0.0,-0.6820519,1,0,0,0,0,0
2626932000,-0.0048072822,-0.5171609,3.1035812,0.0,0.018987231,0.2556174,-0.007182928,0.96656483,0.0,0.0,-0.6816655,1,0,0,0,0,0
2627044000,-0.005015166,-0.51705366,3.1035764,0.0,0.019016232,0.25556356,-0.007283053,0.96657777,0.0,0.0,-0.6825456,1,0,0,0,0,0
2627136000,-0.0047543747,-0.5134445,3.1035702,0.0,0.018990494,0.25382128,-0.0071257264,0.96703845,0.0,0.0,-0.6805935,1,0,0,0,0,0
2627232000,-0.003866018,-0.5205107,3.1035655,0.0,0.01886949,0.25724477,-0.006759988,0.9661384,0.0,0.0,-0.6833961,1,0,0,0,0,0
2627344000,-0.0038456656,-0.51839584,3.103561,0.0,0.018872261,0.25622317,-0.0067318305,0.96641,0.0,0.0,-0.68465483,1,0,0,0,0,0
2627436000,-0.0038026168,-0.51575327,3.1035576,0.0,0.018872352,0.2549464,-0.006687806,0.9667479,0.0,0.0,-0.6823202,1,0,0,0,0,0
2627548000,-0.00498324,-0.51687956,3.103553,0.0,0.019023655,0.2554796,-0.007269063,0.96659994,0.0,0.0,-0.6817724,1,0,0,0,0,0
2627640000,-0.0047337413,-0.5124487,3.1035497,0.0,0.018999055,0.25333983,-0.0071094898,0.96716464,0.0,0.0,-0.68003803,1,0,0,0,0,0
2627736000,-0.0032683902,-0.512151,3.1035483,0.0,0.018814607,0.25320974,-0.0063983737,0.96720725,0.0,0.0,-0.6819215,1,0,0,0,0,0
2627832000,-0.0032546783,-0.52013046,3.1035483,0.0,0.01879978,0.2570668,-0.0064634616,0.96618915,0.0,0.0,-0.68461734,1,0,0,0,0,0
2627944000,-0.005007069,-0.5210063,3.1035452,0.0,0.019025426,0.2574733,-0.007318196,0.9660704,0.0,0.0,-0.68349886,1,0,0,0,0,0
2628036000,-0.0049893316,-0.5171191,3.103542,0.0,0.019029442,0.25559533,-0.0072755353,0.9665692,0.0,0.0,-0.68338513,1,0,0,0,0,0
2628148000,-0.004152128,-0.5176291,3.1035404,0.0,0.018922526,0.25584972,-0.0068756943,0.9665069,0.0,0.0,-0.6825017,1,0,0,0,0,0
2628240000,-0.0038685568,-0.513726,3.1035373,0.0,0.018893568,0.25396568,-0.0067041125,0.9670055,0.0,0.0,-0.6806056,1,0,0,0,0,0
2628336000,-0.0061405483,-0.52086043,3.1035342,0.0,0.019176781,0.25739202,-0.007865835,0.9660847,0.0,0.0,-0.6835409,1,0,0,0,0,0
2628428000,-0.0056327675,-0.5179226,3.1035357,0.0,0.01911392,0.25597745,-0.00759442,0.9664639,0.0,0.0,-0.68333864,1,0,0,0,0,0
2628540000,-0.005722678,-0.5190142,3.1035295,0.0,0.019127274,0.25650406,-0.0076483013,0.96632355,0.0,0.0,-0.68376046,1,0,0,0,0,0
2628632000,-0.0060379193,-0.5150172,3.1035295,0.0,0.019171592,0.25456926,-0.0077653867,0.9668333,0.0,0.0,-0.6828915,1,0,0,0,0,0
2628744000,-0.005683852,-0.5154387,3.1035264,0.0,0.019127576,0.25477636,-0.0075983442,0.96678096,0.0,0.0,-0.6809839,1,0,0,0,0,0
2628840000,-0.00420034,-0.5140118,3.1035247,0.0,0.018941402,0.25410065,-0.0068686893,0.9669679,0.0,0.0,-0.68164194,1,0,0,0,0,0
2628936000,-0.004972876,-0.52048945,3.1035247,0.0,0.019031573,0.2572239,-0.007299732,0.9661369,0.0,0.0,-0.6861269,1,0,0,0,0,0
2629048000,-0.0046559433,-0.5250399,3.1035247,0.0,0.018984739,0.25942445,-0.0071870964,0.96555,0.0,0.0,-0.68387634,1,0,0,0,0,0
2629140000,-0.0051498315,-0.52135766,3.1035264,0.0,0.019052476,0.2576416,-0.0073926947,0.96602446,0.0,0.0,-0.68152165,1,0,0,0,0,0
2629232000,-0.0036500967,-0.51560843,3.1035278,0.0,0.018867537,0.25487778,-0.0066165836,0.96676654,0.0,0.0,-0.6822108,1,0,0,0,0,0
2629344000,-0.0022617711,-0.5156391,3.1035326,0.0,0.018688243,0.25490564,-0.0059451587,0.9667671,0.0,0.0,-0.68216693,1,0,0,0,0,0
2629440000,-0.0024090868,-0.5255732,3.1035357,0.0,0.018686976,0.25970313,-0.0061057582,0.9654884,0.0,0.0,-0.6857374,1,0,0,0,0,0
2629532000,-0.0022616466,-0.5235062,3.1035435,0.0,0.018668003,0.25870657,-0.0060148765,0.96575683,0.0,0.0,-0.6853488,1,0,0,0,0,0
2629644000,-0.0016020839,-0.5284655,3.1035466,0.0,0.018570846,0.26110667,-0.0057410165,0.96511424,0.0,0.0,-0.68444794,1,0,0,0,0,0
2629736000,-0.0023825725,-0.5265548,3.1035497,0.0,0.018674878,0.26017725,-0.006099995,0.965361,0.0,0.0,-0.6839233,1,0,0,0,0,0
2629832000,-0.0027234233,-0.53496534,3.1035483,0.0,0.01870446,0.26423138,-0.006340389,0.9642571,0.0,0.0,-0.6860652,1,0,0,0,0,0
2629944000,-0.0030055328,-0.53276634,3.1035483,0.0,0.018745653,0.2631684,-0.0064566657,0.9645462,0.0,0.0,-0.68808836,1,0,0,0,0,0
2630036000,-0.0022742162,-0.5280435,3.1035497,0.0,0.018657912,0.26089677,-0.006061141,0.9651674,0.0,0.0,-0.68760294,1,0,0,0,0,0
2630148000,-0.004087085,-0.5309431,3.1035483,0.0,0.018890725,0.26227877,-0.0069620274,0.9647821,0.0,0.0,-0.68627214,1,0,0,0,0,0
2630240000,-0.0032230671,-0.5279075,3.1035435,0.0,0.01878491,0.2608222,-0.006518629,0.9651821,0.0,0.0,-0.6852342,1,0,0,0,0,0
2630336000,-0.0034739457,-0.53466415,3.1035404,0.0,0.018807914,0.26407915,-0.0067005833,0.9642943,0.0,0.0,-0.68910897,1,0,0,0,0,0
2630448000,-0.003420725,-0.5304798,3.1035373,0.0,0.018809402,0.2620615,-0.0066378694,0.96484506,0.0,0.0,-0.6905039,1,0,0,0,0,0
2630540000,-0.0037965905,-0.52573407,3.1035342,0.0,0.018867584,0.25976774,-0.006777191,0.96546304,0.0,0.0,-0.6900291,1,0,0,0,0,0
2630632000,-0.0038042795,-0.5246898,3.1035311,0.0,0.0188717,0.25926355,-0.0067719677,0.9655985,0.0,0.0,-0.68774575,1,0,0,0,0,0
2630744000,-0.006016266,-0.52822006,3.1035278,0.0,0.019156426,0.26094654,-0.007871396,0.9651311,0.0,0.0,-0.6860927,1,0,0,0,0,0
2630840000,-0.0044802157,-0.53355885,3.1035264,0.0,0.01894914,0.26353663,-0.0071777916,0.96443653,0.0,0.0,-0.68937296,1,0,0,0,0,0
2630932000,-0.003144139,-0.5288589,3.1035264,0.0,0.018781262,0.26128206,-0.0064913225,0.96505797,0.0,0.0,-0.68830943,1,0,0,0,0,0
2631044000,-0.0041555194,-0.52845395,3.1035278,0.0,0.018913297,0.26107708,-0.006975544,0.9651075,0.0,0.0,-0.69010216,1,0,0,0,0,0
2631136000,-0.0039952723,-0.52736616,3.1035278,0.0,0.018894032,0.26055366,-0.0068885093,0.9652499,0.0,0.0,-0.6867402,1,0,0,0,0,0
2631232000,-0.0028841675,-0.5345857,3.1035295,0.0,0.018735467,0.2640468,-0.0064169657,0.96430653,0.0,0.0,-0.6894381,1,0,0,0,0,0
2631344000,-0.0021074614,-0.5249822,3.1035357,0.0,0.018648973,0.25942063,-0.0059548025,0.96556604,0.0,0.0,-0.6875991,1,0,0,0,0,0
2631440000,-0.0028795775,-0.5328344,3.1035404,0.0,0.01873275,0.2632024,-0.0063975686,0.96453756,0.0,0.0,-0.69044644,1,0,0,0,0,0
2631532000,-0.0033451214,-0.52954715,3.103542,0.0,0.018798765,0.2616123,-0.0065924143,0.9649674,0.0,0.0,-0.6882174,1,0,0,0,0,0
2631644000,-0.004977021,-0.5301869,3.1035388,0.0,0.019013008,0.2619055,-0.0073858784,0.96487796,0.0,0.0,-0.6890287,1,0,0,0,0,0
2631736000,-0.003976034,-0.52592134,3.103542,0.0,0.018886812,0.25985646,-0.006864465,0.9654382,0.0,0.0,-0.6877579,1,0,0,0,0,0
2631832000,-0.004925583,-0.5316856,3.103542,0.0,0.019002698,0.262629,-0.0073738983,0.96468157,0.0,0.0,-0.6908759,1,0,0,0,0,0
2631944000,-0.0041480684,-0.53338325,3.1035435,0.0,0.01889736,0.26345515,-0.0070137987,0.964461,0.0,0.0,-0.6908866,1,0,0,0,0,0
2632036000,-0.0024738095,-0.5321838,3.103542,0.0,0.018679785,0.26289243,-0.006195795,0.9646244,0.0,0.0,-0.68837905,1,0,0,0,0,0
2632132000,-0.0021439525,-0.5336568,3.1035435,0.0,0.01863281,0.26360583,-0.00604982,0.9644315,0.0,0.0,-0.6897577,1,0,0,0,0,0
2632244000,-0.0039894525,-0.53282416,3.1035435,0.0,0.01887733,0.26318702,-0.0069323257,0.96453524,0.0,0.0,-0.687908,1,0,0,0,0,0
2632336000,-0.0054043746,-0.5256269,3.1035388,0.0,0.01907434,0.25970075,-0.007551781,0.9654712,0.0,0.0,-0.68793803,1,0,0,0,0,0
2632432000,-0.004602043,-0.53198826,3.1035357,0.0,0.018962901,0.26277804,-0.0072213737,0.96464294,0.0,0.0,-0.69233584,1,0,0,0,0,0
2632544000,-0.0055029443,-0.53289545,3.1035342,0.0,0.019080888,0.263207,-0.007664082,0.9645202,0.0,0.0,-0.6909053,1,0,0,0,0,0
2632636000,-0.0046211313,-0.5305569,3.1035326,0.0,0.018968882,0.26208737,-0.0072182813,0.9648307,0.0,0.0,-0.69063073,1,0,0,0,0,0
2632748000,-0.005003707,-0.53144586,3.1035278,0.0,0.01902017,0.26251256,-0.007411337,0.9647127,0.0,0.0,-0.6903907,1,0,0,0,0,0
2632840000,-0.0048319176,-0.5265761,3.1035264,0.0,0.01900475,0.2601644,-0.0072854697,0.9653498,0.0,0.0,-0.68935126,1,0,0,0,0,0
2632936000,-0.0057282783,-0.53375137,3.1035264,0.0,0.019113375,0.26361755,-0.007781323,0.96440655,0.0,0.0,-0.69221777,1,0,0,0,0,0
2633048000,-0.006556613,-0.5356834,3.1035233,0.0,0.019222246,0.26454118,-0.008198054,0.964148,0.0,0.0,-0.691152,1,0,0,0,0,0
2633140000,-0.006504707,-0.5317751,3.1035202,0.0,0.019220555,0.262657,-0.008139237,0.9646635,0.0,0.0,-0.6898373,1,0,0,0,0,0
2633232000,-0.0059723193,-0.5272192,3.1035185,0.0,0.01915622,0.26046386,-0.007842594,0.9652617,0.0,0.0,-0.6886953,1,0,0,0,0,0
2633344000,-0.006248403,-0.5278984,3.103517,0.0,0.019192204,0.260789,-0.007981991,0.96517205,0.0,0.0,-0.687576,1,0,0,0,0,0
2633440000,-0.0066445773,-0.53531617,3.1035137,0.0,0.019238813,0.26436323,-0.008238509,0.96419615,0.0,0.0,-0.69112265,1,0,0,0,0,0
2633532000,-0.006025299,-0.5313755,3.1035123,0.0,0.019161807,0.26246884,-0.007905523,0.9647178,0.0,0.0,-0.6898982,1,0,0,0,0,0
2633644000,-0.0048262994,-0.53229886,3.103517,0.0,0.019000918,0.26292568,-0.0073347352,0.9646011,0.0,0.0,-0.6885963,1,0,0,0,0,0
2633736000,-0.0052550915,-0.5270606,3.103517,0.0,0.019063698,0.26039422,-0.0074952208,0.96528506,0.0,0.0,-0.6881567,1,0,0,0,0,0
2633832000,-0.0051759738,-0.5349685,3.1035202,0.0,0.019042023,0.2642097,-0.007526573,0.9642479,0.0,0.0,-0.6916741,1,0,0,0,0,0
2633944000,-0.005046948,-0.5359006,3.1035233,0.0,0.019022271,0.2646603,-0.0074722,0.9641251,0.0,0.0,-0.69143623,1,0,0,0,0,0
2634036000,-0.0048304405,-0.53161013,3.1035247,0.0,0.018998705,0.26259345,-0.0073296246,0.96469164,0.0,0.0,-0.6905909,1,0,0,0,0,0
2634128000,-0.0045453673,-0.5273919,3.1035278,0.0,0.01896566,0.26056087,-0.0071542272,0.96524465,0.0,0.0,-0.6899339,1,0,0,0,0,0
2634240000,-0.006073251,-0.52583534,3.1035311,0.0,0.019164668,0.25979498,-0.007877495,0.9654415,0.0,0.0,-0.6897928,1,0,0,0,0,0
2634336000,-0.006022277,-0.5360522,3.1035388,0.0,0.019143704,0.26472417,-0.00794165,0.96410143,0.0,0.0,-0.69286585,1,0,0,0,0,0
2634448000,-0.005291498,-0.54036033,3.1035435,0.0,0.019039273,0.2668073,-0.0076267323,0.9635317,0.0,0.0,-0.6936054,1,0,0,0,0,0
2634540000,-0.0047559594,-0.53963906,3.1035452,0.0,0.018968029,0.2664649,-0.0073621226,0.96362984,0.0,0.0,-0.6919936,1,0,0,0,0,0
2634644000,-0.0052978573,-0.54058576,3.1035483,0.0,0.019037541,0.26691592,-0.0076311477,0.9635016,0.0,0.0,-0.6907586,1,0,0,0,0,0
2634740000,-0.0062281154,-0.5387741,3.1035483,0.0,0.019163566,0.2660341,-0.008063444,0.9637394,0.0,0.0,-0.6907467,1,0,0,0,0,0
2634836000,-0.0068078395,-0.54368615,3.1035483,0.0,0.01923624,0.26839474,-0.008385575,0.9630804,0.0,0.0,-0.69527835,1,0,0,0,0,0
2634948000,-0.006023872,-0.54164857,3.1035483,0.0,0.019133275,0.26742098,-0.007990219,0.9633567,0.0,0.0,-0.69556767,1,0,0,0,0,0
2635040000,-0.00552156,-0.53887093,3.1035514,0.0,0.019067971,0.26608753,-0.007723417,0.9637293,0.0,0.0,-0.6941482,1,0,0,0,0,0
2635132000,-0.0058711795,-0.5358553,3.1035483,0.0,0.019119326,0.26463068,-0.007865821,0.96412826,0.0,0.0,-0.69279164,1,0,0,0,0,0
2635244000,-0.0051853205,-0.5374933,3.1035514,0.0,0.019024996,0.26542678,-0.0075492384,0.96391374,0.0,0.0,-0.6929716,1,0,0,0,0,0
2635340000,-0.0059105936,-0.5445695,3.103553,0.0,0.019112535,0.26882875,-0.007960616,0.9629654,0.0,0.0,-0.696481,1,0,0,0,0,0
2635432000,-0.0055450364,-0.5401137,3.1035497,0.0,0.01907041,0.26668605,-0.007745883,0.9635636,0.0,0.0,-0.694825,1,0,0,0,0,0
2635544000,-0.0071910303,-0.5395613,3.1035514,0.0,0.019289525,0.26640415,-0.008533869,0.9636306,0.0,0.0,-0.69439626,1,0,0,0,0,0
2635636000,-0.007015389,-0.5355186,3.103553,0.0,0.019268699,0.2644574,-0.008413839,0.96416813,0.0,0.0,-0.69413424,1,0,0,0,0,0
2635732000,-0.006237396,-0.54219353,3.1035562,0.0,0.01915747,0.26768145,-0.008096782,0.963283,0.0,0.0,-0.697374,1,0,0,0,0,0
2635844000,-0.007846037,-0.54349995,3.1035576,0.0,0.01937121,0.26829514,-0.008882656,0.963101,0.0,0.0,-0.69623417,1,0,0,0,0,0
2635936000,-0.00850246,-0.53995794,3.1035562,0.0,0.019461714,0.2665826,-0.009168509,0.96357197,0.0,0.0,-0.6953257,1,0,0,0,0,0
2636048000,-0.009015716,-0.54111165,3.1035545,0.0,0.019530505,0.26713344,-0.009425891,0.9634155,0.0,0.0,-0.69458014,1,0,0,0,0,0
2636140000,-0.009648905,-0.537786,3.1035514,0.0,0.019617269,0.26552472,-0.009702971,0.9638556,0.0,0.0,-0.69303536,1,0,0,0,0,0
2636236000,-0.009648735,-0.5446524,3.1035452,0.0,0.019618733,0.26883245,-0.009762216,0.96293765,0.0,0.0,-0.6962525,1,0,0,0,0,0
2636328000,-0.009463417,-0.5405346,3.1035466,0.0,0.019594245,0.266851,-0.009637677,0.96349037,0.0,0.0,-0.6947766,1,0,0,0,0,0
2636440000,-0.009563916,-0.54063034,3.1035452,0.0,0.01960832,0.26689613,-0.009687101,0.9634771,0.0,0.0,-0.694595,1,0,0,0,0,0
2636532000,-0.009852852,-0.53547144,3.1035466,0.0,0.01964698,0.26440704,-0.0097821755,0.9641614,0.0,0.0,-0.694668,1,0,0,0,0,0
2636644000,-0.0090376595,-0.53768957,3.103553,0.0,0.019535348,0.26548427,-0.009407345,0.96387136,0.0,0.0,-0.69347054,1,0,0,0,0,0
2636740000,-0.0076501453,-0.5451064,3.1035545,0.0,0.019345276,0.26907054,-0.008802625,0.9628859,0.0,0.0,-0.696009,1,0,0,0,0,0
2636832000,-0.007750083,-0.5397193,3.103564,0.0,0.019357793,0.26647493,-0.008802911,0.96360725,0.0,0.0,-0.6954163,1,0,0,0,0,0
2636944000,-0.0074940426,-0.5391246,3.103578,0.0,0.019317335,0.26619092,-0.008672526,0.9636877,0.0,0.0,-0.69721055,1,0,0,0,0,0
2637036000,-0.0072160386,-0.53688854,3.1035829,0.0,0.019279797,0.26511598,-0.008518527,0.96398616,0.0,0.0,-0.69538975,1,0,0,0,0,0
2637132000,-0.0072282525,-0.54654336,3.1035905,0.0,0.019270003,0.2697665,-0.00860711,0.96269447,0.0,0.0,-0.69619447,1,0,0,0,0,0
2637244000,-0.007466288,-0.5475718,3.1035984,0.0,0.019297536,0.27025932,-0.008729515,0.9625546,0.0,0.0,-0.6961897,1,0,0,0,0,0
2637336000,-0.00972716,-0.5417465,3.1036017,0.0,0.019602666,0.26743248,-0.00976769,0.96332765,0.0,0.0,-0.6959525,1,0,0,0,0,0
2637448000,-0.010093498,-0.54144466,3.1036062,0.0,0.0196495,0.2672835,-0.009940977,0.9633663,0.0,0.0,-0.6958226,1,0,0,0,0,0
2637540000,-0.00955644,-0.5373213,3.103611,0.0,0.019576367,0.26530203,-0.009646537,0.9639183,0.0,0.0,-0.6939963,1,0,0,0,0,0
2637636000,-0.007332199,-0.5466545,3.1036172,0.0,0.019271085,0.26981917,-0.008654506,0.96267927,0.0,0.0,-0.69704145,1,0,0,0,0,0
2637732000,-0.0072219837,-0.5462967,3.103625,0.0,0.01925272,0.26964802,-0.008597297,0.9627281,0.0,0.0,-0.69623405,1,0,0,0,0,0
2637844000,-0.006558997,-0.54681486,3.103636,0.0,0.019157546,0.26990384,-0.008281185,0.9626611,0.0,0.0,-0.6968713,1,0,0,0,0,0
2637936000,-0.0066952584,-0.5434569,3.1036487,0.0,0.019173015,0.2682859,-0.008315903,0.96311265,0.0,0.0,-0.69497615,1,0,0,0,0,0
2638028000,-0.007532511,-0.5397048,3.1036582,0.0,0.019283442,0.26647046,-0.008685411,0.963611,0.0,0.0,-0.6924561,1,0,0,0,0,0
2638140000,-0.0075721964,-0.5400655,3.1036627,0.0,0.019286294,0.26664394,-0.008707045,0.9635628,0.0,0.0,-0.693885,1,0,0,0,0,0
2638236000,-0.0068487604,-0.53996646,3.1036692,0.0,0.019186828,0.2666032,-0.008356786,0.9635792,0.0,0.0,-0.69329774,1,0,0,0,0,0
2638332000,-0.0064475858,-0.5477288,3.103674,0.0,0.019123338,0.27034497,-0.008230386,0.9625384,0.0,0.0,-0.69661045,1,0,0,0,0,0
2638444000,-0.005814475,-0.54708916,3.103688,0.0,0.019031733,0.27004322,-0.007918203,0.96262753,0.0,0.0,-0.6967801,1,0,0,0,0,0
2638536000,-0.005465621,-0.542647,3.1036959,0.0,0.018986322,0.26790777,-0.007710334,0.9632266,0.0,0.0,-0.6955246,1,0,0,0,0,0
2638648000,-0.0046925885,-0.5425528,3.1037068,0.0,0.018877622,0.26786977,-0.007335732,0.96324223,0.0,0.0,-0.69461566,1,0,0,0,0,0
2638740000,-0.0062467246,-0.5370376,3.1037164,0.0,0.019086799,0.2651977,-0.008034923,0.9639717,0.0,0.0,-0.6949231,1,0,0,0,0,0
2638836000,-0.0064756456,-0.54519683,3.1037195,0.0,0.019107744,0.26912606,-0.008215758,0.9628804,0.0,0.0,-0.69730365,1,0,0,0,0,0
2638948000,-0.005525874,-0.54677,3.103729,0.0,0.01897342,0.26989245,-0.0077709686,0.9626722,0.0,0.0,-0.6968089,1,0,0,0,0,0
2639040000,-0.0057318457,-0.5434477,3.1037352,0.0,0.01900211,0.26829097,-0.007840274,0.96311855,0.0,0.0,-0.6944155,1,0,0,0,0,0
2639132000,-0.003915208,-0.53875494,3.10374,0.0,0.018763557,0.2660475,-0.006923249,0.96375245,0.0,0.0,-0.6945387,1,0,0,0,0,0
2639244000,-0.0036890865,-0.5367677,3.1037478,0.0,0.018732911,0.26509193,-0.006795603,0.9640172,0.0,0.0,-0.6939629,1,0,0,0,0,0
2639340000,-0.0037085789,-0.54523104,3.1037574,0.0,0.01871707,0.26916885,-0.006878776,0.9628865,0.0,0.0,-0.6963377,1,0,0,0,0,0
2639432000,-0.0033480613,-0.54293346,3.1037652,0.0,0.018668747,0.26806587,-0.0066837366,0.9631965,0.0,0.0,-0.695753,1,0,0,0,0,0
2639544000,-0.0039351163,-0.54720086,3.1037714,0.0,0.018737629,0.270115,-0.007003357,0.96262026,0.0,0.0,-0.69577706,1,0,0,0,0,0
2639636000,-0.00454137,-0.54549485,3.1037762,0.0,0.018819695,0.26928815,-0.0072795027,0.96284825,0.0,0.0,-0.6949751,1,0,0,0,0,0
2639732000,-0.0038558152,-0.55481505,3.103781,0.0,0.01870981,0.2737787,-0.0070311627,0.961585,0.0,0.0,-0.6968464,1,0,0,0,0,0
2639844000,-0.0039037245,-0.5536324,3.1037903,0.0,0.018713843,0.2732096,-0.0070424895,0.9617467,0.0,0.0,-0.6996705,1,0,0,0,0,0
2639936000,-0.003630415,-0.54903984,3.1037936,0.0,0.01868271,0.27100295,-0.0068699843,0.9623727,0.0,0.0,-0.69803864,1,0,0,0,0,0
2640048000,-0.004792985,-0.54951197,3.103795,0.0,0.018838882,0.27121925,-0.0074333437,0.9623045,0.0,0.0,-0.6980625,1,0,0,0,0,0
2640140000,-0.0053770915,-0.5463462,3.1037967,0.0,0.018921284,0.2696902,-0.0076865153,0.9627305,0.0,0.0,-0.69598603,1,0,0,0,0,0
2640236000,-0.005698708,-0.55555445,3.1037982,0.0,0.018952921,0.27411687,-0.007921288,0.961477,0.0,0.0,-0.69907373,1,0,0,0,0,0
2640328000,-0.005399933,-0.552967,3.103795,0.0,0.01891679,0.27287555,-0.007755522,0.96183205,0.0,0.0,-0.6960939,1,0,0,0,0,0
2640440000,-0.0045515434,-0.5501749,3.1037998,0.0,0.01880287,0.2715405,-0.007322348,0.9622155,0.0,0.0,-0.6983703,1,0,0,0,0,0
2640532000,-0.003957661,-0.5439799,3.1038015,0.0,0.018731344,0.26856425,-0.0069817062,0.9630543,0.0,0.0,-0.69617283,1,0,0,0,0,0
2640644000,-0.003046269,-0.54666024,3.103803,0.0,0.018603412,0.2698632,-0.0065664886,0.96269655,0.0,0.0,-0.69632995,1,0,0,0,0,0
2640740000,-0.0027979892,-0.55677104,3.1038046,0.0,0.0185499,0.27472895,-0.0065367287,0.9613205,0.0,0.0,-0.6978094,1,0,0,0,0,0
2640832000,-0.003482267,-0.55212903,3.1038094,0.0,0.018649716,0.2724906,-0.0068239137,0.9619535,0.0,0.0,-0.69602555,1,0,0,0,0,0
2640944000,-0.003696577,-0.5507305,3.1038094,0.0,0.01868127,0.27181587,-0.006914634,0.9621431,0.0,0.0,-0.69708043,1,0,0,0,0,0
2641036000,-0.0048296507,-0.5438056,3.1038094,0.0,0.018844888,0.2684722,-0.0073990077,0.9630746,0.0,0.0,-0.6965395,1,0,0,0,0,0
2641132000,-0.004514225,-0.5522449,3.1038046,0.0,0.018792436,0.27253664,-0.007321928,0.961934,0.0,0.0,-0.69859743,1,0,0,0,0,0
2641244000,-0.003585349,-0.5528412,3.103803,0.0,0.018665638,0.27283219,-0.00688067,0.96185595,0.0,0.0,-0.6993055,1,0,0,0,0,0
2641336000,-0.0034341416,-0.55011034,3.1038015,0.0,0.018650467,0.27151993,-0.006783958,0.9622282,0.0,0.0,-0.6959548,1,0,0,0,0,0
2641432000,-0.0026816588,-0.5504425,3.1038015,0.0,0.018547667,0.2716867,-0.0064248876,0.96218556,0.0,0.0,-0.69774073,1,0,0,0,0,0
2641544000,-0.0035427385,-0.549315,3.1038015,0.0,0.01866657,0.27113625,-0.006829166,0.9623357,0.0,0.0,-0.6974034,1,0,0,0,0,0
2641636000,-0.0028409732,-0.54542756,3.1038063,0.0,0.018576406,0.26927173,-0.006456243,0.96286345,0.0,0.0,-0.6960574,1,0,0,0,0,0
2641732000,-0.0032506054,-0.55172026,3.1038046,0.0,0.018621178,0.27229613,-0.0067095147,0.9620099,0.0,0.0,-0.7008859,1,0,0,0,0,0
2641844000,-0.0032156568,-0.5527384,3.103803,0.0,0.01861539,0.27278614,-0.0067019607,0.96187127,0.0,0.0,-0.69881797,1,0,0,0,0,0
2641936000,-0.0033310591,-0.5494824,3.1037998,0.0,0.01863838,0.27121875,-0.0067290226,0.9623137,0.0,0.0,-0.6967183,1,0,0,0,0,0
2642048000,-0.004097609,-0.5499854,3.1037967,0.0,0.018743029,0.27145356,-0.007102706,0.96224284,0.0,0.0,-0.6980561,1,0,0,0,0,0
2642140000,-0.0031634085,-0.54376876,3.1037982,0.0,0.01862667,0.26847002,-0.0065978235,0.96308535,0.0,0.0,-0.69709426,1,0,0,0,0,0
2642236000,-0.0026287073,-0.55103815,3.1037967,0.0,0.018541612,0.27197373,-0.0064053694,0.96210474,0.0,0.0,-0.6995212,1,0,0,0,0,0
2642348000,-0.003006993,-0.5520557,3.1037967,0.0,0.018591177,0.27245972,-0.0065963874,0.96196496,0.0,0.0,-0.69874644,1,0,0,0,0,0
2642440000,-0.0047329366,-0.54899716,3.1037982,0.0,0.018829977,0.27097216,-0.0073995134,0.9623745,0.0,0.0,-0.698152,1,0,0,0,0,0
2642532000,-0.00481384,-0.5456518,3.103795,0.0,0.018847097,0.26936114,-0.007409517,0.9628263,0.0,0.0,-0.6961419,1,0,0,0,0,0
2642644000,-0.003989768,-0.546649,3.103795,0.0,0.018734526,0.26984894,-0.0070216013,0.9626948,0.0,0.0,-0.69524467,1,0,0,0,0,0
2642740000,-0.004360285,-0.5534515,3.103792,0.0,0.018775687,0.27311835,-0.0072602197,0.96176976,0.0,0.0,-0.6982481,1,0,0,0,0,0
2642832000,-0.0054429728,-0.5486521,3.103795,0.0,0.018928101,0.2707994,-0.007738583,0.9624186,0.0,0.0,-0.69670486,1,0,0,0,0,0
2642944000,-0.006096481,-0.54874337,3.1037936,0.0,0.019017175,0.27083704,-0.008054041,0.96240366,0.0,0.0,-0.69646806,1,0,0,0,0,0
2643036000,-0.0047986466,-0.5429707,3.1037872,0.0,0.01885255,0.26807028,-0.0073797205,0.9631866,0.0,0.0,-0.6960255,1,0,0,0,0,0
2643132000,-0.003703984,-0.5520749,3.1037872,0.0,0.01869068,0.2724624,-0.0069330963,0.9619599,0.0,0.0,-0.69739795,1,0,0,0,0,0
2643244000,-0.0055176523,-0.5523577,3.1037872,0.0,0.018937396,0.27258134,-0.007807896,0.96191466,0.0,0.0,-0.69798374,1,0,0,0,0,0
2643336000,-0.0046915747,-0.5481692,3.1037872,0.0,0.018830838,0.270574,-0.0073738266,0.96248674,0.0,0.0,-0.6975371,1,0,0,0,0,0
2643448000,-0.004900004,-0.54953474,3.1037889,0.0,0.018856347,0.2712292,-0.0074858763,0.96230096,0.0,0.0,-0.6964723,1,0,0,0,0,0
2643540000,-0.0040188655,-0.5479468,3.1037889,0.0,0.018739378,0.27047333,-0.0070479014,0.9625193,0.0,0.0,-0.6938627,1,0,0,0,0,0
2643636000,-0.003991108,-0.55425215,3.1037903,0.0,0.01872478,0.2735068,-0.007089975,0.96166164,0.0,0.0,-0.6973652,1,0,0,0,0,0
2643732000,-0.0023972795,-0.5446524,3.103792,0.0,0.018525079,0.26890257,-0.0062376307,0.962969,0.0,0.0,-0.69465953,1,0,0,0,0,0
2643844000,-0.0023860706,-0.5425438,3.1037998,0.0,0.018523924,0.2678873,-0.0062123253,0.9632521,0.0,0.0,-0.6958443,1,0,0,0,0,0
2643944000,-0.0048149666,-0.5486592,3.1038015,0.0,0.018839959,0.27080873,-0.0074355695,0.96242005,0.0,0.0,-0.69758683,1,0,0,0,0,0
2644036000,-0.005158078,-0.546954,3.1037982,0.0,0.018890267,0.2699848,-0.007586215,0.96264935,0.0,0.0,-0.69556135,1,0,0,0,0,0
2644132000,-0.005834677,-0.555109,3.103795,0.0,0.018973576,0.27390143,-0.007983209,0.9615375,0.0,0.0,-0.69703543,1,0,0,0,0,0
2644244000,-0.005834031,-0.55273366,3.1037889,0.0,0.018979274,0.2727592,-0.007963102,0.96186215,0.0,0.0,-0.69797105,1,0,0,0,0,0
2644336000,-0.004924936,-0.54752386,3.1037872,0.0,0.018863292,0.2702612,-0.007480473,0.9625732,0.0,0.0,-0.69578624,1,0,0,0,0,0
2644428000,-0.0050725094,-0.54250324,3.1037824,0.0,0.01889217,0.26784253,-0.0075081517,0.96324825,0.0,0.0,-0.69656265,1,0,0,0,0,0
2644540000,-0.004358021,-0.54512733,3.103781,0.0,0.018793266,0.2691129,-0.007187354,0.96289843,0.0,0.0,-0.6953602,1,0,0,0,0,0
2644636000,-0.0057306397,-0.5562153,3.1037793,0.0,0.01896555,0.27443424,-0.007944969,0.961386,0.0,0.0,-0.69888383,1,0,0,0,0,0
2644748000,-0.0057542752,-0.559423,3.1037793,0.0,0.018964883,0.2759756,-0.007984211,0.9609444,0.0,0.0,-0.70073104,1,0,0,0,0,0
2644840000,-0.0047823805,-0.55858105,3.103781,0.0,0.018831193,0.27558023,-0.0075096386,0.9610643,0.0,0.0,-0.69833547,1,0,0,0,0,0
2644932000,-0.005581438,-0.55263865,3.1037824,0.0,0.018948035,0.27271584,-0.007841672,0.9618761,0.0,0.0,-0.6975941,1,0,0,0,0,0
2645044000,-0.005535768,-0.5498968,3.103784,0.0,0.01894441,0.27139732,-0.0077955765,0.96224934,0.0,0.0,-0.6999419,1,0,0,0,0,0
2645140000,-0.0056412565,-0.5567261,3.1037903,0.0,0.018947382,0.2746806,-0.007904941,0.96131635,0.0,0.0,-0.703123,1,0,0,0,0,0
2645232000,-0.0059823813,-0.5548862,3.1037872,0.0,0.01899784,0.2737929,-0.008053364,0.9615673,0.0,0.0,-0.7004149,1,0,0,0,0,0
2645344000,-0.0076067755,-0.55541617,3.1037858,0.0,0.019220494,0.27403215,-0.008839081,0.9614878,0.0,0.0,-0.70128006,1,0,0,0,0,0
2645436000,-0.0066757873,-0.5513889,3.1037824,0.0,0.019098472,0.27210435,-0.00835719,0.9620419,0.0,0.0,-0.69953483,1,0,0,0,0,0
2645532000,-0.0067019085,-0.55945337,3.1037824,0.0,0.019094119,0.27598116,-0.008439354,0.9609363,0.0,0.0,-0.7024842,1,0,0,0,0,0
2645644000,-0.007501103,-0.5583496,3.103781,0.0,0.019205974,0.27544317,-0.008814082,0.9610851,0.0,0.0,-0.703379,1,0,0,0,0,0
2645736000,-0.006542159,-0.5548688,3.103784,0.0,0.019075982,0.2737792,-0.00832277,0.96156734,0.0,0.0,-0.7012433,1,0,0,0,0,0
2645828000,-0.007005847,-0.55030406,3.1037824,0.0,0.019144332,0.27157933,-0.008506604,0.962188,0.0,0.0,-0.7000434,1,0,0,0,0,0
2645940000,-0.008140229,-0.5510893,3.1037872,0.0,0.019295596,0.2719462,-0.009058405,0.9620763,0.0,0.0,-0.6989961,1,0,0,0,0,0
2646036000,-0.0071030017,-0.5581278,3.1037903,0.0,0.019146875,0.2753404,-0.008619589,0.9611175,0.0,0.0,-0.7030228,1,0,0,0,0,0
2646128000,-0.0062641185,-0.5541017,3.1037967,0.0,0.019032672,0.273413,-0.00818072,0.9616736,0.0,0.0,-0.70104176,1,0,0,0,0,0
2646240000,-0.006546461,-0.5537577,3.1038063,0.0,0.01906703,0.27324498,-0.008312206,0.9617196,0.0,0.0,-0.70099914,1,0,0,0,0,0
2646332000,-0.0069849077,-0.5496797,3.1038156,0.0,0.019126102,0.27127925,-0.00848665,0.9622732,0.0,0.0,-0.69972634,1,0,0,0,0,0
2646444000,-0.0062885047,-0.5521499,3.1038234,0.0,0.019025248,0.27247423,-0.008171906,0.9619403,0.0,0.0,-0.6968972,1,0,0,0,0,0
2646540000,-0.004560831,-0.5579844,3.1038299,0.0,0.018778078,0.2752958,-0.0073912144,0.9611477,0.0,0.0,-0.7019222,1,0,0,0,0,0
2646632000,-0.0055083516,-0.5533315,3.1038346,0.0,0.018912092,0.27304998,-0.007805435,0.9617822,0.0,0.0,-0.70127916,1,0,0,0,0,0
2646744000,-0.0056811417,-0.55287665,3.1038425,0.0,0.018932452,0.27282962,-0.0078835,0.9618438,0.0,0.0,-0.7012548,1,0,0,0,0,0
2646836000,-0.0072111017,-0.5477905,3.1038473,0.0,0.019143078,0.2703681,-0.008574945,0.9625285,0.0,0.0,-0.6991895,1,0,0,0,0,0
2646932000,-0.0069892164,-0.55614376,3.1038504,0.0,0.019104153,0.27438813,-0.008539592,0.9613913,0.0,0.0,-0.7024897,1,0,0,0,0,0
2647044000,-0.006717643,-0.55838954,3.1038551,0.0,0.019062404,0.27547014,-0.008427726,0.9610837,0.0,0.0,-0.70115584,1,0,0,0,0,0
2647136000,-0.007862509,-0.55535394,3.1038582,0.0,0.019220734,0.27400014,-0.008951562,0.9614959,0.0,0.0,-0.6992279,1,0,0,0,0,0
2647248000,-0.0068621393,-0.5538131,3.1038678,0.0,0.01908053,0.27326888,-0.008456076,0.9617113,0.0,0.0,-0.7010209,1,0,0,0,0,0
2647340000,-0.0075023803,-0.54896283,3.1038773,0.0,0.019167123,0.2709296,-0.00872111,0.96236885,0.0,0.0,-0.69954133,1,0,0,0,0,0
2647436000,-0.0051574595,-0.55572903,3.1038852,0.0,0.018836668,0.27420628,-0.007650684,0.96145594,0.0,0.0,-0.7021936,1,0,0,0,0,0
2647528000,-0.0060219034,-0.5534186,3.103893,0.0,0.018954014,0.2730872,-0.008045175,0.96176887,0.0,0.0,-0.7011819,1,0,0,0,0,0
2647640000,-0.0061550154,-0.553734,3.103901,0.0,0.018968064,0.2732377,-0.008110839,0.9617253,0.0,0.0,-0.7012975,1,0,0,0,0,0
2647732000,-0.0066893212,-0.5514363,3.1039073,0.0,0.019040171,0.27212754,-0.008347111,0.9620366,0.0,0.0,-0.6997341,1,0,0,0,0,0
2647844000,-0.008244465,-0.55045295,3.1039135,0.0,0.019249352,0.27163965,-0.009085956,0.96216357,0.0,0.0,-0.6989263,1,0,0,0,0,0
2647940000,-0.007850227,-0.5579299,3.1039152,0.0,0.019189853,0.27523872,-0.008959791,0.9611426,0.0,0.0,-0.70204526,1,0,0,0,0,0
2648032000,-0.008190645,-0.55448484,3.1039166,0.0,0.019238135,0.27357933,-0.0090939235,0.9616141,0.0,0.0,-0.70022523,1,0,0,0,0,0
2648144000,-0.008438777,-0.55488026,3.10392,0.0,0.019270258,0.27376708,-0.009216124,0.9615588,0.0,0.0,-0.6996168,1,0,0,0,0,0
2648236000,-0.009506715,-0.5488464,3.103923,0.0,0.019416628,0.2708545,-0.00967838,0.96237576,0.0,0.0,-0.6981203,1,0,0,0,0,0
2648332000,-0.008643531,-0.5544298,3.1039262,0.0,0.019295527,0.27354857,-0.009309904,0.9616196,0.0,0.0,-0.7023309,1,0,0,0,0,0
2648444000,-0.007912202,-0.5556983,3.103931,0.0,0.01919235,0.27416548,-0.0089684175,0.9614492,0.0,0.0,-0.7028027,1,0,0,0,0,0
2648536000,-0.0079733,-0.5513575,3.1039357,0.0,0.019201275,0.2720775,-0.008960193,0.96204203,0.0,0.0,-0.70018595,1,0,0,0,0,0
2648628000,-0.0070748082,-0.54854953,3.1039453,0.0,0.01907685,0.27073509,-0.008502617,0.9624273,0.0,0.0,-0.6983442,1,0,0,0,0,0
2648740000,-0.006814473,-0.54962766,3.103958,0.0,0.019034548,0.27125645,-0.0083848955,0.96228236,0.0,0.0,-0.6988611,1,0,0,0,0,0
2648836000,-0.0065044835,-0.5563253,3.103969,0.0,0.018980393,0.27448052,-0.0082918545,0.9613696,0.0,0.0,-0.7013568,1,0,0,0,0,0
2648928000,-0.006268902,-0.5511257,3.1039832,0.0,0.018946825,0.27198243,-0.008131887,0.9620813,0.0,0.0,-0.6998788,1,0,0,0,0,0
2649040000,-0.006022283,-0.5509743,3.1039991,0.0,0.018905774,0.27191198,-0.008009774,0.962103,0.0,0.0,-0.6993846,1,0,0,0,0,0
2649132000,-0.0067528835,-0.54935455,3.1040118,0.0,0.01900052,0.27112582,-0.0083456095,0.9623202,0.0,0.0,-0.6971911,1,0,0,0,0,0
2649244000,-0.0059120725,-0.54974747,3.1040213,0.0,0.01888151,0.27132288,-0.007943146,0.9622704,0.0,0.0,-0.6965362,1,0,0,0,0,0
2649340000,-0.0063947267,-0.5569277,3.1040308,0.0,0.01893502,0.2747714,-0.008235795,0.96128786,0.0,0.0,-0.700047,1,0,0,0,0,0
2649432000,-0.0075363847,-0.5511137,3.1040373,0.0,0.019093161,0.27196485,-0.008734133,0.96207815,0.0,0.0,-0.700204,1,0,0,0,0,0
2649544000,-0.008508287,-0.55122256,3.1040452,0.0,0.019221481,0.27200794,-0.009201507,0.962059,0.0,0.0,-0.6993576,1,0,0,0,0,0
2649636000,-0.010174159,-0.54891795,3.104042,0.0,0.019449765,0.27088296,-0.0099840285,0.962364,0.0,0.0,-0.69815034,1,0,0,0,0,0
2649732000,-0.009244045,-0.5592254,3.1040387,0.0,0.01932184,0.27584842,-0.00962349,0.9609587,0.0,0.0,-0.7013837,1,0,0,0,0,0
2649844000,-0.0093206,-0.56196177,3.104042,0.0,0.01932981,0.27716222,-0.009682729,0.96057993,0.0,0.0,-0.70244956,1,0,0,0,0,0
2649936000,-0.010451796,-0.5611059,3.1040435,0.0,0.019485962,0.27674016,-0.010218734,0.9606928,0.0,0.0,-0.70074546,1,0,0,0,0,0
2650028000,-0.009604258,-0.5567557,3.10405,0.0,0.019366816,0.27465808,-0.009774368,0.9612972,0.0,0.0,-0.69915456,1,0,0,0,0,0
2650140000,-0.009317741,-0.5543083,3.1040564,0.0,0.019325191,0.27348423,-0.009615247,0.9616343,0.0,0.0,-0.7010369,1,0,0,0,0,0
2650236000,-0.009611708,-0.5618284,3.1040642,0.0,0.01935954,0.27709547,-0.00981836,0.96059716,0.0,0.0,-0.7043931,1,0,0,0,0,0
2650328000,-0.010039212,-0.55882514,3.104069,0.0,0.019417033,0.2756485,-0.00999804,0.96101034,0.0,0.0,-0.7046468,1,0,0,0,0,0
2650440000,-0.00880185,-0.56047827,3.1040833,0.0,0.01923883,0.2764548,-0.009415399,0.9607882,0.0,0.0,-0.7029701,1,0,0,0,0,0
2650532000,-0.0073542665,-0.55694497,3.1040928,0.0,0.019037036,0.27477086,-0.008688622,0.961282,0.0,0.0,-0.7009226,1,0,0,0,0,0
2650644000,-0.00826436,-0.55609906,3.1040976,0.0,0.019160273,0.2743556,-0.0091182515,0.9613942,0.0,0.0,-0.70225406,1,0,0,0,0,0
2650740000,-0.009012281,-0.56306994,3.104104,0.0,0.019256828,0.27769774,-0.0095353415,0.9604282,0.0,0.0,-0.7049598,1,0,0,0,0,0
2650832000,-0.0088091055,-0.55939156,3.1041102,0.0,0.0192274,0.2759328,-0.009406038,0.9609386,0.0,0.0,-0.70287645,1,0,0,0,0,0
2650944000,-0.008452247,-0.5597396,3.1041167,0.0,0.019174881,0.27610344,-0.009236621,0.96089226,0.0,0.0,-0.70292306,1,0,0,0,0,0
2651036000,-0.0083813965,-0.5554249,3.1041262,0.0,0.019162947,0.27403045,-0.0091649005,0.96148634,0.0,0.0,-0.70036125,1,0,0,0,0,0
2651132000,-0.0084065655,-0.56150657,3.1041293,0.0,0.019161493,0.27695283,-0.009227804,0.9606481,0.0,0.0,-0.7047715,1,0,0,0,0,0
2651244000,-0.0077137556,-0.56109405,3.1041484,0.0,0.019056695,0.27676135,-0.0088888975,0.9607086,0.0,0.0,-0.70439625,1,0,0,0,0,0
2651336000,-0.0070588514,-0.55949724,3.1041613,0.0,0.01896131,0.27600047,-0.00855895,0.9609324,0.0,0.0,-0.7036769,1,0,0,0,0,0
2651428000,-0.006584547,-0.5559265,3.1041725,0.0,0.018894015,0.2742889,-0.00829902,0.9614259,0.0,0.0,-0.70130044,1,0,0,0,0,0
2651540000,-0.007482141,-0.55655813,3.1041834,0.0,0.019011356,0.27458408,-0.008734358,0.9613354,0.0,0.0,-0.7011023,1,0,0,0,0,0
2651636000,-0.0064789825,-0.56363547,3.1041994,0.0,0.01885868,0.2779939,-0.00831039,0.9603618,0.0,0.0,-0.7028033,1,0,0,0,0,0
2651748000,-0.0063262614,-0.5620734,3.104209,0.0,0.018834554,0.27724516,-0.008222392,0.9605794,0.0,0.0,-0.70379454,1,0,0,0,0,0
2651840000,-0.006748712,-0.5578201,3.1042202,0.0,0.018891815,0.27519774,-0.008387531,0.9611654,0.0,0.0,-0.7030837,1,0,0,0,0,0
2651932000,-0.006051998,-0.5560156,3.1042266,0.0,0.018794866,0.27433696,-0.008036359,0.96141636,0.0,0.0,-0.7014421,1,0,0,0,0,0
2652044000,-0.005928104,-0.55715585,3.1042378,0.0,0.018771185,0.27488628,-0.007985039,0.9612603,0.0,0.0,-0.70012975,1,0,0,0,0,0
2652140000,-0.005787272,-0.5634945,3.104241,0.0,0.018742781,0.27793282,-0.007971267,0.9603846,0.0,0.0,-0.70463663,1,0,0,0,0,0
2652232000,-0.004977465,-0.5569106,3.1042554,0.0,0.018632373,0.27477732,-0.00752359,0.9612979,0.0,0.0,-0.7044295,1,0,0,0,0,0
2652344000,-0.0055840956,-0.55690324,3.1042633,0.0,0.01871195,0.2747682,-0.007814024,0.9612966,0.0,0.0,-0.70537955,1,0,0,0,0,0
2652436000,-0.0054948283,-0.55683094,3.1042728,0.0,0.018695189,0.2747343,-0.0077691847,0.96130705,0.0,0.0,-0.70170563,1,0,0,0,0,0
2652532000,-0.0048640477,-0.565654,3.1042793,0.0,0.01859296,0.27897847,-0.0075412225,0.9600877,0.0,0.0,-0.70460045,1,0,0,0,0,0
2652644000,-0.0048066457,-0.5637767,3.1042922,0.0,0.018581485,0.2780777,-0.007495688,0.9603496,0.0,0.0,-0.705959,1,0,0,0,0,0
2652736000,-0.0049586818,-0.5578697,3.1042984,0.0,0.018607851,0.2752386,-0.007516935,0.9611665,0.0,0.0,-0.70328677,1,0,0,0,0,0
2652848000,-0.0046345773,-0.5554787,3.1043112,0.0,0.018560518,0.27409238,-0.007338738,0.96149623,0.0,0.0,-0.70379925,1,0,0,0,0,0
2652940000,-0.0033635632,-0.5522326,3.1043177,0.0,0.01838888,0.27254325,-0.00669847,0.96194446,0.0,0.0,-0.7023547,1,0,0,0,0,0
2653036000,-0.002978111,-0.56155825,3.1043255,0.0,0.018315362,0.27702934,-0.0065936316,0.9606642,0.0,0.0,-0.7035381,1,0,0,0,0,0
2653148000,-0.0033780157,-0.56199574,3.1043336,0.0,0.018366085,0.2772358,-0.006788408,0.9606024,0.0,0.0,-0.704453,1,0,0,0,0,0
2653240000,-0.005371613,-0.55766624,3.1043353,0.0,0.018647179,0.2751372,-0.007708552,0.9611932,0.0,0.0,-0.7020943,1,0,0,0,0,0
2653332000,-0.005532128,-0.55315894,3.1043367,0.0,0.018674087,0.2729687,-0.007746835,0.96181047,0.0,0.0,-0.7010703,1,0,0,0,0,0
2653444000,-0.004228333,-0.5524458,3.1043417,0.0,0.018494818,0.27263787,-0.0071129673,0.96191263,0.0,0.0,-0.70108813,1,0,0,0,0,0
2653540000,-0.0037450942,-0.56002104,3.1043432,0.0,0.018415704,0.2762838,-0.006946236,0.96087456,0.0,0.0,-0.70389974,1,0,0,0,0,0
2653632000,-0.004039306,-0.55532396,3.1043465,0.0,0.01846222,0.2740236,-0.007046384,0.96151996,0.0,0.0,-0.7016713,1,0,0,0,0,0
2653744000,-0.0036881273,-0.5550834,3.1043465,0.0,0.018414507,0.27391124,-0.0068754586,0.96155405,0.0,0.0,-0.70194036,1,0,0,0,0,0
2653836000,-0.0038463697,-0.55051875,3.10434,0.0,0.01844665,0.27171442,-0.0069127223,0.96217626,0.0,0.0,-0.6995887,1,0,0,0,0,0
2653932000,-0.003243889,-0.55818176,3.1043353,0.0,0.01835354,0.2754046,-0.0066904705,0.9611299,0.0,0.0,-0.7027252,1,0,0,0,0,0
2654044000,-0.0039337166,-0.55623126,3.1043336,0.0,0.018452488,0.2744608,-0.0070052696,0.9613957,0.0,0.0,-0.703946,1,0,0,0,0,0
2654136000,-0.005362813,-0.5537655,3.1043289,0.0,0.018654002,0.273262,-0.0076716994,0.96172816,0.0,0.0,-0.7010179,1,0,0,0,0,0
2654248000,-0.0043610577,-0.5540068,3.104324,0.0,0.018519059,0.27338734,-0.007192732,0.96169883,0.0,0.0,-0.69967586,1,0,0,0,0,0
2654340000,-0.0040719053,-0.54934406,3.1043193,0.0,0.018489089,0.2711471,-0.007013833,0.96233475,0.0,0.0,-0.6992294,1,0,0,0,0,0
2654436000,-0.0035413008,-0.5565927,3.1043193,0.0,0.018404895,0.2746381,-0.0068217483,0.96134734,0.0,0.0,-0.70209116,1,0,0,0,0,0
2654548000,-0.0038502563,-0.5563626,3.1043146,0.0,0.018449988,0.27452463,-0.00696891,0.96137774,0.0,0.0,-0.7015781,1,0,0,0,0,0
2654640000,-0.0037257515,-0.5519237,3.1043112,0.0,0.01844184,0.27239132,-0.006870858,0.96198535,0.0,0.0,-0.7001424,1,0,0,0,0,0
2654732000,-0.003377148,-0.5499977,3.1043065,0.0,0.018399972,0.27146798,-0.0066869985,0.9622484,0.0,0.0,-0.6969801,1,0,0,0,0,0
2654844000,-0.0029772047,-0.54811376,3.1043017,0.0,0.018351391,0.27056506,-0.0064786985,0.962505,0.0,0.0,-0.69778067,1,0,0,0,0,0
2654940000,-0.0045828265,-0.5569938,3.1042905,0.0,0.01856119,0.27482113,-0.007329812,0.9612883,0.0,0.0,-0.701232,1,0,0,0,0,0
2655032000,-0.004662202,-0.5551719,3.1042793,0.0,0.018580107,0.27394456,-0.0073537454,0.96153784,0.0,0.0,-0.6995684,1,0,0,0,0,0
2655144000,-0.0030576682,-0.56132567,3.1042745,0.0,0.018351322,0.27691662,-0.0066368757,0.9606958,0.0,0.0,-0.6996312,1,0,0,0,0,0
2655236000,-0.0039527654,-0.56013036,3.1042728,0.0,0.018478006,0.27633423,-0.007056676,0.960858,0.0,0.0,-0.69790834,1,0,0,0,0,0
2655332000,-0.0036379488,-0.5669267,3.1042697,0.0,0.018424299,0.27960068,-0.006965048,0.9599143,0.0,0.0,-0.7021386,1,0,0,0,0,0
2655444000,-0.0038937454,-0.5654915,3.104268,0.0,0.018463263,0.2789094,-0.007075585,0.9601139,0.0,0.0,-0.70518595,1,0,0,0,0,0
2655536000,-0.003748427,-0.5630481,3.1042697,0.0,0.018446343,0.27773756,-0.0069843326,0.9604545,0.0,0.0,-0.7031928,1,0,0,0,0,0
2655628000,-0.0037329746,-0.5635544,3.1042714,0.0,0.01844254,0.27798086,-0.006981088,0.9603842,0.0,0.0,-0.6997559,1,0,0,0,0,0
2655740000,-0.002748365,-0.56170726,3.1042745,0.0,0.018307758,0.2771028,-0.0064916513,0.9606439,0.0,0.0,-0.70018435,1,0,0,0,0,0
2655836000,-0.0021508925,-0.56752676,3.1042762,0.0,0.018212061,0.2799023,-0.006255707,0.9598354,0.0,0.0,-0.70392954,1,0,0,0,0,0
2655928000,-0.0016199801,-0.56021976,3.104281,0.0,0.01815159,0.27639854,-0.005935604,0.96085334,0.0,0.0,-0.7042116,1,0,0,0,0,0
2656040000,-0.0018192439,-0.5609684,3.104281,0.0,0.018177524,0.27675635,-0.006037951,0.9607492,0.0,0.0,-0.70347404,1,0,0,0,0,0
2656132000,-0.0026869033,-0.5584048,3.1042762,0.0,0.018304825,0.27551672,-0.0064329035,0.9611005,0.0,0.0,-0.7012615,1,0,0,0,0,0
2656244000,-0.0019447922,-0.55902654,3.1042714,0.0,0.018203573,0.27582225,-0.0060824323,0.961017,0.0,0.0,-0.70154357,1,0,0,0,0,0
2656340000,-0.0024033058,-0.5667045,3.104268,0.0,0.018252946,0.27950534,-0.0063707507,0.9599495,0.0,0.0,-0.7044171,1,0,0,0,0,0
2656436000,-0.0012523845,-0.5662404,3.1042616,0.0,0.018096263,0.279293,-0.005815118,0.96001786,0.0,0.0,-0.7048032,1,0,0,0,0,0
2656548000,-0.0015228138,-0.56590164,3.1042585,0.0,0.018136272,0.279128,-0.005942362,0.96006423,0.0,0.0,-0.70420724,1,0,0,0,0,0
2656640000,-0.0018733992,-0.56231934,3.1042554,0.0,0.018194385,0.27740467,-0.006079437,0.9605617,0.0,0.0,-0.7028567,1,0,0,0,0,0
2656732000,-0.0012119109,-0.55674124,3.104252,0.0,0.01811699,0.27473056,-0.005712622,0.9613336,0.0,0.0,-0.70143074,1,0,0,0,0,0
2656844000,-0.0007809681,-0.55652535,3.1042457,0.0,0.0180614,0.27463064,-0.005504439,0.9613644,0.0,0.0,-0.7010747,1,0,0,0,0,0
2656940000,-0.001454879,-0.557565,3.1042378,0.0,0.018155415,0.2751242,-0.005838686,0.96121955,0.0,0.0,-0.7004434,1,0,0,0,0,0
2657036000,-0.0020178067,-0.5648373,3.1042314,0.0,0.018220656,0.27861243,-0.0061743692,0.9602109,0.0,0.0,-0.70496815,1,0,0,0,0,0
2657148000,-0.0008413339,-0.56534415,3.1042235,0.0,0.018059328,0.2788664,-0.005615152,0.9601437,0.0,0.0,-0.7041359,1,0,0,0,0,0
2657240000,-0.0024663652,-0.5612557,3.1042154,0.0,0.018297987,0.27688828,-0.006360415,0.9607068,0.0,0.0,-0.70312357,1,0,0,0,0,0
2657332000,-0.0017771223,-0.5569602,3.1042058,0.0,0.018216392,0.2748305,-0.0059925932,0.96130145,0.0,0.0,-0.699772,1,0,0,0,0,0
2657444000,-0.0008576199,-0.5559952,3.1041946,0.0,0.0180977,0.27437496,-0.005543556,0.9614365,0.0,0.0,-0.70182014,1,0,0,0,0,0
2657540000,-0.0010189269,-0.5643922,3.1041882,0.0,0.018103274,0.27840766,-0.0056968476,0.9602755,0.0,0.0,-0.70402074,1,0,0,0,0,0
2657632000,-0.0016275239,-0.5606868,3.1041772,0.0,0.01820143,0.27662253,-0.0059577064,0.96078783,0.0,0.0,-0.70178115,1,0,0,0,0,0
2657744000,-0.0023480894,-0.5600396,3.1041644,0.0,0.018308586,0.27630496,-0.0062999274,0.960875,0.0,0.0,-0.7013207,1,0,0,0,0,0
2657836000,-0.0028184932,-0.55495185,3.1041532,0.0,0.018388616,0.27385536,-0.006482683,0.96157324,0.0,0.0,-0.7014137,1,0,0,0,0,0
2657932000,-0.0026761899,-0.5634209,3.1041436,0.0,0.018357277,0.27792603,-0.0064902124,0.9604051,0.0,0.0,-0.7028403,1,0,0,0,0,0
2658044000,-0.0028686565,-0.5634574,3.1041327,0.0,0.01838922,0.27794176,-0.00658448,0.9603993,0.0,0.0,-0.7028675,1,0,0,0,0,0
2658136000,-0.0031922054,-0.5591121,3.1041183,0.0,0.018448997,0.2758514,-0.006703682,0.96099985,0.0,0.0,-0.7017355,1,0,0,0,0,0
2658228000,-0.0034217045,-0.5561309,3.1041088,0.0,0.018490473,0.27441648,-0.0067891185,0.96140915,0.0,0.0,-0.6994582,1,0,0,0,0,0
2658344000,-0.00431507,-0.5593873,3.104085,0.0,0.018619478,0.27597314,-0.0072502196,0.96095765,0.0,0.0,-0.7006712,1,0,0,0,0,0
2658436000,-0.004344241,-0.5541823,3.104072,0.0,0.018637668,0.2734709,-0.0072206245,0.9616726,0.0,0.0,-0.69974095,1,0,0,0,0,0
2658532000,-0.004000958,-0.5629915,3.1040578,0.0,0.018583292,0.2777073,-0.0071345433,0.9604595,0.0,0.0,-0.7013718,1,0,0,0,0,0
2658644000,-0.004251202,-0.562104,3.104042,0.0,0.018627003,0.27727866,-0.007249161,0.9605816,0.0,0.0,-0.7018454,1,0,0,0,0,0
2658736000,-0.0047132266,-0.5566435,3.1040292,0.0,0.018705213,0.2746506,-0.0074253455,0.96133345,0.0,0.0,-0.7006299,1,0,0,0,0,0
2658848000,-0.005517554,-0.5560547,3.1040118,0.0,0.018824767,0.27435994,-0.0078092515,0.9614112,0.0,0.0,-0.7003087,1,0,0,0,0,0
2658940000,-0.0047948477,-0.5509027,3.1039991,0.0,0.018738989,0.2718891,-0.007418687,0.96211755,0.0,0.0,-0.6989083,1,0,0,0,0,0
2659036000,-0.005313102,-0.5596663,3.1039832,0.0,0.018805737,0.27609748,-0.007746219,0.96091443,0.0,0.0,-0.701502,1,0,0,0,0,0
2659128000,-0.0054945764,-0.55724645,3.1039705,0.0,0.018839939,0.27493286,-0.007814193,0.9612471,0.0,0.0,-0.7006767,1,0,0,0,0,0
2659240000,-0.005154756,-0.5570948,3.1039517,0.0,0.01880248,0.27486306,-0.0076521374,0.9612691,0.0,0.0,-0.7001866,1,0,0,0,0,0
2659332000,-0.0053883116,-0.55264693,3.1039436,0.0,0.01884418,0.2727223,-0.0077268854,0.9618772,0.0,0.0,-0.6988128,1,0,0,0,0,0
2659444000,-0.005031596,-0.55213284,3.103931,0.0,0.018802313,0.27247837,-0.00755257,0.9619486,0.0,0.0,-0.6981065,1,0,0,0,0,0
2659540000,-0.0058600903,-0.5579233,3.1039248,0.0,0.018911382,0.27525446,-0.008002013,0.9611521,0.0,0.0,-0.7016232,1,0,0,0,0,0
2659632000,-0.005592134,-0.5545566,3.1039183,0.0,0.01888178,0.27363864,-0.00784493,0.96161526,0.0,0.0,-0.6999202,1,0,0,0,0,0
2659744000,-0.007234521,-0.5561574,3.1039073,0.0,0.019110406,0.27439258,-0.008649808,0.96138895,0.0,0.0,-0.6997462,1,0,0,0,0,0
2659836000,-0.006503908,-0.5534158,3.103901,0.0,0.019016052,0.27308136,-0.0082758665,0.9617674,0.0,0.0,-0.69839704,1,0,0,0,0,0
2659932000,-0.0057260534,-0.563732,3.1038914,0.0,0.018901814,0.2780461,-0.0079924995,0.9603485,0.0,0.0,-0.7013912,1,0,0,0,0,0
2660044000,-0.0073826606,-0.56593126,3.1038818,0.0,0.019134816,0.27908623,-0.008808062,0.96003497,0.0,0.0,-0.70177984,1,0,0,0,0,0
2660136000,-0.007997259,-0.56533694,3.103874,0.0,0.019224776,0.278795,-0.009099129,0.9601151,0.0,0.0,-0.70028,1,0,0,0,0,0
2660248000,-0.00682996,-0.5662544,3.103866,0.0,0.019064922,0.2792465,-0.008547723,0.9599921,0.0,0.0,-0.6995769,1,0,0,0,0,0
2660344000,-0.007332062,-0.5660504,3.1038613,0.0,0.01913749,0.27914378,-0.0087876525,0.96001834,0.0,0.0,-0.7018165,1,0,0,0,0,0
2660436000,-0.007917727,-0.5624077,3.1038551,0.0,0.019224854,0.27738902,-0.009038643,0.96052283,0.0,0.0,-0.7006128,1,0,0,0,0,0
2660532000,-0.007307512,-0.57109904,3.1038504,0.0,0.019134823,0.2815666,-0.008820537,0.95931035,0.0,0.0,-0.7035873,1,0,0,0,0,0
2660644000,-0.008466927,-0.5715656,3.1038408,0.0,0.019302325,0.28177914,-0.0093819415,0.95923924,0.0,0.0,-0.70583946,1,0,0,0,0,0
2660736000,-0.009060258,-0.5674418,3.103836,0.0,0.019390177,0.27979487,-0.009632455,0.9598156,0.0,0.0,-0.7052774,1,0,0,0,0,0
2660848000,-0.008844519,-0.56774735,3.1038268,0.0,0.019364297,0.27994353,-0.009532799,0.95977384,0.0,0.0,-0.70518905,1,0,0,0,0,0
2660940000,-0.009931775,-0.5636999,3.1038203,0.0,0.019520592,0.27798998,-0.010021567,0.9603333,0.0,0.0,-0.70404357,1,0,0,0,0,0
2661036000,-0.008100989,-0.5712664,3.1038172,0.0,0.019262305,0.2816391,-0.009207217,0.9592828,0.0,0.0,-0.7065426,1,0,0,0,0,0
