timestamp,q[0],q[1],q[2],q[3],delta_q_reset[0],delta_q_reset[1],delta_q_reset[2],delta_q_reset[3],quat_reset_counter
2613228000,-0.97709185,-0.00020286086,-0.00075819687,-0.212838,0.0,0.0,0.0,0.0,0
2613240000,-0.97709185,-0.00020273599,-0.0007582138,-0.21283793,0.0,0.0,0.0,0.0,0
2613252000,-0.97709185,-0.00020273824,-0.0007582568,-0.212838,0.0,0.0,0.0,0.0,0
2613264000,-0.97709185,-0.00020256835,-0.00075825705,-0.21283795,0.0,0.0,0.0,0.0,0
2613276000,-0.97709185,-0.00020262276,-0.000758318,-0.21283801,0.0,0.0,0.0,0.0,0
2613288000,-0.97709185,-0.00020248968,-0.000758323,-0.21283793,0.0,0.0,0.0,0.0,0
2613300000,-0.97709185,-0.00020250597,-0.0007583759,-0.212838,0.0,0.0,0.0,0.0,0
2613308000,-0.97709185,-0.00020237574,-0.00075836503,-0.2128379,0.0,0.0,0.0,0.0,0
2613324000,-0.97709185,-0.00020238267,-0.00075840607,-0.212838,0.0,0.0,0.0,0.0,0
2613332000,-0.97709185,-0.00020222338,-0.000758373,-0.21283789,0.0,0.0,0.0,0.0,0
2613348000,-0.97709185,-0.00020226724,-0.00075846695,-0.212838,0.0,0.0,0.0,0.0,0
2613360000,-0.97709185,-0.00020215954,-0.0007584611,-0.2128379,0.0,0.0,0.0,0.0,0
2613372000,-0.97709185,-0.00020214668,-0.0007584757,-0.21283798,0.0,0.0,0.0,0.0,0
2613380000,-0.97709185,-0.00020217306,-0.00075852056,-0.21283801,0.0,0.0,0.0,0.0,0
2613392000,-0.97709185,-0.00020198134,-0.0007585179,-0.21283795,0.0,0.0,0.0,0.0,0
2613408000,-0.9770919,-0.00020192824,-0.0007586404,-0.21283782,0.0,0.0,0.0,0.0,0
2613420000,-0.97709185,-0.00020185922,-0.0007585855,-0.21283793,0.0,0.0,0.0,0.0,0
2613432000,-0.97709185,-0.00020192684,-0.00075860333,-0.212838,0.0,0.0,0.0,0.0,0
2613444000,-0.97709185,-0.00020175491,-0.0007586097,-0.2128379,0.0,0.0,0.0,0.0,0
2613456000,-0.97709185,-0.00020179313,-0.00075861445,-0.21283798,0.0,0.0,0.0,0.0,0
2613464000,-0.9770919,-0.00020172498,-0.00075869507,-0.21283782,0.0,0.0,0.0,0.0,0
2613480000,-0.97709185,-0.00020167886,-0.0007586346,-0.21283795,0.0,0.0,0.0,0.0,0
2613488000,-0.97709185,-0.00020173074,-0.00075864955,-0.212838,0.0,0.0,0.0,0.0,0
2613504000,-0.97709185,-0.000201576,-0.0007586669,-0.21283792,0.0,0.0,0.0,0.0,0
2613516000,-0.9770919,-0.00020154747,-0.00075876754,-0.21283774,0.0,0.0,0.0,0.0,0
2613528000,-0.97709185,-0.00020144103,-0.0007586394,-0.21283789,0.0,0.0,0.0,0.0,0
2613540000,-0.97709185,-0.00020155006,-0.00075864245,-0.21283796,0.0,0.0,0.0,0.0,0
2613552000,-0.97709185,-0.00020139018,-0.0007586057,-0.2128379,0.0,0.0,0.0,0.0,0
2613560000,-0.97709185,-0.00020142879,-0.00075861515,-0.21283795,0.0,0.0,0.0,0.0,0
2613576000,-0.97709185,-0.00020128762,-0.000758636,-0.21283792,0.0,0.0,0.0,0.0,0
2613588000,-0.97709185,-0.00020131988,-0.0007586775,-0.21283798,0.0,0.0,0.0,0.0,0
2613600000,-0.97709185,-0.00020120405,-0.00075867824,-0.2128379,0.0,0.0,0.0,0.0,0
2613608000,-0.97709185,-0.0002012066,-0.0007587083,-0.21283795,0.0,0.0,0.0,0.0,0
2613620000,-0.97709185,-0.0002010834,-0.00075871317,-0.21283787,0.0,0.0,0.0,0.0,0
2613636000,-0.97709185,-0.00020108873,-0.00075875124,-0.21283796,0.0,0.0,0.0,0.0,0
2613644000,-0.97709185,-0.00020094836,-0.0007587271,-0.21283787,0.0,0.0,0.0,0.0,0
2613660000,-0.97709185,-0.00020099031,-0.0007588248,-0.21283796,0.0,0.0,0.0,0.0,0
2613672000,-0.97709185,-0.00020087424,-0.0007588241,-0.21283787,0.0,0.0,0.0,0.0,0
2613680000,-0.97709185,-0.00020085681,-0.00075883756,-0.21283793,0.0,0.0,0.0,0.0,0
2613696000,-0.97709185,-0.00020071698,-0.0007588486,-0.21283787,0.0,0.0,0.0,0.0,0
2613708000,-0.97709185,-0.0002007071,-0.0007588948,-0.21283795,0.0,0.0,0.0,0.0,0
2613716000,-0.97709185,-0.00020073066,-0.0007589235,-0.21283798,0.0,0.0,0.0,0.0,0
2613728000,-0.97709185,-0.00020057503,-0.00075894943,-0.21283787,0.0,0.0,0.0,0.0,0
2613744000,-0.97709185,-0.00020063414,-0.0007589543,-0.21283796,0.0,0.0,0.0,0.0,0
2613756000,-0.97709185,-0.00020046358,-0.00075895916,-0.21283789,0.0,0.0,0.0,0.0,0
2613768000,-0.97709185,-0.00020050265,-0.00075896335,-0.21283795,0.0,0.0,0.0,0.0,0
2613780000,-0.97709185,-0.00020038252,-0.0007590061,-0.21283785,0.0,0.0,0.0,0.0,0
2613792000,-0.97709185,-0.0002003842,-0.0007589856,-0.21283793,0.0,0.0,0.0,0.0,0
2613804000,-0.9770919,-0.0002002562,-0.00075904594,-0.21283782,0.0,0.0,0.0,0.0,0
2613812000,-0.97709185,-0.00020027056,-0.00075900694,-0.21283789,0.0,0.0,0.0,0.0,0
2613828000,-0.9770919,-0.00020024566,-0.00075912004,-0.21283773,0.0,0.0,0.0,0.0,0
2613840000,-0.97709185,-0.00020014546,-0.0007589922,-0.21283787,0.0,0.0,0.0,0.0,0
2613848000,-0.97709185,-0.00020025764,-0.00075899455,-0.21283792,0.0,0.0,0.0,0.0,0
2613864000,-0.97709185,-0.00020012149,-0.00075896666,-0.21283789,0.0,0.0,0.0,0.0,0
2613876000,-0.97709185,-0.00020016283,-0.0007589786,-0.21283795,0.0,0.0,0.0,0.0,0
2613888000,-0.97709185,-0.00020000602,-0.0007589941,-0.21283787,0.0,0.0,0.0,0.0,0
2613900000,-0.97709185,-0.00020003569,-0.00075903133,-0.21283795,0.0,0.0,0.0,0.0,0
2613908000,-0.97709185,-0.0001999372,-0.0007590248,-0.21283785,0.0,0.0,0.0,0.0,0
2613924000,-0.97709185,-0.00019993495,-0.00075907615,-0.21283795,0.0,0.0,0.0,0.0,0
2613932000,-0.97709185,-0.00019980989,-0.00075906096,-0.21283785,0.0,0.0,0.0,0.0,0
2613948000,-0.97709185,-0.0001998111,-0.0007590984,-0.21283795,0.0,0.0,0.0,0.0,0
2613960000,-0.97709185,-0.00019966965,-0.0007591034,-0.21283787,0.0,0.0,0.0,0.0,0
2613972000,-0.97709185,-0.00019971716,-0.0007591818,-0.21283795,0.0,0.0,0.0,0.0,0
2613984000,-0.97709185,-0.00019955929,-0.0007591486,-0.21283787,0.0,0.0,0.0,0.0,0
2613996000,-0.97709185,-0.00019956955,-0.00075917185,-0.21283795,0.0,0.0,0.0,0.0,0
2614008000,-0.97709185,-0.00019942907,-0.00075918407,-0.21283785,0.0,0.0,0.0,0.0,0
2614020000,-0.97709185,-0.00019942378,-0.00075923756,-0.21283793,0.0,0.0,0.0,0.0,0
2614032000,-0.9770919,-0.00019934888,-0.0007593358,-0.21283777,0.0,0.0,0.0,0.0,0
2614040000,-0.97709185,-0.00019929543,-0.0007592931,-0.21283786,0.0,0.0,0.0,0.0,0
2614056000,-0.97709185,-0.00019935583,-0.00075930334,-0.21283795,0.0,0.0,0.0,0.0,0
2614064000,-0.9770919,-0.00019920315,-0.0007593233,-0.21283783,0.0,0.0,0.0,0.0,0
2614076000,-0.97709185,-0.00019921907,-0.0007593114,-0.21283792,0.0,0.0,0.0,0.0,0
2614092000,-0.9770919,-0.00019909433,-0.0007593521,-0.21283783,0.0,0.0,0.0,0.0,0
2614104000,-0.97709185,-0.00019910038,-0.0007593358,-0.21283792,0.0,0.0,0.0,0.0,0
2614112000,-0.9770919,-0.00019903957,-0.00075944257,-0.21283773,0.0,0.0,0.0,0.0,0
2614128000,-0.97709185,-0.00019897819,-0.0007593476,-0.21283789,0.0,0.0,0.0,0.0,0
2614140000,-0.9770919,-0.00019895886,-0.00075947214,-0.21283771,0.0,0.0,0.0,0.0,0
2614152000,-0.97709185,-0.00019885648,-0.0007593466,-0.21283785,0.0,0.0,0.0,0.0,0
2614160000,-0.97709185,-0.00019896748,-0.00075934845,-0.2128379,0.0,0.0,0.0,0.0,0
2614176000,-0.97709185,-0.00019883244,-0.00075932627,-0.21283786,0.0,0.0,0.0,0.0,0
2614188000,-0.97709185,-0.00019888148,-0.0007593442,-0.21283792,0.0,0.0,0.0,0.0,0
2614196000,-0.9770919,-0.0001987293,-0.00075935264,-0.21283783,0.0,0.0,0.0,0.0,0
2614208000,-0.97709185,-0.00019873504,-0.00075937575,-0.2128379,0.0,0.0,0.0,0.0,0
2614220000,-0.97709185,-0.00019860224,-0.0007593649,-0.21283785,0.0,0.0,0.0,0.0,0
2614232000,-0.97709185,-0.00019861298,-0.00075940817,-0.21283792,0.0,0.0,0.0,0.0,0
2614244000,-0.97709185,-0.00019848146,-0.0007594091,-0.21283786,0.0,0.0,0.0,0.0,0
2614260000,-0.97709185,-0.00019851282,-0.0007594577,-0.21283793,0.0,0.0,0.0,0.0,0
2614272000,-0.97709185,-0.00019835887,-0.00075940933,-0.21283789,0.0,0.0,0.0,0.0,0
2614284000,-0.97709185,-0.00019840938,-0.00075942744,-0.21283793,0.0,0.0,0.0,0.0,0
2614296000,-0.97709185,-0.00019845617,-0.0007594413,-0.21283796,0.0,0.0,0.0,0.0,0
2614304000,-0.97709185,-0.00019848242,-0.0007594515,-0.21283796,0.0,0.0,0.0,0.0,0
2614320000,-0.97709185,-0.00019832006,-0.0007594166,-0.21283793,0.0,0.0,0.0,0.0,0
2614332000,-0.97709185,-0.00019835397,-0.00075944274,-0.21283796,0.0,0.0,0.0,0.0,0
2614344000,-0.97709185,-0.00019821821,-0.0007594208,-0.21283789,0.0,0.0,0.0,0.0,0
2614356000,-0.97709185,-0.00019821558,-0.0007594323,-0.21283793,0.0,0.0,0.0,0.0,0
2614368000,-0.97709185,-0.00019829957,-0.00075948914,-0.21283796,0.0,0.0,0.0,0.0,0
2614376000,-0.97709185,-0.00019816382,-0.0007594658,-0.21283787,0.0,0.0,0.0,0.0,0
2614392000,-0.97709185,-0.00019816286,-0.00075950404,-0.21283793,0.0,0.0,0.0,0.0,0
2614400000,-0.97709185,-0.00019821117,-0.00075952196,-0.21283796,0.0,0.0,0.0,0.0,0
2614412000,-0.97709185,-0.00019809262,-0.0007595134,-0.21283787,0.0,0.0,0.0,0.0,0
2614428000,-0.97709185,-0.00019809413,-0.00075950765,-0.21283793,0.0,0.0,0.0,0.0,0
2614440000,-0.97709185,-0.00019816874,-0.00075954286,-0.21283796,0.0,0.0,0.0,0.0,0
2614452000,-0.97709185,-0.00019800304,-0.00075950817,-0.2128379,0.0,0.0,0.0,0.0,0
2614464000,-0.97709185,-0.00019804797,-0.0007595424,-0.21283795,0.0,0.0,0.0,0.0,0
2614472000,-0.97709185,-0.0001980814,-0.0007595692,-0.21283796,0.0,0.0,0.0,0.0,0
2614484000,-0.97709185,-0.00019791284,-0.00075953617,-0.2128379,0.0,0.0,0.0,0.0,0
2614500000,-0.97709185,-0.00019795333,-0.0007595903,-0.21283795,0.0,0.0,0.0,0.0,0
2614512000,-0.97709185,-0.00019786674,-0.000759589,-0.21283787,0.0,0.0,0.0,0.0,0
2614520000,-0.97709185,-0.00019784273,-0.0007595822,-0.21283792,0.0,0.0,0.0,0.0,0
2614532000,-0.97709185,-0.0001978598,-0.000759596,-0.21283795,0.0,0.0,0.0,0.0,0
2614548000,-0.97709185,-0.00019779881,-0.00075962936,-0.21283787,0.0,0.0,0.0,0.0,0
2614556000,-0.97709185,-0.00019779419,-0.0007596141,-0.21283792,0.0,0.0,0.0,0.0,0
2614572000,-0.97709185,-0.00019784397,-0.00075964537,-0.21283795,0.0,0.0,0.0,0.0,0
2614580000,-0.97709185,-0.00019771101,-0.00075962476,-0.21283789,0.0,0.0,0.0,0.0,0
2614596000,-0.97709185,-0.00019773807,-0.0007596477,-0.21283795,0.0,0.0,0.0,0.0,0
2614608000,-0.97709185,-0.00019780386,-0.00075968844,-0.21283796,0.0,0.0,0.0,0.0,0
2614616000,-0.97709185,-0.00019764015,-0.00075966376,-0.2128379,0.0,0.0,0.0,0.0,0
2614628000,-0.97709185,-0.00019764432,-0.0007596569,-0.21283795,0.0,0.0,0.0,0.0,0
2614644000,-0.97709185,-0.0001976053,-0.00075967656,-0.21283789,0.0,0.0,0.0,0.0,0
2614656000,-0.97709185,-0.00019757664,-0.000759657,-0.21283793,0.0,0.0,0.0,0.0,0
2614664000,-0.97709185,-0.00019761783,-0.0007596761,-0.21283795,0.0,0.0,0.0,0.0,0
2614676000,-0.97709185,-0.00019768592,-0.00075971533,-0.21283796,0.0,0.0,0.0,0.0,0
2614688000,-0.97709185,-0.00019749963,-0.00075968396,-0.21283792,0.0,0.0,0.0,0.0,0
2614700000,-0.97709185,-0.000197554,-0.0007597048,-0.21283795,0.0,0.0,0.0,0.0,0
2614716000,-0.97709185,-0.00019747016,-0.0007597267,-0.2128379,0.0,0.0,0.0,0.0,0
2614728000,-0.97709185,-0.00019744661,-0.0007597068,-0.21283795,0.0,0.0,0.0,0.0,0
2614740000,-0.97709185,-0.00019751048,-0.0007597304,-0.21283796,0.0,0.0,0.0,0.0,0
2614752000,-0.97709185,-0.00019738905,-0.0007597197,-0.21283792,0.0,0.0,0.0,0.0,0
2614764000,-0.97709185,-0.0001974027,-0.0007597249,-0.21283795,0.0,0.0,0.0,0.0,0
2614776000,-0.97709185,-0.00019747297,-0.0007597493,-0.21283796,0.0,0.0,0.0,0.0,0
2614788000,-0.97709185,-0.00019737925,-0.0007597459,-0.21283793,0.0,0.0,0.0,0.0,0
2614800000,-0.97709185,-0.00019738574,-0.00075974234,-0.21283795,0.0,0.0,0.0,0.0,0
2614808000,-0.97709185,-0.0001974026,-0.00075975206,-0.21283796,0.0,0.0,0.0,0.0,0
2614824000,-0.97709185,-0.00019728407,-0.0007597452,-0.21283793,0.0,0.0,0.0,0.0,0
2614832000,-0.97709185,-0.00019730386,-0.00075974775,-0.21283795,0.0,0.0,0.0,0.0,0
2614844000,-0.97709185,-0.00019736384,-0.0007597664,-0.21283796,0.0,0.0,0.0,0.0,0
2614856000,-0.97709185,-0.00019727049,-0.00075976824,-0.21283793,0.0,0.0,0.0,0.0,0
2614868000,-0.97709185,-0.00019733293,-0.00075977406,-0.21283795,0.0,0.0,0.0,0.0,0
2614880000,-0.97709185,-0.00019723143,-0.0007598034,-0.21283792,0.0,0.0,0.0,0.0,0
2614896000,-0.97709185,-0.00019727863,-0.00075978227,-0.21283795,0.0,0.0,0.0,0.0,0
2614904000,-0.97709185,-0.00019729382,-0.0007597791,-0.21283796,0.0,0.0,0.0,0.0,0
2614920000,-0.97709185,-0.00019716607,-0.0007597768,-0.21283795,0.0,0.0,0.0,0.0,0
2614928000,-0.97709185,-0.00019725949,-0.0007597887,-0.21283795,0.0,0.0,0.0,0.0,0
2614940000,-0.97709185,-0.00019723599,-0.0007597783,-0.21283796,0.0,0.0,0.0,0.0,0
2614956000,-0.97709185,-0.00019722572,-0.00075980835,-0.21283795,0.0,0.0,0.0,0.0,0
2614964000,-0.97709185,-0.00019723187,-0.0007597943,-0.21283795,0.0,0.0,0.0,0.0,0
2614980000,-0.97709185,-0.00019721175,-0.0007598311,-0.21283795,0.0,0.0,0.0,0.0,0
2614992000,-0.97709185,-0.00019716356,-0.00075979537,-0.21283795,0.0,0.0,0.0,0.0,0
2615000000,-0.97709185,-0.00019717599,-0.0007597874,-0.21283796,0.0,0.0,0.0,0.0,0
2615012000,-0.97709185,-0.0001972333,-0.000759859,-0.21283795,0.0,0.0,0.0,0.0,0
2615024000,-0.97709185,-0.00019720086,-0.000759889,-0.21283796,0.0,0.0,0.0,0.0,0
2615036000,-0.97709185,-0.00019842909,-0.00076021376,-0.21283804,0.0,0.0,0.0,0.0,0
2615052000,-0.9770917,-0.00025834146,-0.00077329355,-0.21283829,0.0,0.0,0.0,0.0,0
2615060000,-0.97709167,-0.00036014683,-0.0007953989,-0.21283856,0.0,0.0,0.0,0.0,0
2615076000,-0.9770893,-0.0007858815,-0.0008829936,-0.2128478,0.0,0.0,0.0,0.0,0
2615084000,-0.97708696,-0.0011282497,-0.0009314024,-0.21285692,0.0,0.0,0.0,0.0,0
2615100000,-0.9770811,-0.002044088,-0.00095414213,-0.21287677,0.0,0.0,0.0,0.0,0
2615112000,-0.97707564,-0.0028164748,-0.0008892885,-0.21289326,0.0,0.0,0.0,0.0,0
2615124000,-0.9770697,-0.0035683627,-0.0007581836,-0.21291001,0.0,0.0,0.0,0.0,0
2615136000,-0.97706336,-0.0042556995,-0.00060438446,-0.21292691,0.0,0.0,0.0,0.0,0
2615144000,-0.97705895,-0.0046671736,-0.0005085621,-0.21293853,0.0,0.0,0.0,0.0,0
2615156000,-0.9770523,-0.005217459,-0.00037868976,-0.21295667,0.0,0.0,0.0,0.0,0
2615172000,-0.97704303,-0.005844026,-0.00022672545,-0.21298309,0.0,0.0,0.0,0.0,0
2615184000,-0.9770362,-0.0062442245,-0.00013219604,-0.21300332,0.0,0.0,0.0,0.0,0
2615196000,-0.9770296,-0.0065895338,-4.325852e-05,-0.21302296,0.0,0.0,0.0,0.0,0
2615204000,-0.9770256,-0.0067862943,1.9214682e-05,-0.21303517,0.0,0.0,0.0,0.0,0
2615220000,-0.9770188,-0.0070883804,0.00014954525,-0.21305682,0.0,0.0,0.0,0.0,0
2615232000,-0.9770145,-0.0072459783,0.00023938908,-0.21307099,0.0,0.0,0.0,0.0,0
2615240000,-0.97701204,-0.007322608,0.00029638942,-0.2130794,0.0,0.0,0.0,0.0,0
2615256000,-0.9770082,-0.0074145244,0.0003933377,-0.21309365,0.0,0.0,0.0,0.0,0
2615268000,-0.9770062,-0.0074302997,0.00043956304,-0.21310233,0.0,0.0,0.0,0.0,0
2615280000,-0.97700477,-0.0074016415,0.0004619979,-0.21310984,0.0,0.0,0.0,0.0,0
2615292000,-0.9770036,-0.0073329783,0.00046562875,-0.21311758,0.0,0.0,0.0,0.0,0
2615300000,-0.97700286,-0.007264122,0.0004587938,-0.21312325,0.0,0.0,0.0,0.0,0
2615312000,-0.97700185,-0.0071206484,0.0004409306,-0.21313271,0.0,0.0,0.0,0.0,0
2615328000,-0.97700065,-0.006860484,0.00042948025,-0.21314672,0.0,0.0,0.0,0.0,0
2615336000,-0.9770002,-0.00671322,0.00042987592,-0.21315366,0.0,0.0,0.0,0.0,0
2615348000,-0.9769998,-0.0064903162,0.00042264356,-0.21316232,0.0,0.0,0.0,0.0,0
2615364000,-0.977,-0.006183906,0.00040777863,-0.21317051,0.0,0.0,0.0,0.0,0
2615376000,-0.97700036,-0.0059441836,0.00038878262,-0.21317591,0.0,0.0,0.0,0.0,0
2615388000,-0.97700065,-0.005694465,0.00036033537,-0.21318123,0.0,0.0,0.0,0.0,0
2615396000,-0.97700095,-0.005526617,0.00033617642,-0.21318442,0.0,0.0,0.0,0.0,0
2615412000,-0.9770019,-0.005178799,0.00029218142,-0.2131888,0.0,0.0,0.0,0.0,0
2615420000,-0.9770026,-0.004992913,0.0002759901,-0.21318993,0.0,0.0,0.0,0.0,0
2615432000,-0.977004,-0.0047001983,0.00025748278,-0.2131905,0.0,0.0,0.0,0.0,0
2615448000,-0.9770058,-0.004311948,0.00025013456,-0.21319056,0.0,0.0,0.0,0.0,0
2615460000,-0.9770069,-0.004052946,0.00024732947,-0.2131903,0.0,0.0,0.0,0.0,0
2615468000,-0.9770076,-0.0038957642,0.00024451048,-0.21318993,0.0,0.0,0.0,0.0,0
2615484000,-0.97700894,-0.0036200825,0.00022999968,-0.21318883,0.0,0.0,0.0,0.0,0
2615496000,-0.97700965,-0.0034337165,0.00022368335,-0.21318857,0.0,0.0,0.0,0.0,0
2615508000,-0.97701,-0.0032593296,0.00021294795,-0.2131897,0.0,0.0,0.0,0.0,0
2615520000,-0.9770101,-0.0030912634,0.00020046934,-0.21319188,0.0,0.0,0.0,0.0,0
2615528000,-0.97701013,-0.0029823135,0.00019611137,-0.21319325,0.0,0.0,0.0,0.0,0
2615544000,-0.9770104,-0.002769506,0.00020333695,-0.2131948,0.0,0.0,0.0,0.0,0
2615552000,-0.9770107,-0.0026712432,0.00021275129,-0.21319467,0.0,0.0,0.0,0.0,0
2615568000,-0.97701144,-0.002499389,0.00022812541,-0.21319355,0.0,0.0,0.0,0.0,0
2615576000,-0.97701174,-0.0024235758,0.00023557497,-0.21319301,0.0,0.0,0.0,0.0,0
2615592000,-0.97701216,-0.0022873776,0.00025714506,-0.21319246,0.0,0.0,0.0,0.0,0
2615600000,-0.9770123,-0.002220879,0.00027045293,-0.2131927,0.0,0.0,0.0,0.0,0
2615616000,-0.97701234,-0.0020863418,0.0003025402,-0.21319382,0.0,0.0,0.0,0.0,0
2615628000,-0.97701234,-0.0019799478,0.00033111213,-0.21319476,0.0,0.0,0.0,0.0,0
2615636000,-0.9770123,-0.0019063585,0.00034737223,-0.21319558,0.0,0.0,0.0,0.0,0
2615648000,-0.9770123,-0.0017990917,0.00036790373,-0.21319652,0.0,0.0,0.0,0.0,0
2615664000,-0.97701234,-0.0016757917,0.0003769652,-0.2131971,0.0,0.0,0.0,0.0,0
2615676000,-0.9770126,-0.0015922737,0.00037603365,-0.21319672,0.0,0.0,0.0,0.0,0
2615688000,-0.97701293,-0.0015112476,0.00037684749,-0.21319559,0.0,0.0,0.0,0.0,0
2615700000,-0.9770134,-0.0014331358,0.0003757362,-0.21319392,0.0,0.0,0.0,0.0,0
2615708000,-0.97701377,-0.0013842593,0.0003716423,-0.21319287,0.0,0.0,0.0,0.0,0
2615720000,-0.9770141,-0.0013107264,0.00035949418,-0.21319172,0.0,0.0,0.0,0.0,0
2615736000,-0.9770144,-0.0012288333,0.0003485243,-0.21319085,0.0,0.0,0.0,0.0,0
2615748000,-0.9770148,-0.0011779589,0.0003505944,-0.21318938,0.0,0.0,0.0,0.0,0
2615760000,-0.9770156,-0.0011312101,0.00036094882,-0.21318567,0.0,0.0,0.0,0.0,0
2615772000,-0.977017,-0.0010709548,0.0003832512,-0.2131797,0.0,0.0,0.0,0.0,0
2615784000,-0.9770185,-0.0010023675,0.00040631596,-0.21317327,0.0,0.0,0.0,0.0,0
2615796000,-0.9770196,-0.0009390949,0.00042436726,-0.21316826,0.0,0.0,0.0,0.0,0
2615804000,-0.9770202,-0.0009024966,0.00043445104,-0.2131657,0.0,0.0,0.0,0.0,0
2615816000,-0.9770209,-0.0008565174,0.00044300864,-0.2131625,0.0,0.0,0.0,0.0,0
2615828000,-0.9770217,-0.0008226437,0.00043889065,-0.21315922,0.0,0.0,0.0,0.0,0
2615844000,-0.97702277,-0.00080412073,0.00043515928,-0.2131544,0.0,0.0,0.0,0.0,0
2615856000,-0.97702366,-0.0007930224,0.0004444708,-0.21315035,0.0,0.0,0.0,0.0,0
2615868000,-0.9770247,-0.0007782846,0.00045831662,-0.2131457,0.0,0.0,0.0,0.0,0
2615876000,-0.97702545,-0.00076846743,0.00046277168,-0.21314216,0.0,0.0,0.0,0.0,0
2615892000,-0.97702706,-0.0007388051,0.00044764142,-0.21313491,0.0,0.0,0.0,0.0,0
2615904000,-0.97702813,-0.0007107604,0.00042920152,-0.21313013,0.0,0.0,0.0,0.0,0
2615916000,-0.97702914,-0.0006773151,0.00040202792,-0.21312572,0.0,0.0,0.0,0.0,0
2615928000,-0.97703016,-0.0006431157,0.00037441266,-0.21312104,0.0,0.0,0.0,0.0,0
2615940000,-0.97703105,-0.0006181036,0.0003562256,-0.21311723,0.0,0.0,0.0,0.0,0
2615952000,-0.9770313,-0.0005945218,0.0003451533,-0.21311612,0.0,0.0,0.0,0.0,0
2615960000,-0.9770311,-0.0005775448,0.00034488345,-0.21311712,0.0,0.0,0.0,0.0,0
2615976000,-0.97702986,-0.0005367042,0.00035883795,-0.21312273,0.0,0.0,0.0,0.0,0
2615984000,-0.977029,-0.0005132687,0.00036496916,-0.21312657,0.0,0.0,0.0,0.0,0
2616000000,-0.9770274,-0.00046313874,0.00037309446,-0.21313417,0.0,0.0,0.0,0.0,0
2616012000,-0.97702616,-0.000428281,0.00037755535,-0.21313989,0.0,0.0,0.0,0.0,0
2616024000,-0.97702515,-0.00040263348,0.00038881486,-0.21314457,0.0,0.0,0.0,0.0,0
2616032000,-0.9770247,-0.00039617092,0.00039767052,-0.2131468,0.0,0.0,0.0,0.0,0
2616048000,-0.97702396,-0.00040293968,0.00041386552,-0.21315005,0.0,0.0,0.0,0.0,0
2616060000,-0.97702354,-0.00040761242,0.00041011866,-0.2131521,0.0,0.0,0.0,0.0,0
2616072000,-0.9770233,-0.0004048898,0.0003980998,-0.21315305,0.0,0.0,0.0,0.0,0
2616080000,-0.97702336,-0.00039899358,0.00039072608,-0.2131529,0.0,0.0,0.0,0.0,0
2616092000,-0.9770236,-0.0003810788,0.00038162587,-0.21315189,0.0,0.0,0.0,0.0,0
2616108000,-0.97702414,-0.00033321156,0.00038257128,-0.21314944,0.0,0.0,0.0,0.0,0
2616120000,-0.9770247,-0.0002945259,0.00039940284,-0.21314687,0.0,0.0,0.0,0.0,0
2616128000,-0.97702515,-0.00027041748,0.00041483098,-0.2131447,0.0,0.0,0.0,0.0,0
2616140000,-0.9770261,-0.0002294477,0.00043964357,-0.21314047,0.0,0.0,0.0,0.0,0
2616152000,-0.97702724,-0.00018938935,0.00045814144,-0.21313526,0.0,0.0,0.0,0.0,0
2616168000,-0.9770287,-0.00014254858,0.00046699078,-0.2131284,0.0,0.0,0.0,0.0,0
2616180000,-0.9770296,-0.00010135422,0.00045194564,-0.21312453,0.0,0.0,0.0,0.0,0
2616192000,-0.9770302,-5.7478945e-05,0.00042058303,-0.2131217,0.0,0.0,0.0,0.0,0
2616204000,-0.9770307,-1.5370517e-05,0.00037839616,-0.21311961,0.0,0.0,0.0,0.0,0
2616216000,-0.9770314,2.6812075e-05,0.0003348353,-0.2131165,0.0,0.0,0.0,0.0,0
2616228000,-0.97703254,7.3346404e-05,0.00029483144,-0.21311142,0.0,0.0,0.0,0.0,0
2616240000,-0.97703385,0.00011087387,0.00025183865,-0.21310544,0.0,0.0,0.0,0.0,0
2616252000,-0.9770349,0.00014576787,0.00020791912,-0.21310054,0.0,0.0,0.0,0.0,0
2616260000,-0.97703534,0.00017023212,0.00017747337,-0.2130984,0.0,0.0,0.0,0.0,0
2616272000,-0.97703594,0.00020066046,0.00012911735,-0.21309572,0.0,0.0,0.0,0.0,0
2616288000,-0.9770371,0.00023298974,6.270819e-05,-0.2130905,0.0,0.0,0.0,0.0,0
2616300000,-0.9770385,0.00024875806,1.2267582e-05,-0.21308403,0.0,0.0,0.0,0.0,0
2616312000,-0.9770402,0.00025610666,-3.360184e-05,-0.21307625,0.0,0.0,0.0,0.0,0
2616324000,-0.9770418,0.00025424937,-7.435596e-05,-0.2130689,0.0,0.0,0.0,0.0,0
2616336000,-0.9770433,0.00023787213,-0.00011507737,-0.21306203,0.0,0.0,0.0,0.0,0
2616344000,-0.9770443,0.00022396262,-0.00014364712,-0.21305741,0.0,0.0,0.0,0.0,0
2616360000,-0.97704643,0.00019446947,-0.00019285722,-0.21304761,0.0,0.0,0.0,0.0,0
2616372000,-0.9770479,0.00016234348,-0.0002203851,-0.21304092,0.0,0.0,0.0,0.0,0
2616384000,-0.97704923,0.00013017484,-0.00024092953,-0.21303485,0.0,0.0,0.0,0.0,0
2616396000,-0.97705054,0.00010341978,-0.00025417696,-0.2130287,0.0,0.0,0.0,0.0,0
2616404000,-0.9770515,8.50958e-05,-0.00026115187,-0.21302441,0.0,0.0,0.0,0.0,0
2616420000,-0.97705334,4.966106e-05,-0.00027625248,-0.21301594,0.0,0.0,0.0,0.0,0
2616432000,-0.97705454,2.3028126e-05,-0.0002818779,-0.21301042,0.0,0.0,0.0,0.0,0
2616444000,-0.97705555,6.723492e-07,-0.0002765429,-0.2130058,0.0,0.0,0.0,0.0,0
2616452000,-0.97705615,-7.8932735e-06,-0.00026479678,-0.21300322,0.0,0.0,0.0,0.0,0
2616464000,-0.9770568,-1.0092676e-05,-0.00023308366,-0.21300024,0.0,0.0,0.0,0.0,0
2616480000,-0.97705734,4.654985e-06,-0.00017649368,-0.2129977,0.0,0.0,0.0,0.0,0
2616488000,-0.9770576,1.5040327e-05,-0.00014744808,-0.21299668,0.0,0.0,0.0,0.0,0
2616504000,-0.97705793,4.0278395e-05,-9.3770854e-05,-0.21299511,0.0,0.0,0.0,0.0,0
2616512000,-0.97705805,5.826377e-05,-6.962422e-05,-0.21299464,0.0,0.0,0.0,0.0,0
2616524000,-0.9770581,9.3273185e-05,-3.6195906e-05,-0.21299432,0.0,0.0,0.0,0.0,0
2616536000,-0.9770581,0.00013629497,-1.17855725e-05,-0.21299416,0.0,0.0,0.0,0.0,0
2616552000,-0.97705805,0.00020390046,-1.23721475e-05,-0.21299447,0.0,0.0,0.0,0.0,0
2616560000,-0.97705793,0.00024040666,-2.7818649e-05,-0.21299496,0.0,0.0,0.0,0.0,0
2616576000,-0.97705764,0.00031981454,-9.137324e-05,-0.21299607,0.0,0.0,0.0,0.0,0
2616588000,-0.9770573,0.00038069522,-0.00015485301,-0.21299763,0.0,0.0,0.0,0.0,0
2616600000,-0.9770567,0.0004388348,-0.00022447461,-0.2130001,0.0,0.0,0.0,0.0,0
2616612000,-0.97705585,0.00048239337,-0.0002956971,-0.21300378,0.0,0.0,0.0,0.0,0
2616624000,-0.97705525,0.0005036442,-0.0003699512,-0.2130065,0.0,0.0,0.0,0.0,0
2616636000,-0.977055,0.0005131065,-0.00044184222,-0.21300745,0.0,0.0,0.0,0.0,0
2616648000,-0.9770549,0.0005210194,-0.00050986634,-0.2130079,0.0,0.0,0.0,0.0,0
2616660000,-0.9770546,0.0005396542,-0.0005710233,-0.21300885,0.0,0.0,0.0,0.0,0
2616672000,-0.977054,0.0005793413,-0.0006236813,-0.21301128,0.0,0.0,0.0,0.0,0
2616684000,-0.97705305,0.00063624064,-0.0006717037,-0.21301553,0.0,0.0,0.0,0.0,0
2616696000,-0.97705185,0.00070182275,-0.0007119675,-0.21302065,0.0,0.0,0.0,0.0,0
2616708000,-0.97705054,0.0007759791,-0.00074539497,-0.21302618,0.0,0.0,0.0,0.0,0
2616720000,-0.9770492,0.00086055975,-0.0007778552,-0.2130321,0.0,0.0,0.0,0.0,0
2616728000,-0.9770483,0.0009203241,-0.0007977826,-0.21303591,0.0,0.0,0.0,0.0,0
2616740000,-0.9770472,0.0010084294,-0.0008236929,-0.21304038,0.0,0.0,0.0,0.0,0
2616756000,-0.97704613,0.0011135502,-0.00085924723,-0.21304464,0.0,0.0,0.0,0.0,0
2616768000,-0.9770455,0.0011802057,-0.00089077494,-0.21304709,0.0,0.0,0.0,0.0,0
2616780000,-0.9770451,0.001235502,-0.00092148234,-0.21304828,0.0,0.0,0.0,0.0,0
2616792000,-0.9770452,0.0012775072,-0.00094105303,-0.21304771,0.0,0.0,0.0,0.0,0
2616804000,-0.97704536,0.0013006867,-0.0009448833,-0.21304664,0.0,0.0,0.0,0.0,0
2616816000,-0.97704566,0.0013062564,-0.0009324877,-0.2130453,0.0,0.0,0.0,0.0,0
2616828000,-0.97704643,0.0012938182,-0.0009156001,-0.21304202,0.0,0.0,0.0,0.0,0
2616840000,-0.9770476,0.0012694041,-0.00090609473,-0.21303666,0.0,0.0,0.0,0.0,0
2616852000,-0.9770493,0.0012451253,-0.0009037623,-0.2130291,0.0,0.0,0.0,0.0,0
2616864000,-0.9770515,0.0012199114,-0.0009026697,-0.21301909,0.0,0.0,0.0,0.0,0
2616872000,-0.9770532,0.0012027883,-0.0008985058,-0.21301123,0.0,0.0,0.0,0.0,0
2616884000,-0.977056,0.0011790419,-0.000888225,-0.21299861,0.0,0.0,0.0,0.0,0
2616900000,-0.97705996,0.0011510648,-0.0008821971,-0.21298087,0.0,0.0,0.0,0.0,0
2616912000,-0.9770628,0.001121558,-0.0008932828,-0.21296784,0.0,0.0,0.0,0.0,0
2616924000,-0.9770657,0.0010883954,-0.00091114244,-0.21295467,0.0,0.0,0.0,0.0,0
2616936000,-0.9770687,0.0010578809,-0.00092373986,-0.21294089,0.0,0.0,0.0,0.0,0
2616948000,-0.97707194,0.0010401894,-0.0009270767,-0.21292631,0.0,0.0,0.0,0.0,0
2616960000,-0.9770753,0.0010429453,-0.00092246523,-0.21291088,0.0,0.0,0.0,0.0,0
2616968000,-0.97707766,0.0010501011,-0.0009158331,-0.21289992,0.0,0.0,0.0,0.0,0
2616980000,-0.9770814,0.0010584095,-0.0008997307,-0.21288264,0.0,0.0,0.0,0.0,0
2616992000,-0.9770855,0.0010693349,-0.00088267546,-0.21286416,0.0,0.0,0.0,0.0,0
2617008000,-0.9770912,0.0010892111,-0.00086382776,-0.21283779,0.0,0.0,0.0,0.0,0
2617020000,-0.9770958,0.0011147282,-0.00085451925,-0.21281666,0.0,0.0,0.0,0.0,0
2617028000,-0.977099,0.0011331515,-0.000849732,-0.21280175,0.0,0.0,0.0,0.0,0
2617040000,-0.977104,0.0011549802,-0.0008393536,-0.21277875,0.0,0.0,0.0,0.0,0
2617052000,-0.977109,0.0011749824,-0.00083330646,-0.21275575,0.0,0.0,0.0,0.0,0
2617068000,-0.9771152,0.0011972486,-0.00083422096,-0.21272713,0.0,0.0,0.0,0.0,0
2617080000,-0.97711957,0.0012120856,-0.00083256344,-0.21270703,0.0,0.0,0.0,0.0,0
2617088000,-0.9771224,0.0012234797,-0.00083011633,-0.2126938,0.0,0.0,0.0,0.0,0
2617104000,-0.97712815,0.0012515107,-0.00082299364,-0.21266751,0.0,0.0,0.0,0.0,0
2617116000,-0.9771322,0.0012807363,-0.00082023046,-0.21264875,0.0,0.0,0.0,0.0,0
2617128000,-0.9771358,0.0013148848,-0.0008199507,-0.21263209,0.0,0.0,0.0,0.0,0
2617140000,-0.97713864,0.0013410704,-0.0008184753,-0.21261866,0.0,0.0,0.0,0.0,0
2617152000,-0.9771411,0.0013518111,-0.0008166031,-0.21260743,0.0,0.0,0.0,0.0,0
2617160000,-0.97714245,0.0013493027,-0.00081594836,-0.21260118,0.0,0.0,0.0,0.0,0
2617176000,-0.9771446,0.0013173,-0.00081026356,-0.21259142,0.0,0.0,0.0,0.0,0
2617184000,-0.9771456,0.001287995,-0.0008098077,-0.21258701,0.0,0.0,0.0,0.0,0
2617200000,-0.9771474,0.0012301677,-0.00080624106,-0.21257925,0.0,0.0,0.0,0.0,0
2617212000,-0.97714835,0.0011976291,-0.0007986514,-0.2125749,0.0,0.0,0.0,0.0,0
2617224000,-0.9771488,0.0011748534,-0.00079761376,-0.21257317,0.0,0.0,0.0,0.0,0
2617236000,-0.9771485,0.0011613318,-0.0008163964,-0.2125746,0.0,0.0,0.0,0.0,0
2617244000,-0.9771479,0.0011548776,-0.0008394278,-0.21257721,0.0,0.0,0.0,0.0,0
2617256000,-0.97714657,0.0011528927,-0.0008835674,-0.21258324,0.0,0.0,0.0,0.0,0
2617272000,-0.97714365,0.0011625111,-0.0009520381,-0.21259621,0.0,0.0,0.0,0.0,0
2617284000,-0.9771409,0.0011752972,-0.0010092274,-0.21260843,0.0,0.0,0.0,0.0,0
2617292000,-0.977139,0.0011825847,-0.001044222,-0.21261698,0.0,0.0,0.0,0.0,0
2617304000,-0.97713614,0.0011911175,-0.0010850029,-0.21262999,0.0,0.0,0.0,0.0,0
2617316000,-0.97713333,0.00118951,-0.0011141169,-0.2126426,0.0,0.0,0.0,0.0,0
2617332000,-0.97713023,0.0011675098,-0.0011400308,-0.21265699,0.0,0.0,0.0,0.0,0
2617344000,-0.9771283,0.0011484245,-0.0011602939,-0.21266565,0.0,0.0,0.0,0.0,0
2617352000,-0.97712713,0.0011385683,-0.0011732,-0.21267098,0.0,0.0,0.0,0.0,0
2617364000,-0.9771252,0.0011277132,-0.0011841021,-0.21267986,0.0,0.0,0.0,0.0,0
2617380000,-0.977122,0.0011119366,-0.0011900271,-0.21269472,0.0,0.0,0.0,0.0,0
2617392000,-0.9771193,0.0010949265,-0.0011998134,-0.21270694,0.0,0.0,0.0,0.0,0
2617404000,-0.97711676,0.0010742039,-0.0012111863,-0.21271889,0.0,0.0,0.0,0.0,0
2617416000,-0.9771141,0.0010513461,-0.0012269466,-0.2127311,0.0,0.0,0.0,0.0,0
2617428000,-0.97711134,0.0010241519,-0.0012510276,-0.21274385,0.0,0.0,0.0,0.0,0
2617436000,-0.9771095,0.0010048418,-0.0012673157,-0.2127523,0.0,0.0,0.0,0.0,0
2617452000,-0.9771058,0.0009827078,-0.0012997921,-0.21276917,0.0,0.0,0.0,0.0,0
2617460000,-0.977104,0.0009836501,-0.0013073256,-0.21277726,0.0,0.0,0.0,0.0,0
2617476000,-0.9771006,0.0009913577,-0.0012948097,-0.21279289,0.0,0.0,0.0,0.0,0
2617488000,-0.97709817,0.0009955023,-0.0012712424,-0.21280427,0.0,0.0,0.0,0.0,0
2617496000,-0.9770966,0.000993975,-0.0012544142,-0.2128115,0.0,0.0,0.0,0.0,0
2617512000,-0.97709364,0.0009798621,-0.0012153703,-0.21282557,0.0,0.0,0.0,0.0,0
2617524000,-0.97709113,0.00096416543,-0.0011797431,-0.21283719,0.0,0.0,0.0,0.0,0
2617536000,-0.97708833,0.00094918854,-0.0011401406,-0.21285027,0.0,0.0,0.0,0.0,0
2617544000,-0.97708625,0.000941635,-0.0011102844,-0.21286008,0.0,0.0,0.0,0.0,0
2617556000,-0.9770827,0.00093075936,-0.0010592625,-0.2128765,0.0,0.0,0.0,0.0,0
2617572000,-0.97707754,0.00091831794,-0.0009917923,-0.21290074,0.0,0.0,0.0,0.0,0
2617580000,-0.97707474,0.00091674086,-0.0009623141,-0.21291368,0.0,0.0,0.0,0.0,0
2617592000,-0.9770704,0.000916485,-0.0009237265,-0.21293394,0.0,0.0,0.0,0.0,0
2617608000,-0.9770643,0.00091526017,-0.0008877966,-0.21296205,0.0,0.0,0.0,0.0,0
2617620000,-0.9770597,0.000915975,-0.00087630074,-0.21298309,0.0,0.0,0.0,0.0,0
2617632000,-0.97705513,0.0009248579,-0.00087234017,-0.21300407,0.0,0.0,0.0,0.0,0
2617644000,-0.97705054,0.00094171375,-0.00086885033,-0.21302505,0.0,0.0,0.0,0.0,0
2617656000,-0.9770459,0.0009562077,-0.00085835735,-0.21304628,0.0,0.0,0.0,0.0,0
2617668000,-0.97704124,0.000977214,-0.0008306525,-0.21306762,0.0,0.0,0.0,0.0,0
2617676000,-0.97703826,0.0009978298,-0.00080216536,-0.21308152,0.0,0.0,0.0,0.0,0
2617692000,-0.9770324,0.0010412281,-0.00073028536,-0.21310824,0.0,0.0,0.0,0.0,0
2617704000,-0.97702825,0.001067497,-0.00066786754,-0.21312755,0.0,0.0,0.0,0.0,0
2617712000,-0.9770255,0.001084017,-0.0006231719,-0.21314014,0.0,0.0,0.0,0.0,0
2617728000,-0.97702026,0.0011178697,-0.0005252481,-0.21316415,0.0,0.0,0.0,0.0,0
2617736000,-0.9770179,0.0011331113,-0.00047259516,-0.21317525,0.0,0.0,0.0,0.0,0
2617752000,-0.97701335,0.0011534306,-0.0003647333,-0.21319602,0.0,0.0,0.0,0.0,0
2617760000,-0.9770112,0.0011672192,-0.00030806207,-0.21320583,0.0,0.0,0.0,0.0,0
2617776000,-0.97700727,0.0012063788,-0.00020055979,-0.21322381,0.0,0.0,0.0,0.0,0
2617784000,-0.9770054,0.0012215188,-0.00014875484,-0.21323222,0.0,0.0,0.0,0.0,0
2617800000,-0.9770018,0.00124506,-4.4852117e-05,-0.21324891,0.0,0.0,0.0,0.0,0
2617812000,-0.97699904,0.0012501418,2.6892118e-05,-0.2132613,0.0,0.0,0.0,0.0,0
2617824000,-0.9769964,0.0012455438,8.616994e-05,-0.21327326,0.0,0.0,0.0,0.0,0
2617836000,-0.9769941,0.0012389974,0.00014087294,-0.2132841,0.0,0.0,0.0,0.0,0
2617844000,-0.9769927,0.0012335759,0.00017585611,-0.21329041,0.0,0.0,0.0,0.0,0
2617856000,-0.97699094,0.0012192519,0.00022727976,-0.21329857,0.0,0.0,0.0,0.0,0
2617868000,-0.9769895,0.0011930134,0.00027853347,-0.21330516,0.0,0.0,0.0,0.0,0
2617884000,-0.9769883,0.0011445001,0.00033672282,-0.2133109,0.0,0.0,0.0,0.0,0
2617892000,-0.97698796,0.001126252,0.00036107466,-0.21331258,0.0,0.0,0.0,0.0,0
2617908000,-0.97698766,0.0011090246,0.0003958797,-0.21331388,0.0,0.0,0.0,0.0,0
2617920000,-0.976988,0.0011114809,0.00041214333,-0.21331222,0.0,0.0,0.0,0.0,0
2617932000,-0.97698873,0.0011221697,0.00042252263,-0.21330883,0.0,0.0,0.0,0.0,0
2617940000,-0.9769894,0.0011320212,0.00042914116,-0.21330586,0.0,0.0,0.0,0.0,0
2617956000,-0.9769909,0.0011558897,0.0004491421,-0.21329892,0.0,0.0,0.0,0.0,0
2617968000,-0.97699195,0.0011660194,0.00046073992,-0.21329388,0.0,0.0,0.0,0.0,0
2617980000,-0.97699285,0.0011565408,0.00045583193,-0.21328968,0.0,0.0,0.0,0.0,0
2617988000,-0.97699344,0.0011409264,0.0004440674,-0.21328723,0.0,0.0,0.0,0.0,0
2618004000,-0.97699434,0.0011104392,0.00040688147,-0.21328326,0.0,0.0,0.0,0.0,0
2618016000,-0.9769946,0.0010912411,0.00036530776,-0.21328245,0.0,0.0,0.0,0.0,0
2618028000,-0.97699416,0.0010679177,0.00032130792,-0.21328458,0.0,0.0,0.0,0.0,0
2618040000,-0.97699314,0.0010376715,0.00028692457,-0.21328935,0.0,0.0,0.0,0.0,0
2618048000,-0.9769923,0.001013927,0.00027094618,-0.21329343,0.0,0.0,0.0,0.0,0
2618064000,-0.97699,0.00096398365,0.00024353214,-0.21330407,0.0,0.0,0.0,0.0,0
2618076000,-0.97698766,0.0009395684,0.00022012119,-0.21331501,0.0,0.0,0.0,0.0,0
2618084000,-0.9769859,0.0009289979,0.0001968001,-0.21332332,0.0,0.0,0.0,0.0,0
2618100000,-0.9769821,0.00092201296,0.00013909764,-0.21334043,0.0,0.0,0.0,0.0,0
2618112000,-0.97697943,0.0009316317,0.00010041813,-0.21335277,0.0,0.0,0.0,0.0,0
2618120000,-0.9769776,0.00094661996,7.997666e-05,-0.21336126,0.0,0.0,0.0,0.0,0
2618136000,-0.9769736,0.0009779044,5.3164807e-05,-0.21337932,0.0,0.0,0.0,0.0,0
2618144000,-0.97697157,0.0009933788,3.7790905e-05,-0.21338847,0.0,0.0,0.0,0.0,0
2618160000,-0.97696763,0.0010169973,-1.466859e-06,-0.21340638,0.0,0.0,0.0,0.0,0
2618172000,-0.97696465,0.0010287415,-3.8828937e-05,-0.21341997,0.0,0.0,0.0,0.0,0
2618184000,-0.97696155,0.0010355196,-7.001344e-05,-0.2134341,0.0,0.0,0.0,0.0,0
2618200000,-0.97695756,0.0010420589,-9.8365526e-05,-0.21345244,0.0,0.0,0.0,0.0,0
2618212000,-0.9769549,0.0010454232,-0.000115276074,-0.21346457,0.0,0.0,0.0,0.0,0
2618224000,-0.9769525,0.001049856,-0.00012863794,-0.2134755,0.0,0.0,0.0,0.0,0
2618236000,-0.9769501,0.0010642349,-0.00014503651,-0.21348648,0.0,0.0,0.0,0.0,0
2618248000,-0.97694767,0.0010900893,-0.00016633848,-0.21349744,0.0,0.0,0.0,0.0,0
2618260000,-0.9769453,0.0011196649,-0.00018143613,-0.2135083,0.0,0.0,0.0,0.0,0
2618268000,-0.9769437,0.0011392498,-0.00018755159,-0.21351553,0.0,0.0,0.0,0.0,0
2618284000,-0.9769405,0.0011808433,-0.00019937857,-0.21352951,0.0,0.0,0.0,0.0,0
2618296000,-0.9769382,0.0012075866,-0.00020581011,-0.21354008,0.0,0.0,0.0,0.0,0
2618308000,-0.9769357,0.0012192085,-0.0002052095,-0.2135516,0.0,0.0,0.0,0.0,0
2618316000,-0.97693384,0.0012198107,-0.00020396516,-0.21356007,0.0,0.0,0.0,0.0,0
2618328000,-0.9769309,0.0012108369,-0.00021051065,-0.2135734,0.0,0.0,0.0,0.0,0
2618344000,-0.97692716,0.0011925723,-0.00023769647,-0.21359074,0.0,0.0,0.0,0.0,0
2618352000,-0.9769252,0.0011818631,-0.00025390153,-0.21359977,0.0,0.0,0.0,0.0,0
2618368000,-0.976921,0.0011719204,-0.00027142809,-0.21361886,0.0,0.0,0.0,0.0,0
2618380000,-0.97691786,0.0011779356,-0.00026173147,-0.21363328,0.0,0.0,0.0,0.0,0
2618388000,-0.9769157,0.00118347,-0.00024291498,-0.21364307,0.0,0.0,0.0,0.0,0
2618404000,-0.9769112,0.0011919071,-0.00019678645,-0.21366365,0.0,0.0,0.0,0.0,0
2618416000,-0.9769077,0.0011913796,-0.00015694038,-0.2136798,0.0,0.0,0.0,0.0,0
2618424000,-0.97690535,0.0011850618,-0.00012937254,-0.21369043,0.0,0.0,0.0,0.0,0
2618440000,-0.97690076,0.0011628548,-7.916171e-05,-0.21371159,0.0,0.0,0.0,0.0,0
2618452000,-0.9768972,0.0011496019,-5.843917e-05,-0.21372794,0.0,0.0,0.0,0.0,0
2618464000,-0.9768936,0.0011439549,-5.2921147e-05,-0.21374449,0.0,0.0,0.0,0.0,0
2618476000,-0.9768899,0.0011491389,-5.5779175e-05,-0.2137612,0.0,0.0,0.0,0.0,0
2618484000,-0.97688746,0.0011550948,-5.991807e-05,-0.21377233,0.0,0.0,0.0,0.0,0
2618496000,-0.9768838,0.0011634139,-6.05985e-05,-0.2137889,0.0,0.0,0.0,0.0,0
2618508000,-0.97688043,0.0011689619,-5.0751685e-05,-0.21380436,0.0,0.0,0.0,0.0,0
2618524000,-0.9768764,0.0011818003,-2.01059e-05,-0.21382295,0.0,0.0,0.0,0.0,0
2618532000,-0.9768745,0.0011978539,4.02992e-06,-0.2138315,0.0,0.0,0.0,0.0,0
2618548000,-0.97687083,0.0012357398,7.085942e-05,-0.21384788,0.0,0.0,0.0,0.0,0
2618560000,-0.9768681,0.001268112,0.00013934646,-0.21386018,0.0,0.0,0.0,0.0,0
2618572000,-0.9768654,0.001313205,0.00022962425,-0.2138721,0.0,0.0,0.0,0.0,0
2618580000,-0.97686374,0.0013567558,0.00029288974,-0.21387953,0.0,0.0,0.0,0.0,0
2618596000,-0.97686076,0.0014619351,0.0004096407,-0.21389203,0.0,0.0,0.0,0.0,0
2618608000,-0.976859,0.0015349003,0.000480461,-0.2138997,0.0,0.0,0.0,0.0,0
2618620000,-0.9768574,0.001596611,0.00054302823,-0.213906,0.0,0.0,0.0,0.0,0
2618632000,-0.9768563,0.0016490014,0.0006002152,-0.21391071,0.0,0.0,0.0,0.0,0
2618644000,-0.9768555,0.0016868486,0.0006452821,-0.21391384,0.0,0.0,0.0,0.0,0
2618656000,-0.9768551,0.0016992323,0.00067767035,-0.21391569,0.0,0.0,0.0,0.0,0
2618664000,-0.97685486,0.0016959256,0.00069016876,-0.21391661,0.0,0.0,0.0,0.0,0
2618680000,-0.9768546,0.0016778135,0.0007016333,-0.21391776,0.0,0.0,0.0,0.0,0
2618688000,-0.9768546,0.0016682774,0.0007016848,-0.21391779,0.0,0.0,0.0,0.0,0
2618704000,-0.9768549,0.0016455186,0.0006901157,-0.21391676,0.0,0.0,0.0,0.0,0
2618716000,-0.9768552,0.001632204,0.00067489623,-0.21391548,0.0,0.0,0.0,0.0,0
2618728000,-0.97685546,0.0016239117,0.00066340406,-0.21391451,0.0,0.0,0.0,0.0,0
2618736000,-0.9768556,0.0016181332,0.0006598677,-0.21391405,0.0,0.0,0.0,0.0,0
2618748000,-0.9768558,0.0016108255,0.00065940525,-0.21391302,0.0,0.0,0.0,0.0,0
2618764000,-0.97685647,0.0015984481,0.0006610073,-0.21391009,0.0,0.0,0.0,0.0,0
2618776000,-0.9768572,0.0015885392,0.0006637198,-0.21390687,0.0,0.0,0.0,0.0,0
2618788000,-0.97685784,0.0015921514,0.0006691473,-0.21390384,0.0,0.0,0.0,0.0,0
2618800000,-0.9768583,0.0016051029,0.0006796321,-0.21390148,0.0,0.0,0.0,0.0,0
2618808000,-0.9768587,0.0016176635,0.00069410284,-0.21389987,0.0,0.0,0.0,0.0,0
2618820000,-0.97685933,0.0016402943,0.00072626706,-0.21389654,0.0,0.0,0.0,0.0,0
2618836000,-0.9768605,0.0016689844,0.00076908007,-0.21389069,0.0,0.0,0.0,0.0,0
2618848000,-0.97686166,0.0016865507,0.0007891858,-0.21388538,0.0,0.0,0.0,0.0,0
2618860000,-0.97686297,0.0017006707,0.0007998841,-0.21387912,0.0,0.0,0.0,0.0,0
2618868000,-0.9768639,0.0017051775,0.00080280635,-0.21387489,0.0,0.0,0.0,0.0,0
2618884000,-0.9768656,0.0017171794,0.0008026414,-0.21386713,0.0,0.0,0.0,0.0,0
2618896000,-0.97686684,0.0017327507,0.00079693075,-0.21386129,0.0,0.0,0.0,0.0,0
2618904000,-0.9768678,0.0017425601,0.00078794186,-0.21385695,0.0,0.0,0.0,0.0,0
2618920000,-0.9768697,0.0017519883,0.0007584615,-0.21384819,0.0,0.0,0.0,0.0,0
2618932000,-0.97687113,0.0017349765,0.00072462164,-0.21384197,0.0,0.0,0.0,0.0,0
2618940000,-0.976872,0.0017153693,0.00069508015,-0.21383806,0.0,0.0,0.0,0.0,0
2618956000,-0.97687364,0.0016665644,0.0006357818,-0.21383141,0.0,0.0,0.0,0.0,0
2618968000,-0.9768746,0.0016215896,0.00060085254,-0.21382745,0.0,0.0,0.0,0.0,0
2618976000,-0.97687507,0.0015939814,0.0005781366,-0.21382551,0.0,0.0,0.0,0.0,0
2618992000,-0.97687566,0.0015451837,0.0005316665,-0.21382318,0.0,0.0,0.0,0.0,0
2619004000,-0.97687626,0.0015098338,0.00049239834,-0.21382086,0.0,0.0,0.0,0.0,0
2619016000,-0.9768771,0.0014744333,0.00045510475,-0.21381734,0.0,0.0,0.0,0.0,0
2619028000,-0.9768779,0.0014436326,0.00042885123,-0.21381378,0.0,0.0,0.0,0.0,0
2619040000,-0.97687864,0.0014123047,0.00041027303,-0.21381079,0.0,0.0,0.0,0.0,0
2619052000,-0.9768794,0.0013841284,0.00039862405,-0.21380746,0.0,0.0,0.0,0.0,0
2619064000,-0.9768805,0.0013633122,0.00039009008,-0.21380281,0.0,0.0,0.0,0.0,0
2619076000,-0.9768816,0.001349388,0.00038402717,-0.21379767,0.0,0.0,0.0,0.0,0
2619088000,-0.97688234,0.0013428956,0.00038176434,-0.21379448,0.0,0.0,0.0,0.0,0
2619100000,-0.97688234,0.0013536031,0.00038086285,-0.21379447,0.0,0.0,0.0,0.0,0
2619112000,-0.97688186,0.0013879462,0.0003839743,-0.21379642,0.0,0.0,0.0,0.0,0
2619120000,-0.97688144,0.0014206184,0.00038942648,-0.213798,0.0,0.0,0.0,0.0,0
2619132000,-0.97688097,0.0014728662,0.00039192688,-0.21379974,0.0,0.0,0.0,0.0,0
2619148000,-0.97688043,0.0015409008,0.0003959967,-0.21380185,0.0,0.0,0.0,0.0,0
2619160000,-0.97687984,0.0015855316,0.00040298986,-0.21380419,0.0,0.0,0.0,0.0,0
2619168000,-0.9768794,0.0016114146,0.00040732772,-0.21380581,0.0,0.0,0.0,0.0,0
2619184000,-0.97687864,0.0016519165,0.00040987023,-0.21380903,0.0,0.0,0.0,0.0,0
2619196000,-0.9768779,0.001662078,0.0004069207,-0.21381241,0.0,0.0,0.0,0.0,0
2619204000,-0.9768773,0.0016632949,0.0004051373,-0.21381527,0.0,0.0,0.0,0.0,0
2619220000,-0.976876,0.0016577541,0.0004144043,-0.21382096,0.0,0.0,0.0,0.0,0
2619232000,-0.97687536,0.0016460763,0.0004361382,-0.21382402,0.0,0.0,0.0,0.0,0
2619244000,-0.9768748,0.0016259286,0.0004602624,-0.21382658,0.0,0.0,0.0,0.0,0
2619256000,-0.9768743,0.0016010546,0.00047737535,-0.2138293,0.0,0.0,0.0,0.0,0
2619268000,-0.9768737,0.0015690767,0.0004946989,-0.21383224,0.0,0.0,0.0,0.0,0
2619280000,-0.9768731,0.0015226915,0.0005167123,-0.21383521,0.0,0.0,0.0,0.0,0
2619288000,-0.97687274,0.0014895465,0.00053723366,-0.21383688,0.0,0.0,0.0,0.0,0
2619304000,-0.97687215,0.0014234686,0.0005906339,-0.21383998,0.0,0.0,0.0,0.0,0
2619316000,-0.97687185,0.0013666133,0.0006330641,-0.21384159,0.0,0.0,0.0,0.0,0
2619324000,-0.97687167,0.0013294469,0.0006610867,-0.21384244,0.0,0.0,0.0,0.0,0
2619340000,-0.97687143,0.0012743738,0.0007142934,-0.21384375,0.0,0.0,0.0,0.0,0
2619352000,-0.97687113,0.0012464654,0.0007472102,-0.21384521,0.0,0.0,0.0,0.0,0
2619364000,-0.9768709,0.0012137572,0.0007691019,-0.2138465,0.0,0.0,0.0,0.0,0
2619376000,-0.97687054,0.0011761953,0.0007783784,-0.21384825,0.0,0.0,0.0,0.0,0
2619384000,-0.97687006,0.0011451399,0.00077740167,-0.21385062,0.0,0.0,0.0,0.0,0
2619400000,-0.97686845,0.0010756436,0.00078420254,-0.21385828,0.0,0.0,0.0,0.0,0
2619412000,-0.9768669,0.0010194635,0.00079909206,-0.21386552,0.0,0.0,0.0,0.0,0
2619424000,-0.97686505,0.00096726755,0.0008170793,-0.21387407,0.0,0.0,0.0,0.0,0
2619436000,-0.976863,0.00092561846,0.00083644246,-0.21388353,0.0,0.0,0.0,0.0,0
2619444000,-0.97686166,0.0009049088,0.00084816176,-0.21388993,0.0,0.0,0.0,0.0,0
2619456000,-0.9768597,0.0008789369,0.0008573779,-0.21389891,0.0,0.0,0.0,0.0,0
2619472000,-0.9768571,0.00083064265,0.0008527349,-0.21391073,0.0,0.0,0.0,0.0,0
2619484000,-0.97685546,0.0007822871,0.0008341899,-0.21391872,0.0,0.0,0.0,0.0,0
2619492000,-0.97685444,0.0007486404,0.0008178404,-0.21392359,0.0,0.0,0.0,0.0,0
2619508000,-0.9768525,0.00067461195,0.00077905605,-0.21393287,0.0,0.0,0.0,0.0,0
2619520000,-0.9768509,0.0006219487,0.00074993353,-0.21394014,0.0,0.0,0.0,0.0,0
2619532000,-0.97684914,0.00058121514,0.00071704003,-0.21394868,0.0,0.0,0.0,0.0,0
2619544000,-0.97684693,0.0005464851,0.00068397773,-0.21395884,0.0,0.0,0.0,0.0,0
2619556000,-0.97684443,0.0005176638,0.0006525572,-0.21397047,0.0,0.0,0.0,0.0,0
2619568000,-0.9768415,0.0004979463,0.0006228663,-0.21398385,0.0,0.0,0.0,0.0,0
2619576000,-0.97683936,0.00048805855,0.00060472504,-0.21399376,0.0,0.0,0.0,0.0,0
2619592000,-0.97683483,0.0004895671,0.00057484617,-0.21401466,0.0,0.0,0.0,0.0,0
2619604000,-0.9768313,0.0005148817,0.0005588709,-0.21403071,0.0,0.0,0.0,0.0,0
2619612000,-0.97682893,0.00053853553,0.00054808694,-0.21404141,0.0,0.0,0.0,0.0,0
2619628000,-0.97682434,0.0005909104,0.00052228494,-0.21406226,0.0,0.0,0.0,0.0,0
2619640000,-0.976821,0.0006173507,0.0004952829,-0.21407765,0.0,0.0,0.0,0.0,0
2619652000,-0.97681755,0.0006260727,0.0004660138,-0.21409348,0.0,0.0,0.0,0.0,0
2619664000,-0.97681403,0.0006228841,0.0004404598,-0.2141095,0.0,0.0,0.0,0.0,0
2619676000,-0.9768107,0.00060584024,0.0004137871,-0.21412481,0.0,0.0,0.0,0.0,0
2619688000,-0.97680795,0.0005766874,0.00038353176,-0.21413746,0.0,0.0,0.0,0.0,0
2619700000,-0.97680604,0.0005437009,0.0003473492,-0.2141463,0.0,0.0,0.0,0.0,0
2619708000,-0.97680515,0.0005244801,0.00031708198,-0.21415061,0.0,0.0,0.0,0.0,0
2619724000,-0.97680354,0.00048837345,0.00024916662,-0.21415786,0.0,0.0,0.0,0.0,0
2619732000,-0.97680277,0.0004761875,0.0002125521,-0.21416165,0.0,0.0,0.0,0.0,0
2619748000,-0.9768006,0.0004562663,0.00013531036,-0.21417142,0.0,0.0,0.0,0.0,0
2619760000,-0.9767988,0.00043761844,7.8300516e-05,-0.21418007,0.0,0.0,0.0,0.0,0
2619772000,-0.97679687,0.00041492155,2.708989e-05,-0.2141888,0.0,0.0,0.0,0.0,0
2619784000,-0.97679514,0.0003852039,-2.2524837e-05,-0.21419667,0.0,0.0,0.0,0.0,0
2619796000,-0.97679365,0.00035331663,-6.840863e-05,-0.2142034,0.0,0.0,0.0,0.0,0
2619804000,-0.9767929,0.0003293787,-9.765472e-05,-0.2142072,0.0,0.0,0.0,0.0,0
2619820000,-0.9767913,0.00026842236,-0.00014507749,-0.21421422,0.0,0.0,0.0,0.0,0
2619828000,-0.9767905,0.00023949386,-0.00016393635,-0.21421811,0.0,0.0,0.0,0.0,0
2619840000,-0.97678924,0.00020930193,-0.00018601403,-0.21422371,0.0,0.0,0.0,0.0,0
2619856000,-0.9767884,0.00019035977,-0.00019797996,-0.21422748,0.0,0.0,0.0,0.0,0
2619864000,-0.9767884,0.0001828379,-0.00019710112,-0.21422765,0.0,0.0,0.0,0.0,0
2619880000,-0.9767885,0.00017253174,-0.00018150368,-0.214227,0.0,0.0,0.0,0.0,0
2619888000,-0.97678864,0.00017415425,-0.0001668444,-0.21422663,0.0,0.0,0.0,0.0,0
2619900000,-0.9767889,0.00018246219,-0.00014100404,-0.21422532,0.0,0.0,0.0,0.0,0
2619912000,-0.9767895,0.000191716,-0.00011837712,-0.21422264,0.0,0.0,0.0,0.0,0
2619924000,-0.9767904,0.00020690037,-9.094327e-05,-0.21421836,0.0,0.0,0.0,0.0,0
2619936000,-0.97679156,0.00023268539,-6.644739e-05,-0.21421307,0.0,0.0,0.0,0.0,0
2619952000,-0.97679335,0.00030029452,-4.2279637e-05,-0.21420494,0.0,0.0,0.0,0.0,0
2619964000,-0.97679484,0.0003647223,-2.6017886e-05,-0.21419811,0.0,0.0,0.0,0.0,0
2619976000,-0.9767963,0.00043624747,-1.1110678e-05,-0.21419121,0.0,0.0,0.0,0.0,0
2619988000,-0.9767977,0.000510449,3.963724e-06,-0.21418473,0.0,0.0,0.0,0.0,0
2620000000,-0.97679865,0.00058339856,1.8174755e-05,-0.21418007,0.0,0.0,0.0,0.0,0
2620012000,-0.976799,0.00065637165,3.0065088e-05,-0.21417828,0.0,0.0,0.0,0.0,0
2620024000,-0.9767988,0.0007132838,4.2385218e-05,-0.21417937,0.0,0.0,0.0,0.0,0
2620036000,-0.9767981,0.0007561087,5.218914e-05,-0.21418199,0.0,0.0,0.0,0.0,0
2620048000,-0.97679746,0.0007943488,5.9010337e-05,-0.21418503,0.0,0.0,0.0,0.0,0
2620060000,-0.9767968,0.00084276707,4.8988884e-05,-0.21418764,0.0,0.0,0.0,0.0,0
2620072000,-0.9767966,0.0008994194,1.567355e-05,-0.21418843,0.0,0.0,0.0,0.0,0
2620084000,-0.9767967,0.0009583143,-3.5288802e-05,-0.21418792,0.0,0.0,0.0,0.0,0
2620096000,-0.9767966,0.0010082583,-8.984026e-05,-0.21418788,0.0,0.0,0.0,0.0,0
2620108000,-0.9767965,0.0010457867,-0.00014684926,-0.21418814,0.0,0.0,0.0,0.0,0
2620120000,-0.9767964,0.0010730135,-0.00021332322,-0.21418859,0.0,0.0,0.0,0.0,0
2620132000,-0.9767963,0.0010920279,-0.0002948878,-0.2141885,0.0,0.0,0.0,0.0,0
2620140000,-0.9767965,0.0011000896,-0.00035230853,-0.21418774,0.0,0.0,0.0,0.0,0
2620152000,-0.97679687,0.0011015084,-0.00043334623,-0.21418577,0.0,0.0,0.0,0.0,0
2620168000,-0.97679764,0.0010902343,-0.0005202819,-0.2141822,0.0,0.0,0.0,0.0,0
2620180000,-0.9767982,0.0010841166,-0.0005662986,-0.21417966,0.0,0.0,0.0,0.0,0
2620192000,-0.9767986,0.0010713204,-0.0005998848,-0.2141777,0.0,0.0,0.0,0.0,0
2620200000,-0.97679883,0.0010558688,-0.00061813294,-0.21417673,0.0,0.0,0.0,0.0,0
2620212000,-0.97679895,0.0010220095,-0.0006360515,-0.21417616,0.0,0.0,0.0,0.0,0
2620224000,-0.97679895,0.00097338075,-0.000642977,-0.21417633,0.0,0.0,0.0,0.0,0
2620240000,-0.9767989,0.0008979797,-0.00064978015,-0.214177,0.0,0.0,0.0,0.0,0
2620252000,-0.9767988,0.00083570386,-0.0006460686,-0.21417783,0.0,0.0,0.0,0.0,0
2620264000,-0.9767986,0.00077120605,-0.0006342166,-0.21417889,0.0,0.0,0.0,0.0,0
2620276000,-0.9767985,0.0007079414,-0.00061048125,-0.21417981,0.0,0.0,0.0,0.0,0
2620288000,-0.9767984,0.00065005565,-0.0005738254,-0.21418037,0.0,0.0,0.0,0.0,0
2620300000,-0.97679865,0.0005919485,-0.00053331844,-0.21417964,0.0,0.0,0.0,0.0,0
2620312000,-0.97679913,0.0005313403,-0.0004939004,-0.21417747,0.0,0.0,0.0,0.0,0
2620324000,-0.9767996,0.0004663365,-0.00045507215,-0.21417554,0.0,0.0,0.0,0.0,0
2620332000,-0.9767997,0.00042236497,-0.0004303682,-0.21417515,0.0,0.0,0.0,0.0,0
2620344000,-0.9767997,0.0003550381,-0.0003981403,-0.21417545,0.0,0.0,0.0,0.0,0
2620356000,-0.9767998,0.0002786499,-0.00037431123,-0.2141752,0.0,0.0,0.0,0.0,0
2620372000,-0.97679996,0.00017569962,-0.0003569612,-0.2141746,0.0,0.0,0.0,0.0,0
2620380000,-0.9768,0.00013179451,-0.00034756865,-0.21417443,0.0,0.0,0.0,0.0,0
2620396000,-0.9768001,6.0572278e-05,-0.00032026524,-0.21417423,0.0,0.0,0.0,0.0,0
2620408000,-0.9768003,2.0690935e-05,-0.00030127366,-0.21417329,0.0,0.0,0.0,0.0,0
2620420000,-0.9768005,-2.9303305e-07,-0.00028963297,-0.21417236,0.0,0.0,0.0,0.0,0
2620428000,-0.9768007,-4.050133e-06,-0.00028151018,-0.21417166,0.0,0.0,0.0,0.0,0
2620440000,-0.9768009,3.5630092e-06,-0.00026885053,-0.2141706,0.0,0.0,0.0,0.0,0
2620456000,-0.976801,1.8902534e-05,-0.00025032903,-0.2141703,0.0,0.0,0.0,0.0,0
2620464000,-0.97680074,2.5472069e-05,-0.00023996121,-0.2141713,0.0,0.0,0.0,0.0,0
2620480000,-0.97679967,3.944762e-05,-0.00021417403,-0.2141763,0.0,0.0,0.0,0.0,0
2620492000,-0.97679836,5.453709e-05,-0.00019796814,-0.21418214,0.0,0.0,0.0,0.0,0
2620500000,-0.97679734,6.04473e-05,-0.00019096606,-0.21418679,0.0,0.0,0.0,0.0,0
2620516000,-0.9767952,5.807795e-05,-0.00019243314,-0.21419661,0.0,0.0,0.0,0.0,0
2620528000,-0.97679377,4.7832695e-05,-0.00020701895,-0.21420328,0.0,0.0,0.0,0.0,0
2620540000,-0.97679263,3.22748e-05,-0.00022992224,-0.21420844,0.0,0.0,0.0,0.0,0
2620552000,-0.9767915,2.296729e-05,-0.00026327564,-0.21421337,0.0,0.0,0.0,0.0,0
2620560000,-0.9767906,2.8887616e-05,-0.00029299382,-0.21421747,0.0,0.0,0.0,0.0,0
2620576000,-0.9767883,5.9147656e-05,-0.00036591786,-0.21422787,0.0,0.0,0.0,0.0,0
2620588000,-0.9767862,7.965934e-05,-0.00043903195,-0.21423723,0.0,0.0,0.0,0.0,0
2620600000,-0.9767838,9.6508105e-05,-0.0005229985,-0.2142479,0.0,0.0,0.0,0.0,0
2620612000,-0.9767812,0.00010657837,-0.0006158521,-0.21425973,0.0,0.0,0.0,0.0,0
2620620000,-0.9767794,0.000111565256,-0.0006813447,-0.21426779,0.0,0.0,0.0,0.0,0
2620636000,-0.9767759,0.00012559349,-0.00080032425,-0.21428314,0.0,0.0,0.0,0.0,0
2620648000,-0.9767735,0.00014317942,-0.00087414245,-0.21429387,0.0,0.0,0.0,0.0,0
2620660000,-0.9767713,0.00016309033,-0.0009238098,-0.2143038,0.0,0.0,0.0,0.0,0
2620672000,-0.9767692,0.00018052352,-0.000950953,-0.21431312,0.0,0.0,0.0,0.0,0
2620684000,-0.9767674,0.0001891357,-0.00096597796,-0.21432124,0.0,0.0,0.0,0.0,0
2620696000,-0.9767659,0.00019196799,-0.0009664992,-0.2143283,0.0,0.0,0.0,0.0,0
2620708000,-0.9767647,0.00019041478,-0.0009575224,-0.21433368,0.0,0.0,0.0,0.0,0
2620720000,-0.976764,0.00019025839,-0.0009508045,-0.21433677,0.0,0.0,0.0,0.0,0
2620732000,-0.9767638,0.00020108189,-0.0009453045,-0.21433765,0.0,0.0,0.0,0.0,0
2620744000,-0.976764,0.00022663586,-0.00093502353,-0.21433662,0.0,0.0,0.0,0.0,0
2620756000,-0.9767643,0.00026537656,-0.00091334974,-0.21433538,0.0,0.0,0.0,0.0,0
2620768000,-0.9767646,0.00030140457,-0.00088330975,-0.21433413,0.0,0.0,0.0,0.0,0
2620780000,-0.9767649,0.00033050674,-0.000841934,-0.21433279,0.0,0.0,0.0,0.0,0
2620792000,-0.97676504,0.00036603594,-0.0007932076,-0.2143325,0.0,0.0,0.0,0.0,0
2620800000,-0.9767649,0.00039364997,-0.00075772696,-0.21433315,0.0,0.0,0.0,0.0,0
2620816000,-0.97676444,0.00044808502,-0.000676206,-0.2143354,0.0,0.0,0.0,0.0,0
2620824000,-0.9767641,0.00047082256,-0.00063176587,-0.21433711,0.0,0.0,0.0,0.0,0
2620840000,-0.976763,0.00050001754,-0.0005466844,-0.21434212,0.0,0.0,0.0,0.0,0
2620852000,-0.976762,0.00050782826,-0.00048418113,-0.21434686,0.0,0.0,0.0,0.0,0
2620864000,-0.97676104,0.0005031316,-0.00043225317,-0.21435146,0.0,0.0,0.0,0.0,0
2620876000,-0.9767601,0.00048910215,-0.00039217836,-0.21435581,0.0,0.0,0.0,0.0,0
2620888000,-0.97675914,0.00047015163,-0.00036510656,-0.21436027,0.0,0.0,0.0,0.0,0
2620900000,-0.97675806,0.0004529628,-0.0003470365,-0.21436529,0.0,0.0,0.0,0.0,0
2620912000,-0.97675705,0.00043572698,-0.00033949327,-0.21436997,0.0,0.0,0.0,0.0,0
2620924000,-0.9767561,0.00041531483,-0.00033562412,-0.21437421,0.0,0.0,0.0,0.0,0
2620932000,-0.9767556,0.00040196392,-0.0003300355,-0.21437655,0.0,0.0,0.0,0.0,0
2620948000,-0.97675514,0.00037710302,-0.0003102611,-0.21437886,0.0,0.0,0.0,0.0,0
2620960000,-0.97675514,0.00036274482,-0.0002877461,-0.21437888,0.0,0.0,0.0,0.0,0
2620972000,-0.9767556,0.00035776547,-0.00025759783,-0.2143766,0.0,0.0,0.0,0.0,0
2620984000,-0.97675675,0.00036597223,-0.0002274084,-0.21437153,0.0,0.0,0.0,0.0,0
2620996000,-0.97675836,0.00039367037,-0.00020847884,-0.21436408,0.0,0.0,0.0,0.0,0
2621004000,-0.97675973,0.0004170424,-0.00020277442,-0.21435794,0.0,0.0,0.0,0.0,0
2621020000,-0.97676253,0.00045345878,-0.00020453866,-0.214345,0.0,0.0,0.0,0.0,0
2621032000,-0.9767645,0.0004636681,-0.00021292172,-0.21433608,0.0,0.0,0.0,0.0,0
2621044000,-0.97676635,0.00045220595,-0.00021851764,-0.21432778,0.0,0.0,0.0,0.0,0
2621056000,-0.9767681,0.0004161281,-0.00022000422,-0.21431983,0.0,0.0,0.0,0.0,0
2621068000,-0.9767697,0.00036489443,-0.00021718418,-0.2143127,0.0,0.0,0.0,0.0,0
2621076000,-0.9767705,0.0003250075,-0.00020718676,-0.21430881,0.0,0.0,0.0,0.0,0
2621092000,-0.9767721,0.00022685522,-0.0001661116,-0.21430163,0.0,0.0,0.0,0.0,0
2621104000,-0.9767737,0.00014287916,-0.00013349987,-0.21429479,0.0,0.0,0.0,0.0,0
2621116000,-0.97677535,6.207636e-05,-0.00010741721,-0.21428707,0.0,0.0,0.0,0.0,0
2621128000,-0.9767771,-3.7807051e-06,-9.229682e-05,-0.21427944,0.0,0.0,0.0,0.0,0
2621140000,-0.97677857,-5.1328756e-05,-9.808979e-05,-0.21427254,0.0,0.0,0.0,0.0,0
2621148000,-0.9767794,-6.999036e-05,-0.000117880554,-0.2142688,0.0,0.0,0.0,0.0,0
2621160000,-0.97678006,-7.475322e-05,-0.0001838534,-0.21426556,0.0,0.0,0.0,0.0,0
2621176000,-0.9767773,-2.8447508e-05,-0.00037827843,-0.21427798,0.0,0.0,0.0,0.0,0
2621188000,-0.97676957,5.12589e-05,-0.0006212969,-0.21431267,0.0,0.0,0.0,0.0,0
2621200000,-0.97675425,0.00014895789,-0.0009592444,-0.21438128,0.0,0.0,0.0,0.0,0
2621212000,-0.97672844,0.00023733532,-0.0013972322,-0.21449617,0.0,0.0,0.0,0.0,0
2621224000,-0.97668976,0.0002836233,-0.0019346818,-0.21466811,0.0,0.0,0.0,0.0,0
2621236000,-0.97663546,0.00025905014,-0.0025837768,-0.21490814,0.0,0.0,0.0,0.0,0
2621248000,-0.97656393,0.00014504319,-0.0033438616,-0.2152227,0.0,0.0,0.0,0.0,0
2621260000,-0.9764724,-3.893025e-05,-0.0042279772,-0.21562225,0.0,0.0,0.0,0.0,0
2621272000,-0.9763583,-0.00028284328,-0.0052464176,-0.21611568,0.0,0.0,0.0,0.0,0
2621284000,-0.9762193,-0.00060522143,-0.0064176326,-0.21671042,0.0,0.0,0.0,0.0,0
2621296000,-0.97605324,-0.0010271198,-0.0077593103,-0.21741188,0.0,0.0,0.0,0.0,0
2621308000,-0.9758584,-0.0015347666,-0.009277539,-0.21822248,0.0,0.0,0.0,0.0,0
2621320000,-0.9756339,-0.0021133965,-0.010955302,-0.21914177,0.0,0.0,0.0,0.0,0
2621332000,-0.97537845,-0.002792682,-0.012780973,-0.22017004,0.0,0.0,0.0,0.0,0
2621344000,-0.97509027,-0.00358457,-0.014765327,-0.22130798,0.0,0.0,0.0,0.0,0
2621352000,-0.97487956,-0.004145666,-0.016178802,-0.2221262,0.0,0.0,0.0,0.0,0
2621364000,-0.9745342,-0.0050016125,-0.018443776,-0.2234435,0.0,0.0,0.0,0.0,0
2621380000,-0.97401905,-0.0062385146,-0.021679616,-0.22535984,0.0,0.0,0.0,0.0,0
2621388000,-0.9737371,-0.00691169,-0.023379741,-0.22638631,0.0,0.0,0.0,0.0,0
2621404000,-0.9731208,-0.008296672,-0.02702043,-0.22857389,0.0,0.0,0.0,0.0,0
2621412000,-0.9727854,-0.00898311,-0.02897665,-0.22973315,0.0,0.0,0.0,0.0,0
2621428000,-0.97206086,-0.01041899,-0.033077035,-0.23217274,0.0,0.0,0.0,0.0,0
2621440000,-0.971469,-0.011544125,-0.036294125,-0.23410808,0.0,0.0,0.0,0.0,0
2621452000,-0.9708317,-0.012682686,-0.039699443,-0.2361315,0.0,0.0,0.0,0.0,0
2621464000,-0.9701464,-0.013855736,-0.043309674,-0.23823786,0.0,0.0,0.0,0.0,0
2621476000,-0.9694164,-0.015097405,-0.0470234,-0.24042012,0.0,0.0,0.0,0.0,0
2621488000,-0.9686443,-0.016369263,-0.050776634,-0.24267472,0.0,0.0,0.0,0.0,0
2621500000,-0.96782696,-0.017673537,-0.054623708,-0.24499798,0.0,0.0,0.0,0.0,0
2621512000,-0.966963,-0.019045556,-0.058577776,-0.24738152,0.0,0.0,0.0,0.0,0
2621520000,-0.9663626,-0.019995015,-0.06124199,-0.24900213,0.0,0.0,0.0,0.0,0
2621536000,-0.96510756,-0.021909079,-0.066575326,-0.25231764,0.0,0.0,0.0,0.0,0
2621548000,-0.9641155,-0.023356797,-0.07061424,-0.25486964,0.0,0.0,0.0,0.0,0
2621556000,-0.9634294,-0.024345933,-0.07332745,-0.25659937,0.0,0.0,0.0,0.0,0
2621572000,-0.96200085,-0.026350746,-0.07875113,-0.26012957,0.0,0.0,0.0,0.0,0
2621584000,-0.96087873,-0.02783161,-0.08283752,-0.26283938,0.0,0.0,0.0,0.0,0
2621596000,-0.95971286,-0.029335247,-0.086938314,-0.26559642,0.0,0.0,0.0,0.0,0
2621608000,-0.9585079,-0.030897103,-0.09099913,-0.2683956,0.0,0.0,0.0,0.0,0
2621620000,-0.9572688,-0.032420162,-0.094984494,-0.27124247,0.0,0.0,0.0,0.0,0
2621628000,-0.95642155,-0.033408172,-0.097629786,-0.27316526,0.0,0.0,0.0,0.0,0
2621644000,-0.9546752,-0.03543367,-0.10289123,-0.27706006,0.0,0.0,0.0,0.0,0
2621656000,-0.95333093,-0.03697638,-0.10671622,-0.28002432,0.0,0.0,0.0,0.0,0
2621668000,-0.9519608,-0.03844753,-0.11042436,-0.2830336,0.0,0.0,0.0,0.0,0
2621680000,-0.95055753,-0.03987746,-0.11409038,-0.28608155,0.0,0.0,0.0,0.0,0
2621688000,-0.9496034,-0.04087895,-0.11650863,-0.2881271,0.0,0.0,0.0,0.0,0
2621704000,-0.9476654,-0.04291635,-0.12116526,-0.29226124,0.0,0.0,0.0,0.0,0
2621712000,-0.94668686,-0.043889984,-0.123378314,-0.29435438,0.0,0.0,0.0,0.0,0
2621724000,-0.94520587,-0.045287117,-0.12658422,-0.29752398,0.0,0.0,0.0,0.0,0
2621740000,-0.9432056,-0.047242265,-0.13065536,-0.30177754,0.0,0.0,0.0,0.0,0
2621752000,-0.94168353,-0.048737496,-0.13357835,-0.3049962,0.0,0.0,0.0,0.0,0
2621760000,-0.9406609,-0.04971506,-0.13545318,-0.30715954,0.0,0.0,0.0,0.0,0
2621776000,-0.9385985,-0.051618513,-0.13902955,-0.3115256,0.0,0.0,0.0,0.0,0
2621784000,-0.9375616,-0.052598156,-0.14071277,-0.31372085,0.0,0.0,0.0,0.0,0
2621800000,-0.9354614,-0.05454193,-0.14397709,-0.31814596,0.0,0.0,0.0,0.0,0
2621808000,-0.9343956,-0.055490542,-0.1455772,-0.3203779,0.0,0.0,0.0,0.0,0
2621824000,-0.9322456,-0.05736389,-0.14863676,-0.32487485,0.0,0.0,0.0,0.0,0
2621832000,-0.93116534,-0.05832581,-0.15006427,-0.32713762,0.0,0.0,0.0,0.0,0
2621844000,-0.9295329,-0.05975154,-0.152118,-0.3305565,0.0,0.0,0.0,0.0,0
2621860000,-0.92731667,-0.06162125,-0.15480863,-0.33515665,0.0,0.0,0.0,0.0,0
2621872000,-0.9256435,-0.063040435,-0.15668546,-0.33862776,0.0,0.0,0.0,0.0,0
2621884000,-0.92396873,-0.06446719,-0.15838549,-0.34212407,0.0,0.0,0.0,0.0,0
2621892000,-0.92284834,-0.065403394,-0.15944445,-0.34447053,0.0,0.0,0.0,0.0,0
2621908000,-0.92058724,-0.06726155,-0.16146427,-0.3491896,0.0,0.0,0.0,0.0,0
2621916000,-0.9194483,-0.068203256,-0.16241802,-0.35155734,0.0,0.0,0.0,0.0,0
2621932000,-0.9171626,-0.07005441,-0.1641567,-0.35632405,0.0,0.0,0.0,0.0,0
2621940000,-0.91601104,-0.07095576,-0.16496617,-0.358726,0.0,0.0,0.0,0.0,0
2621956000,-0.91368425,-0.07275984,-0.16650304,-0.36355594,0.0,0.0,0.0,0.0,0
2621968000,-0.9119145,-0.0741458,-0.16760838,-0.3671932,0.0,0.0,0.0,0.0,0
2621976000,-0.91072446,-0.07507377,-0.16831467,-0.36962712,0.0,0.0,0.0,0.0,0
2621992000,-0.90832704,-0.076891005,-0.16962841,-0.3745197,0.0,0.0,0.0,0.0,0
2622000000,-0.9071237,-0.07778552,-0.17021766,-0.3769763,0.0,0.0,0.0,0.0,0
2622016000,-0.90470505,-0.07953976,-0.17127894,-0.38190943,0.0,0.0,0.0,0.0,0
2622024000,-0.9034809,-0.08042548,-0.17179589,-0.38438177,0.0,0.0,0.0,0.0,0
2622036000,-0.90162456,-0.081752695,-0.17255929,-0.38810053,0.0,0.0,0.0,0.0,0
2622052000,-0.8991247,-0.08352226,-0.17348151,-0.39308032,0.0,0.0,0.0,0.0,0
2622064000,-0.8972282,-0.08483716,-0.17411494,-0.3968341,0.0,0.0,0.0,0.0,0
2622072000,-0.89594674,-0.085724704,-0.17454414,-0.39934215,0.0,0.0,0.0,0.0,0
2622088000,-0.89334303,-0.08753938,-0.17542516,-0.40436393,0.0,0.0,0.0,0.0,0
2622100000,-0.89137334,-0.08887243,-0.1760144,-0.40814623,0.0,0.0,0.0,0.0,0
2622108000,-0.8900546,-0.0897301,-0.17636146,-0.41067877,0.0,0.0,0.0,0.0,0
2622124000,-0.8873921,-0.09142149,-0.17700242,-0.4157603,0.0,0.0,0.0,0.0,0
2622136000,-0.8853644,-0.09273145,-0.17747462,-0.41957426,0.0,0.0,0.0,0.0,0
2622148000,-0.88331544,-0.09404365,-0.17791776,-0.42339578,0.0,0.0,0.0,0.0,0
2622160000,-0.8812543,-0.09532215,-0.17829221,-0.4272301,0.0,0.0,0.0,0.0,0
2622172000,-0.8791772,-0.09658821,-0.17860857,-0.43107563,0.0,0.0,0.0,0.0,0
2622180000,-0.8777787,-0.0974486,-0.17880668,-0.43364224,0.0,0.0,0.0,0.0,0
2622196000,-0.87493676,-0.09922469,-0.17923626,-0.4387751,0.0,0.0,0.0,0.0,0
2622204000,-0.8734972,-0.100125335,-0.17945051,-0.44134367,0.0,0.0,0.0,0.0,0
