timestamp,q[0],q[1],q[2],q[3],delta_q_reset[0],delta_q_reset[1],delta_q_reset[2],delta_q_reset[3],quat_reset_counter
2613228000,0.9767562,-0.00021695746,-0.0012320925,0.21434994,0.9999883,2.3283067e-10,-8.73115e-10,-0.0048457985,5
2613276000,0.9767661,-0.00022901695,-0.0011947632,0.21430457,0.9999883,2.3283067e-10,-8.73115e-10,-0.0048457985,5
2613332000,0.9767609,-0.00015743246,-0.0011935511,0.21432842,0.9999883,2.3283067e-10,-8.73115e-10,-0.0048457985,5
2613380000,0.97674763,-0.00018808138,-0.0012182012,0.21438865,0.9999883,2.3283067e-10,-8.73115e-10,-0.0048457985,5
2613436000,0.9767501,-0.00016513388,-0.0012596896,0.21437782,0.9999883,2.3283067e-10,-8.73115e-10,-0.0048457985,5
2613488000,0.9767635,-0.00015762074,-0.001240143,0.21431646,0.9999883,2.3283067e-10,-8.73115e-10,-0.0048457985,5
2613536000,0.97676253,-0.0001624564,-0.0012381003,0.21432085,0.9999883,2.3283067e-10,-8.73115e-10,-0.0048457985,5
2613588000,0.97675097,-0.0001346051,-0.0012378074,0.2143736,0.9999883,2.3283067e-10,-8.73115e-10,-0.0048457985,5
2613640000,0.9767543,-0.00012256173,-0.0012372736,0.21435827,0.9999883,2.3283067e-10,-8.73115e-10,-0.0048457985,5
2613692000,0.97675157,-7.844121e-05,-0.0012240683,0.21437131,0.9999883,2.3283067e-10,-8.73115e-10,-0.0048457985,5
2613748000,0.9767521,-5.8156067e-05,-0.0011975148,0.21436864,0.9999883,2.3283067e-10,-8.73115e-10,-0.0048457985,5
2613796000,0.97675234,-0.00014068135,-0.0012042123,0.21436797,0.9999883,2.3283067e-10,-8.73115e-10,-0.0048457985,5
2613848000,0.97676694,-0.00018238663,-0.0011176225,0.21430162,0.9999883,2.3283067e-10,-8.73115e-10,-0.0048457985,5
2613900000,0.97676134,-0.00019600904,-0.0011519514,0.21432711,0.9999883,2.3283067e-10,-8.73115e-10,-0.0048457985,5
2613952000,0.97676647,-0.00021415565,-0.0011528746,0.2143035,0.9999883,2.3283067e-10,-8.73115e-10,-0.0048457985,5
2614004000,0.97676945,-0.00024113276,-0.0011457717,0.21428971,0.9999883,2.3283067e-10,-8.73115e-10,-0.0048457985,5
2614060000,0.97676975,-0.00028175843,-0.0011063347,0.21428894,0.9999883,2.3283067e-10,-8.73115e-10,-0.0048457985,5
2614112000,0.9767688,-0.00027647684,-0.0011053542,0.21429336,0.9999883,2.3283067e-10,-8.73115e-10,-0.0048457985,5
2614160000,0.97677755,-0.00025017268,-0.0010805815,0.21425334,0.9999883,2.3283067e-10,-8.73115e-10,-0.0048457985,5
2614212000,0.9767901,-0.00024036919,-0.0011238564,0.21419609,0.9999883,2.3283067e-10,-8.73115e-10,-0.0048457985,5
2614268000,0.97679615,-0.00022056162,-0.0011545896,0.21416818,0.9999883,2.3283067e-10,-8.73115e-10,-0.0048457985,5
2614316000,0.97679484,-0.00024070468,-0.0011965528,0.21417396,0.9999883,2.3283067e-10,-8.73115e-10,-0.0048457985,5
2614372000,0.97680134,-0.00027997856,-0.0012102383,0.21414374,0.9999883,2.3283067e-10,-8.73115e-10,-0.0048457985,5
2614424000,0.97680956,-0.00027330767,-0.001191637,0.21410657,0.9999883,2.3283067e-10,-8.73115e-10,-0.0048457985,5
2614476000,0.9768187,-0.00028762736,-0.001172556,0.21406527,0.9999883,2.3283067e-10,-8.73115e-10,-0.0048457985,5
2614524000,0.9768256,-0.00030864813,-0.0011935683,0.21403332,0.9999883,2.3283067e-10,-8.73115e-10,-0.0048457985,5
2614576000,0.9768285,-0.0003129869,-0.0012291576,0.21401978,0.9999883,2.3283067e-10,-8.73115e-10,-0.0048457985,5
2614628000,0.976823,-0.000311218,-0.0012051319,0.21404566,0.9999883,2.3283067e-10,-8.73115e-10,-0.0048457985,5
2614680000,0.9768361,-0.00033693705,-0.0011615473,0.21398552,0.9999883,2.3283067e-10,-8.73115e-10,-0.0048457985,5
2614732000,0.9768417,-0.00033076268,-0.0011222229,0.21396028,0.9999883,2.3283067e-10,-8.73115e-10,-0.0048457985,5
2614788000,0.97684306,-0.00022856244,-0.0011572802,0.21395424,0.9999883,2.3283067e-10,-8.73115e-10,-0.0048457985,5
2614836000,0.9768379,-0.00022950847,-0.0011800445,0.21397726,0.9999883,2.3283067e-10,-8.73115e-10,-0.0048457985,5
2614888000,0.9768281,-0.00023264751,-0.0011103194,0.2140226,0.9999883,2.3283067e-10,-8.73115e-10,-0.0048457985,5
2614940000,0.9768246,-0.00025502787,-0.0011035531,0.21403861,0.9999883,2.3283067e-10,-8.73115e-10,-0.0048457985,5
2614992000,0.9768223,-0.0002540502,-0.0011572295,0.21404904,0.9999883,2.3283067e-10,-8.73115e-10,-0.0048457985,5
2615044000,0.97680336,-0.00025604782,-0.0011209409,0.21413545,0.9999883,2.3283067e-10,-8.73115e-10,-0.0048457985,5
2615096000,0.9768009,0.0012269977,-0.0008669802,0.21414411,0.9999883,2.3283067e-10,-8.73115e-10,-0.0048457985,5
2615152000,0.9767845,0.0045698504,-0.0014146717,0.2141712,0.9999883,2.3283067e-10,-8.73115e-10,-0.0048457985,5
2615200000,0.97675246,0.0063198907,-0.0018072269,0.2142699,0.9999883,2.3283067e-10,-8.73115e-10,-0.0048457985,5
2615252000,0.97672844,0.0070604407,-0.002235739,0.21435209,0.9999883,2.3283067e-10,-8.73115e-10,-0.0048457985,5
2615304000,0.97673357,0.0069666295,-0.0022947267,0.21433131,0.9999883,2.3283067e-10,-8.73115e-10,-0.0048457985,5
2615356000,0.976725,0.006090004,-0.0022243017,0.21439767,0.9999883,2.3283067e-10,-8.73115e-10,-0.0048457985,5
2615408000,0.9767181,0.005059839,-0.0021627473,0.21445611,0.9999883,2.3283067e-10,-8.73115e-10,-0.0048457985,5
2615460000,0.97672445,0.0037732068,-0.0021486352,0.21445443,0.9999883,2.3283067e-10,-8.73115e-10,-0.0048457985,5
2615512000,0.9767265,0.002892413,-0.0020890785,0.21445942,0.9999883,2.3283067e-10,-8.73115e-10,-0.0048457985,5
2615564000,0.9767233,0.002102228,-0.0021164138,0.21448277,0.9999883,2.3283067e-10,-8.73115e-10,-0.0048457985,5
2615616000,0.9767216,0.0016622926,-0.0022087437,0.2144937,0.9999883,2.3283067e-10,-8.73115e-10,-0.0048457985,5
2615668000,0.9767153,0.0012285425,-0.0022314836,0.21452445,0.9999883,2.3283067e-10,-8.73115e-10,-0.0048457985,5
2615720000,0.9767127,0.0008707916,-0.002226662,0.21453816,0.9999883,2.3283067e-10,-8.73115e-10,-0.0048457985,5
2615772000,0.97670805,0.00065639557,-0.0022227627,0.21456009,0.9999883,2.3283067e-10,-8.73115e-10,-0.0048457985,5
2615824000,0.97670656,0.00041523474,-0.002224718,0.21456763,0.9999883,2.3283067e-10,-8.73115e-10,-0.0048457985,5
2615876000,0.9767067,0.00039840734,-0.00218278,0.21456738,0.9999883,2.3283067e-10,-8.73115e-10,-0.0048457985,5
2615928000,0.9767191,0.00025860465,-0.0020938185,0.21451229,0.9999883,2.3283067e-10,-8.73115e-10,-0.0048457985,5
2615980000,0.9767269,0.00013417739,-0.002131936,0.21447648,0.9999883,2.3283067e-10,-8.73115e-10,-0.0048457985,5
2616032000,0.9767174,5.9905447e-06,-0.0021390226,0.21451917,0.9999883,2.3283067e-10,-8.73115e-10,-0.0048457985,5
2616084000,0.97671044,8.9156485e-05,-0.0021413346,0.2145515,0.9999883,2.3283067e-10,-8.73115e-10,-0.0048457985,5
2616136000,0.9767094,-7.176939e-05,-0.0021330705,0.21455595,0.9999883,2.3283067e-10,-8.73115e-10,-0.0048457985,5
2616192000,0.9767086,-0.00018376362,-0.0021039,0.21455982,0.9999883,2.3283067e-10,-8.73115e-10,-0.0048457985,5
2616240000,0.976722,-0.00031436313,-0.0018988741,0.21450044,0.9999883,2.3283067e-10,-8.73115e-10,-0.0048457985,5
2616292000,0.97671604,-0.0004080774,-0.0016398003,0.21452986,0.9999883,2.3283067e-10,-8.73115e-10,-0.0048457985,5
2616344000,0.9767211,-0.00042999993,-0.0014089947,0.21450816,0.9999883,2.3283067e-10,-8.73115e-10,-0.0048457985,5
2616396000,0.97672,-0.00031021045,-0.0012793948,0.2145145,0.9999883,2.3283067e-10,-8.73115e-10,-0.0048457985,5
2616448000,0.9767321,-0.00020312234,-0.0012266322,0.21445988,0.9999883,2.3283067e-10,-8.73115e-10,-0.0048457985,5
2616504000,0.9767322,-0.00025705303,-0.0013994084,0.21445806,0.9999883,2.3283067e-10,-8.73115e-10,-0.0048457985,5
2616552000,0.9767355,-0.00042324394,-0.0015122631,0.21444234,0.9999883,2.3283067e-10,-8.73115e-10,-0.0048457985,5
2616604000,0.97672945,-0.00067127123,-0.0012395629,0.21447079,0.9999883,2.3283067e-10,-8.73115e-10,-0.0048457985,5
2616660000,0.97674227,-0.0008034227,-0.00093722105,0.21441352,0.9999883,2.3283067e-10,-8.73115e-10,-0.0048457985,5
2616708000,0.976734,-0.0009914575,-0.00071001117,0.21445118,0.9999883,2.3283067e-10,-8.73115e-10,-0.0048457985,5
2616760000,0.976722,-0.0013134899,-0.0006422761,0.21450421,0.9999883,2.3283067e-10,-8.73115e-10,-0.0048457985,5
2616816000,0.9765638,-0.0015100961,-0.00055639003,0.21522221,0.9999997,8.731148e-11,4.365574e-11,0.00076831866,6
2616864000,0.97656924,-0.0014086558,-0.0006120872,0.21519811,0.9999997,8.731148e-11,4.365574e-11,0.00076831866,6
2616920000,0.9765871,-0.0012830275,-0.00063618115,0.21511732,0.9999997,8.731148e-11,4.365574e-11,0.00076831866,6
2616968000,0.9766115,-0.0011504524,-0.0006312865,0.21500789,0.9999997,8.731148e-11,4.365574e-11,0.00076831866,6
2617020000,0.9766484,-0.001165238,-0.0006566078,0.2148398,0.9999997,8.731148e-11,4.365574e-11,0.00076831866,6
2617076000,0.9767011,-0.0012310768,-0.00069192325,0.21459979,0.9999997,8.731148e-11,4.365574e-11,0.00076831866,6
2617128000,0.97674894,-0.0013192444,-0.00071042025,0.21438132,0.9999997,8.731148e-11,4.365574e-11,0.00076831866,6
2617176000,0.976789,-0.0013276,-0.0006963338,0.21419856,0.9999997,8.731148e-11,4.365574e-11,0.00076831866,6
2617228000,0.9768408,-0.001185227,-0.0007371177,0.21396324,0.9999997,8.731148e-11,4.365574e-11,0.00076831866,6
2617280000,0.97685844,-0.0011814564,-0.0005331802,0.21388291,0.9999997,8.731148e-11,4.365574e-11,0.00076831866,6
2617332000,0.9768496,-0.0012185092,-0.0004148797,0.21392322,0.9999997,8.731148e-11,4.365574e-11,0.00076831866,6
2617384000,0.9768679,-0.0011704167,-0.00040204715,0.21384014,0.9999997,8.731148e-11,4.365574e-11,0.00076831866,6
2617436000,0.9768666,-0.0010819513,-0.0003832463,0.21384673,0.9999997,8.731148e-11,4.365574e-11,0.00076831866,6
2617488000,0.97686625,-0.0011176749,-0.00037397596,0.21384838,0.9999997,8.731148e-11,4.365574e-11,0.00076831866,6
2617540000,0.9768777,-0.0010085889,-0.0004295836,0.21379627,0.9999997,8.731148e-11,4.365574e-11,0.00076831866,6
2617592000,0.9768734,-0.00094994064,-0.0006499078,0.21381563,0.9999997,8.731148e-11,4.365574e-11,0.00076831866,6
2617644000,0.9768667,-0.0010035897,-0.00074510404,0.21384585,0.9999997,8.731148e-11,4.365574e-11,0.00076831866,6
2617696000,0.97684306,-0.0010820477,-0.00090103754,0.21395218,0.9999997,8.731148e-11,4.365574e-11,0.00076831866,6
2617748000,0.97682005,-0.0011344728,-0.0011665166,0.21405584,0.9999997,8.731148e-11,4.365574e-11,0.00076831866,6
2617800000,0.9768139,-0.0012350196,-0.0014784408,0.21408135,0.9999997,8.731148e-11,4.365574e-11,0.00076831866,6
2617852000,0.97678846,-0.0012216559,-0.0016321396,0.21419638,0.9999997,8.731148e-11,4.365574e-11,0.00076831866,6
2617904000,0.9767727,-0.0009918174,-0.001807431,0.2142684,0.9999997,8.731148e-11,4.365574e-11,0.00076831866,6
2617956000,0.97678345,-0.0010267991,-0.0018273563,0.21421865,0.9999997,8.731148e-11,4.365574e-11,0.00076831866,6
2618008000,0.976807,-0.0009600085,-0.0017909398,0.21411234,0.9999997,8.731148e-11,4.365574e-11,0.00076831866,6
2618060000,0.97682595,-0.0008007392,-0.0016436316,0.21402724,0.9999997,8.731148e-11,4.365574e-11,0.00076831866,6
2618112000,0.9768234,-0.0007373385,-0.001477529,0.21404086,0.9999997,8.731148e-11,4.365574e-11,0.00076831866,6
2618164000,0.97682035,-0.0008317493,-0.0013201737,0.21405509,0.9999997,8.731148e-11,4.365574e-11,0.00076831866,6
2618216000,0.9768055,-0.0008213383,-0.0012280563,0.21412379,0.9999997,8.731148e-11,4.365574e-11,0.00076831866,6
2618268000,0.97679925,-0.00088381243,-0.0011231896,0.21415229,0.9999997,8.731148e-11,4.365574e-11,0.00076831866,6
2618320000,0.97679466,-0.00097531825,-0.0011029508,0.21417312,0.9999997,8.731148e-11,4.365574e-11,0.00076831866,6
2618372000,0.97679794,-0.00092265423,-0.00096783356,0.21415873,0.9999997,8.731148e-11,4.365574e-11,0.00076831866,6
2618424000,0.97679025,-0.00096182345,-0.0011262961,0.21419272,0.9999997,8.731148e-11,4.365574e-11,0.00076831866,6
2618476000,0.97678065,-0.0008988118,-0.0012178615,0.21423665,0.9999997,8.731148e-11,4.365574e-11,0.00076831866,6
2618528000,0.9767697,-0.00095590524,-0.0012466441,0.21428613,0.9999997,8.731148e-11,4.365574e-11,0.00076831866,6
2618580000,0.976751,-0.001027411,-0.0014968682,0.21436907,0.9999997,8.731148e-11,4.365574e-11,0.00076831866,6
2618632000,0.97673005,-0.001327192,-0.0017277024,0.21446157,0.9999997,8.731148e-11,4.365574e-11,0.00076831866,6
2618684000,0.9767174,-0.0013905128,-0.001819911,0.21451788,0.9999997,8.731148e-11,4.365574e-11,0.00076831866,6
2618736000,0.97670704,-0.0013314087,-0.0018109945,0.21456563,0.9999997,8.731148e-11,4.365574e-11,0.00076831866,6
2618788000,0.97670287,-0.0012712931,-0.0017747974,0.21458502,0.9999997,8.731148e-11,4.365574e-11,0.00076831866,6
2618840000,0.9766962,-0.0013228377,-0.0019208117,0.21461439,0.9999997,8.731148e-11,4.365574e-11,0.00076831866,6
2618892000,0.97669965,-0.0013653754,-0.0019606394,0.21459791,0.9999997,8.731148e-11,4.365574e-11,0.00076831866,6
2618944000,0.97670877,-0.0013928993,-0.0018518572,0.21455653,0.9999997,8.731148e-11,4.365574e-11,0.00076831866,6
2618996000,0.97671103,-0.0011762938,-0.0017145312,0.21454911,0.9999997,8.731148e-11,4.365574e-11,0.00076831866,6
2619048000,0.97671837,-0.0010997863,-0.0015291759,0.2145175,0.9999997,8.731148e-11,4.365574e-11,0.00076831866,6
2619100000,0.97674537,-0.0010936619,-0.0014773754,0.21439476,0.9999997,8.731148e-11,4.365574e-11,0.00076831866,6
2619152000,0.97675264,-0.0013162466,-0.0014979491,0.21436036,0.9999997,8.731148e-11,4.365574e-11,0.00076831866,6
2619204000,0.97675437,-0.0014692427,-0.00147267,0.21435207,0.9999997,8.731148e-11,4.365574e-11,0.00076831866,6
2619256000,0.9767592,-0.001442953,-0.0015371925,0.21432933,0.9999997,8.731148e-11,4.365574e-11,0.00076831866,6
2619312000,0.97675854,-0.0011845124,-0.0016746641,0.21433295,0.9999997,8.731148e-11,4.365574e-11,0.00076831866,6
2619364000,0.97678065,-0.0010034404,-0.0019306625,0.2142311,0.9999997,8.731148e-11,4.365574e-11,0.00076831866,6
2619412000,0.9767898,-0.00080090284,-0.0019233715,0.2141903,0.9999997,8.731148e-11,4.365574e-11,0.00076831866,6
2619464000,0.9767844,-0.0006417245,-0.001992139,0.21421455,0.9999997,8.731148e-11,4.365574e-11,0.00076831866,6
2619516000,0.97679526,-0.00043812863,-0.0019104435,0.21416646,0.9999997,8.731148e-11,4.365574e-11,0.00076831866,6
2619568000,0.97680366,-0.00032473172,-0.0018002718,0.21412914,0.9999997,8.731148e-11,4.365574e-11,0.00076831866,6
2619620000,0.9768055,-0.0003408985,-0.0017170615,0.21412173,0.9999997,8.731148e-11,4.365574e-11,0.00076831866,6
2619676000,0.97676903,-0.0003525596,-0.0015488515,0.21428886,0.9999997,8.731148e-11,4.365574e-11,0.00076831866,6
2619728000,0.97677666,-0.00018872939,-0.0013515124,0.21425608,0.9999997,8.731148e-11,4.365574e-11,0.00076831866,6
2619780000,0.9767553,-0.000104617895,-0.0011727357,0.21435404,0.9999997,8.731148e-11,4.365574e-11,0.00076831866,6
2619828000,0.9767352,-5.7750835e-06,-0.0010360987,0.21444692,0.9999997,8.731148e-11,4.365574e-11,0.00076831866,6
2619880000,0.97672695,1.3925908e-05,-0.0010135643,0.21448444,0.9999997,8.731148e-11,4.365574e-11,0.00076831866,6
2619932000,0.9767102,-3.2220327e-05,-0.0011103067,0.21456018,0.9999997,8.731148e-11,4.365574e-11,0.00076831866,6
2619988000,0.9767227,-0.00024655968,-0.0011130812,0.21450277,0.9999997,8.731148e-11,4.365574e-11,0.00076831866,6
2620036000,0.976711,-0.0005093661,-0.0011552043,0.21455589,0.9999997,8.731148e-11,4.365574e-11,0.00076831866,6
2620088000,0.97670484,-0.0007575232,-0.001072033,0.21458326,0.9999997,8.731148e-11,4.365574e-11,0.00076831866,6
2620140000,0.9767001,-0.0008776149,-0.0008470643,0.21460514,0.9999997,8.731148e-11,4.365574e-11,0.00076831866,6
2620192000,0.9767161,-0.00082836096,-0.00055859104,0.2145338,0.9999997,8.731148e-11,4.365574e-11,0.00076831866,6
2620244000,0.9767229,-0.00064006017,-0.0005270765,0.2145036,0.9999997,8.731148e-11,4.365574e-11,0.00076831866,6
2620300000,0.97672915,-0.00038426855,-0.0006569036,0.2144755,0.9999997,8.731148e-11,4.365574e-11,0.00076831866,6
2620348000,0.97673345,-0.00014844873,-0.0008616323,0.21445546,0.9999997,8.731148e-11,4.365574e-11,0.00076831866,6
2620400000,0.9767362,9.032627e-05,-0.000943474,0.21444274,0.9999997,8.731148e-11,4.365574e-11,0.00076831866,6
2620452000,0.9767496,0.00012438583,-0.0009862807,0.21438126,0.9999997,8.731148e-11,4.365574e-11,0.00076831866,6
2620504000,0.9767456,-7.3285696e-06,-0.0010290055,0.21439944,0.9999997,8.731148e-11,4.365574e-11,0.00076831866,6
2620560000,0.976758,-1.5195729e-05,-0.00097230135,0.21434318,0.9999997,8.731148e-11,4.365574e-11,0.00076831866,6
2620608000,0.9767571,-6.245715e-05,-0.00068139064,0.21434794,0.9999997,8.731148e-11,4.365574e-11,0.00076831866,6
2620660000,0.9767483,-0.00015720034,-0.0003090402,0.21438904,0.9999997,8.731148e-11,4.365574e-11,0.00076831866,6
2620716000,0.9767275,-0.00025235798,-0.00027775698,0.21448381,0.9999997,8.731148e-11,4.365574e-11,0.00076831866,6
2620764000,0.97673297,-0.00033895235,-0.00030949555,0.21445893,0.9999997,8.731148e-11,4.365574e-11,0.00076831866,6
2620820000,0.97673786,-0.00049347646,-0.00052069454,0.2144356,0.9999997,8.731148e-11,4.365574e-11,0.00076831866,6
2620868000,0.976737,-0.0005846673,-0.0007575323,0.21443886,0.9999997,8.731148e-11,4.365574e-11,0.00076831866,6
2620920000,0.9767188,-0.00051874254,-0.00081629265,0.2145216,0.9999997,8.731148e-11,4.365574e-11,0.00076831866,6
2620972000,0.9766942,-0.00038424128,-0.0009033251,0.21463344,0.9999997,8.731148e-11,4.365574e-11,0.00076831866,6
2621024000,0.9767007,-0.00046824064,-0.00092617207,0.21460347,0.9999997,8.731148e-11,4.365574e-11,0.00076831866,6
2621076000,0.9767004,-0.0004051038,-0.0009438484,0.21460496,0.9999997,8.731148e-11,4.365574e-11,0.00076831866,6
2621128000,0.9767152,-9.692908e-05,-0.00100954,0.21453804,0.9999997,8.731148e-11,4.365574e-11,0.00076831866,6
2621184000,0.97671217,-3.861744e-05,-0.0005588343,0.2145535,0.9999997,8.731148e-11,4.365574e-11,0.00076831866,6
2621232000,0.9766084,-0.00033795438,0.0012431951,0.21502173,0.9999997,8.731148e-11,4.365574e-11,0.00076831866,6
2621284000,0.97618854,0.0005136712,0.0052139484,0.21686062,0.9999997,8.731148e-11,4.365574e-11,0.00076831866,6
2621336000,0.97528976,0.0028407923,0.012129001,0.2205782,0.9999997,8.731148e-11,4.365574e-11,0.00076831866,6
2621388000,0.9737891,0.0066778776,0.022020748,0.22628602,0.9999997,8.731148e-11,4.365574e-11,0.00076831866,6
2621444000,0.9713671,0.011704013,0.03589326,0.23456508,0.9999997,8.731148e-11,4.365574e-11,0.00076831866,6
2621492000,0.96851647,0.016534766,0.05046629,0.24321947,0.9999997,8.731148e-11,4.365574e-11,0.00076831866,6
2621544000,0.96463716,0.022558881,0.067724496,0.25373155,0.9999997,8.731148e-11,4.365574e-11,0.00076831866,6
2621596000,0.95995,0.028949749,0.08542303,0.2652563,0.9999997,8.731148e-11,4.365574e-11,0.00076831866,6
2621648000,0.95450175,0.035576146,0.102718964,0.27768624,0.9999997,8.731148e-11,4.365574e-11,0.00076831866,6
2621700000,0.9484453,0.04209859,0.11860688,0.29088068,0.9999997,8.731148e-11,4.365574e-11,0.00076831866,6
2621756000,0.9414757,0.048908625,0.13322106,0.30575097,0.9999997,8.731148e-11,4.365574e-11,0.00076831866,6
2621804000,0.9352553,0.054680515,0.14347588,0.31893954,0.9999997,8.731148e-11,4.365574e-11,0.00076831866,6
2621856000,0.92820746,0.060813773,0.15292566,0.3336862,0.9999997,8.731148e-11,4.365574e-11,0.00076831866,6
2621908000,0.920923,0.066911906,0.16028814,0.34890035,0.9999997,8.731148e-11,4.365574e-11,0.00076831866,6
2621960000,0.91344017,0.072842576,0.16572233,0.36449578,0.9999997,8.731148e-11,4.365574e-11,0.00076831866,6
2622016000,0.90503114,0.07918896,0.17021184,0.38167495,0.9999997,8.731148e-11,4.365574e-11,0.00076831866,6
2622064000,0.8975463,0.084469765,0.17307357,0.39663723,0.9999997,8.731148e-11,4.365574e-11,0.00076831866,6
2622120000,0.88834435,0.09059947,0.1757889,0.41440856,0.9999997,8.731148e-11,4.365574e-11,0.00076831866,6
2622168000,0.8801373,0.09574477,0.17749698,0.42975116,0.9999997,8.731148e-11,4.365574e-11,0.00076831866,6
2622220000,0.87086165,0.101448596,0.1788621,0.44644892,0.9999997,8.731148e-11,4.365574e-11,0.00076831866,6
2622276000,0.86031044,0.10755687,0.17989364,0.46468884,0.9999997,8.731148e-11,4.365574e-11,0.00076831866,6
2622328000,0.85006267,0.11305739,0.18053971,0.48168123,0.9999997,8.731148e-11,4.365574e-11,0.00076831866,6
2622376000,0.8402046,0.11810945,0.1809512,0.49735615,0.9999997,8.731148e-11,4.365574e-11,0.00076831866,6
2622432000,0.8280978,0.124066494,0.18136515,0.5157212,0.9999997,8.731148e-11,4.365574e-11,0.00076831866,6
2622480000,0.817275,0.12914523,0.18136244,0.53149855,0.9999997,8.731148e-11,4.365574e-11,0.00076831866,6
2622532000,0.80506825,0.134678,0.18114339,0.5485563,0.9999997,8.731148e-11,4.365574e-11,0.00076831866,6
2622588000,0.7914767,0.14080758,0.18046774,0.56671804,0.9999997,8.731148e-11,4.365574e-11,0.00076831866,6
2622636000,0.7792383,0.14649811,0.17989337,0.5822064,0.9999997,8.731148e-11,4.365574e-11,0.00076831866,6
2622688000,0.7654837,0.15272485,0.17901593,0.59888494,0.9999997,8.731148e-11,4.365574e-11,0.00076831866,6
2622740000,0.7512901,0.15885605,0.17781019,0.6153955,0.9999997,8.731148e-11,4.365574e-11,0.00076831866,6
2622792000,0.736529,0.16528395,0.17654547,0.6316946,0.9999997,8.731148e-11,4.365574e-11,0.00076831866,6
2622848000,0.7199513,0.1724653,0.17502105,0.64907134,0.9999997,8.731148e-11,4.365574e-11,0.00076831866,6
2622896000,0.7052853,0.1785378,0.17336157,0.6638093,0.9999997,8.731148e-11,4.365574e-11,0.00076831866,6
2622948000,0.6890557,0.18488786,0.17133226,0.6794586,0.9999997,8.731148e-11,4.365574e-11,0.00076831866,6
2623000000,0.67250216,0.19093001,0.16886735,0.6948168,0.9999997,8.731148e-11,4.365574e-11,0.00076831866,6
2623056000,0.6542183,0.19736977,0.16565652,0.7110566,0.9999997,8.731148e-11,4.365574e-11,0.00076831866,6
2623104000,0.6380092,0.20335674,0.16330293,0.7245153,0.9999997,8.731148e-11,4.365574e-11,0.00076831866,6
2623156000,0.62003654,0.21002541,0.16063155,0.7386756,0.9999997,8.731148e-11,4.365574e-11,0.00076831866,6
2623208000,0.6014766,0.21702302,0.15782845,0.75247395,0.9999997,8.731148e-11,4.365574e-11,0.00076831866,6
2623260000,0.58285224,0.22324614,0.1543257,0.7659165,0.9999997,8.731148e-11,4.365574e-11,0.00076831866,6
2623312000,0.56418574,0.22857079,0.15010634,0.77904934,0.9999997,8.731148e-11,4.365574e-11,0.00076831866,6
2623364000,0.54547346,0.23284732,0.14505066,0.79196036,0.9999997,8.731148e-11,4.365574e-11,0.00076831866,6
2623416000,0.52687013,0.23584591,0.1392007,0.80461663,0.9999997,8.731148e-11,4.365574e-11,0.00076831866,6
2623468000,0.50843835,0.23770048,0.13271128,0.8169313,0.9999997,8.731148e-11,4.365574e-11,0.00076831866,6
2623524000,0.48872322,0.23851393,0.125275,0.8297994,0.9999997,8.731148e-11,4.365574e-11,0.00076831866,6
2623572000,0.47197768,0.2384865,0.118684016,0.84040195,0.9999997,8.731148e-11,4.365574e-11,0.00076831866,6
2623624000,0.45394263,0.23767608,0.11149831,0.85147774,0.9999997,8.731148e-11,4.365574e-11,0.00076831866,6
2623680000,0.4346254,0.23619805,0.10394226,0.86284834,0.9999997,8.731148e-11,4.365574e-11,0.00076831866,6
2623728000,0.4181998,0.23453614,0.09780478,0.8720872,0.9999997,8.731148e-11,4.365574e-11,0.00076831866,6
2623780000,0.4005137,0.23277417,0.0914775,0.88149697,0.9999997,8.731148e-11,4.365574e-11,0.00076831866,6
2623836000,0.3812616,0.23147653,0.08539306,0.89093566,0.9999997,8.731148e-11,4.365574e-11,0.00076831866,6
2623884000,0.3645953,0.23100533,0.08075041,0.8984354,0.9999997,8.731148e-11,4.365574e-11,0.00076831866,6
2623936000,0.3464762,0.23132308,0.075896055,0.9059159,0.9999997,8.731148e-11,4.365574e-11,0.00076831866,6
2623988000,0.32827196,0.23231441,0.07137419,0.9127833,0.9999997,8.731148e-11,4.365574e-11,0.00076831866,6
2624040000,0.3099964,0.23378718,0.06704822,0.919103,0.9999997,8.731148e-11,4.365574e-11,0.00076831866,6
2624096000,0.29029214,0.23574252,0.062272627,0.925353,0.9999997,8.731148e-11,4.365574e-11,0.00076831866,6
2624144000,0.27343354,0.23743205,0.05829848,0.9303018,0.9999997,8.731148e-11,4.365574e-11,0.00076831866,6
2624196000,0.2551822,0.23927946,0.053943843,0.9352633,0.9999997,8.731148e-11,4.365574e-11,0.00076831866,6
2624248000,0.23709404,0.24073099,0.04952103,0.9398845,0.9999997,8.731148e-11,4.365574e-11,0.00076831866,6
2624300000,0.2190366,0.24186769,0.0450744,0.94418824,0.9999997,8.731148e-11,4.365574e-11,0.00076831866,6
2624352000,0.200957,0.24263941,0.04056722,0.9482071,0.9999997,8.731148e-11,4.365574e-11,0.00076831866,6
2624408000,0.18160552,0.2434078,0.035669617,0.9521029,0.9999997,8.731148e-11,4.365574e-11,0.00076831866,6
2624456000,0.16506892,0.24396527,0.03130023,0.95511967,0.9999997,8.731148e-11,4.365574e-11,0.00076831866,6
2624508000,0.14734712,0.24472606,0.026729034,0.957958,0.9999997,8.731148e-11,4.365574e-11,0.00076831866,6
2624560000,0.12954676,0.2458951,0.022327907,0.9603409,0.9999997,8.731148e-11,4.365574e-11,0.00076831866,6
2624612000,0.11199128,0.24702586,0.017844852,0.96235013,0.9999997,8.731148e-11,4.365574e-11,0.00076831866,6
2624668000,0.094328575,0.24800703,0.012931513,0.96406823,0.9999997,8.731148e-11,4.365574e-11,0.00076831866,6
2624716000,0.08087965,0.24885055,0.009129312,0.9651159,0.9999997,8.731148e-11,4.365574e-11,0.00076831866,6
2624768000,0.06827686,0.24970165,0.0057433485,0.9658956,0.9999997,8.731148e-11,4.365574e-11,0.00076831866,6
2624820000,0.05736768,0.25051507,0.0030283276,0.96640676,0.9999997,8.731148e-11,4.365574e-11,0.00076831866,6
2624872000,0.048182044,0.25115392,0.0013124326,0.96674633,0.9999997,8.731148e-11,4.365574e-11,0.00076831866,6
2624924000,0.04047628,0.25177187,0.0001161954,0.96693987,0.9999997,8.731148e-11,4.365574e-11,0.00076831866,6
2624976000,0.03393323,0.25213093,-0.0007474161,0.96709776,0.9999997,8.731148e-11,4.365574e-11,0.00076831866,6
2625028000,0.028292721,0.25231788,-0.0016838689,0.9672293,0.9999997,8.731148e-11,4.365574e-11,0.00076831866,6
2625080000,0.023647524,0.25234357,-0.0028745804,0.96734446,0.9999997,8.731148e-11,4.365574e-11,0.00076831866,6
2625132000,0.019800227,0.25203377,-0.0038669566,0.9675082,0.9999997,8.731148e-11,4.365574e-11,0.00076831866,6
2625184000,0.016702553,0.25164193,-0.004718789,0.96766484,0.9999997,8.731148e-11,4.365574e-11,0.00076831866,6
2625236000,0.0140536595,0.25153366,-0.005410571,0.9677315,0.9999997,8.731148e-11,4.365574e-11,0.00076831866,6
2625288000,0.011862669,0.25152043,-0.0058865217,0.9677614,0.9999997,8.731148e-11,4.365574e-11,0.00076831866,6
2625340000,0.010135782,0.25156218,-0.006261479,0.96776783,0.9999997,8.731148e-11,4.365574e-11,0.00076831866,6
2625392000,0.008689491,0.2516114,-0.006662161,0.9677664,0.9999997,8.731148e-11,4.365574e-11,0.00076831866,6
2625444000,0.0075741666,0.2519405,-0.0068706777,0.96768874,0.9999997,8.731148e-11,4.365574e-11,0.00076831866,6
2625500000,0.006571849,0.25219476,-0.006994367,0.96762896,0.9999997,8.731148e-11,4.365574e-11,0.00076831866,6
2625548000,0.00600719,0.2523074,-0.007095461,0.9676025,0.9999997,8.731148e-11,4.365574e-11,0.00076831866,6
2625600000,0.0054535707,0.25221312,-0.0074441247,0.9676277,0.9999997,8.731148e-11,4.365574e-11,0.00076831866,6
2625652000,0.0050808704,0.252326,-0.007683475,0.9675985,0.9999997,8.731148e-11,4.365574e-11,0.00076831866,6
2625704000,0.004881272,0.25254193,-0.007746858,0.9675427,0.9999997,8.731148e-11,4.365574e-11,0.00076831866,6
2625760000,0.004671223,0.25278172,-0.0077654943,0.96748096,0.9999997,8.731148e-11,4.365574e-11,0.00076831866,6
2625808000,0.0045162966,0.25268415,-0.0077196094,0.9675075,0.9999997,8.731148e-11,4.365574e-11,0.00076831866,6
2625860000,0.0045481212,0.2524747,-0.007926289,0.9675604,0.9999997,8.731148e-11,4.365574e-11,0.00076831866,6
2625912000,0.0045022,0.25224403,-0.008074082,0.9676195,0.9999997,8.731148e-11,4.365574e-11,0.00076831866,6
2625964000,0.004583953,0.2521746,-0.008312014,0.9676352,0.9999997,8.731148e-11,4.365574e-11,0.00076831866,6
2626016000,0.004746713,0.25237626,-0.008363509,0.96758145,0.9999997,8.731148e-11,4.365574e-11,0.00076831866,6
2626068000,0.004989227,0.252721,-0.00837041,0.9674902,0.9999997,8.731148e-11,4.365574e-11,0.00076831866,6
2626120000,0.005198261,0.2529708,-0.008403847,0.9674235,0.9999997,8.731148e-11,4.365574e-11,0.00076831866,6
2626172000,0.0054252804,0.25319815,-0.00843234,0.9673625,0.9999997,8.731148e-11,4.365574e-11,0.00076831866,6
2626224000,0.0057412293,0.25335205,-0.008587394,0.9673191,0.9999997,8.731148e-11,4.365574e-11,0.00076831866,6
2626276000,0.0060224445,0.2534908,-0.008619216,0.9672807,0.9999997,8.731148e-11,4.365574e-11,0.00076831866,6
2626328000,0.006240834,0.25355622,-0.008671449,0.9672617,0.9999997,8.731148e-11,4.365574e-11,0.00076831866,6
2626380000,0.0064471206,0.25334543,-0.008492963,0.96731716,0.9999997,8.731148e-11,4.365574e-11,0.00076831866,6
2626432000,0.0066702673,0.25319344,-0.008474819,0.96735555,0.9999997,8.731148e-11,4.365574e-11,0.00076831866,6
2626484000,0.0070153647,0.25306708,-0.008472887,0.96738625,0.9999997,8.731148e-11,4.365574e-11,0.00076831866,6
2626540000,0.00735923,0.25294507,-0.0084258085,0.967416,0.9999997,8.731148e-11,4.365574e-11,0.00076831866,6
2626592000,0.0076141623,0.25296313,-0.008330171,0.9674102,0.9999997,8.731148e-11,4.365574e-11,0.00076831866,6
2626640000,0.007919987,0.25306112,-0.008179777,0.9673833,0.9999997,8.731148e-11,4.365574e-11,0.00076831866,6
2626692000,0.00815298,0.25346518,-0.007918406,0.96727777,0.9999997,8.731148e-11,4.365574e-11,0.00076831866,6
2626744000,0.00837824,0.25384876,-0.00770163,0.96717703,0.9999997,8.731148e-11,4.365574e-11,0.00076831866,6
2626796000,0.008532573,0.25421128,-0.007441681,0.96708244,0.9999997,8.731148e-11,4.365574e-11,0.00076831866,6
2626848000,0.0087947035,0.2543072,-0.0074523874,0.96705484,0.9999997,8.731148e-11,4.365574e-11,0.00076831866,6
2626900000,0.009058875,0.25459215,-0.007519908,0.9669769,0.9999997,8.731148e-11,4.365574e-11,0.00076831866,6
2626952000,0.009327352,0.2546062,-0.007772284,0.96696866,0.9999997,8.731148e-11,4.365574e-11,0.00076831866,6
2627004000,0.009610786,0.25447556,-0.008031991,0.96699816,0.9999997,8.731148e-11,4.365574e-11,0.00076831866,6
2627056000,0.009956407,0.25448108,-0.00818046,0.9669919,0.9999997,8.731148e-11,4.365574e-11,0.00076831866,6
2627108000,0.010224319,0.25458178,-0.008245623,0.9669621,0.9999997,8.731148e-11,4.365574e-11,0.00076831866,6
2627160000,0.010538517,0.25461364,-0.008409188,0.9669489,0.9999997,8.731148e-11,4.365574e-11,0.00076831866,6
2627212000,0.010688055,0.25461018,-0.008324855,0.9669489,0.9999997,8.731148e-11,4.365574e-11,0.00076831866,6
2627264000,0.0109615885,0.25471762,-0.008432034,0.96691656,0.9999997,8.731148e-11,4.365574e-11,0.00076831866,6
2627316000,0.011230826,0.25469208,-0.0082940115,0.96692145,0.9999997,8.731148e-11,4.365574e-11,0.00076831866,6
2627368000,0.011409022,0.25463396,-0.008110597,0.96693623,0.9999997,8.731148e-11,4.365574e-11,0.00076831866,6
2627420000,0.011598267,0.25432077,-0.008092902,0.9670166,0.9999997,8.731148e-11,4.365574e-11,0.00076831866,6
2627472000,0.011759443,0.25411794,-0.0080875335,0.967068,0.9999997,8.731148e-11,4.365574e-11,0.00076831866,6
2627524000,0.011924494,0.25419185,-0.008065215,0.9670467,0.9999997,8.731148e-11,4.365574e-11,0.00076831866,6
2627580000,0.012072976,0.25427425,-0.00803329,0.9670235,0.9999997,8.731148e-11,4.365574e-11,0.00076831866,6
2627628000,0.012190555,0.25448415,-0.0080893235,0.96696633,0.9999997,8.731148e-11,4.365574e-11,0.00076831866,6
2627680000,0.0123639135,0.25477347,-0.00814851,0.9668875,0.9999997,8.731148e-11,4.365574e-11,0.00076831866,6
2627732000,0.012633569,0.2547876,-0.008160238,0.9668801,0.9999997,8.731148e-11,4.365574e-11,0.00076831866,6
2627784000,0.012818079,0.25463057,-0.007942794,0.96692085,0.9999997,8.731148e-11,4.365574e-11,0.00076831866,6
2627836000,0.012984385,0.25461492,-0.0078018806,0.96692395,0.9999997,8.731148e-11,4.365574e-11,0.00076831866,6
2627888000,0.013105844,0.25469574,-0.007616111,0.96690243,0.9999997,8.731148e-11,4.365574e-11,0.00076831866,6
2627940000,0.0132914055,0.25471556,-0.00772639,0.9668938,0.9999997,8.731148e-11,4.365574e-11,0.00076831866,6
2627992000,0.013500404,0.25476792,-0.007852917,0.96687615,0.9999997,8.731148e-11,4.365574e-11,0.00076831866,6
2628044000,0.013645669,0.2549561,-0.007923969,0.9668239,0.9999997,8.731148e-11,4.365574e-11,0.00076831866,6
2628096000,0.013887848,0.25517505,-0.00797099,0.96676224,0.9999997,8.731148e-11,4.365574e-11,0.00076831866,6
2628148000,0.01408438,0.2552004,-0.00806228,0.966752,0.9999997,8.731148e-11,4.365574e-11,0.00076831866,6
2628200000,0.014203052,0.25521103,-0.008002064,0.96674794,0.9999997,8.731148e-11,4.365574e-11,0.00076831866,6
2628252000,0.014356682,0.25528768,-0.007987025,0.96672565,0.9999997,8.731148e-11,4.365574e-11,0.00076831866,6
2628304000,0.014404027,0.25552803,-0.00795377,0.96666163,0.9999997,8.731148e-11,4.365574e-11,0.00076831866,6
2628360000,0.014575539,0.25556582,-0.008003143,0.96664864,0.9999997,8.731148e-11,4.365574e-11,0.00076831866,6
2628408000,0.014726276,0.25550118,-0.008127854,0.9666624,0.9999997,8.731148e-11,4.365574e-11,0.00076831866,6
2628464000,0.014916804,0.25551978,-0.008354387,0.96665263,0.9999997,8.731148e-11,4.365574e-11,0.00076831866,6
2628512000,0.014983063,0.255478,-0.008323864,0.96666294,0.9999997,8.731148e-11,4.365574e-11,0.00076831866,6
2628568000,0.015110564,0.25558633,-0.008456461,0.96663123,0.9999997,8.731148e-11,4.365574e-11,0.00076831866,6
2628620000,0.015270129,0.25574467,-0.008558166,0.96658593,0.9999997,8.731148e-11,4.365574e-11,0.00076831866,6
2628672000,0.015384389,0.2559274,-0.008502054,0.9665362,0.9999997,8.731148e-11,4.365574e-11,0.00076831866,6
2628724000,0.015450902,0.25611454,-0.008456209,0.96648604,0.9999997,8.731148e-11,4.365574e-11,0.00076831866,6
2628772000,0.015577974,0.2561721,-0.008503883,0.9664683,0.9999997,8.731148e-11,4.365574e-11,0.00076831866,6
2628824000,0.015642235,0.25618184,-0.008430931,0.96646535,0.9999997,8.731148e-11,4.365574e-11,0.00076831866,6
2628880000,0.015785722,0.25610587,-0.008115431,0.9664858,0.9999997,8.731148e-11,4.365574e-11,0.00076831866,6
2628928000,0.015825868,0.25613052,-0.007867994,0.9664807,0.9999997,8.731148e-11,4.365574e-11,0.00076831866,6
2628980000,0.01584783,0.25590348,-0.007838466,0.9665407,0.9999997,8.731148e-11,4.365574e-11,0.00076831866,6
2629036000,0.015926275,0.2558116,-0.007920208,0.96656305,0.9999997,8.731148e-11,4.365574e-11,0.00076831866,6
2629088000,0.015970113,0.25616822,-0.007890968,0.96646816,0.9999997,8.731148e-11,4.365574e-11,0.00076831866,6
2629136000,0.016100915,0.25652727,-0.00782126,0.9663713,0.9999997,8.731148e-11,4.365574e-11,0.00076831866,6
2629188000,0.016175324,0.25682423,-0.007822794,0.96629107,0.9999997,8.731148e-11,4.365574e-11,0.00076831866,6
2629240000,0.016204339,0.25702327,-0.0077523314,0.9662383,0.9999997,8.731148e-11,4.365574e-11,0.00076831866,6
2629296000,0.016241105,0.2572744,-0.0076760105,0.96617144,0.9999997,8.731148e-11,4.365574e-11,0.00076831866,6
2629344000,0.016337007,0.25710127,-0.007532722,0.966217,0.9999997,8.731148e-11,4.365574e-11,0.00076831866,6
2629396000,0.016410414,0.25697073,-0.0073639923,0.96625185,0.9999997,8.731148e-11,4.365574e-11,0.00076831866,6
2629452000,0.016449314,0.25678474,-0.007016777,0.9663032,0.9999997,8.731148e-11,4.365574e-11,0.00076831866,6
2629500000,0.016451597,0.2570348,-0.0068479623,0.96623784,0.9999997,8.731148e-11,4.365574e-11,0.00076831866,6
2629552000,0.016508369,0.25736403,-0.0065585747,0.96615136,0.9999997,8.731148e-11,4.365574e-11,0.00076831866,6
2629604000,0.016489927,0.2576364,-0.0064167576,0.96607995,0.9999997,8.731148e-11,4.365574e-11,0.00076831866,6
2629656000,0.016573442,0.25823665,-0.0065102084,0.96591765,0.9999997,8.731148e-11,4.365574e-11,0.00076831866,6
2629708000,0.0165966,0.25909206,-0.006531165,0.965688,0.9999997,8.731148e-11,4.365574e-11,0.00076831866,6
2629760000,0.016604524,0.2600994,-0.006504808,0.9654172,0.9999997,8.731148e-11,4.365574e-11,0.00076831866,6
2629812000,0.016649636,0.26085213,-0.006529368,0.9652131,0.9999997,8.731148e-11,4.365574e-11,0.00076831866,6
2629864000,0.016735408,0.2613754,-0.0066003916,0.9650696,0.9999997,8.731148e-11,4.365574e-11,0.00076831866,6
2629916000,0.016783064,0.26172844,-0.0066465293,0.96497273,0.9999997,8.731148e-11,4.365574e-11,0.00076831866,6
2629968000,0.016845413,0.2618986,-0.0066876947,0.9649253,0.9999997,8.731148e-11,4.365574e-11,0.00076831866,6
2630024000,0.016873116,0.26182488,-0.0066809217,0.9649448,0.9999997,8.731148e-11,4.365574e-11,0.00076831866,6
2630072000,0.016959434,0.26137653,-0.0066878893,0.9650648,0.9999997,8.731148e-11,4.365574e-11,0.00076831866,6
2630124000,0.017009396,0.260986,-0.006735361,0.9651693,0.9999997,8.731148e-11,4.365574e-11,0.00076831866,6
2630176000,0.01702197,0.2608618,-0.0068332586,0.9652019,0.9999997,8.731148e-11,4.365574e-11,0.00076831866,6
2630228000,0.017154835,0.26114783,-0.007084395,0.9651204,0.9999997,8.731148e-11,4.365574e-11,0.00076831866,6
2630280000,0.017246881,0.26147726,-0.0071944227,0.9650288,0.9999997,8.731148e-11,4.365574e-11,0.00076831866,6
2630332000,0.017339187,0.2618125,-0.00720025,0.96493614,0.9999997,8.731148e-11,4.365574e-11,0.00076831866,6
2630384000,0.017303502,0.26206237,-0.006963164,0.96487075,0.9999997,8.731148e-11,4.365574e-11,0.00076831866,6
2630436000,0.017382313,0.2619231,-0.0069294707,0.96490735,0.9999997,8.731148e-11,4.365574e-11,0.00076831866,6
2630488000,0.017429471,0.26152247,-0.006926856,0.9650152,0.9999997,8.731148e-11,4.365574e-11,0.00076831866,6
2630544000,0.017490247,0.26088962,-0.006876914,0.96518564,0.9999997,8.731148e-11,4.365574e-11,0.00076831866,6
2630592000,0.017529128,0.26052755,-0.007043315,0.9652816,0.9999997,8.731148e-11,4.365574e-11,0.00076831866,6
2630644000,0.017587332,0.2602274,-0.006970168,0.965362,0.9999997,8.731148e-11,4.365574e-11,0.00076831866,6
2630696000,0.017585346,0.2601132,-0.0070238477,0.9653924,0.9999997,8.731148e-11,4.365574e-11,0.00076831866,6
2630748000,0.017688341,0.2604167,-0.0071031,0.9653081,0.9999997,8.731148e-11,4.365574e-11,0.00076831866,6
2630800000,0.017778195,0.26101005,-0.007250209,0.9651451,0.9999997,8.731148e-11,4.365574e-11,0.00076831866,6
2630852000,0.017850054,0.261516,-0.007548712,0.9650046,0.9999997,8.731148e-11,4.365574e-11,0.00076831866,6
2630904000,0.017967798,0.26171726,-0.0075117336,0.9649481,0.9999997,8.731148e-11,4.365574e-11,0.00076831866,6
2630956000,0.017906576,0.26175246,-0.007349266,0.96494097,0.9999997,8.731148e-11,4.365574e-11,0.00076831866,6
2631008000,0.017823892,0.26171356,-0.0072405636,0.96495384,0.9999997,8.731148e-11,4.365574e-11,0.00076831866,6
2631064000,0.01781952,0.26145422,-0.007142128,0.96502495,0.9999997,8.731148e-11,4.365574e-11,0.00076831866,6
2631116000,0.017885951,0.2613109,-0.007141603,0.96506256,0.9999997,8.731148e-11,4.365574e-11,0.00076831866,6
2631164000,0.01786602,0.26142025,-0.0070802695,0.96503377,0.9999997,8.731148e-11,4.365574e-11,0.00076831866,6
2631220000,0.017958833,0.26163954,-0.007017274,0.96497303,0.9999997,8.731148e-11,4.365574e-11,0.00076831866,6
2631268000,0.017993582,0.26179695,-0.0070005194,0.9649299,0.9999997,8.731148e-11,4.365574e-11,0.00076831866,6
2631320000,0.017965078,0.26193932,-0.006804913,0.9648932,0.9999997,8.731148e-11,4.365574e-11,0.00076831866,6
2631376000,0.018029733,0.26189914,-0.0065769274,0.9649045,0.9999997,8.731148e-11,4.365574e-11,0.00076831866,6
2631424000,0.017938135,0.2615394,-0.0063703544,0.9650051,0.9999997,8.731148e-11,4.365574e-11,0.00076831866,6
2631476000,0.017962238,0.26134798,-0.006319136,0.96505684,0.9999997,8.731148e-11,4.365574e-11,0.00076831866,6
2631532000,0.018014442,0.26129287,-0.0064880657,0.9650697,0.9999997,8.731148e-11,4.365574e-11,0.00076831866,6
2631580000,0.01805533,0.26143762,-0.006609437,0.9650289,0.9999997,8.731148e-11,4.365574e-11,0.00076831866,6
2631632000,0.018060416,0.26146662,-0.006772073,0.9650198,0.9999997,8.731148e-11,4.365574e-11,0.00076831866,6
2631688000,0.01806316,0.2614911,-0.0069803903,0.96501166,0.9999997,8.731148e-11,4.365574e-11,0.00076831866,6
2631736000,0.01816962,0.26173243,-0.0072371704,0.96494234,0.9999997,8.731148e-11,4.365574e-11,0.00076831866,6
2631788000,0.018178273,0.26195082,-0.0072995457,0.9648825,0.9999997,8.731148e-11,4.365574e-11,0.00076831866,6
2631840000,0.018245338,0.26172563,-0.0072088097,0.964943,0.9999997,8.731148e-11,4.365574e-11,0.00076831866,6
2631892000,0.018268758,0.26128903,-0.007185724,0.96506095,0.9999997,8.731148e-11,4.365574e-11,0.00076831866,6
2631944000,0.018306823,0.26120004,-0.0071051293,0.965085,0.9999997,8.731148e-11,4.365574e-11,0.00076831866,6
2631996000,0.018326597,0.26113296,-0.0069629415,0.96510386,0.9999997,8.731148e-11,4.365574e-11,0.00076831866,6
2632052000,0.018367512,0.2614338,-0.006807462,0.9650227,0.9999997,8.731148e-11,4.365574e-11,0.00076831866,6
2632100000,0.01833688,0.26172358,-0.0066943993,0.96494555,0.9999997,8.731148e-11,4.365574e-11,0.00076831866,6
2632156000,0.018304331,0.26213044,-0.00647092,0.96483713,0.9999997,8.731148e-11,4.365574e-11,0.00076831866,6
2632204000,0.01827264,0.26267838,-0.0063783843,0.9646894,0.9999997,8.731148e-11,4.365574e-11,0.00076831866,6
2632256000,0.018240763,0.26298323,-0.0064091254,0.9646067,0.9999997,8.731148e-11,4.365574e-11,0.00076831866,6
2632308000,0.018233249,0.2629877,-0.0066416133,0.9646041,0.9999997,8.731148e-11,4.365574e-11,0.00076831866,6
2632364000,0.018333685,0.2629827,-0.0070209173,0.96460086,0.9999997,8.731148e-11,4.365574e-11,0.00076831866,6
2632412000,0.018354213,0.2627043,-0.0073280465,0.96467394,0.9999997,8.731148e-11,4.365574e-11,0.00076831866,6
2632464000,0.018430782,0.2622078,-0.007461117,0.9648066,0.9999997,8.731148e-11,4.365574e-11,0.00076831866,6
2632516000,0.018512554,0.26161784,-0.0073729665,0.9649658,0.9999997,8.731148e-11,4.365574e-11,0.00076831866,6
2632572000,0.018597426,0.26129207,-0.007301448,0.965053,0.9999997,8.731148e-11,4.365574e-11,0.00076831866,6
2632620000,0.01854854,0.26119557,-0.007341758,0.96507984,0.9999997,8.731148e-11,4.365574e-11,0.00076831866,6
2632672000,0.01861547,0.26121283,-0.0074684843,0.9650728,0.9999997,8.731148e-11,4.365574e-11,0.00076831866,6
2632728000,0.018685212,0.2614968,-0.0073336847,0.9649956,0.9999997,8.731148e-11,4.365574e-11,0.00076831866,6
2632776000,0.018631382,0.2617895,-0.007310198,0.9649174,0.9999997,8.731148e-11,4.365574e-11,0.00076831866,6
2632828000,0.01861961,0.26212952,-0.0073896996,0.9648248,0.9999997,8.731148e-11,4.365574e-11,0.00076831866,6
2632884000,0.018661465,0.26214468,-0.0073482636,0.9648202,0.9999997,8.731148e-11,4.365574e-11,0.00076831866,6
2632932000,0.018673647,0.26213163,-0.007306265,0.9648238,0.9999997,8.731148e-11,4.365574e-11,0.00076831866,6
2632984000,0.018740498,0.2620765,-0.007448477,0.9648364,0.9999997,8.731148e-11,4.365574e-11,0.00076831866,6
2633036000,0.01879043,0.26194754,-0.007570851,0.96486944,0.9999997,8.731148e-11,4.365574e-11,0.00076831866,6
2633092000,0.018828852,0.26194003,-0.007855153,0.96486855,0.9999997,8.731148e-11,4.365574e-11,0.00076831866,6
2633140000,0.018826857,0.2622172,-0.008045685,0.9647918,0.9999997,8.731148e-11,4.365574e-11,0.00076831866,6
2633196000,0.018872462,0.2625442,-0.008176682,0.9647007,0.9999997,8.731148e-11,4.365574e-11,0.00076831866,6
2633248000,0.018903622,0.2625842,-0.008175522,0.96468925,0.9999997,8.731148e-11,4.365574e-11,0.00076831866,6
2633296000,0.018948162,0.262464,-0.008087705,0.96472186,0.9999997,8.731148e-11,4.365574e-11,0.00076831866,6
2633348000,0.018932508,0.26249412,-0.007906674,0.9647154,0.9999997,8.731148e-11,4.365574e-11,0.00076831866,6
2633400000,0.018989176,0.26248467,-0.00785542,0.9647174,0.9999997,8.731148e-11,4.365574e-11,0.00076831866,6
2633452000,0.019010106,0.26243755,-0.007879545,0.96472955,0.9999997,8.731148e-11,4.365574e-11,0.00076831866,6
2633504000,0.01900963,0.26245686,-0.007991954,0.96472335,0.9999997,8.731148e-11,4.365574e-11,0.00076831866,6
2633560000,0.018914111,0.26238823,-0.008025143,0.9647437,0.9999997,8.731148e-11,4.365574e-11,0.00076831866,6
2633612000,0.018891066,0.26242864,-0.00811145,0.96473247,0.9999997,8.731148e-11,4.365574e-11,0.00076831866,6
2633660000,0.018984364,0.26242024,-0.008088852,0.964733,0.9999997,8.731148e-11,4.365574e-11,0.00076831866,6
2633712000,0.01892205,0.2625082,-0.007909665,0.96471184,0.9999997,8.731148e-11,4.365574e-11,0.00076831866,6
2633764000,0.018864274,0.26263016,-0.0076378784,0.9646819,0.9999997,8.731148e-11,4.365574e-11,0.00076831866,6
2633816000,0.018828826,0.26252365,-0.007496574,0.96471274,0.9999997,8.731148e-11,4.365574e-11,0.00076831866,6
2633868000,0.018792236,0.26244453,-0.0073903706,0.96473587,0.9999997,8.731148e-11,4.365574e-11,0.00076831866,6
2633924000,0.018832264,0.26238957,-0.00739683,0.9647499,0.9999997,8.731148e-11,4.365574e-11,0.00076831866,6
2633976000,0.018800696,0.26256344,-0.007500838,0.96470237,0.9999997,8.731148e-11,4.365574e-11,0.00076831866,6
2634028000,0.018848028,0.26259863,-0.007510339,0.9646918,0.9999997,8.731148e-11,4.365574e-11,0.00076831866,6
2634076000,0.01891874,0.26257905,-0.0074620806,0.96469617,0.9999997,8.731148e-11,4.365574e-11,0.00076831866,6
2634128000,0.018926106,0.26259455,-0.0074041258,0.9646923,0.9999997,8.731148e-11,4.365574e-11,0.00076831866,6
2634180000,0.018894942,0.26270413,-0.007359376,0.9646633,0.9999997,8.731148e-11,4.365574e-11,0.00076831866,6
2634232000,0.018787684,0.26271024,-0.007283575,0.9646644,0.9999997,8.731148e-11,4.365574e-11,0.00076831866,6
2634284000,0.018820673,0.26244643,-0.0074574207,0.96473426,0.9999997,8.731148e-11,4.365574e-11,0.00076831866,6
2634336000,0.018899918,0.2622718,-0.0077018035,0.96477824,0.9999997,8.731148e-11,4.365574e-11,0.00076831866,6
2634388000,0.018965008,0.26225582,-0.007854923,0.96478015,0.9999997,8.731148e-11,4.365574e-11,0.00076831866,6
2634440000,0.018895779,0.2624269,-0.0078927055,0.96473455,0.9999997,8.731148e-11,4.365574e-11,0.00076831866,6
2634492000,0.01888123,0.2629799,-0.007839026,0.9645847,0.9999997,8.731148e-11,4.365574e-11,0.00076831866,6
2634544000,0.018982524,0.2637834,-0.007707222,0.96436435,0.9999997,8.731148e-11,4.365574e-11,0.00076831866,6
2634596000,0.018957151,0.26468036,-0.0075143278,0.9641206,0.9999997,8.731148e-11,4.365574e-11,0.00076831866,6
2634648000,0.018899964,0.26576066,-0.0074691265,0.96382487,0.9999997,8.731148e-11,4.365574e-11,0.00076831866,6
2634700000,0.018947186,0.26692128,-0.0074127107,0.96350354,0.9999997,8.731148e-11,4.365574e-11,0.00076831866,6
2634752000,0.018902836,0.2676948,-0.0074703936,0.96328944,0.9999997,8.731148e-11,4.365574e-11,0.00076831866,6
2634804000,0.018828047,0.26785356,-0.007655736,0.9632452,0.9999997,8.731148e-11,4.365574e-11,0.00076831866,6
2634860000,0.018821971,0.26772755,-0.007996408,0.9632776,0.9999997,8.731148e-11,4.365574e-11,0.00076831866,6
2634908000,0.018901872,0.26749095,-0.008085532,0.9633411,0.9999997,8.731148e-11,4.365574e-11,0.00076831866,6
2634964000,0.018976696,0.2669835,-0.008097323,0.96348023,0.9999997,8.731148e-11,4.365574e-11,0.00076831866,6
2635012000,0.018986436,0.26651523,-0.008074294,0.9636099,0.9999997,8.731148e-11,4.365574e-11,0.00076831866,6
2635064000,0.018966293,0.2662417,-0.008002368,0.96368647,0.9999997,8.731148e-11,4.365574e-11,0.00076831866,6
2635116000,0.019054426,0.26595178,-0.007913462,0.9637656,0.9999997,8.731148e-11,4.365574e-11,0.00076831866,6
2635168000,0.019070914,0.26598042,-0.007903058,0.96375734,0.9999997,8.731148e-11,4.365574e-11,0.00076831866,6
2635224000,0.019002197,0.2661521,-0.007849274,0.9637118,0.9999997,8.731148e-11,4.365574e-11,0.00076831866,6
2635276000,0.019006198,0.2661641,-0.0077804965,0.96370894,0.9999997,8.731148e-11,4.365574e-11,0.00076831866,6
2635324000,0.01903981,0.26640955,-0.007699543,0.96364117,0.9999997,8.731148e-11,4.365574e-11,0.00076831866,6
2635376000,0.019004023,0.26660892,-0.007629461,0.9635872,0.9999997,8.731148e-11,4.365574e-11,0.00076831866,6
2635432000,0.01904156,0.26676527,-0.007806666,0.96354187,0.9999997,8.731148e-11,4.365574e-11,0.00076831866,6
2635484000,0.018999398,0.266711,-0.0077787265,0.96355784,0.9999997,8.731148e-11,4.365574e-11,0.00076831866,6
2635532000,0.019045344,0.26669204,-0.007872914,0.96356153,0.9999997,8.731148e-11,4.365574e-11,0.00076831866,6
2635584000,0.019040128,0.26666,-0.008114795,0.9635684,0.9999997,8.731148e-11,4.365574e-11,0.00076831866,6
2635636000,0.01908817,0.26652154,-0.008404611,0.9636034,0.9999997,8.731148e-11,4.365574e-11,0.00076831866,6
2635688000,0.01906144,0.2664243,-0.008489805,0.96363,0.9999997,8.731148e-11,4.365574e-11,0.00076831866,6
2635744000,0.019127296,0.26618427,-0.008465833,0.9636952,0.9999997,8.731148e-11,4.365574e-11,0.00076831866,6
2635796000,0.019115753,0.26608244,-0.008422946,0.963724,0.9999997,8.731148e-11,4.365574e-11,0.00076831866,6
2635848000,0.019185483,0.26602367,-0.0084068505,0.9637389,0.9999997,8.731148e-11,4.365574e-11,0.00076831866,6
2635896000,0.01922209,0.26614055,-0.008457617,0.9637055,0.9999997,8.731148e-11,4.365574e-11,0.00076831866,6
2635948000,0.019181244,0.26621053,-0.008593494,0.96368575,0.9999997,8.731148e-11,4.365574e-11,0.00076831866,6
2636000000,0.019167487,0.26626632,-0.008801542,0.96366876,0.9999997,8.731148e-11,4.365574e-11,0.00076831866,6
2636052000,0.019240081,0.26645845,-0.0089730155,0.9636126,0.9999997,8.731148e-11,4.365574e-11,0.00076831866,6
2636108000,0.019251436,0.26668844,-0.009051387,0.96354806,0.9999997,8.731148e-11,4.365574e-11,0.00076831866,6
2636156000,0.01932947,0.26688036,-0.0090821935,0.96349305,0.9999997,8.731148e-11,4.365574e-11,0.00076831866,6
2636212000,0.019354545,0.2670431,-0.009216947,0.9634462,0.9999997,8.731148e-11,4.365574e-11,0.00076831866,6
2636260000,0.019441044,0.26708192,-0.0094540445,0.96343136,0.9999997,8.731148e-11,4.365574e-11,0.00076831866,6
2636312000,0.019456875,0.26702437,-0.009611903,0.9634454,0.9999997,8.731148e-11,4.365574e-11,0.00076831866,6
2636364000,0.01947926,0.26690584,-0.009780118,0.9634761,0.9999997,8.731148e-11,4.365574e-11,0.00076831866,6
2636416000,0.019446969,0.2668648,-0.009727819,0.9634887,0.9999997,8.731148e-11,4.365574e-11,0.00076831866,6
2636468000,0.019445254,0.26669234,-0.009821727,0.9635355,0.9999997,8.731148e-11,4.365574e-11,0.00076831866,6
2636520000,0.019481659,0.26672643,-0.009800424,0.9635256,0.9999997,8.731148e-11,4.365574e-11,0.00076831866,6
2636572000,0.019478315,0.266641,-0.009816961,0.9635491,0.9999997,8.731148e-11,4.365574e-11,0.00076831866,6
2636624000,0.019585941,0.26661903,-0.009734129,0.96355385,0.9999997,8.731148e-11,4.365574e-11,0.00076831866,6
2636676000,0.019627433,0.26653364,-0.009739469,0.96357656,0.9999997,8.731148e-11,4.365574e-11,0.00076831866,6
2636728000,0.019544479,0.26672232,-0.009676249,0.9635266,0.9999997,8.731148e-11,4.365574e-11,0.00076831866,6
2636780000,0.019522421,0.26694685,-0.009388435,0.9634678,0.9999997,8.731148e-11,4.365574e-11,0.00076831866,6
2636836000,0.019497842,0.26707813,-0.009163065,0.9634341,0.9999997,8.731148e-11,4.365574e-11,0.00076831866,6
2636884000,0.019489145,0.26705492,-0.0090362625,0.9634419,0.9999997,8.731148e-11,4.365574e-11,0.00076831866,6
2636936000,0.01945639,0.266849,-0.00908441,0.9634992,0.9999997,8.731148e-11,4.365574e-11,0.00076831866,6
2636988000,0.019421566,0.2665872,-0.009092415,0.9635722,0.9999997,8.731148e-11,4.365574e-11,0.00076831866,6
2637040000,0.019418538,0.26637727,-0.008934624,0.9636318,0.9999997,8.731148e-11,4.365574e-11,0.00076831866,6
2637092000,0.01937103,0.26629028,-0.00883574,0.9636577,0.9999997,8.731148e-11,4.365574e-11,0.00076831866,6
2637144000,0.019308845,0.26649374,-0.008757166,0.96360344,0.9999997,8.731148e-11,4.365574e-11,0.00076831866,6
2637196000,0.019259239,0.2669994,-0.008680817,0.96346515,0.9999997,8.731148e-11,4.365574e-11,0.00076831866,6
2637248000,0.01925923,0.26745754,-0.008657706,0.9633383,0.9999997,8.731148e-11,4.365574e-11,0.00076831866,6
2637300000,0.019289626,0.2678626,-0.008691678,0.96322477,0.9999997,8.731148e-11,4.365574e-11,0.00076831866,6
2637352000,0.019245412,0.2680348,-0.008752346,0.9631773,0.9999997,8.731148e-11,4.365574e-11,0.00076831866,6
2637408000,0.01937086,0.26803458,-0.009099592,0.96317154,0.9999997,8.731148e-11,4.365574e-11,0.00076831866,6
2637460000,0.019384341,0.26786265,-0.009378888,0.9632165,0.9999997,8.731148e-11,4.365574e-11,0.00076831866,6
2637508000,0.019481117,0.26761985,-0.009622357,0.9632796,0.9999997,8.731148e-11,4.365574e-11,0.00076831866,6
2637560000,0.019575497,0.2674641,-0.009716907,0.96331996,0.9999997,8.731148e-11,4.365574e-11,0.00076831866,6
2637612000,0.019596279,0.26735514,-0.00972525,0.9633497,0.9999997,8.731148e-11,4.365574e-11,0.00076831866,6
2637668000,0.019594824,0.26734143,-0.009655103,0.96335423,0.9999997,8.731148e-11,4.365574e-11,0.00076831866,6
2637720000,0.01949378,0.26758626,-0.009399718,0.9632908,0.9999997,8.731148e-11,4.365574e-11,0.00076831866,6
2637768000,0.019449126,0.2675525,-0.00902608,0.9633047,0.9999997,8.731148e-11,4.365574e-11,0.00076831866,6
2637824000,0.019355707,0.2675816,-0.008787255,0.96330076,0.9999997,8.731148e-11,4.365574e-11,0.00076831866,6
2637872000,0.01933611,0.26772985,-0.008606071,0.9632616,0.9999997,8.731148e-11,4.365574e-11,0.00076831866,6
2637928000,0.019213177,0.26787144,-0.00839627,0.96322656,0.9999997,8.731148e-11,4.365574e-11,0.00076831866,6
2637980000,0.019201772,0.26788425,-0.008238155,0.96322453,0.9999997,8.731148e-11,4.365574e-11,0.00076831866,6
2638032000,0.019216705,0.2680266,-0.008202529,0.963185,0.9999997,8.731148e-11,4.365574e-11,0.00076831866,6
2638084000,0.019133026,0.26808372,-0.008240329,0.9631704,0.9999997,8.731148e-11,4.365574e-11,0.00076831866,6
2638132000,0.019099222,0.26818225,-0.008510544,0.96314126,0.9999997,8.731148e-11,4.365574e-11,0.00076831866,6
2638184000,0.019131217,0.26838884,-0.008633829,0.963082,0.9999997,8.731148e-11,4.365574e-11,0.00076831866,6
2638236000,0.019220704,0.26844075,-0.008671742,0.96306545,0.9999997,8.731148e-11,4.365574e-11,0.00076831866,6
2638288000,0.019225616,0.26838166,-0.00869487,0.96308154,0.9999997,8.731148e-11,4.365574e-11,0.00076831866,6
2638340000,0.019262739,0.2683647,-0.008691334,0.9630856,0.9999997,8.731148e-11,4.365574e-11,0.00076831866,6
2638392000,0.019230332,0.26847208,-0.008575079,0.96305734,0.9999997,8.731148e-11,4.365574e-11,0.00076831866,6
2638444000,0.019263515,0.26844335,-0.0084781265,0.9630655,0.9999997,8.731148e-11,4.365574e-11,0.00076831866,6
2638496000,0.01930462,0.26837757,-0.00839167,0.96308386,0.9999997,8.731148e-11,4.365574e-11,0.00076831866,6
2638548000,0.019261228,0.2683286,-0.008113129,0.9631007,0.9999997,8.731148e-11,4.365574e-11,0.00076831866,6
2638600000,0.0191708,0.26822793,-0.007900323,0.9631324,0.9999997,8.731148e-11,4.365574e-11,0.00076831866,6
2638652000,0.019099938,0.26815996,-0.0078162,0.9631533,0.9999997,8.731148e-11,4.365574e-11,0.00076831866,6
2638704000,0.01901963,0.26820633,-0.007761719,0.9631425,0.9999997,8.731148e-11,4.365574e-11,0.00076831866,6
2638756000,0.01905755,0.26805538,-0.0076876674,0.96318436,0.9999997,8.731148e-11,4.365574e-11,0.00076831866,6
2638808000,0.018988658,0.2677219,-0.0076870527,0.9632785,0.9999997,8.731148e-11,4.365574e-11,0.00076831866,6
2638860000,0.019027697,0.26745105,-0.007860802,0.96335155,0.9999997,8.731148e-11,4.365574e-11,0.00076831866,6
2638916000,0.019016251,0.26737052,-0.007872211,0.9633741,0.9999997,8.731148e-11,4.365574e-11,0.00076831866,6
2638964000,0.018979033,0.26747853,-0.007899719,0.9633445,0.9999997,8.731148e-11,4.365574e-11,0.00076831866,6
2639016000,0.018993758,0.26757428,-0.007907452,0.9633176,0.9999997,8.731148e-11,4.365574e-11,0.00076831866,6
2639068000,0.019069219,0.26781225,-0.007957973,0.96324956,0.9999997,8.731148e-11,4.365574e-11,0.00076831866,6
2639120000,0.01910725,0.2680047,-0.007901708,0.9631957,0.9999997,8.731148e-11,4.365574e-11,0.00076831866,6
2639172000,0.0190403,0.26817632,-0.00779121,0.9631502,0.9999997,8.731148e-11,4.365574e-11,0.00076831866,6
2639224000,0.018974498,0.26813236,-0.007548387,0.96316564,0.9999997,8.731148e-11,4.365574e-11,0.00076831866,6
2639276000,0.018923918,0.26794404,-0.0073754033,0.9632205,0.9999997,8.731148e-11,4.365574e-11,0.00076831866,6
2639328000,0.018811228,0.26764908,-0.0072654136,0.96330553,0.9999997,8.731148e-11,4.365574e-11,0.00076831866,6
2639380000,0.018799648,0.2674565,-0.007196617,0.96335965,0.9999997,8.731148e-11,4.365574e-11,0.00076831866,6
2639436000,0.018730469,0.2674377,-0.0070242747,0.9633675,0.9999997,8.731148e-11,4.365574e-11,0.00076831866,6
2639484000,0.01875287,0.26740196,-0.0070243073,0.96337706,0.9999997,8.731148e-11,4.365574e-11,0.00076831866,6
2639536000,0.018675083,0.26769894,-0.0069321734,0.96329665,0.9999997,8.731148e-11,4.365574e-11,0.00076831866,6
2639588000,0.018697083,0.2682457,-0.006984953,0.9631438,0.9999997,8.731148e-11,4.365574e-11,0.00076831866,6
2639640000,0.018673299,0.2689962,-0.0070008826,0.9629348,0.9999997,8.731148e-11,4.365574e-11,0.00076831866,6
2639696000,0.018668085,0.26985213,-0.007034156,0.9626951,0.9999997,8.731148e-11,4.365574e-11,0.00076831866,6
2639748000,0.018679008,0.27046624,-0.0071235695,0.962522,0.9999997,8.731148e-11,4.365574e-11,0.00076831866,6
2639796000,0.018684682,0.27099153,-0.007133292,0.962374,0.9999997,8.731148e-11,4.365574e-11,0.00076831866,6
2639848000,0.018754058,0.2714694,-0.0071777026,0.96223766,0.9999997,8.731148e-11,4.365574e-11,0.00076831866,6
2639904000,0.01875448,0.2716025,-0.0071100164,0.9622006,0.9999997,8.731148e-11,4.365574e-11,0.00076831866,6
2639952000,0.018734809,0.27149108,-0.007107956,0.9622324,0.9999997,8.731148e-11,4.365574e-11,0.00076831866,6
2640004000,0.018709581,0.27137688,-0.007078828,0.9622653,0.9999997,8.731148e-11,4.365574e-11,0.00076831866,6
2640056000,0.018664187,0.27130097,-0.007144727,0.9622871,0.9999997,8.731148e-11,4.365574e-11,0.00076831866,6
2640108000,0.018682517,0.27123398,-0.007387457,0.96230376,0.9999997,8.731148e-11,4.365574e-11,0.00076831866,6
2640160000,0.018669968,0.27117854,-0.007523006,0.96231866,0.9999997,8.731148e-11,4.365574e-11,0.00076831866,6
2640212000,0.018734006,0.27127716,-0.0076089147,0.96228886,0.9999997,8.731148e-11,4.365574e-11,0.00076831866,6
2640264000,0.018774934,0.27148107,-0.00770676,0.96222985,0.9999997,8.731148e-11,4.365574e-11,0.00076831866,6
2640316000,0.018781645,0.27179506,-0.0077460436,0.96214074,0.9999997,8.731148e-11,4.365574e-11,0.00076831866,6
2640372000,0.018811014,0.27210847,-0.007908375,0.9620502,0.9999997,8.731148e-11,4.365574e-11,0.00076831866,6
2640420000,0.018822456,0.27216816,-0.007935511,0.962033,0.9999997,8.731148e-11,4.365574e-11,0.00076831866,6
2640472000,0.018876972,0.2721408,-0.007853882,0.9620403,0.9999997,8.731148e-11,4.365574e-11,0.00076831866,6
2640524000,0.018866053,0.27194396,-0.0076922765,0.96209747,0.9999997,8.731148e-11,4.365574e-11,0.00076831866,6
2640576000,0.018815039,0.27158904,-0.007523155,0.96220005,0.9999997,8.731148e-11,4.365574e-11,0.00076831866,6
2640628000,0.018773805,0.27118132,-0.0072962902,0.9623175,0.9999997,8.731148e-11,4.365574e-11,0.00076831866,6
2640680000,0.018755065,0.27089655,-0.0071372953,0.9623993,0.9999997,8.731148e-11,4.365574e-11,0.00076831866,6
2640736000,0.018766146,0.27083954,-0.0070029916,0.9624161,0.9999997,8.731148e-11,4.365574e-11,0.00076831866,6
2640784000,0.018718446,0.2711128,-0.006868356,0.96234107,0.9999997,8.731148e-11,4.365574e-11,0.00076831866,6
2640836000,0.01863728,0.27168205,-0.0067585884,0.9621829,0.9999997,8.731148e-11,4.365574e-11,0.00076831866,6
2640888000,0.01864951,0.27203718,-0.00672785,0.9620825,0.9999997,8.731148e-11,4.365574e-11,0.00076831866,6
2640940000,0.018683229,0.2721803,-0.0067183156,0.9620415,0.9999997,8.731148e-11,4.365574e-11,0.00076831866,6
2640992000,0.018643156,0.272147,-0.006783747,0.9620512,0.9999997,8.731148e-11,4.365574e-11,0.00076831866,6
2641044000,0.018644227,0.27196836,-0.006918393,0.96210074,0.9999997,8.731148e-11,4.365574e-11,0.00076831866,6
2641096000,0.018691774,0.2714616,-0.007016941,0.9622422,0.9999997,8.731148e-11,4.365574e-11,0.00076831866,6
2641148000,0.018700752,0.2710178,-0.0071074734,0.9623665,0.9999997,8.731148e-11,4.365574e-11,0.00076831866,6
2641200000,0.018699337,0.27085787,-0.007311432,0.96241,0.9999997,8.731148e-11,4.365574e-11,0.00076831866,6
2641252000,0.018741548,0.2706981,-0.0072347955,0.9624546,0.9999997,8.731148e-11,4.365574e-11,0.00076831866,6
2641304000,0.01879332,0.27065614,-0.007186246,0.9624659,0.9999997,8.731148e-11,4.365574e-11,0.00076831866,6
2641360000,0.018805344,0.27085966,-0.007043203,0.96240944,0.9999997,8.731148e-11,4.365574e-11,0.00076831866,6
2641408000,0.018729182,0.27105772,-0.0068937256,0.96235627,0.9999997,8.731148e-11,4.365574e-11,0.00076831866,6
2641460000,0.018690683,0.2711073,-0.006741868,0.96234405,0.9999997,8.731148e-11,4.365574e-11,0.00076831866,6
2641516000,0.018664416,0.27118093,-0.0067275697,0.96232396,0.9999997,8.731148e-11,4.365574e-11,0.00076831866,6
