timestamp,ref_timestamp,ref_lat,ref_lon,x,y,z,delta_xy[0],delta_xy[1],delta_z,vx,vy,vz,z_deriv,delta_vxy[0],delta_vxy[1],delta_vz,ax,ay,az,yaw,ref_alt,dist_bottom,dist_bottom_rate,eph,epv,evh,evv,vxy_max,vz_max,hagl_min,hagl_max,xy_valid,z_valid,v_xy_valid,v_z_valid,xy_reset_counter,z_reset_counter,vxy_reset_counter,vz_reset_counter,xy_global,z_global,dist_bottom_valid
2613228000,1692000,47.3977508,8.5456074,0.03178219,0.0032046305,0.09795887,-0.02230069,-0.003424756,0.0,0.0026446776,-0.029031703,0.044811815,0.018761713,-0.06259725,-0.008557537,0.15231551,0.010846096,-0.021243973,0.05781464,0.4320539,0.0,0.1,-0.044811815,0.42236587,0.23527995,0.17429431,0.10439456,inf,inf,inf,inf,1,1,1,1,2,0,2,2,1,1,1
2613324000,1692000,47.3977508,8.5456074,0.031581867,0.0023034762,0.09912969,-0.02230069,-0.003424756,0.0,0.0025747165,-0.028630184,0.044316597,0.017866757,-0.06259725,-0.008557537,0.15231551,-0.045860764,-0.053280734,-0.02883747,0.43199617,0.0,0.1,-0.044316597,0.40955523,0.23511411,0.16958907,0.10399961,inf,inf,inf,inf,1,1,1,1,2,0,2,2,1,1,1
2613420000,1692000,47.3977508,8.5456074,0.03131632,0.0017640323,0.09858811,-0.02230069,-0.003424756,0.0,0.0030140616,-0.02843586,0.04310573,0.014725293,-0.06259725,-0.008557537,0.15231551,-0.013424497,-0.060116556,0.04369765,0.4320323,0.0,0.1,-0.04310573,0.42124984,0.23467663,0.17392217,0.10420373,inf,inf,inf,inf,1,1,1,1,2,0,2,2,1,1,1
2613524000,1692000,47.3977508,8.5456074,0.03113201,0.00088393094,0.0978719,-0.02230069,-0.003424756,0.0,0.0040976284,-0.030141326,0.04362627,0.013337728,-0.06259725,-0.008557537,0.15231551,-0.07805148,-0.028563762,-0.042396594,0.4319909,0.0,0.1,-0.04362627,0.40945256,0.2351486,0.1695829,0.1040023,inf,inf,inf,inf,1,1,1,1,2,0,2,2,1,1,1
2613620000,1692000,47.3977508,8.5456074,0.030447507,0.00058143376,0.09689839,-0.02230069,-0.003424756,0.0,0.0020576264,-0.028679498,0.043435488,0.011336448,-0.06259725,-0.008557537,0.15231551,0.060681358,0.009321187,0.004761852,0.43208256,0.0,0.1,-0.043435488,0.42114857,0.23471653,0.17392689,0.10420975,inf,inf,inf,inf,1,1,1,1,2,0,2,2,1,1,1
2613724000,1692000,47.3977508,8.5456074,0.03010569,0.00021926436,0.09618801,-0.02230069,-0.003424756,0.0,0.0038036874,-0.026701855,0.041300964,0.0078093535,-0.06259725,-0.008557537,0.15231551,-0.021774251,-0.037579298,-0.08227303,0.43205923,0.0,0.1,-0.041300964,0.40936506,0.23359261,0.16958478,0.10359554,inf,inf,inf,inf,1,1,1,1,2,0,2,2,1,1,1
2613820000,1692000,47.3977508,8.5456074,0.02969393,0.0007475631,0.094949596,-0.02230069,-0.003424756,0.0,0.00246639,-0.023296371,0.03980653,0.0048398552,-0.06259725,-0.008557537,0.15231551,-0.013109645,0.065773025,0.014343298,0.43203706,0.0,0.1,-0.03980653,0.42106244,0.23477462,0.1739226,0.1042248,inf,inf,inf,inf,1,1,1,1,2,0,2,2,1,1,1
2613924000,1692000,47.3977508,8.5456074,0.029374452,0.000996858,0.09354241,-0.02230069,-0.003424756,0.0,0.0018799623,-0.02550724,0.036262248,0.000102709746,-0.06259725,-0.008557537,0.15231551,-0.0151871545,0.017414406,0.021099111,0.4319988,0.0,0.1,-0.036262248,0.4092903,0.2336542,0.16958937,0.103612505,inf,inf,inf,inf,1,1,1,1,2,0,2,2,1,1,1
2614020000,1692000,47.3977508,8.5456074,0.0291153,0.0013155369,0.092757285,-0.02230069,-0.003424756,0.0,0.0040268633,-0.024275219,0.035796404,-0.0006842335,-0.06259725,-0.008557537,0.15231551,0.0065960046,-0.0046052015,0.021264886,0.43193537,0.0,0.1,-0.035796404,0.42098978,0.23485026,0.17393409,0.104248166,inf,inf,inf,inf,1,1,1,1,2,0,2,2,1,1,1
2614124000,1692000,47.3977508,8.5456074,0.029293472,0.0010710382,0.09153872,-0.02230069,-0.003424756,0.0,0.00584432,-0.0236382,0.03445582,-0.0025739372,-0.06259725,-0.008557537,0.15231551,0.06546095,0.018727485,0.027100554,0.43189797,0.0,0.1,-0.03445582,0.43423676,0.23505719,0.17871182,0.104631685,inf,inf,inf,inf,1,1,1,1,2,0,2,2,1,1,1
2614220000,1692000,47.3977508,8.5456074,0.029635567,0.0007251615,0.0892295,-0.02230069,-0.003424756,0.0,0.0066330587,-0.024349544,0.03306292,-0.0055332608,-0.06259725,-0.008557537,0.15231551,-0.057458248,-0.08157784,0.030799767,0.43168277,0.0,0.10129302,-0.03306292,0.4197198,0.23488724,0.17324902,0.1042179,inf,inf,inf,inf,1,1,1,1,2,0,2,2,1,1,0
2614324000,1692000,47.3977508,8.5456074,0.02975863,0.0009582299,0.085719295,-0.02230069,-0.003424756,0.0,0.006158512,-0.024453921,0.031013217,-0.009783257,-0.06259725,-0.008557537,0.15231551,0.0058299317,-0.0054180147,0.041332092,0.43168044,0.0,0.10480323,-0.031013217,0.43288088,0.23509705,0.17800398,0.104603894,inf,inf,inf,inf,1,1,1,1,2,0,2,2,1,1,0
2614420000,1692000,47.3977508,8.5456074,0.029826703,0.0007134173,0.08322129,-0.02230069,-0.003424756,0.0,0.004829523,-0.025900198,0.028202843,-0.013531774,-0.06259725,-0.008557537,0.15231551,0.07737566,-0.02192777,-0.033658925,0.43156713,0.0,0.107301235,-0.028202843,0.41856745,0.23494005,0.1726599,0.104197174,inf,inf,inf,inf,1,1,1,1,2,0,2,2,1,1,0
2614524000,1692000,47.3977508,8.5456074,0.029496536,0.0005754803,0.080589294,-0.02230069,-0.003424756,0.0,0.0024744943,-0.02493925,0.025354333,-0.016932495,-0.06259725,-0.008557537,0.15231551,-0.07278846,0.035166107,0.02171099,0.43140578,0.0,0.10993323,-0.025354333,0.431654,0.2351519,0.17740355,0.10458492,inf,inf,inf,inf,1,1,1,1,2,0,2,2,1,1,0
2614620000,1692000,47.3977508,8.5456074,0.029167714,0.00027517002,0.07895348,-0.02230069,-0.003424756,0.0,0.0039091464,-0.025972933,0.0232764,-0.018488433,-0.06259725,-0.008557537,0.15231551,0.048138466,-0.05730361,-0.0053988765,0.4314135,0.0,0.11156904,-0.0232764,0.41752294,0.23499835,0.17215127,0.104180954,inf,inf,inf,inf,1,1,1,1,2,0,2,2,1,1,0
2614724000,1692000,47.3977508,8.5456074,0.028549863,0.00018483878,0.07691375,-0.02230069,-0.003424756,0.0,0.0033988121,-0.026525488,0.021682303,-0.019551242,-0.06259725,-0.008557537,0.15231551,-0.049981214,0.023115112,-0.00013038515,0.43123442,0.0,0.11360877,-0.021682303,0.43054503,0.2352211,0.17689444,0.104574494,inf,inf,inf,inf,1,1,1,1,2,0,2,2,1,1,0
2614820000,1692000,47.3977508,8.5456074,0.028154856,-0.000112675654,0.075254135,-0.02230069,-0.003424756,0.0,0.0028166359,-0.02457814,0.021912968,-0.018688478,-0.06259725,-0.008557537,0.15231551,-0.05001666,0.011896936,-0.007996335,0.4312595,0.0,0.11526839,-0.021912968,0.4165771,0.23507018,0.17172919,0.1041728,inf,inf,inf,inf,1,1,1,1,2,0,2,2,1,1,0
2614924000,1692000,47.3977508,8.5456074,0.027817389,-9.478994e-05,0.073516816,-0.02230069,-0.003424756,0.0,0.004110683,-0.024107445,0.018079903,-0.021651028,-0.06259725,-0.008557537,0.15231551,-0.0422622,0.04747721,0.05938578,0.4314278,0.0,0.117005706,-0.018079903,0.42954376,0.23528597,0.17645761,0.10456421,inf,inf,inf,inf,1,1,1,1,2,0,2,2,1,1,0
2615020000,1692000,47.3977508,8.5456074,0.027532909,-0.00042389616,0.07228635,-0.02230069,-0.003424756,0.0,0.0025187961,-0.025593089,0.015512782,-0.022901585,-0.06259725,-0.008557537,0.15231551,0.10688825,-0.08737465,0.01024641,0.43154836,0.0,0.11823617,-0.015512782,0.415722,0.23352118,0.1713581,0.10374108,inf,inf,inf,inf,1,1,1,1,2,0,2,2,1,1,0
2615124000,1692000,47.3977508,8.5456074,0.027074818,-0.00039216483,0.06835345,-0.02230069,-0.003424756,0.0,0.00046421314,-0.019711314,-0.055362437,-0.092724,-0.06259725,-0.008557537,0.15231551,0.021363605,0.087920554,-1.3305544,0.4316808,0.0,0.12216907,0.055362437,0.42864075,0.23536485,0.17609422,0.104562275,inf,inf,inf,inf,1,1,1,1,2,0,2,2,1,1,0
2615220000,1692000,47.3977508,8.5456074,0.026577627,0.00013701641,0.052874938,-0.02230069,-0.003424756,0.0,-0.0010091241,-0.010185223,-0.20391037,-0.2404373,-0.06259725,-0.008557537,0.15231551,0.032246616,0.18936616,-1.4145942,0.4319417,0.0,0.13764758,0.20391037,0.41494948,0.23521054,0.17107278,0.10416118,inf,inf,inf,inf,1,1,1,1,2,0,2,2,1,1,0
2615324000,1692000,47.3977508,8.5456074,0.025926609,0.0026344368,0.022199998,-0.02230069,-0.003424756,0.0,-0.0021323168,0.0041586873,-0.3325114,-0.3675452,-0.06259725,-0.008557537,0.15231551,-0.05687785,0.14194734,-1.1865207,0.43208525,0.0,0.16832252,0.3325114,0.42783734,0.23542146,0.17626278,0.104552396,inf,inf,inf,inf,1,1,1,1,2,0,2,2,1,1,0
2615420000,1692000,47.3977508,8.5456074,0.02524745,0.0055245766,-0.017525367,-0.02230069,-0.003424756,0.0,-0.005383678,0.01254849,-0.45750773,-0.4908532,-0.06259725,-0.008557537,0.15231551,-0.048290726,0.018785758,-1.3263038,0.43223575,0.0,0.2080479,0.45750773,0.4142479,0.23522726,0.17178188,0.10413511,inf,inf,inf,inf,1,1,1,1,2,0,2,2,1,1,0
2615524000,1692000,47.3977508,8.5456074,0.024417194,0.00906736,-0.07312024,-0.02230069,-0.003424756,0.0,-0.0065854248,0.015507609,-0.59681886,-0.6272101,-0.06259725,-0.008557537,0.15231551,-0.04611959,0.0036253184,-1.2569408,0.43232492,0.0,0.26364276,0.59681886,0.42715558,0.23539907,0.17702973,0.1045108,inf,inf,inf,inf,1,1,1,1,2,0,2,2,1,1,0
2615620000,1692000,47.3977508,8.5456074,0.023586564,0.012304222,-0.13718006,-0.02230069,-0.003424756,0.0,-0.005804709,0.01429829,-0.7229691,-0.75103825,-0.06259725,-0.008557537,0.15231551,0.008932107,0.024079997,-1.3146418,0.43236682,0.0,0.32770258,0.7229691,0.41366002,0.23521316,0.1724555,0.10409965,inf,inf,inf,inf,1,1,1,1,2,0,2,2,1,1,0
2615724000,1692000,47.3977508,8.5456074,0.022615198,0.016421825,-0.22036923,-0.02230069,-0.003424756,0.0,-0.006010179,0.012564302,-0.85961163,-0.8855191,-0.06259725,-0.008557537,0.15231551,-0.015264183,-0.056931302,-1.3665445,0.43247023,0.0,0.41089177,0.85961163,0.42658898,0.23540023,0.17776296,0.10448438,inf,inf,inf,inf,1,1,1,1,2,0,2,2,1,1,0
2615820000,1692000,47.3977508,8.5456074,0.021779357,0.019594777,-0.31066927,-0.02230069,-0.003424756,0.0,-0.0027798444,0.009654083,-0.9872742,-1.0123403,-0.06259725,-0.008557537,0.15231551,0.09443207,0.017219823,-1.3154194,0.4325045,0.0,0.5011918,0.9872742,0.4131698,0.2352035,0.17313561,0.104070574,inf,inf,inf,inf,1,1,1,1,2,0,2,2,1,1,0
2615924000,1692000,47.3977508,8.5456074,0.020738395,0.022975873,-0.422127,-0.02230069,-0.003424756,0.0,-0.003434945,0.0071129664,-1.1250889,-1.1491975,-0.06259725,-0.008557537,0.15231551,0.046214473,0.011531724,-1.3087586,0.43241417,0.0,0.61264956,1.1250889,0.4261236,0.23537098,0.17844294,0.10444878,inf,inf,inf,inf,1,1,1,1,2,0,2,2,1,1,0
2616020000,1692000,47.3977508,8.5456074,0.019855717,0.025264904,-0.5369968,-0.02230069,-0.003424756,0.0,-0.002443193,0.0030726076,-1.2469485,-1.2697642,-0.06259725,-0.008557537,0.15231551,-0.011401513,-0.049085766,-1.2447265,0.43239853,0.0,0.7275193,1.2469485,0.41276646,0.23518334,0.17376526,0.10404118,inf,inf,inf,inf,1,1,1,1,2,0,2,2,1,1,0
2616124000,1692000,47.3977508,8.5456074,0.018725319,0.027283354,-0.67425245,-0.02230069,-0.003424756,0.0,-0.00042699807,0.0023910943,-1.3839418,-1.4050993,-0.06259725,-0.008557537,0.15231551,0.051094566,-0.031365506,-1.4729918,0.43251616,0.0,0.86477494,1.3839418,0.4257469,0.2353579,0.17907923,0.10442438,inf,inf,inf,inf,1,1,1,1,2,0,2,2,1,1,0
2616220000,1692000,47.3977508,8.5456074,0.018152913,0.02909698,-0.8139565,-0.02230069,-0.003424756,0.0,0.0019171787,0.0013860221,-1.5105435,-1.5303332,-0.06259725,-0.008557537,0.15231551,0.011918087,-0.06020629,-1.1500678,0.4324615,0.0,1.004479,1.5105435,0.41243955,0.23517832,0.17432247,0.10402208,inf,inf,inf,inf,1,1,1,1,2,0,2,2,1,1,0
2616324000,1692000,47.3977508,8.5456074,0.017930195,0.03162824,-0.97720003,-0.02230069,-0.003424756,0.0,0.004948012,-0.0029363525,-1.6449858,-1.6621041,-0.06259725,-0.008557537,0.15231551,0.056769967,-0.05542279,-1.322396,0.43243602,0.0,1.1677226,1.6449858,0.42544654,0.2353685,0.17965618,0.10441376,inf,inf,inf,inf,1,1,1,1,2,0,2,2,1,1,0
2616420000,1692000,47.3977508,8.5456074,0.01811898,0.03335128,-1.1412346,-0.02230069,-0.003424756,0.0,0.003639208,-0.005489712,-1.7568865,-1.7727127,-0.06259725,-0.008557537,0.15231551,0.020767363,-0.07259852,-0.47165152,0.43233538,0.0,1.3317572,1.7568865,0.41217777,0.23519585,0.17485838,0.10401574,inf,inf,inf,inf,1,1,1,1,2,0,2,2,1,1,0
2616524000,1692000,47.3977508,8.5456074,0.018745163,0.035575725,-1.3198931,-0.02230069,-0.003424756,0.0,0.006844538,-0.0054480545,-1.6431922,-1.6572973,-0.06259725,-0.008557537,0.15231551,0.047106266,0.00021748988,1.9165081,0.43224758,0.0,1.5104157,1.6431922,0.4252126,0.23538347,0.18017568,0.104407504,inf,inf,inf,inf,1,1,1,1,2,0,2,2,1,1,0
2616620000,1692000,47.3977508,8.5456074,0.019389117,0.03723315,-1.4702092,-0.02230069,-0.003424756,0.0,0.007307893,-0.005740766,-1.505639,-1.5185637,-0.06259725,-0.008557537,0.15231551,0.031850304,0.04316507,0.8916268,0.43229187,0.0,1.6607318,1.505639,0.41197774,0.23359911,0.17508256,0.10359039,inf,inf,inf,inf,1,1,1,1,2,0,2,2,1,1,0
2616724000,1692000,47.3977508,8.5456074,0.019510817,0.03952288,-1.6229382,-0.02230069,-0.003424756,0.0,0.0077942163,-0.006834619,-1.4286019,-1.4407344,-0.06259725,-0.008557537,0.15231551,-0.0761955,-0.008493745,0.70383584,0.43227303,0.0,1.8134607,1.4286019,0.42499936,0.23542032,0.17911711,0.10441263,inf,inf,inf,inf,1,1,1,1,2,0,2,2,1,1,0
2616820000,1692000,47.3977508,8.5456074,0.019747993,0.04092273,-1.7577769,-0.02230069,-0.003424756,0.0,0.0071436604,-0.009866458,-1.347239,-1.3598454,-0.06259725,-0.008557537,0.15231551,-0.024395924,-0.023500448,0.85625327,0.43384966,0.0,1.9482994,1.347239,0.41184303,0.23364075,0.17206648,0.103597976,inf,inf,inf,inf,1,1,1,1,2,0,2,2,1,1,0
2616924000,1692000,47.3977508,8.5456074,0.02001275,0.042335898,-1.8952097,-0.02230069,-0.003424756,0.0,0.007202041,-0.012296442,-1.2627822,-1.2762252,-0.06259725,-0.008557537,0.15231551,0.0060684355,-0.039648138,0.69742644,0.43359444,0.0,2.0857322,1.2627822,0.42462525,0.2354682,0.1728672,0.10442381,inf,inf,inf,inf,1,1,1,1,2,0,2,2,1,1,0
2617020000,1692000,47.3977508,8.5456074,0.020369876,0.042938564,-2.0155518,-0.02230069,-0.003424756,0.0,0.007456459,-0.012888043,-1.1934466,-1.2080666,-0.06259725,-0.008557537,0.15231551,0.041077085,0.042203244,0.7587783,0.43305698,0.0,2.2060742,1.1934466,0.41157967,0.23370117,0.16516373,0.10361685,inf,inf,inf,inf,1,1,1,1,2,0,2,2,1,1,0
2617124000,1692000,47.3977508,8.5456074,0.02070351,0.043336775,-2.1367114,-0.02230069,-0.003424756,0.0,0.0068943575,-0.014851757,-1.1220956,-1.1361235,-0.06259725,-0.008557537,0.15231551,0.005928134,0.011025793,0.6349245,0.4321459,0.0,2.3272338,1.1220956,0.42395213,0.23553443,0.16666341,0.10444772,inf,inf,inf,inf,1,1,1,1,2,0,2,2,1,1,0
2617220000,1692000,47.3977508,8.5456074,0.021148551,0.043290414,-2.241848,-0.02230069,-0.003424756,0.0,0.008222085,-0.01484391,-1.0661771,-1.0791371,-0.06259725,-0.008557537,0.15231551,-0.01799745,0.00070896745,0.5215108,0.4313028,0.0,2.4323704,1.0661771,0.4110153,0.2337619,0.16020016,0.103640534,inf,inf,inf,inf,1,1,1,1,2,0,2,2,1,1,0
2617324000,1692000,47.3977508,8.5456074,0.021690924,0.043385614,-2.3496768,-0.02230069,-0.003424756,0.0,0.008053078,-0.01581195,-1.0107113,-1.0222988,-0.06259725,-0.008557537,0.15231551,-0.02085039,0.048685305,0.4672762,0.4312136,0.0,2.5401993,1.0107113,0.42301038,0.23397475,0.16241501,0.104048796,inf,inf,inf,inf,1,1,1,1,2,0,2,2,1,1,0
2617420000,1692000,47.3977508,8.5456074,0.022111235,0.04313598,-2.4454753,-0.02230069,-0.003424756,0.0,0.0075021046,-0.016279206,-0.9609837,-0.9726812,-0.06259725,-0.008557537,0.15231551,-0.04573327,-0.032958373,0.5456814,0.4309924,0.0,2.6359978,0.9609837,0.41020504,0.23384045,0.15705389,0.103676274,inf,inf,inf,inf,1,1,1,1,2,0,2,2,1,1,0
2617524000,1692000,47.3977508,8.5456074,0.022101792,0.043007344,-2.5441153,-0.02230069,-0.003424756,0.0,0.006534076,-0.01801702,-0.9128593,-0.924662,-0.06259725,-0.008557537,0.15231551,0.012726986,-0.047707595,0.50105244,0.43091705,0.0,2.7346377,0.9128593,0.421868,0.23405717,0.15998456,0.10408818,inf,inf,inf,inf,1,1,1,1,2,0,2,2,1,1,0
2617620000,1692000,47.3977508,8.5456074,0.021878153,0.042489044,-2.6306672,-0.02230069,-0.003424756,0.0,0.0040078685,-0.017154494,-0.86755437,-0.8793985,-0.06259725,-0.008557537,0.15231551,0.017010316,0.031378128,0.5642222,0.43099484,0.0,2.8211896,0.86755437,0.40921065,0.2339266,0.15555525,0.103718296,inf,inf,inf,inf,1,1,1,1,2,0,2,2,1,1,0
2617724000,1692000,47.3977508,8.5456074,0.020703929,0.041881833,-2.7193296,-0.02230069,-0.003424756,0.0,0.002152902,-0.016980147,-0.8215121,-0.83303547,-0.06259725,-0.008557537,0.15231551,0.041016627,0.0073458063,0.43391714,0.43134508,0.0,2.909852,0.8215121,0.42059642,0.23415583,0.1591566,0.104137234,inf,inf,inf,inf,1,1,1,1,2,0,2,2,1,1,0
2617820000,1692000,47.3977508,8.5456074,0.01980652,0.040941693,-2.7961562,-0.02230069,-0.003424756,0.0,0.00198803,-0.018506128,-0.78686976,-0.7970934,-0.06259725,-0.008557537,0.15231551,-0.03277206,-0.053816568,0.27373338,0.43161264,0.0,2.9866786,0.78686976,0.4080974,0.2340281,0.15549746,0.10376907,inf,inf,inf,inf,1,1,1,1,2,0,2,2,1,1,0
2617924000,1692000,47.3977508,8.5456074,0.01902297,0.039701335,-2.8767242,-0.02230069,-0.003424756,0.0,0.0031206312,-0.017846316,-0.75207734,-0.76182777,-0.06259725,-0.008557537,0.15231551,-0.013611919,0.011579897,0.4253201,0.43191817,0.0,3.0672467,0.75207734,0.41926792,0.23425213,0.15970731,0.10418674,inf,inf,inf,inf,1,1,1,1,2,0,2,2,1,1,0
2618020000,1692000,47.3977508,8.5456074,0.018605866,0.038651448,-2.9483554,-0.02230069,-0.003424756,0.0,0.005547847,-0.01856905,-0.71740484,-0.7273687,-0.06259725,-0.008557537,0.15231551,0.100681104,-0.007447408,0.30778813,0.43156546,0.0,3.1388779,0.71740484,0.40693143,0.23411894,0.15667325,0.10381652,inf,inf,inf,inf,1,1,1,1,2,0,2,2,1,1,0
2618124000,1692000,47.3977508,8.5456074,0.018186167,0.038287107,-3.0204744,-0.02230069,-0.003424756,0.0,0.0076902136,-0.016755838,-0.68496454,-0.6932611,-0.06259725,-0.008557537,0.15231551,-0.0014645447,0.0411284,0.3508478,0.431465,0.0,3.2109969,0.68496454,0.41795385,0.23436393,0.16143982,0.10424425,inf,inf,inf,inf,1,1,1,1,2,0,2,2,1,1,0
2618224000,1692000,47.3977508,8.5456074,0.017970122,0.037682433,-3.0847044,-0.02230069,-0.003424756,0.0,0.0073921126,-0.01533178,-0.6593474,-0.6666556,-0.06259725,-0.008557537,0.15231551,-0.044364035,0.07393933,0.2140682,0.43160322,0.0,3.2752268,0.6593474,0.40577823,0.23423298,0.15880887,0.10387452,inf,inf,inf,inf,1,1,1,1,2,0,2,2,1,1,0
2618320000,1692000,47.3977508,8.5456074,0.01742652,0.03702841,-3.1459928,-0.02230069,-0.003424756,0.0,0.007570931,-0.015121024,-0.6334741,-0.6394452,-0.06259725,-0.008557537,0.15231551,-0.059503265,-0.0659369,0.27493572,0.431693,0.0,3.3365152,0.6334741,0.41586253,0.23384203,0.16363482,0.104108766,inf,inf,inf,inf,1,1,1,1,2,0,2,2,1,1,0
2618424000,1692000,47.3977508,8.5456074,0.017117107,0.036159057,-3.2094882,-0.02230069,-0.003424756,0.0,0.007820653,-0.015513936,-0.6103978,-0.6147846,-0.06259725,-0.008557537,0.15231551,0.045230158,-0.05558361,0.2985736,0.4317332,0.0,3.4000106,0.6103978,0.40469763,0.23276852,0.16169482,0.10352387,inf,inf,inf,inf,1,1,1,1,2,0,2,2,1,1,0
2618520000,1692000,47.3977508,8.5456074,0.01678754,0.03563885,-3.2651217,-0.02230069,-0.003424756,0.0,0.0047086207,-0.013555713,-0.58756334,-0.5898954,-0.06259725,-0.008557537,0.15231551,-0.026887044,0.028346961,0.23039337,0.43191898,0.0,3.4556441,0.58756334,0.41476947,0.23398891,0.16687524,0.104180604,inf,inf,inf,inf,1,1,1,1,2,0,2,2,1,1,0
2618624000,1692000,47.3977508,8.5456074,0.016462302,0.0351577,-3.3236406,-0.02230069,-0.003424756,0.0,0.005726219,-0.013307766,-0.5650575,-0.5659362,-0.06259725,-0.008557537,0.15231551,0.009915822,-0.009028664,0.19279121,0.43226004,0.0,3.514163,0.5650575,0.40374315,0.23292176,0.16506165,0.10359729,inf,inf,inf,inf,1,1,1,1,2,0,2,2,1,1,0
2618720000,1692000,47.3977508,8.5456074,0.016181557,0.03509497,-3.3763664,-0.02230069,-0.003424756,0.0,0.0050574066,-0.012951417,-0.54581743,-0.54622674,-0.06259725,-0.008557537,0.15231551,0.019383686,-0.029870192,0.20082666,0.4324425,0.0,3.5668888,0.54581743,0.4138618,0.23415463,0.17052744,0.10425864,inf,inf,inf,inf,1,1,1,1,2,0,2,2,1,1,0
2618824000,1692000,47.3977508,8.5456074,0.016003063,0.034615748,-3.4315207,-0.02230069,-0.003424756,0.0,0.0051224316,-0.013516503,-0.5227117,-0.5228516,-0.06259725,-0.008557537,0.15231551,-0.030977126,0.011170421,0.29964465,0.43259752,0.0,3.6220431,0.5227117,0.40295804,0.23309264,0.1686831,0.10367601,inf,inf,inf,inf,1,1,1,1,2,0,2,2,1,1,0
2618928000,1692000,47.3977508,8.5456074,0.01593315,0.033860657,-3.4844503,-0.02230069,-0.003424756,0.0,0.006850073,-0.01390499,-0.5030522,-0.5030581,-0.06259725,-0.008557537,0.15231551,0.10807733,-0.0010735457,0.13029481,0.43251294,0.0,3.6749728,0.5030522,0.4140517,0.23496094,0.17484187,0.104529046,inf,inf,inf,inf,1,1,1,1,2,0,2,2,1,1,0
2619024000,1692000,47.3977508,8.5456074,0.016250994,0.032881893,-3.531541,-0.02230069,-0.003424756,0.0,0.007949092,-0.012212376,-0.48449376,-0.48440284,-0.06259725,-0.008557537,0.15231551,-0.01376809,0.009301492,0.14952382,0.43238604,0.0,3.7220635,0.48449376,0.42483833,0.23456816,0.18065073,0.10474218,inf,inf,inf,inf,1,1,1,1,2,0,2,2,1,1,0
2619120000,1692000,47.3977508,8.5456074,0.016633483,0.03192005,-3.57656,-0.02230069,-0.003424756,0.0,0.006386166,-0.009957809,-0.46703088,-0.46657866,-0.06259725,-0.008557537,0.15231551,-0.04110744,0.019720227,0.1414204,0.43211088,0.0,3.7670825,0.46703088,0.41174832,0.23444808,0.17743635,0.104352534,inf,inf,inf,inf,1,1,1,1,2,0,2,2,1,1,0
2619224000,1692000,47.3977508,8.5456074,0.017066201,0.030534523,-3.623325,-0.02230069,-0.003424756,0.0,0.0062993737,-0.011764207,-0.44996768,-0.44887242,-0.06259725,-0.008557537,0.15231551,0.004046385,-0.053826198,0.1332946,0.43202066,0.0,3.8138475,0.44996768,0.4235157,0.23470373,0.18384875,0.104764014,inf,inf,inf,inf,1,1,1,1,2,0,2,2,1,1,0
2619320000,1692000,47.3977508,8.5456074,0.01740409,0.028961463,-3.6647987,-0.02230069,-0.003424756,0.0,0.004654555,-0.013061831,-0.43416986,-0.43237722,-0.06259725,-0.008557537,0.15231551,-0.0056638815,-0.036442477,0.16725434,0.4319849,0.0,3.8553212,0.43416986,0.41059867,0.23456578,0.18042141,0.104366295,inf,inf,inf,inf,1,1,1,1,2,0,2,2,1,1,0
2619424000,1692000,47.3977508,8.5456074,0.017785084,0.026971059,-3.7074583,-0.02230069,-0.003424756,0.0,0.006580225,-0.013759836,-0.41881284,-0.41577277,-0.06259725,-0.008557537,0.15231551,0.07640372,-0.03409216,0.17350632,0.43176648,0.0,3.8979807,0.41881284,0.42251176,0.23480386,0.18692008,0.10477017,inf,inf,inf,inf,1,1,1,1,2,0,2,2,1,1,0
2619528000,1692000,47.3977508,8.5456074,0.01823516,0.025320496,-3.7486537,-0.02230069,-0.003424756,0.0,0.0058876886,-0.011515108,-0.40276316,-0.39878398,-0.06259725,-0.008557537,0.15231551,-0.017682858,0.13020815,0.051419247,0.43166453,0.0,3.939176,0.40276316,0.41062695,0.2352999,0.18369892,0.10456458,inf,inf,inf,inf,1,1,1,1,2,0,2,2,1,1,0
2619624000,1692000,47.3977508,8.5456074,0.018549645,0.024422271,-3.7853963,-0.02230069,-0.003424756,0.0,0.00811601,-0.011948728,-0.3918452,-0.3870463,-0.06259725,-0.008557537,0.15231551,0.060156528,-0.0016501296,0.17593893,0.4315964,0.0,3.9759188,0.3918452,0.42181125,0.23489735,0.18973432,0.1047741,inf,inf,inf,inf,1,1,1,1,2,0,2,2,1,1,0
2619720000,1692000,47.3977508,8.5456074,0.019116329,0.023454413,-3.820692,-0.02230069,-0.003424756,0.0,0.0102459015,-0.011759575,-0.3795691,-0.37373933,-0.06259725,-0.008557537,0.15231551,0.030663984,0.045044027,0.072699964,0.43184417,0.0,4.0112147,0.3795691,0.40910774,0.23475319,0.18570724,0.104374334,inf,inf,inf,inf,1,1,1,1,2,0,2,2,1,1,0
2619824000,1692000,47.3977508,8.5456074,0.01955381,0.022493571,-3.8565154,-0.02230069,-0.003424756,0.0,0.0083217295,-0.010686345,-0.36905912,-0.36097544,-0.06259725,-0.008557537,0.15231551,-0.017236376,0.103936836,0.12393761,0.4322133,0.0,4.047038,0.36905912,0.4213901,0.23496684,0.19223969,0.10476814,inf,inf,inf,inf,1,1,1,1,2,0,2,2,1,1,0
2619920000,1692000,47.3977508,8.5456074,0.020240758,0.02160399,-3.8878067,-0.02230069,-0.003424756,0.0,0.008786637,-0.00785933,-0.3571112,-0.3465848,-0.06259725,-0.008557537,0.15231551,-0.027746253,0.05227844,0.009734183,0.43244034,0.0,4.078329,0.3571112,0.4087316,0.23481685,0.18788604,0.10436662,inf,inf,inf,inf,1,1,1,1,2,0,2,2,1,1,0
2620024000,1692000,47.3977508,8.5456074,0.021608675,0.020649211,-3.9205036,-0.02230069,-0.003424756,0.0,0.00863072,-0.004254856,-0.3511647,-0.33798322,-0.06259725,-0.008557537,0.15231551,-0.10746093,-0.028472017,0.04282407,0.43242294,0.0,4.1110263,0.3511647,0.4212179,0.23504117,0.19438282,0.10476575,inf,inf,inf,inf,1,1,1,1,2,0,2,2,1,1,0
2620120000,1692000,47.3977508,8.5456074,0.022993544,0.019996325,-3.9511044,-0.02230069,-0.003424756,0.0,0.009346155,-0.004018713,-0.34268284,-0.32835582,-0.06259725,-0.008557537,0.15231551,0.003994195,0.027950801,0.176589,0.43258548,0.0,4.141627,0.34268284,0.4085683,0.23488517,0.18969782,0.1043623,inf,inf,inf,inf,1,1,1,1,2,0,2,2,1,1,0
2620224000,1692000,47.3977508,8.5456074,0.02462742,0.019196173,-3.983576,-0.02230069,-0.003424756,0.0,0.0074081896,-0.006428036,-0.3331536,-0.31809515,-0.06259725,-0.008557537,0.15231551,-0.20426807,-0.012775753,0.04837848,0.4324011,0.0,4.1740985,0.3331536,0.42125988,0.23512064,0.19615763,0.10476716,inf,inf,inf,inf,1,1,1,1,2,0,2,2,1,1,0
2620320000,1692000,47.3977508,8.5456074,0.025657043,0.018246736,-4.0123067,-0.02230069,-0.003424756,0.0,0.00541918,-0.0077677346,-0.3225132,-0.3064675,-0.06259725,-0.008557537,0.15231551,-0.10918944,-0.005271744,0.07028784,0.4322833,0.0,4.2028294,0.3225132,0.4085882,0.23497622,0.19114108,0.104369424,inf,inf,inf,inf,1,1,1,1,2,0,2,2,1,1,0
2620424000,1692000,47.3977508,8.5456074,0.026143162,0.01721932,-4.041951,-0.02230069,-0.003424756,0.0,0.0044942056,-0.0067001623,-0.31350717,-0.29613432,-0.06259725,-0.008557537,0.15231551,-0.06387135,0.03293309,0.11160969,0.43222213,0.0,4.232474,0.31350717,0.42147845,0.2351955,0.19751169,0.104767546,inf,inf,inf,inf,1,1,1,1,2,0,2,2,1,1,0
2620520000,1692000,47.3977508,8.5456074,0.026575638,0.01644415,-4.069182,-0.02230069,-0.003424756,0.0,0.0066222604,-0.0042461324,-0.30534846,-0.28761184,-0.06259725,-0.008557537,0.15231551,0.03369345,0.015376233,0.10415166,0.43218476,0.0,4.2597046,0.30534846,0.40875894,0.23503648,0.19218332,0.10436405,inf,inf,inf,inf,1,1,1,1,2,0,2,2,1,1,0
2620624000,1692000,47.3977508,8.5456074,0.027095227,0.01577054,-4.0974216,-0.02230069,-0.003424756,0.0,0.0075326334,-0.0031656437,-0.29586995,-0.27733403,-0.06259725,-0.008557537,0.15231551,0.017513437,0.006191185,0.05083065,0.43206897,0.0,4.2879443,0.29586995,0.42183474,0.23524985,0.1984509,0.10476031,inf,inf,inf,inf,1,1,1,1,2,0,2,2,1,1,0
2620720000,1692000,47.3977508,8.5456074,0.02746119,0.015450469,-4.1218133,-0.02230069,-0.003424756,0.0,0.005559411,-0.0019252311,-0.2876111,-0.26761833,-0.06259725,-0.008557537,0.15231551,-0.08690467,0.025466941,0.04826672,0.43231866,0.0,4.312336,0.2876111,0.40904742,0.23508607,0.19287156,0.10435575,inf,inf,inf,inf,1,1,1,1,2,0,2,2,1,1,0
2620824000,1692000,47.3977508,8.5456074,0.027393581,0.015491283,-4.147633,-0.02230069,-0.003424756,0.0,0.004690377,-0.0012754771,-0.2813662,-0.26006067,-0.06259725,-0.008557537,0.15231551,0.049242973,0.007531664,0.077404074,0.43222746,0.0,4.3381557,0.2813662,0.4222923,0.23531154,0.19903897,0.10475821,inf,inf,inf,inf,1,1,1,1,2,0,2,2,1,1,0
2620920000,1692000,47.3977508,8.5456074,0.027164187,0.015435096,-4.1710806,-0.02230069,-0.003424756,0.0,0.0034804654,-0.0017777112,-0.2723916,-0.25049263,-0.06259725,-0.008557537,0.15231551,0.04779604,0.01766625,-0.011616386,0.4324051,0.0,4.3616033,0.2723916,0.4094236,0.23516004,0.19322471,0.10435973,inf,inf,inf,inf,1,1,1,1,2,0,2,2,1,1,0
2621024000,1692000,47.3977508,8.5456074,0.026287518,0.0152825825,-4.196614,-0.02230069,-0.003424756,0.0,0.003415435,-0.003923526,-0.26900664,-0.24714568,-0.06259725,-0.008557537,0.15231551,-0.104743615,0.07223413,0.09068753,0.4325729,0.0,4.3871365,0.26900664,0.42281798,0.23537926,0.19928674,0.10475999,inf,inf,inf,inf,1,1,1,1,2,0,2,2,1,1,0
2621120000,1692000,47.3977508,8.5456074,0.025798216,0.014912695,-4.2189336,-0.02230069,-0.003424756,0.0,0.0066365544,-0.0047943722,-0.25642848,-0.23412736,-0.06259725,-0.008557537,0.15231551,0.122865304,0.07695237,0.096332274,0.43248218,0.0,4.4094563,0.25642848,0.4098592,0.23361228,0.19327034,0.10393877,inf,inf,inf,inf,1,1,1,1,2,0,2,2,1,1,0
2621224000,1692000,47.3977508,8.5456074,0.025595864,0.0146081075,-4.2409086,-0.02230069,-0.003424756,0.0,0.005190237,-0.0038986963,-0.22764114,-0.2046601,-0.06259725,-0.008557537,0.15231551,-0.012777044,-0.03323889,0.3616968,0.4331432,0.0,4.4314313,0.22764114,0.42338184,0.23546202,0.19923054,0.10476964,inf,inf,inf,inf,1,1,1,1,2,0,2,2,1,1,0
2621320000,1692000,47.3977508,8.5456074,0.02514029,0.014109111,-4.2595553,-0.02230069,-0.003424756,0.0,-0.0036994326,-0.008041323,-0.21631984,-0.1935867,-0.06259725,-0.008557537,0.15231551,-0.11675234,0.050840613,-0.059312206,0.44214138,0.0,4.450078,0.21631984,0.4103299,0.23369579,0.19301997,0.10394927,inf,inf,inf,inf,1,1,1,1,2,0,2,2,1,1,0
2621424000,1692000,47.3977508,8.5456074,0.022490926,0.013577028,-4.2799373,-0.02230069,-0.003424756,0.0,-0.04035695,-0.0051862854,-0.22269098,-0.20021372,-0.06259725,-0.008557537,0.15231551,-0.54783106,0.018174425,0.012056901,0.4681194,0.0,4.47046,0.22269098,0.42395422,0.23554066,0.1987617,0.10477768,inf,inf,inf,inf,1,1,1,1,2,0,2,2,1,1,0
2621520000,1692000,47.3977508,8.5456074,0.014760443,0.0134480875,-4.2991595,-0.02230069,-0.003424756,0.0,-0.116159596,0.000851837,-0.21663477,-0.19477607,-0.06259725,-0.008557537,0.15231551,-1.0383768,0.08228997,0.0460688,0.5074196,0.0,4.489682,0.21663477,0.41080934,0.23378406,0.19249317,0.10396214,inf,inf,inf,inf,1,1,1,1,2,0,2,2,1,1,0
2621624000,1692000,47.3977508,8.5456074,-0.004726123,0.014426581,-4.3194103,-0.02230069,-0.003424756,0.0,-0.25431326,0.013639797,-0.21880423,-0.19713172,-0.06259725,-0.008557537,0.15231551,-1.6282917,0.10575515,-0.06690248,0.56307393,0.0,4.509933,0.21880423,0.42451712,0.23564146,0.19826598,0.10479309,inf,inf,inf,inf,1,1,1,1,2,0,2,2,1,1,0
2621720000,1692000,47.3977508,8.5456074,-0.037436105,0.016133558,-4.338334,-0.02230069,-0.003424756,0.0,-0.43033338,0.022805689,-0.21383874,-0.19266118,-0.06259725,-0.008557537,0.15231551,-1.9328709,0.0842774,0.048938204,0.6238715,0.0,4.5288568,0.21383874,0.41128337,0.23387584,0.19189733,0.10396276,inf,inf,inf,inf,1,1,1,1,2,0,2,2,1,1,0
2621824000,1692000,47.3977508,8.5456074,-0.09263692,0.01843354,-4.3586974,-0.02230069,-0.003424756,0.0,-0.65442324,0.03154391,-0.19761118,-0.17778547,-0.06259725,-0.008557537,0.15231551,-2.3327632,0.12849757,0.1312997,0.69522333,0.0,4.54922,0.19761118,0.42498967,0.23410593,0.19745404,0.104338326,inf,inf,inf,inf,1,1,1,1,2,0,2,2,1,1,0
2621920000,1692000,47.3977508,8.5456074,-0.16462928,0.020852657,-4.3767133,-0.02230069,-0.003424756,0.0,-0.87969303,0.035450816,-0.18545099,-0.16743003,-0.06259725,-0.008557537,0.15231551,-2.3822815,0.0633057,0.096675,0.76409537,0.0,4.567236,0.18545099,0.4115545,0.23397623,0.1907651,0.10390797,inf,inf,inf,inf,1,1,1,1,2,0,2,2,1,1,0
2622024000,1692000,47.3977508,8.5456074,-0.2653622,0.023260875,-4.395339,-0.02230069,-0.003424756,0.0,-1.1282107,0.04019231,-0.17262337,-0.15659297,-0.06259725,-0.008557537,0.15231551,-2.420842,0.115335144,0.020693986,0.84027123,0.0,4.5858617,0.17262337,0.42520547,0.23420072,0.19608068,0.10424473,inf,inf,inf,inf,1,1,1,1,2,0,2,2,1,1,0
2622120000,1692000,47.3977508,8.5456074,-0.38115644,0.026079476,-4.410983,-0.02230069,-0.003424756,0.0,-1.3521061,0.04493838,-0.15703474,-0.14243063,-0.06259725,-0.008557537,0.15231551,-2.279151,-0.019554658,0.12583192,0.91195107,0.0,4.6015058,0.15703474,0.41177967,0.23405004,0.18954113,0.10378245,inf,inf,inf,inf,1,1,1,1,2,0,2,2,1,1,0
2622224000,1692000,47.3977508,8.5456074,-0.52891034,0.029862817,-4.4260674,-0.02230069,-0.003424756,0.0,-1.5875045,0.050483257,-0.14679821,-0.13303843,-0.06259725,-0.008557537,0.15231551,-2.2311018,0.10746417,0.10741781,0.99025875,0.0,4.61659,0.14679821,0.42538178,0.23588051,0.19475876,0.10452465,inf,inf,inf,inf,1,1,1,1,2,0,2,2,1,1,0
2622320000,1692000,47.3977508,8.5456074,-0.6872749,0.034229696,-4.4390593,-0.02230069,-0.003424756,0.0,-1.7955327,0.057194617,-0.13861562,-0.12549502,-0.06259725,-0.008557537,0.15231551,-2.1245477,0.0263729,0.1743203,1.0636636,0.0,4.629582,0.13861562,0.4119233,0.23408537,0.1882124,0.10362499,inf,inf,inf,inf,1,1,1,1,2,0,2,2,1,1,0
2622424000,1692000,47.3977508,8.5456074,-0.8810482,0.04045775,-4.4524555,-0.02230069,-0.003424756,0.0,-2.0118277,0.067643076,-0.13025545,-0.11800249,-0.06259725,-0.008557537,0.15231551,-2.0298252,0.052861154,0.101092264,1.1438761,0.0,4.642978,0.13025545,0.42550564,0.23428331,0.19341432,0.1039393,inf,inf,inf,inf,1,1,1,1,2,0,2,2,1,1,0
2622520000,1692000,47.3977508,8.5456074,-1.080058,0.04685264,-4.4639916,-0.02230069,-0.003424756,0.0,-2.2018921,0.072333165,-0.121292435,-0.109678924,-0.06259725,-0.008557537,0.15231551,-1.9449525,0.005741254,-0.0044554467,1.2187496,0.0,4.6545143,0.121292435,0.41204482,0.23413436,0.18693142,0.10347943,inf,inf,inf,inf,1,1,1,1,2,0,2,2,1,1,0
2622624000,1692000,47.3977508,8.5456074,-1.3152112,0.054286506,-4.476075,-0.02230069,-0.003424756,0.0,-2.3974571,0.075301915,-0.1138789,-0.10326427,-0.06259725,-0.008557537,0.15231551,-1.9456515,0.16904987,0.14164764,1.2995491,0.0,4.666598,0.1138789,0.42557052,0.23433125,0.19201687,0.10379819,inf,inf,inf,inf,1,1,1,1,2,0,2,2,1,1,0
2622720000,1692000,47.3977508,8.5456074,-1.551371,0.06148417,-4.4871264,-0.02230069,-0.003424756,0.0,-2.5743458,0.078491546,-0.10960609,-0.10029218,-0.06259725,-0.008557537,0.15231551,-1.9012378,0.017556695,0.07348414,1.3745084,0.0,4.677649,0.10960609,0.412116,0.23416977,0.18557833,0.10333782,inf,inf,inf,inf,1,1,1,1,2,0,2,2,1,1,0
2622824000,1692000,47.3977508,8.5456074,-1.8275217,0.06976356,-4.499375,-0.02230069,-0.003424756,0.0,-2.7598042,0.080342755,-0.10631712,-0.09897183,-0.06259725,-0.008557537,0.15231551,-1.7797711,0.107720666,0.013674608,1.455617,0.0,4.6898975,0.10631712,0.42557222,0.23435825,0.19053623,0.10365853,inf,inf,inf,inf,1,1,1,1,2,0,2,2,1,1,0
2622920000,1692000,47.3977508,8.5456074,-2.1001875,0.07768654,-4.5097623,-0.02230069,-0.003424756,0.0,-2.9290354,0.0843678,-0.09435335,-0.08836524,-0.06259725,-0.008557537,0.15231551,-1.7138968,0.06055194,0.11756084,1.5308912,0.0,4.700285,0.09435335,0.41213357,0.23420285,0.18417756,0.103206895,inf,inf,inf,inf,1,1,1,1,2,0,2,2,1,1,0
2623024000,1692000,47.3977508,8.5456074,-2.4149241,0.086690195,-4.519439,-0.02230069,-0.003424756,0.0,-3.109512,0.089394435,-0.08904282,-0.08385085,-0.06259725,-0.008557537,0.15231551,-1.7366745,0.041445583,0.06793904,1.6120485,0.0,4.709962,0.08904282,0.42550874,0.23438315,0.18904506,0.10353009,inf,inf,inf,inf,1,1,1,1,2,0,2,2,1,1,0
2623120000,1692000,47.3977508,8.5456074,-2.722424,0.095656104,-4.5288463,-0.02230069,-0.003424756,0.0,-3.2741625,0.09216464,-0.09295834,-0.08885245,-0.06259725,-0.008557537,0.15231551,-1.7375468,0.034465205,-0.019291414,1.686914,0.0,4.719369,0.09295834,0.41209573,0.23421691,0.18276598,0.10307947,inf,inf,inf,inf,1,1,1,1,2,0,2,2,1,1,0
2623224000,1692000,47.3977508,8.5456074,-3.075088,0.10649355,-4.539313,-0.02230069,-0.003424756,0.0,-3.4511988,0.09669256,-0.08287749,-0.080391005,-0.06259725,-0.008557537,0.15231551,-1.7571667,0.07001392,0.08121505,1.76834,0.0,4.7298355,0.08287749,0.42535427,0.2343989,0.18750407,0.103409536,inf,inf,inf,inf,1,1,1,1,2,0,2,2,1,1,0
2623320000,1692000,47.3977508,8.5456074,-3.4174073,0.11721626,-4.5483174,-0.02230069,-0.003424756,0.0,-3.6120849,0.101112776,-0.072582655,-0.07171678,-0.06259725,-0.008557537,0.15231551,-1.6567706,0.033689182,0.14313962,1.8438215,0.0,4.73884,0.072582655,0.41199818,0.23422264,0.18147734,0.10296339,inf,inf,inf,inf,1,1,1,1,2,0,2,2,1,1,0
2623424000,1692000,47.3977508,8.5456074,-3.8075855,0.13079192,-4.557533,-0.02230069,-0.003424756,0.0,-3.774036,0.10404039,-0.060752455,-0.062038813,-0.06259725,-0.008557537,0.15231551,-1.3555197,0.014342891,0.14704745,1.9273992,0.0,4.7480555,0.060752455,0.4251566,0.23438178,0.18616007,0.10328987,inf,inf,inf,inf,1,1,1,1,2,0,2,2,1,1,0
2623520000,1692000,47.3977508,8.5456074,-4.181091,0.1435165,-4.5653763,-0.02230069,-0.003424756,0.0,-3.895342,0.1083919,-0.047141194,-0.05090855,-0.06259725,-0.008557537,0.15231551,-1.0776647,-0.0046428028,0.13050716,2.006116,0.0,4.755899,0.047141194,0.41184413,0.23421423,0.18025696,0.102854475,inf,inf,inf,inf,1,1,1,1,2,0,2,2,1,1,0
2623624000,1692000,47.3977508,8.5456074,-4.5988207,0.1586858,-4.5730176,-0.02230069,-0.003424756,0.0,-3.99307,0.115830235,-0.038107425,-0.04446257,-0.06259725,-0.008557537,0.15231551,-0.71194065,0.102863856,0.038078982,2.0925546,0.0,4.7635403,0.038107425,0.42489338,0.23435172,0.1848777,0.10318141,inf,inf,inf,inf,1,1,1,1,2,0,2,2,1,1,0
2623720000,1692000,47.3977508,8.5456074,-4.9914346,0.1726875,-4.5790415,-0.02230069,-0.003424756,0.0,-4.046138,0.120362096,-0.030801155,-0.039023507,-0.06259725,-0.008557537,0.15231551,-0.33856276,0.02446366,0.050958242,2.1727188,0.0,4.769564,0.030801155,0.41163212,0.23416914,0.17906503,0.10275071,inf,inf,inf,inf,1,1,1,1,2,0,2,2,1,1,0
2623824000,1692000,47.3977508,8.5456074,-5.423497,0.18838963,-4.5843577,-0.02230069,-0.003424756,0.0,-4.07375,0.12478608,-0.03328173,-0.042361125,-0.06259725,-0.008557537,0.15231551,-0.078762874,-0.011185125,-0.025103798,2.2582552,0.0,4.7748804,0.03328173,0.42456937,0.23431474,0.18362263,0.10309171,inf,inf,inf,inf,1,1,1,1,2,0,2,2,1,1,0
2623920000,1692000,47.3977508,8.5456074,-5.8229713,0.20296872,-4.590152,-0.02230069,-0.003424756,0.0,-4.0788517,0.12866092,-0.03809328,-0.04849812,-0.06259725,-0.008557537,0.15231551,0.022265593,-0.0041013407,-0.019820405,2.335841,0.0,4.7806745,0.03809328,0.41136587,0.23412801,0.17794056,0.102669485,inf,inf,inf,inf,1,1,1,1,2,0,2,2,1,1,0
2624024000,1692000,47.3977508,8.5456074,-6.258125,0.21969333,-4.596979,-0.02230069,-0.003424756,0.0,-4.078476,0.12795316,-0.042797912,-0.054455396,-0.06259725,-0.008557537,0.15231551,0.014324206,-0.05841054,-0.02109166,2.4183486,0.0,4.787502,0.042797912,0.42419428,0.23426802,0.18252933,0.10301558,inf,inf,inf,inf,1,1,1,1,2,0,2,2,1,1,0
2624120000,1692000,47.3977508,8.5456074,-6.658671,0.23435973,-4.603376,-0.02230069,-0.003424756,0.0,-4.0744696,0.12966877,-0.042061787,-0.054685604,-0.06259725,-0.008557537,0.15231551,0.028630251,-0.0460517,0.063990235,2.4939759,0.0,4.7938986,0.042061787,0.41105354,0.23250896,0.17709497,0.10220365,inf,inf,inf,inf,1,1,1,1,2,0,2,2,1,1,0
2624224000,1692000,47.3977508,8.5456074,-7.094521,0.250085,-4.610067,-0.02230069,-0.003424756,0.0,-4.077655,0.1332944,-0.03980804,-0.053238995,-0.06259725,-0.008557537,0.15231551,0.003268942,0.014174379,0.05473755,2.5760512,0.0,4.8005896,0.03980804,0.42378035,0.2342492,0.18183349,0.10296574,inf,inf,inf,inf,1,1,1,1,2,0,2,2,1,1,0
2624320000,1692000,47.3977508,8.5456074,-7.4942636,0.26424843,-4.6155195,-0.02230069,-0.003424756,0.0,-4.082985,0.13353196,-0.038459398,-0.05210014,-0.06259725,-0.008557537,0.15231551,0.023498664,-0.051289998,-0.026213935,2.6522381,0.0,4.806042,0.038459398,0.4360445,0.23375766,0.18636017,0.10311315,inf,inf,inf,inf,1,1,1,1,2,0,2,2,1,1,0
2624424000,1692000,47.3977508,8.5456074,-7.924367,0.2792967,-4.620546,-0.02230069,-0.003424756,0.0,-4.087262,0.13195217,-0.038855817,-0.05190059,-0.06259725,-0.008557537,0.15231551,-0.005788635,0.10638662,-0.012620351,2.735488,0.0,4.8110685,0.038855817,0.4220604,0.23420481,0.1807318,0.10286862,inf,inf,inf,inf,1,1,1,1,2,0,2,2,1,1,0
2624520000,1692000,47.3977508,8.5456074,-8.317421,0.29368722,-4.6252217,-0.02230069,-0.003424756,0.0,-4.090646,0.13271903,-0.04252904,-0.05492164,-0.06259725,-0.008557537,0.15231551,-0.11850567,-0.041924328,-0.018216668,2.81179,0.0,4.8157444,0.04252904,0.43412468,0.23373371,0.18536098,0.10302619,inf,inf,inf,inf,1,1,1,1,2,0,2,2,1,1,0
2624624000,1692000,47.3977508,8.5456074,-8.742774,0.30896422,-4.6311364,-0.02230069,-0.003424756,0.0,-4.0964212,0.13519998,-0.04405534,-0.056387313,-0.06259725,-0.008557537,0.15231551,-0.1651938,0.01632799,-0.041593794,2.8935366,0.0,4.821659,0.04405534,0.420453,0.23419327,0.18017212,0.10278923,inf,inf,inf,inf,1,1,1,1,2,0,2,2,1,1,0
2624720000,1692000,47.3977508,8.5456074,-9.133932,0.32345295,-4.6372094,-0.02230069,-0.003424756,0.0,-4.1029196,0.13773292,-0.043531112,-0.05632021,-0.06259725,-0.008557537,0.15231551,-0.12262817,0.026759239,0.080741,2.9600046,0.0,4.827732,0.043531112,0.43236932,0.2337078,0.18496597,0.10293878,inf,inf,inf,inf,1,1,1,1,2,0,2,2,1,1,0
2624824000,1692000,47.3977508,8.5456074,-9.559133,0.33945572,-4.644015,-0.02230069,-0.003424756,0.0,-4.1108885,0.14589602,-0.04218519,-0.05579885,-0.06259725,-0.008557537,0.15231551,-0.003295019,0.15033376,-0.005920417,3.0145886,0.0,4.8345375,0.04218519,0.41894138,0.23257378,0.18001741,0.10229067,inf,inf,inf,inf,1,1,1,1,2,0,2,2,1,1,0
2624920000,1692000,47.3977508,8.5456074,-9.952875,0.35552594,-4.6489644,-0.02230069,-0.003424756,0.0,-4.1213474,0.14930177,-0.041295297,-0.054323025,-0.06259725,-0.008557537,0.15231551,-0.07472699,-0.046120547,0.0094277775,3.0505257,0.0,4.839487,0.041295297,0.43075454,0.2336884,0.18497391,0.102847986,inf,inf,inf,inf,1,1,1,1,2,0,2,2,1,1,0
2625024000,1692000,47.3977508,8.5456074,-10.381127,0.37237012,-4.6540666,-0.02230069,-0.003424756,0.0,-4.138342,0.14614215,-0.03842769,-0.05087189,-0.06259725,-0.008557537,0.15231551,-0.19046476,-0.033251677,0.045061108,3.0788918,0.0,4.844589,0.03842769,0.4175626,0.2325492,0.18024924,0.10219747,inf,inf,inf,inf,1,1,1,1,2,0,2,2,1,1,0
2625120000,1692000,47.3977508,8.5456074,-10.778199,0.3878673,-4.659086,-0.02230069,-0.003424756,0.0,-4.1507177,0.14553103,-0.03545976,-0.047984604,-0.06259725,-0.008557537,0.15231551,-0.0447398,0.01954472,-0.031136906,3.0979707,0.0,4.849609,0.03545976,0.42928275,0.23367447,0.18533157,0.10276888,inf,inf,inf,inf,1,1,1,1,2,0,2,2,1,1,0
2625224000,1692000,47.3977508,8.5456074,-11.210195,0.4043244,-4.6638913,-0.02230069,-0.003424756,0.0,-4.161464,0.14710884,-0.03620136,-0.04826778,-0.06259725,-0.008557537,0.15231551,-0.09180325,0.058945157,0.002914108,3.1122046,0.0,4.854414,0.03620136,0.4163018,0.23254628,0.18077266,0.102145225,inf,inf,inf,inf,1,1,1,1,2,0,2,2,1,1,0
2625320000,1692000,47.3977508,8.5456074,-11.611062,0.41960752,-4.668232,-0.02230069,-0.003424756,0.0,-4.169409,0.14858003,-0.037086383,-0.048678268,-0.06259725,-0.008557537,0.15231551,-0.050635073,0.05267744,0.018173827,3.121234,0.0,4.8587546,0.037086383,0.42795882,0.23366605,0.18597917,0.102731414,inf,inf,inf,inf,1,1,1,1,2,0,2,2,1,1,0
2625424000,1692000,47.3977508,8.5456074,-12.046956,0.43611228,-4.673192,-0.02230069,-0.003424756,0.0,-4.1784635,0.1509536,-0.038533278,-0.049829416,-0.06259725,-0.008557537,0.15231551,-0.048981976,-0.024191407,0.0045849006,3.1278498,0.0,4.8637147,0.038533278,0.41516477,0.23253337,0.1815438,0.10212146,inf,inf,inf,inf,1,1,1,1,2,0,2,2,1,1,0
2625520000,1692000,47.3977508,8.5456074,-12.452461,0.4512938,-4.677562,-0.02230069,-0.003424756,0.0,-4.186443,0.15154515,-0.036009442,-0.04687214,-0.06259725,-0.008557537,0.15231551,-0.10902713,-0.024454944,0.08946563,3.1316178,0.0,4.868085,0.036009442,0.4267887,0.23366623,0.18685935,0.10272931,inf,inf,inf,inf,1,1,1,1,2,0,2,2,1,1,0
2625624000,1692000,47.3977508,8.5456074,-12.892655,0.46748504,-4.6834054,-0.02230069,-0.003424756,0.0,-4.1936436,0.15312892,-0.037146423,-0.048803173,-0.06259725,-0.008557537,0.15231551,-0.08791359,0.12140487,-0.04579592,3.1343324,0.0,4.873928,0.037146423,0.414158,0.23254623,0.182481,0.10214265,inf,inf,inf,inf,1,1,1,1,2,0,2,2,1,1,0
2625720000,1692000,47.3977508,8.5456074,-13.302528,0.48230693,-4.689239,-0.02230069,-0.003424756,0.0,-4.200962,0.15757582,-0.03494595,-0.04767174,-0.06259725,-0.008557537,0.15231551,-0.13113579,0.027331492,0.10196864,3.1353915,0.0,4.8797617,0.03494595,0.42577544,0.23367696,0.18786986,0.10276633,inf,inf,inf,inf,1,1,1,1,2,0,2,2,1,1,0
2625824000,1692000,47.3977508,8.5456074,-13.74714,0.49819964,-4.6945705,-0.02230069,-0.003424756,0.0,-4.209182,0.157113,-0.031250585,-0.04459787,-0.06259725,-0.008557537,0.15231551,-0.0497112,0.045378298,-0.005255453,3.135977,0.0,4.885093,0.031250585,0.4132854,0.23257114,0.18348357,0.102199666,inf,inf,inf,inf,1,1,1,1,2,0,2,2,1,1,0
2625920000,1692000,47.3977508,8.5456074,-14.160981,0.51230913,-4.699734,-0.02230069,-0.003424756,0.0,-4.2164044,0.15851377,-0.03384325,-0.047766846,-0.06259725,-0.008557537,0.15231551,0.04053255,0.0040070442,0.07022451,3.136289,0.0,4.890257,0.03384325,0.4249191,0.23371847,0.18890096,0.10284436,inf,inf,inf,inf,1,1,1,1,2,0,2,2,1,1,0
2626024000,1692000,47.3977508,8.5456074,-14.608577,0.5277573,-4.7054663,-0.02230069,-0.003424756,0.0,-4.2196336,0.1607974,-0.030490076,-0.045193043,-0.06259725,-0.008557537,0.15231551,-0.013958662,0.03065531,-0.014648772,3.1357946,0.0,4.895989,0.030490076,0.41254723,0.23260991,0.18446928,0.10228884,inf,inf,inf,inf,1,1,1,1,2,0,2,2,1,1,0
2626120000,1692000,47.3977508,8.5456074,-15.02407,0.54175246,-4.7105284,-0.02230069,-0.003424756,0.0,-4.225763,0.16239521,-0.029394172,-0.044721182,-0.06259725,-0.008557537,0.15231551,-0.008461996,0.034816373,-0.011493451,3.1349342,0.0,4.901051,0.029394172,0.42421618,0.23375858,0.18994029,0.102944836,inf,inf,inf,inf,1,1,1,1,2,0,2,2,1,1,0
2626224000,1692000,47.3977508,8.5456074,-15.473816,0.5569361,-4.715856,-0.02230069,-0.003424756,0.0,-4.2302837,0.16505706,-0.028058147,-0.04397207,-0.06259725,-0.008557537,0.15231551,0.08946517,0.050421845,-0.007710419,3.1338413,0.0,4.9063787,0.028058147,0.41194135,0.23266535,0.18541142,0.102402724,inf,inf,inf,inf,1,1,1,1,2,0,2,2,1,1,0
2626320000,1692000,47.3977508,8.5456074,-15.892386,0.57061136,-4.7205296,-0.02230069,-0.003424756,0.0,-4.2408786,0.16952235,-0.026850786,-0.0430521,-0.06259725,-0.008557537,0.15231551,0.009511131,0.08929912,0.041543502,3.1328273,0.0,4.911052,0.026850786,0.42366004,0.23383313,0.19088481,0.10307498,inf,inf,inf,inf,1,1,1,1,2,0,2,2,1,1,0
2626424000,1692000,47.3977508,8.5456074,-16.34476,0.5860539,-4.7247877,-0.02230069,-0.003424756,0.0,-4.246228,0.17007051,-0.023037989,-0.03911491,-0.06259725,-0.008557537,0.15231551,-0.036532056,0.10643759,-0.07818173,3.1317952,0.0,4.9153104,0.023037989,0.41146147,0.23274674,0.186251,0.10253994,inf,inf,inf,inf,1,1,1,1,2,0,2,2,1,1,0
2626520000,1692000,47.3977508,8.5456074,-16.764826,0.6004416,-4.729095,-0.02230069,-0.003424756,0.0,-4.2520094,0.17352884,-0.024100684,-0.04044245,-0.06259725,-0.008557537,0.15231551,-0.009533017,-0.062713526,-0.030660069,3.1305304,0.0,4.9196177,0.024100684,0.42322645,0.232342,0.19166997,0.102816515,inf,inf,inf,inf,1,1,1,1,2,0,2,2,1,1,0
2626624000,1692000,47.3977508,8.5456074,-17.218609,0.61670804,-4.733626,-0.02230069,-0.003424756,0.0,-4.2549696,0.17843886,-0.02458864,-0.040997386,-0.06259725,-0.008557537,0.15231551,0.050392464,0.08424106,0.05060341,3.129084,0.0,4.9241486,0.02458864,0.41109896,0.23286274,0.18694814,0.10269861,inf,inf,inf,inf,1,1,1,1,2,0,2,2,1,1,0
2626720000,1692000,47.3977508,8.5456074,-17.63988,0.63183755,-4.7372723,-0.02230069,-0.003424756,0.0,-4.2589173,0.18299937,-0.02367534,-0.03974456,-0.06259725,-0.008557537,0.15231551,-0.11582765,0.054840263,-0.057827678,3.1277483,0.0,4.927795,0.02367534,0.42293087,0.23247544,0.19236463,0.10298372,inf,inf,inf,inf,1,1,1,1,2,0,2,2,1,1,0
2626824000,1692000,47.3977508,8.5456074,-18.095139,0.6484648,-4.7408543,-0.02230069,-0.003424756,0.0,-4.2658563,0.18247263,-0.025778756,-0.04111924,-0.06259725,-0.008557537,0.15231551,-0.0477354,0.045381453,-0.03216322,3.1266763,0.0,4.931377,0.025778756,0.41084316,0.23299517,0.18751633,0.102860734,inf,inf,inf,inf,1,1,1,1,2,0,2,2,1,1,0
2626920000,1692000,47.3977508,8.5456074,-18.519339,0.66269475,-4.7441053,-0.02230069,-0.003424756,0.0,-4.2726097,0.17994884,-0.024376338,-0.038944174,-0.06259725,-0.008557537,0.15231551,-0.0025257466,-0.011694689,0.04297029,3.1257093,0.0,4.934628,0.024376338,0.42274523,0.23261712,0.19289456,0.10314975,inf,inf,inf,inf,1,1,1,1,2,0,2,2,1,1,0
2627024000,1692000,47.3977508,8.5456074,-18.977116,0.6785807,-4.7473507,-0.02230069,-0.003424756,0.0,-4.2777615,0.1806193,-0.02307228,-0.036842108,-0.06259725,-0.008557537,0.15231551,-0.016751232,-0.027328625,0.0134119755,3.1246717,0.0,4.9378734,0.02307228,0.4106818,0.23314428,0.18791723,0.10303,inf,inf,inf,inf,1,1,1,1,2,0,2,2,1,1,0
2627120000,1692000,47.3977508,8.5456074,-19.40272,0.6930049,-4.749626,-0.02230069,-0.003424756,0.0,-4.2840967,0.18132703,-0.024863793,-0.037223287,-0.06259725,-0.008557537,0.15231551,-0.033367887,-0.020412523,0.04708301,3.1235852,0.0,4.940149,0.024863793,0.4226534,0.23275839,0.193245,0.103313506,inf,inf,inf,inf,1,1,1,1,2,0,2,2,1,1,0
2627224000,1692000,47.3977508,8.5456074,-19.862442,0.7090491,-4.751411,-0.02230069,-0.003424756,0.0,-4.291684,0.18467604,-0.026687954,-0.03680365,-0.06259725,-0.008557537,0.15231551,0.07008481,0.019384488,-0.08606165,3.1226137,0.0,4.9419336,0.026687954,0.4105915,0.23172168,0.18813258,0.102786966,inf,inf,inf,inf,1,1,1,1,2,0,2,2,1,1,0
2627320000,1692000,47.3977508,8.5456074,-20.290655,0.72363406,-4.753157,-0.02230069,-0.003424756,0.0,-4.298449,0.18661076,-0.025225691,-0.033648975,-0.06259725,-0.008557537,0.15231551,-0.047610603,0.036542825,0.05168095,3.1214535,0.0,4.94368,0.025225691,0.4226396,0.23293291,0.19344343,0.1034789,inf,inf,inf,inf,1,1,1,1,2,0,2,2,1,1,0
2627424000,1692000,47.3977508,8.5456074,-20.752611,0.7400598,-4.755937,-0.02230069,-0.003424756,0.0,-4.304985,0.18835156,-0.026722377,-0.03444747,-0.06259725,-0.008557537,0.15231551,-0.020255333,0.14227627,-0.021373851,3.120494,0.0,4.94646,0.026722377,0.410579,0.23189066,0.18822277,0.102941096,inf,inf,inf,inf,1,1,1,1,2,0,2,2,1,1,0
2627520000,1692000,47.3977508,8.5456074,-21.181953,0.7549218,-4.7587423,-0.02230069,-0.003424756,0.0,-4.310903,0.18922277,-0.029574182,-0.03664026,-0.06259725,-0.008557537,0.15231551,0.00046193597,-0.0071747485,-0.048391517,3.119804,0.0,4.949265,0.029574182,0.42268792,0.23310438,0.19346727,0.103627965,inf,inf,inf,inf,1,1,1,1,2,0,2,2,1,1,0
2627624000,1692000,47.3977508,8.5456074,-21.645294,0.7716821,-4.7611833,-0.02230069,-0.003424756,0.0,-4.3173037,0.1900171,-0.030311573,-0.03607245,-0.06259725,-0.008557537,0.15231551,-0.063229345,0.042797208,-0.0635758,3.1192565,0.0,4.951706,0.030311573,0.4106197,0.23207296,0.18816285,0.10308713,inf,inf,inf,inf,1,1,1,1,2,0,2,2,1,1,0
2627720000,1692000,47.3977508,8.5456074,-22.076845,0.78735274,-4.762992,-0.02230069,-0.003424756,0.0,-4.3231077,0.19348314,-0.027762152,-0.03204022,-0.06259725,-0.008557537,0.15231551,-0.03995653,0.07856555,0.04503503,3.1183999,0.0,4.9535146,0.027762152,0.42278314,0.233305,0.19336227,0.1037751,inf,inf,inf,inf,1,1,1,1,2,0,2,2,1,1,0
2627824000,1692000,47.3977508,8.5456074,-22.542126,0.8050097,-4.7643533,-0.02230069,-0.003424756,0.0,-4.3285036,0.19501026,-0.03048541,-0.03273637,-0.06259725,-0.008557537,0.15231551,0.011721625,0.057959855,0.04628207,3.1174085,0.0,4.954876,0.03048541,0.4107017,0.2322906,0.1879748,0.103232145,inf,inf,inf,inf,1,1,1,1,2,0,2,2,1,1,0
2627920000,1692000,47.3977508,8.5456074,-22.975174,0.82075626,-4.765698,-0.02230069,-0.003424756,0.0,-4.334298,0.19265863,-0.03326286,-0.03369879,-0.06259725,-0.008557537,0.15231551,0.024718696,-0.050032537,-0.008602626,3.116728,0.0,4.9562206,0.03326286,0.42291164,0.2335396,0.19311096,0.10391862,inf,inf,inf,inf,1,1,1,1,2,0,2,2,1,1,0
2628024000,1692000,47.3977508,8.5456074,-23.441854,0.8380198,-4.7675457,-0.02230069,-0.003424756,0.0,-4.338561,0.19284339,-0.03272302,-0.03172798,-0.06259725,-0.008557537,0.15231551,0.045611054,-0.05884276,-0.064061016,3.1159387,0.0,4.9580684,0.03272302,0.41081223,0.23252277,0.18767467,0.103364386,inf,inf,inf,inf,1,1,1,1,2,0,2,2,1,1,0
2628120000,1692000,47.3977508,8.5456074,-23.875883,0.8534612,-4.7694516,-0.02230069,-0.003424756,0.0,-4.3445005,0.19396901,-0.035869546,-0.03373026,-0.06259725,-0.008557537,0.15231551,0.038804483,-0.03976756,0.053835098,3.1152747,0.0,4.9599743,0.035869546,0.42306125,0.232206,0.19276673,0.10364041,inf,inf,inf,inf,1,1,1,1,2,0,2,2,1,1,0
2628224000,1692000,47.3977508,8.5456074,-24.343504,0.87075,-4.7716293,-0.02230069,-0.003424756,0.0,-4.3499866,0.19529164,-0.035637297,-0.03244034,-0.06259725,-0.008557537,0.15231551,-0.025871208,0.12395894,0.020931473,3.1145463,0.0,4.962152,0.035637297,0.4109414,0.2327743,0.1872785,0.1034878,inf,inf,inf,inf,1,1,1,1,2,0,2,2,1,1,0
2628320000,1692000,47.3977508,8.5456074,-24.778109,0.8863451,-4.7735586,-0.02230069,-0.003424756,0.0,-4.357742,0.19389768,-0.03715352,-0.032842264,-0.06259725,-0.008557537,0.15231551,-0.05179783,-0.03660131,0.037403774,3.1141527,0.0,4.9640813,0.03715352,0.42322096,0.23245783,0.19230983,0.10375443,inf,inf,inf,inf,1,1,1,1,2,0,2,2,1,1,0
2628424000,1692000,47.3977508,8.5456074,-25.246489,0.9036127,-4.775677,-0.02230069,-0.003424756,0.0,-4.3624644,0.19385974,-0.035604917,-0.030424485,-0.06259725,-0.008557537,0.15231551,0.07208995,-0.13282241,0.015517696,3.1135523,0.0,4.9662,0.035604917,0.41107973,0.23303469,0.18679039,0.10359603,inf,inf,inf,inf,1,1,1,1,2,0,2,2,1,1,0
2628520000,1692000,47.3977508,8.5456074,-25.68155,0.91915554,-4.7771096,-0.02230069,-0.003424756,0.0,-4.366096,0.19370043,-0.035900567,-0.029426862,-0.06259725,-0.008557537,0.15231551,-0.026970634,0.09667547,0.031053087,3.1130867,0.0,4.9676323,0.035900567,0.42338133,0.23272514,0.19176085,0.10385826,inf,inf,inf,inf,1,1,1,1,2,0,2,2,1,1,0
2628624000,1692000,47.3977508,8.5456074,-26.15031,0.9366237,-4.7787995,-0.02230069,-0.003424756,0.0,-4.3707333,0.19387609,-0.035882078,-0.028267948,-0.06259725,-0.008557537,0.15231551,0.013860873,-0.020608334,-0.068447545,3.112648,0.0,4.969322,0.035882078,0.411219,0.23330843,0.18622415,0.10369368,inf,inf,inf,inf,1,1,1,1,2,0,2,2,1,1,0
2628720000,1692000,47.3977508,8.5456074,-26.586138,0.9526013,-4.7801943,-0.02230069,-0.003424756,0.0,-4.378223,0.19588327,-0.03951593,-0.030636348,-0.06259725,-0.008557537,0.15231551,0.030708963,0.0045964113,-0.035004687,3.1121972,0.0,4.970717,0.03951593,0.42353445,0.23298718,0.19115917,0.10394056,inf,inf,inf,inf,1,1,1,1,2,0,2,2,1,1,0
2628824000,1692000,47.3977508,8.5456074,-27.05646,0.97050977,-4.781608,-0.02230069,-0.003424756,0.0,-4.3863554,0.19992352,-0.04019875,-0.029736351,-0.06259725,-0.008557537,0.15231551,-0.107521184,-0.012324322,-0.0259215,3.1117535,0.0,4.972131,0.04019875,0.41135237,0.23199116,0.185622,0.10335776,inf,inf,inf,inf,1,1,1,1,2,0,2,2,1,1,0
2628920000,1692000,47.3977508,8.5456074,-27.494345,0.98657066,-4.782599,-0.02230069,-0.003424756,0.0,-4.3937397,0.19943093,-0.037354432,-0.025509363,-0.06259725,-0.008557537,0.15231551,-0.041543968,0.07981547,-0.052402724,3.1110492,0.0,4.9731216,0.037354432,0.42367476,0.2332597,0.19050694,0.1040118,inf,inf,inf,inf,1,1,1,1,2,0,2,2,1,1,0
2629024000,1692000,47.3977508,8.5456074,-27.966438,1.0045593,-4.7845287,-0.02230069,-0.003424756,0.0,-4.39643,0.19996078,-0.04277674,-0.030237142,-0.06259725,-0.008557537,0.15231551,0.10619079,0.020212667,-0.07282569,3.1108751,0.0,4.9750514,0.04277674,0.41147548,0.23224607,0.18496233,0.103413716,inf,inf,inf,inf,1,1,1,1,2,0,2,2,1,1,0
2629120000,1692000,47.3977508,8.5456074,-28.405342,1.021024,-4.7867484,-0.02230069,-0.003424756,0.0,-4.40261,0.20058566,-0.044731777,-0.03168423,-0.06259725,-0.008557537,0.15231551,-0.03690924,0.01365476,-0.068039626,3.1105232,0.0,4.977271,0.044731777,0.42379716,0.23350629,0.18980597,0.10405637,inf,inf,inf,inf,1,1,1,1,2,0,2,2,1,1,0
2629224000,1692000,47.3977508,8.5456074,-28.878101,1.0396769,-4.7887063,-0.02230069,-0.003424756,0.0,-4.405501,0.2028214,-0.04049225,-0.026691452,-0.06259725,-0.008557537,0.15231551,-0.08636759,0.026604436,-0.00044051555,3.1101513,0.0,4.979229,0.04049225,0.41158232,0.23249246,0.1843138,0.10345168,inf,inf,inf,inf,1,1,1,1,2,0,2,2,1,1,0
2629320000,1692000,47.3977508,8.5456074,-29.317793,1.0574803,-4.7904353,-0.02230069,-0.003424756,0.0,-4.413508,0.20447095,-0.0428821,-0.02843827,-0.06259725,-0.008557537,0.15231551,0.031001864,0.011209063,0.09539909,3.1098356,0.0,4.980958,0.0428821,0.42389894,0.23376024,0.18911916,0.10408979,inf,inf,inf,inf,1,1,1,1,2,0,2,2,1,1,0
2629424000,1692000,47.3977508,8.5456074,-29.789045,1.0776918,-4.7925606,-0.02230069,-0.003424756,0.0,-4.4165115,0.20661841,-0.04137554,-0.026642952,-0.06259725,-0.008557537,0.15231551,0.004512723,-0.08905792,-0.021022743,3.109201,0.0,4.9830832,0.04137554,0.43789503,0.23404732,0.19436705,0.10447059,inf,inf,inf,inf,1,1,1,1,2,0,2,2,1,1,0
2629520000,1692000,47.3977508,8.5456074,-30.21963,1.0961262,-4.7942967,-0.02230069,-0.003424756,0.0,-4.419886,0.20710638,-0.04051945,-0.025341207,-0.06259725,-0.008557537,0.15231551,-0.0480446,-0.013060896,-0.05511846,3.1088524,0.0,4.9848194,0.04051945,0.4226774,0.23394865,0.1875531,0.10404604,inf,inf,inf,inf,1,1,1,1,2,0,2,2,1,1,0
2629624000,1692000,47.3977508,8.5456074,-30.680973,1.1143719,-4.7963724,-0.02230069,-0.003424756,0.0,-4.424056,0.20613652,-0.04441109,-0.028763002,-0.06259725,-0.008557537,0.15231551,-0.03564078,0.039167788,-0.059704293,3.1085782,0.0,4.986895,0.04441109,0.43655,0.23422863,0.19276233,0.10441812,inf,inf,inf,inf,1,1,1,1,2,0,2,2,1,1,0
2629720000,1692000,47.3977508,8.5456074,-31.105684,1.1314752,-4.7977977,-0.02230069,-0.003424756,0.0,-4.4267435,0.20548826,-0.044419814,-0.027742364,-0.06259725,-0.008557537,0.15231551,-0.03847945,0.049768012,0.043568198,3.108468,0.0,4.9883204,0.044419814,0.42155474,0.23411694,0.18614084,0.103986934,inf,inf,inf,inf,1,1,1,1,2,0,2,2,1,1,0
2629824000,1692000,47.3977508,8.5456074,-31.564987,1.1490469,-4.7995334,-0.02230069,-0.003424756,0.0,-4.4369106,0.20438683,-0.04599645,-0.028438088,-0.06259725,-0.008557537,0.15231551,-0.042610332,0.064136386,-0.004765577,3.1083264,0.0,4.990056,0.04599645,0.43531463,0.23439904,0.1913026,0.104356036,inf,inf,inf,inf,1,1,1,1,2,0,2,2,1,1,0
2629920000,1692000,47.3977508,8.5456074,-31.989407,1.165588,-4.801069,-0.02230069,-0.003424756,0.0,-4.4468875,0.20482218,-0.042717017,-0.024400642,-0.06259725,-0.008557537,0.15231551,-0.16565573,0.001890672,-0.010272487,3.1080737,0.0,4.9915915,0.042717017,0.42052117,0.23429206,0.1848476,0.103925444,inf,inf,inf,inf,1,1,1,1,2,0,2,2,1,1,0
2630024000,1692000,47.3977508,8.5456074,-32.450127,1.1826216,-4.801082,-0.02230069,-0.003424756,0.0,-4.4591503,0.20492119,-0.041218024,-0.020952247,-0.06259725,-0.008557537,0.15231551,-0.13726251,0.079627596,-0.024841165,3.1079004,0.0,4.991605,0.041218024,0.43417722,0.23455788,0.18994802,0.10428379,inf,inf,inf,inf,1,1,1,1,2,0,2,2,1,1,0
2630120000,1692000,47.3977508,8.5456074,-32.876453,1.1986982,-4.8018193,-0.02230069,-0.003424756,0.0,-4.466704,0.20308661,-0.04502388,-0.023667047,-0.06259725,-0.008557537,0.15231551,-0.06843777,0.029678818,-0.02476759,3.1076357,0.0,4.992342,0.04502388,0.41956797,0.23443824,0.18363123,0.10384756,inf,inf,inf,inf,1,1,1,1,2,0,2,2,1,1,0
2630224000,1692000,47.3977508,8.5456074,-33.339413,1.2148836,-4.8023505,-0.02230069,-0.003424756,0.0,-4.4722548,0.20264128,-0.04634911,-0.023420487,-0.06259725,-0.008557537,0.15231551,-0.07734726,0.03617673,-0.011069699,3.1075711,0.0,4.992873,0.04634911,0.43312705,0.23471428,0.18869777,0.10420713,inf,inf,inf,inf,1,1,1,1,2,0,2,2,1,1,0
2630328000,1692000,47.3977508,8.5456074,-33.803852,1.2318116,-4.8021026,-0.02230069,-0.003424756,0.0,-4.477132,0.20466837,-0.0466414,-0.02144221,-0.06259725,-0.008557537,0.15231551,-0.04444178,0.016715726,-0.029903835,3.1071856,0.0,4.992625,0.0466414,0.4196943,0.2336445,0.18293865,0.10354752,inf,inf,inf,inf,1,1,1,1,2,0,2,2,1,1,0
2630424000,1692000,47.3977508,8.5456074,-34.234947,1.2470626,-4.8014174,-0.02230069,-0.003424756,0.0,-4.486922,0.20542723,-0.044655416,-0.017327063,-0.06259725,-0.008557537,0.15231551,-0.065757886,0.0035650444,-0.018318182,3.1069643,0.0,4.99194,0.044655416,0.43215725,0.2348744,0.18761604,0.10412846,inf,inf,inf,inf,1,1,1,1,2,0,2,2,1,1,0
2630520000,1692000,47.3977508,8.5456074,-34.667236,1.2628365,-4.8003044,-0.02230069,-0.003424756,0.0,-4.492964,0.2054415,-0.04487754,-0.015227924,-0.06259725,-0.008557537,0.15231551,-0.05696667,0.13891226,0.010880641,3.106689,0.0,4.990827,0.04487754,0.41786215,0.23316136,0.18158796,0.103276655,inf,inf,inf,inf,1,1,1,1,2,0,2,2,1,1,0
2630624000,1692000,47.3977508,8.5456074,-35.138187,1.2791861,-4.799661,-0.02230069,-0.003424756,0.0,-4.4971,0.2071136,-0.04961032,-0.01810224,-0.06259725,-0.008557537,0.15231551,-0.0026486812,0.025234241,-0.06430502,3.1065223,0.0,4.990184,0.04961032,0.43125445,0.23342347,0.18660593,0.10362365,inf,inf,inf,inf,1,1,1,1,2,0,2,2,1,1,0
2630720000,1692000,47.3977508,8.5456074,-35.572975,1.2952238,-4.8004837,-0.02230069,-0.003424756,0.0,-4.4979167,0.2057209,-0.055311535,-0.023072908,-0.06259725,-0.008557537,0.15231551,0.09931716,-0.05645629,-0.0059986482,3.1064527,0.0,4.9910064,0.055311535,0.41710603,0.23332544,0.1807262,0.10319936,inf,inf,inf,inf,1,1,1,1,2,0,2,2,1,1,0
