timestamp,ref_timestamp,ref_lat,ref_lon,x,y,z,delta_xy[0],delta_xy[1],delta_z,vx,vy,vz,z_deriv,delta_vxy[0],delta_vxy[1],delta_vz,ax,ay,az,yaw,ref_alt,dist_bottom,dist_bottom_rate,eph,epv,evh,evv,vxy_max,vz_max,hagl_min,hagl_max,xy_valid,z_valid,v_xy_valid,v_z_valid,xy_reset_counter,z_reset_counter,vxy_reset_counter,vz_reset_counter,xy_global,z_global,dist_bottom_valid
2613228000,0,47.3977508,8.5456074,0.022238987,0.015053677,0.72598267,0.0,0.0,0.0,0.0,0.0,0.0,0.0,0.0,0.0,0.0,0.0,0.0,0.0,0.42895585,488.83002,0.0,0.0,0.0,0.0,0.0,0.0,inf,inf,inf,inf,1,1,1,1,0,0,0,0,1,1,0
2613328000,0,47.3977508,8.5456074,0.022238987,0.015053677,0.72598267,0.0,0.0,0.0,0.0,0.0,0.0,0.0,0.0,0.0,0.0,0.0,0.0,0.0,0.42895588,488.83002,0.0,0.0,0.0,0.0,0.0,0.0,inf,inf,inf,inf,1,1,1,1,0,0,0,0,1,1,0
2613428000,0,47.3977508,8.5456074,0.022238987,0.015053677,0.72598267,0.0,0.0,0.0,0.0,0.0,0.0,0.0,0.0,0.0,0.0,0.0,0.0,0.0,0.42895582,488.83002,0.0,0.0,0.0,0.0,0.0,0.0,inf,inf,inf,inf,1,1,1,1,0,0,0,0,1,1,0
2613528000,0,47.3977508,8.5456074,0.022238987,0.015053677,0.72598267,0.0,0.0,0.0,0.0,0.0,0.0,0.0,0.0,0.0,0.0,0.0,0.0,0.0,0.4289556,488.83002,0.0,0.0,0.0,0.0,0.0,0.0,inf,inf,inf,inf,1,1,1,1,0,0,0,0,1,1,0
2613628000,0,47.3977508,8.5456074,0.022238987,0.015053677,0.72598267,0.0,0.0,0.0,0.0,0.0,0.0,0.0,0.0,0.0,0.0,0.0,0.0,0.0,0.42895573,488.83002,0.0,0.0,0.0,0.0,0.0,0.0,inf,inf,inf,inf,1,1,1,1,0,0,0,0,1,1,0
2613724000,0,47.3977508,8.5456074,0.022238987,0.015053677,0.72598267,0.0,0.0,0.0,0.0,0.0,0.0,0.0,0.0,0.0,0.0,0.0,0.0,0.0,0.4289555,488.83002,0.0,0.0,0.0,0.0,0.0,0.0,inf,inf,inf,inf,1,1,1,1,0,0,0,0,1,1,0
2613828000,0,47.3977508,8.5456074,0.022238987,0.015053677,0.72598267,0.0,0.0,0.0,0.0,0.0,0.0,0.0,0.0,0.0,0.0,0.0,0.0,0.0,0.4289553,488.83002,0.0,0.0,0.0,0.0,0.0,0.0,inf,inf,inf,inf,1,1,1,1,0,0,0,0,1,1,0
2613928000,0,47.3977508,8.5456074,0.022238987,0.015053677,0.72598267,0.0,0.0,0.0,0.0,0.0,0.0,0.0,0.0,0.0,0.0,0.0,0.0,0.0,0.4289558,488.83002,0.0,0.0,0.0,0.0,0.0,0.0,inf,inf,inf,inf,1,1,1,1,0,0,0,0,1,1,0
2614028000,0,47.3977508,8.5456074,0.022238987,0.015053677,0.72598267,0.0,0.0,0.0,0.0,0.0,0.0,0.0,0.0,0.0,0.0,0.0,0.0,0.0,0.4289558,488.83002,0.0,0.0,0.0,0.0,0.0,0.0,inf,inf,inf,inf,1,1,1,1,0,0,0,0,1,1,0
2614128000,0,47.3977508,8.5456074,0.022238987,0.015053677,0.72598267,0.0,0.0,0.0,0.0,0.0,0.0,0.0,0.0,0.0,0.0,0.0,0.0,0.0,0.4289556,488.83002,0.0,0.0,0.0,0.0,0.0,0.0,inf,inf,inf,inf,1,1,1,1,0,0,0,0,1,1,0
2614228000,0,47.3977508,8.5456074,0.022238987,0.015053677,0.72598267,0.0,0.0,0.0,0.0,0.0,0.0,0.0,0.0,0.0,0.0,0.0,0.0,0.0,0.42895564,488.83002,0.0,0.0,0.0,0.0,0.0,0.0,inf,inf,inf,inf,1,1,1,1,0,0,0,0,1,1,0
2614328000,0,47.3977508,8.5456074,0.022238987,0.015053677,0.72598267,0.0,0.0,0.0,0.0,0.0,0.0,0.0,0.0,0.0,0.0,0.0,0.0,0.0,0.42895576,488.83002,0.0,0.0,0.0,0.0,0.0,0.0,inf,inf,inf,inf,1,1,1,1,0,0,0,0,1,1,0
2614428000,0,47.3977508,8.5456074,0.022238987,0.015053677,0.72598267,0.0,0.0,0.0,0.0,0.0,0.0,0.0,0.0,0.0,0.0,0.0,0.0,0.0,0.42895573,488.83002,0.0,0.0,0.0,0.0,0.0,0.0,inf,inf,inf,inf,1,1,1,1,0,0,0,0,1,1,0
2614528000,0,47.3977508,8.5456074,0.022238987,0.015053677,0.72598267,0.0,0.0,0.0,0.0,0.0,0.0,0.0,0.0,0.0,0.0,0.0,0.0,0.0,0.42895573,488.83002,0.0,0.0,0.0,0.0,0.0,0.0,inf,inf,inf,inf,1,1,1,1,0,0,0,0,1,1,0
2614628000,0,47.3977508,8.5456074,0.022238987,0.015053677,0.72598267,0.0,0.0,0.0,0.0,0.0,0.0,0.0,0.0,0.0,0.0,0.0,0.0,0.0,0.42895576,488.83002,0.0,0.0,0.0,0.0,0.0,0.0,inf,inf,inf,inf,1,1,1,1,0,0,0,0,1,1,0
2614728000,0,47.3977508,8.5456074,0.022238987,0.015053677,0.72598267,0.0,0.0,0.0,0.0,0.0,0.0,0.0,0.0,0.0,0.0,0.0,0.0,0.0,0.42895576,488.83002,0.0,0.0,0.0,0.0,0.0,0.0,inf,inf,inf,inf,1,1,1,1,0,0,0,0,1,1,0
2614828000,0,47.3977508,8.5456074,0.022238987,0.015053677,0.72598267,0.0,0.0,0.0,0.0,0.0,0.0,0.0,0.0,0.0,0.0,0.0,0.0,0.0,0.42895576,488.83002,0.0,0.0,0.0,0.0,0.0,0.0,inf,inf,inf,inf,1,1,1,1,0,0,0,0,1,1,0
2614924000,0,47.3977508,8.5456074,0.022238987,0.015053677,0.72598267,0.0,0.0,0.0,0.0,0.0,0.0,0.0,0.0,0.0,0.0,0.0,0.0,0.0,0.42895576,488.83002,0.0,0.0,0.0,0.0,0.0,0.0,inf,inf,inf,inf,1,1,1,1,0,0,0,0,1,1,0
2615024000,0,47.3977508,8.5456074,0.022238987,0.015053677,0.72598267,0.0,0.0,0.0,0.0,0.0,0.0,0.0,0.0,0.0,0.0,0.0,0.0,0.0,0.4289558,488.83002,0.0,0.0,0.0,0.0,0.0,0.0,inf,inf,inf,inf,1,1,1,1,0,0,0,0,1,1,0
2615128000,0,47.3977508,8.5456074,0.022238987,0.015053677,0.72299194,0.0,0.0,0.0,0.0,0.0,-0.08,0.0,0.0,0.0,0.0,0.0,0.0,0.0,0.42911634,488.83002,0.0,0.0,0.0,0.0,0.0,0.0,inf,inf,inf,inf,1,1,1,1,0,0,0,0,1,1,0
2615224000,0,47.3977508,8.5456074,0.022238987,0.015053677,0.7080078,0.0,0.0,0.0,0.0,0.01,-0.22,0.0,0.0,0.0,0.0,0.0,0.0,0.0,0.42940077,488.83002,0.0,0.0,0.0,0.0,0.0,0.0,inf,inf,inf,inf,1,1,1,1,0,0,0,0,1,1,0
2615328000,0,47.3977508,8.5456074,0.022238987,0.022580516,0.67700195,0.0,0.0,0.0,0.0,0.02,-0.35,0.0,0.0,0.0,0.0,0.0,0.0,0.0,0.42957255,488.83002,0.0,0.0,0.0,0.0,0.0,0.0,inf,inf,inf,inf,1,1,1,1,0,0,0,0,1,1,0
2615424000,0,47.3977508,8.5456074,0.022238987,0.022580516,0.6369934,0.0,0.0,0.0,0.0,0.03,-0.47,0.0,0.0,0.0,0.0,0.0,0.0,0.0,0.42966914,488.83002,0.0,0.0,0.0,0.0,0.0,0.0,inf,inf,inf,inf,1,1,1,1,0,0,0,0,1,1,0
2615528000,0,47.3977508,8.5456074,0.022238987,0.030107355,0.5799866,0.0,0.0,0.0,0.0,0.03,-0.61,0.0,0.0,0.0,0.0,0.0,0.0,0.0,0.4296796,488.83002,0.0,0.0,0.0,0.0,0.0,0.0,inf,inf,inf,inf,1,1,1,1,0,0,0,0,1,1,0
2615628000,0,47.3977508,8.5456074,0.022238987,0.030107355,0.5109863,0.0,0.0,0.0,0.0,0.03,-0.74,0.0,0.0,0.0,0.0,0.0,0.0,0.0,0.42968357,488.83002,0.0,0.0,0.0,0.0,0.0,0.0,inf,inf,inf,inf,1,1,1,1,0,0,0,0,1,1,0
2615728000,0,47.3977508,8.5456074,0.022238987,0.037634194,0.42999268,0.0,0.0,0.0,0.0,0.03,-0.87,0.0,0.0,0.0,0.0,0.0,0.0,0.0,0.42967728,488.83002,0.0,0.0,0.0,0.0,0.0,0.0,inf,inf,inf,inf,1,1,1,1,0,0,0,0,1,1,0
2615824000,0,47.3977508,8.5456074,0.022238987,0.037634194,0.34298706,0.0,0.0,0.0,0.0,0.03,-1.0,0.0,0.0,0.0,0.0,0.0,0.0,0.0,0.42961428,488.83002,0.0,0.0,0.0,0.0,0.0,0.0,inf,inf,inf,inf,1,1,1,1,0,0,0,0,1,1,0
2615928000,0,47.3977508,8.5456074,0.022238987,0.04516103,0.23199463,0.0,0.0,0.0,0.0,0.03,-1.13,0.0,0.0,0.0,0.0,0.0,0.0,0.0,0.42953414,488.83002,0.0,0.0,0.0,0.0,0.0,0.0,inf,inf,inf,inf,1,1,1,1,0,0,0,0,1,1,0
2616028000,0,47.3977508,8.5456074,0.022238987,0.04516103,0.10699463,0.0,0.0,0.0,0.0,0.02,-1.26,0.0,0.0,0.0,0.0,0.0,0.0,0.0,0.42958498,488.83002,0.0,0.0,0.0,0.0,0.0,0.0,inf,inf,inf,inf,1,1,1,1,0,0,0,0,1,1,0
2616128000,0,47.3977508,8.5456074,0.022238987,0.04516103,-0.027008057,0.0,0.0,0.0,0.0,0.02,-1.39,0.0,0.0,0.0,0.0,0.0,0.0,0.0,0.4295829,488.83002,0.0,0.0,0.0,0.0,0.0,0.0,inf,inf,inf,inf,1,1,1,1,0,0,0,0,1,1,0
2616228000,0,47.3977508,8.5456074,0.022238987,0.052687872,-0.17300415,0.0,0.0,0.0,0.0,0.02,-1.52,0.0,0.0,0.0,0.0,0.0,0.0,0.0,0.42951494,488.83002,0.0,0.0,0.0,0.0,0.0,0.0,inf,inf,inf,inf,1,1,1,1,0,0,0,0,1,1,0
2616328000,0,47.3977508,8.5456074,0.022238987,0.052687872,-0.3330078,0.0,0.0,0.0,0.0,0.01,-1.65,0.0,0.0,0.0,0.0,0.0,0.0,0.0,0.42942303,488.83002,0.0,0.0,0.0,0.0,0.0,0.0,inf,inf,inf,inf,1,1,1,1,0,0,0,0,1,1,0
2616428000,0,47.3977508,8.5456074,0.022238987,0.052687872,-0.5039978,0.0,0.0,0.0,0.0,0.01,-1.75,0.0,0.0,0.0,0.0,0.0,0.0,0.0,0.4293117,488.83002,0.0,0.0,0.0,0.0,0.0,0.0,inf,inf,inf,inf,1,1,1,1,0,0,0,0,1,1,0
2616524000,0,47.3977508,8.5456074,0.022238987,0.052687872,-0.6669922,0.0,0.0,0.0,0.0,0.01,-1.62,0.0,0.0,0.0,0.0,0.0,0.0,0.0,0.4292752,488.83002,0.0,0.0,0.0,0.0,0.0,0.0,inf,inf,inf,inf,1,1,1,1,0,0,0,0,1,1,0
2616628000,0,47.3977508,8.5456074,0.022238987,0.052687872,-0.82699585,0.0,0.0,0.0,0.0,0.01,-1.48,0.0,0.0,0.0,0.0,0.0,0.0,0.0,0.42930073,488.83002,0.0,0.0,0.0,0.0,0.0,0.0,inf,inf,inf,inf,1,1,1,1,0,0,0,0,1,1,0
2616728000,0,47.3977508,8.5456074,0.022238987,0.06021471,-0.9660034,0.0,0.0,0.0,0.0,0.0,-1.4,0.0,0.0,0.0,0.0,0.0,0.0,0.0,0.42935923,488.83002,0.0,0.0,0.0,0.0,0.0,0.0,inf,inf,inf,inf,1,1,1,1,0,0,0,0,1,1,0
2616824000,0,47.3977508,8.5456074,0.022238987,0.06021471,-1.1029968,0.0,0.0,0.0,0.0,0.0,-1.3199999,0.0,0.0,0.0,0.0,0.0,0.0,0.0,0.42937362,488.83002,0.0,0.0,0.0,0.0,0.0,0.0,inf,inf,inf,inf,1,1,1,1,0,0,0,0,1,1,0
2616928000,0,47.3977508,8.5456074,0.022238987,0.06021471,-1.2310181,0.0,0.0,0.0,0.0,0.0,-1.23,0.0,0.0,0.0,0.0,0.0,0.0,0.0,0.42918333,488.83002,0.0,0.0,0.0,0.0,0.0,0.0,inf,inf,inf,inf,1,1,1,1,0,0,0,0,1,1,0
2617024000,0,47.3977508,8.5456074,0.022238987,0.06021471,-1.3510132,0.0,0.0,0.0,0.0,0.0,-1.16,0.0,0.0,0.0,0.0,0.0,0.0,0.0,0.42889488,488.83002,0.0,0.0,0.0,0.0,0.0,0.0,inf,inf,inf,inf,1,1,1,1,0,0,0,0,1,1,0
2617128000,0,47.3977508,8.5456074,0.022238987,0.06021471,-1.4680176,0.0,0.0,0.0,0.0,0.0,-1.09,0.0,0.0,0.0,0.0,0.0,0.0,0.0,0.42853183,488.83002,0.0,0.0,0.0,0.0,0.0,0.0,inf,inf,inf,inf,1,1,1,1,0,0,0,0,1,1,0
2617228000,0,47.3977508,8.5456074,0.011119493,0.06021471,-1.5740051,0.0,0.0,0.0,0.0,0.0,-1.03,0.0,0.0,0.0,0.0,0.0,0.0,0.0,0.4284118,488.83002,0.0,0.0,0.0,0.0,0.0,0.0,inf,inf,inf,inf,1,1,1,1,0,0,0,0,1,1,0
2617328000,0,47.3977508,8.5456074,0.011119493,0.06021471,-1.6750183,0.0,0.0,0.0,0.0,0.0,-0.97999996,0.0,0.0,0.0,0.0,0.0,0.0,0.0,0.4285762,488.83002,0.0,0.0,0.0,0.0,0.0,0.0,inf,inf,inf,inf,1,1,1,1,0,0,0,0,1,1,0
2617428000,0,47.3977508,8.5456074,0.011119493,0.052687872,-1.7700195,0.0,0.0,0.0,0.0,0.0,-0.91999996,0.0,0.0,0.0,0.0,0.0,0.0,0.0,0.42876095,488.83002,0.0,0.0,0.0,0.0,0.0,0.0,inf,inf,inf,inf,1,1,1,1,0,0,0,0,1,1,0
2617528000,0,47.3977508,8.5456074,0.011119493,0.052687872,-1.8600159,0.0,0.0,0.0,0.0,0.0,-0.87,0.0,0.0,0.0,0.0,0.0,0.0,0.0,0.42896074,488.83002,0.0,0.0,0.0,0.0,0.0,0.0,inf,inf,inf,inf,1,1,1,1,0,0,0,0,1,1,0
2617624000,0,47.3977508,8.5456074,0.011119493,0.052687872,-1.9420166,0.0,0.0,0.0,0.0,0.0,-0.83,0.0,0.0,0.0,0.0,0.0,0.0,0.0,0.42926538,488.83002,0.0,0.0,0.0,0.0,0.0,0.0,inf,inf,inf,inf,1,1,1,1,0,0,0,0,1,1,0
2617724000,0,47.3977508,8.5456074,0.011119493,0.052687872,-2.0200195,0.0,0.0,0.0,0.0,-0.01,-0.78,0.0,0.0,0.0,0.0,0.0,0.0,0.0,0.42960984,488.83002,0.0,0.0,0.0,0.0,0.0,0.0,inf,inf,inf,inf,1,1,1,1,0,0,0,0,1,1,0
2617828000,0,47.3977508,8.5456074,0.011119493,0.052687872,-2.1029968,0.0,0.0,0.0,0.0,-0.01,-0.75,0.0,0.0,0.0,0.0,0.0,0.0,0.0,0.42985383,488.83002,0.0,0.0,0.0,0.0,0.0,0.0,inf,inf,inf,inf,1,1,1,1,0,0,0,0,1,1,0
2617924000,0,47.3977508,8.5456074,0.011119493,0.052687872,-2.1740112,0.0,0.0,0.0,0.0,-0.01,-0.71,0.0,0.0,0.0,0.0,0.0,0.0,0.0,0.42992464,488.83002,0.0,0.0,0.0,0.0,0.0,0.0,inf,inf,inf,inf,1,1,1,1,0,0,0,0,1,1,0
2618028000,0,47.3977508,8.5456074,0.011119493,0.052687872,-2.2460022,0.0,0.0,0.0,0.0,-0.01,-0.68,0.0,0.0,0.0,0.0,0.0,0.0,0.0,0.42986983,488.83002,0.0,0.0,0.0,0.0,0.0,0.0,inf,inf,inf,inf,1,1,1,1,0,0,0,0,1,1,0
2618124000,0,47.3977508,8.5456074,0.011119493,0.04516103,-2.3099976,0.0,0.0,0.0,0.0,-0.01,-0.65,0.0,0.0,0.0,0.0,0.0,0.0,0.0,0.4300354,488.83002,0.0,0.0,0.0,0.0,0.0,0.0,inf,inf,inf,inf,1,1,1,1,0,0,0,0,1,1,0
2618224000,0,47.3977508,8.5456074,0.011119493,0.04516103,-2.373993,0.0,0.0,0.0,0.0,-0.01,-0.62,0.0,0.0,0.0,0.0,0.0,0.0,0.0,0.43025973,488.83002,0.0,0.0,0.0,0.0,0.0,0.0,inf,inf,inf,inf,1,1,1,1,0,0,0,0,1,1,0
2618324000,0,47.3977508,8.5456074,0.011119493,0.04516103,-2.4349976,0.0,0.0,0.0,0.0,-0.01,-0.59999996,0.0,0.0,0.0,0.0,0.0,0.0,0.0,0.43045077,488.83002,0.0,0.0,0.0,0.0,0.0,0.0,inf,inf,inf,inf,1,1,1,1,0,0,0,0,1,1,0
2618424000,0,47.3977508,8.5456074,0.011119493,0.04516103,-2.4940186,0.0,0.0,0.0,0.0,-0.01,-0.57,0.0,0.0,0.0,0.0,0.0,0.0,0.0,0.43069968,488.83002,0.0,0.0,0.0,0.0,0.0,0.0,inf,inf,inf,inf,1,1,1,1,0,0,0,0,1,1,0
2618528000,0,47.3977508,8.5456074,0.011119493,0.04516103,-2.553009,0.0,0.0,0.0,0.0,-0.01,-0.55,0.0,0.0,0.0,0.0,0.0,0.0,0.0,0.43098006,488.83002,0.0,0.0,0.0,0.0,0.0,0.0,inf,inf,inf,inf,1,1,1,1,0,0,0,0,1,1,0
2618628000,0,47.3977508,8.5456074,0.011119493,0.04516103,-2.6069946,0.0,0.0,0.0,0.0,-0.01,-0.53,0.0,0.0,0.0,0.0,0.0,0.0,0.0,0.43114975,488.83002,0.0,0.0,0.0,0.0,0.0,0.0,inf,inf,inf,inf,1,1,1,1,0,0,0,0,1,1,0
2618728000,0,47.3977508,8.5456074,0.011119493,0.037634194,-2.6600037,0.0,0.0,0.0,0.0,-0.01,-0.51,0.0,0.0,0.0,0.0,0.0,0.0,0.0,0.4311607,488.83002,0.0,0.0,0.0,0.0,0.0,0.0,inf,inf,inf,inf,1,1,1,1,0,0,0,0,1,1,0
2618824000,0,47.3977508,8.5456074,0.011119493,0.037634194,-2.7080078,0.0,0.0,0.0,0.0,-0.01,-0.48999998,0.0,0.0,0.0,0.0,0.0,0.0,0.0,0.43112138,488.83002,0.0,0.0,0.0,0.0,0.0,0.0,inf,inf,inf,inf,1,1,1,1,0,0,0,0,1,1,0
2618928000,0,47.3977508,8.5456074,0.011119493,0.037634194,-2.7579956,0.0,0.0,0.0,0.0,-0.01,-0.47,0.0,0.0,0.0,0.0,0.0,0.0,0.0,0.4310168,488.83002,0.0,0.0,0.0,0.0,0.0,0.0,inf,inf,inf,inf,1,1,1,1,0,0,0,0,1,1,0
2619028000,0,47.3977508,8.5456074,0.011119493,0.037634194,-2.804016,0.0,0.0,0.0,0.0,-0.01,-0.45,0.0,0.0,0.0,0.0,0.0,0.0,0.0,0.4309536,488.83002,0.0,0.0,0.0,0.0,0.0,0.0,inf,inf,inf,inf,1,1,1,1,0,0,0,0,1,1,0
2619128000,0,47.3977508,8.5456074,0.011119493,0.037634194,-2.848999,0.0,0.0,0.0,0.0,-0.01,-0.42999998,0.0,0.0,0.0,0.0,0.0,0.0,0.0,0.43092373,488.83002,0.0,0.0,0.0,0.0,0.0,0.0,inf,inf,inf,inf,1,1,1,1,0,0,0,0,1,1,0
2619228000,0,47.3977508,8.5456074,0.011119493,0.030107355,-2.8919983,0.0,0.0,0.0,0.0,-0.01,-0.41,0.0,0.0,0.0,0.0,0.0,0.0,0.0,0.43097273,488.83002,0.0,0.0,0.0,0.0,0.0,0.0,inf,inf,inf,inf,1,1,1,1,0,0,0,0,1,1,0
2619324000,0,47.3977508,8.5456074,0.011119493,0.030107355,-2.9309998,0.0,0.0,0.0,0.0,-0.01,-0.39999998,0.0,0.0,0.0,0.0,0.0,0.0,0.0,0.43101296,488.83002,0.0,0.0,0.0,0.0,0.0,0.0,inf,inf,inf,inf,1,1,1,1,0,0,0,0,1,1,0
2619428000,0,47.3977508,8.5456074,0.011119493,0.030107355,-2.9720154,0.0,0.0,0.0,0.0,-0.01,-0.38,0.0,0.0,0.0,0.0,0.0,0.0,0.0,0.4310842,488.83002,0.0,0.0,0.0,0.0,0.0,0.0,inf,inf,inf,inf,1,1,1,1,0,0,0,0,1,1,0
2619528000,0,47.3977508,8.5456074,0.011119493,0.030107355,-3.0100098,0.0,0.0,0.0,0.0,-0.01,-0.37,0.0,0.0,0.0,0.0,0.0,0.0,0.0,0.4312238,488.83002,0.0,0.0,0.0,0.0,0.0,0.0,inf,inf,inf,inf,1,1,1,1,0,0,0,0,1,1,0
2619628000,0,47.3977508,8.5456074,0.022238987,0.022580516,-3.0460205,0.0,0.0,0.0,0.0,-0.01,-0.35999998,0.0,0.0,0.0,0.0,0.0,0.0,0.0,0.43146217,488.83002,0.0,0.0,0.0,0.0,0.0,0.0,inf,inf,inf,inf,1,1,1,1,0,0,0,0,1,1,0
2619728000,0,47.3977508,8.5456074,0.022238987,0.022580516,-3.0830078,0.0,0.0,0.0,0.0,-0.01,-0.35,0.0,0.0,0.0,0.0,0.0,0.0,0.0,0.43166116,488.83002,0.0,0.0,0.0,0.0,0.0,0.0,inf,inf,inf,inf,1,1,1,1,0,0,0,0,1,1,0
2619828000,0,47.3977508,8.5456074,0.022238987,0.022580516,-3.1180115,0.0,0.0,0.0,0.0,-0.01,-0.34,0.0,0.0,0.0,0.0,0.0,0.0,0.0,0.4317805,488.83002,0.0,0.0,0.0,0.0,0.0,0.0,inf,inf,inf,inf,1,1,1,1,0,0,0,0,1,1,0
2619924000,0,47.3977508,8.5456074,0.022238987,0.022580516,-3.149994,0.0,0.0,0.0,0.0,-0.01,-0.32999998,0.0,0.0,0.0,0.0,0.0,0.0,0.0,0.43178105,488.83002,0.0,0.0,0.0,0.0,0.0,0.0,inf,inf,inf,inf,1,1,1,1,0,0,0,0,1,1,0
2620024000,0,47.3977508,8.5456074,0.022238987,0.022580516,-3.184021,0.0,0.0,0.0,0.0,-0.01,-0.32999998,0.0,0.0,0.0,0.0,0.0,0.0,0.0,0.43170118,488.83002,0.0,0.0,0.0,0.0,0.0,0.0,inf,inf,inf,inf,1,1,1,1,0,0,0,0,1,1,0
2620128000,0,47.3977508,8.5456074,0.022238987,0.022580516,-3.2170105,0.0,0.0,0.0,0.0,-0.01,-0.32,0.0,0.0,0.0,0.0,0.0,0.0,0.0,0.43171957,488.83002,0.0,0.0,0.0,0.0,0.0,0.0,inf,inf,inf,inf,1,1,1,1,0,0,0,0,1,1,0
2620224000,0,47.3977508,8.5456074,0.022238987,0.022580516,-3.248993,0.0,0.0,0.0,0.0,-0.01,-0.31,0.0,0.0,0.0,0.0,0.0,0.0,0.0,0.43169397,488.83002,0.0,0.0,0.0,0.0,0.0,0.0,inf,inf,inf,inf,1,1,1,1,0,0,0,0,1,1,0
2620328000,0,47.3977508,8.5456074,0.022238987,0.015053677,-3.2810059,0.0,0.0,0.0,0.0,-0.01,-0.29999998,0.0,0.0,0.0,0.0,0.0,0.0,0.0,0.4316925,488.83002,0.0,0.0,0.0,0.0,0.0,0.0,inf,inf,inf,inf,1,1,1,1,0,0,0,0,1,1,0
2620428000,0,47.3977508,8.5456074,0.022238987,0.015053677,-3.3110046,0.0,0.0,0.0,0.0,-0.01,-0.29,0.0,0.0,0.0,0.0,0.0,0.0,0.0,0.4316855,488.83002,0.0,0.0,0.0,0.0,0.0,0.0,inf,inf,inf,inf,1,1,1,1,0,0,0,0,1,1,0
2620528000,0,47.3977508,8.5456074,0.022238987,0.015053677,-3.3410034,0.0,0.0,0.0,0.0,0.0,-0.29,0.0,0.0,0.0,0.0,0.0,0.0,0.0,0.4317502,488.83002,0.0,0.0,0.0,0.0,0.0,0.0,inf,inf,inf,inf,1,1,1,1,0,0,0,0,1,1,0
2620624000,0,47.3977508,8.5456074,0.022238987,0.015053677,-3.3690186,0.0,0.0,0.0,0.0,0.0,-0.28,0.0,0.0,0.0,0.0,0.0,0.0,0.0,0.43189058,488.83002,0.0,0.0,0.0,0.0,0.0,0.0,inf,inf,inf,inf,1,1,1,1,0,0,0,0,1,1,0
2620728000,0,47.3977508,8.5456074,0.022238987,0.015053677,-3.3980103,0.0,0.0,0.0,0.0,0.0,-0.26999998,0.0,0.0,0.0,0.0,0.0,0.0,0.0,0.4320255,488.83002,0.0,0.0,0.0,0.0,0.0,0.0,inf,inf,inf,inf,1,1,1,1,0,0,0,0,1,1,0
2620824000,0,47.3977508,8.5456074,0.022238987,0.015053677,-3.4240112,0.0,0.0,0.0,0.0,0.0,-0.26999998,0.0,0.0,0.0,0.0,0.0,0.0,0.0,0.43202388,488.83002,0.0,0.0,0.0,0.0,0.0,0.0,inf,inf,inf,inf,1,1,1,1,0,0,0,0,1,1,0
2620924000,0,47.3977508,8.5456074,0.022238987,0.015053677,-3.4510193,0.0,0.0,0.0,0.0,0.0,-0.26,0.0,0.0,0.0,0.0,0.0,0.0,0.0,0.43210003,488.83002,0.0,0.0,0.0,0.0,0.0,0.0,inf,inf,inf,inf,1,1,1,1,0,0,0,0,1,1,0
2621024000,0,47.3977508,8.5456074,0.022238987,0.015053677,-3.4760132,0.0,0.0,0.0,0.0,0.0,-0.26,0.0,0.0,0.0,0.0,0.0,0.0,0.0,0.43203396,488.83002,0.0,0.0,0.0,0.0,0.0,0.0,inf,inf,inf,inf,1,1,1,1,0,0,0,0,1,1,0
2621128000,0,47.3977508,8.5456074,0.022238987,0.015053677,-3.5039978,0.0,0.0,0.0,0.0,0.0,-0.25,0.0,0.0,0.0,0.0,0.0,0.0,0.0,0.43190613,488.83002,0.0,0.0,0.0,0.0,0.0,0.0,inf,inf,inf,inf,1,1,1,1,0,0,0,0,1,1,0
2621224000,0,47.3977508,8.5456074,0.022238987,0.0075268387,-3.527008,0.0,0.0,0.0,0.0,0.0,-0.22,0.0,0.0,0.0,0.0,0.0,0.0,0.0,0.4327034,488.83002,0.0,0.0,0.0,0.0,0.0,0.0,inf,inf,inf,inf,1,1,1,1,0,0,0,0,1,1,0
2621328000,0,47.3977508,8.5456074,0.022238987,0.0075268387,-3.5500183,0.0,0.0,0.0,-0.01,0.0,-0.22,0.0,0.0,0.0,0.0,0.0,0.0,0.0,0.4433995,488.83002,0.0,0.0,0.0,0.0,0.0,0.0,inf,inf,inf,inf,1,1,1,1,0,0,0,0,1,1,0
2621428000,0,47.3977508,8.5456074,0.022238987,0.0075268387,-3.572998,0.0,0.0,0.0,-0.049999997,0.0,-0.22,0.0,0.0,0.0,0.0,0.0,0.0,0.0,0.46996897,488.83002,0.0,0.0,0.0,0.0,0.0,0.0,inf,inf,inf,inf,1,1,1,1,0,0,0,0,1,1,0
2621528000,0,47.3977508,8.5456074,0.011119493,0.0075268387,-3.5950012,0.0,0.0,0.0,-0.13,0.0,-0.22,0.0,0.0,0.0,0.0,0.0,0.0,0.0,0.5120092,488.83002,0.0,0.0,0.0,0.0,0.0,0.0,inf,inf,inf,inf,1,1,1,1,0,0,0,0,1,1,0
2621628000,0,47.3977508,8.5456074,-0.011119492,0.0075268387,-3.6180115,0.0,0.0,0.0,-0.28,0.01,-0.22,0.0,0.0,0.0,0.0,0.0,0.0,0.0,0.56653845,488.83002,0.0,0.0,0.0,0.0,0.0,0.0,inf,inf,inf,inf,1,1,1,1,0,0,0,0,1,1,0
2621724000,0,47.3977508,8.5456074,-0.04447797,0.015053677,-3.6400146,0.0,0.0,0.0,-0.45999998,0.02,-0.22,0.0,0.0,0.0,0.0,0.0,0.0,0.0,0.6277145,488.83002,0.0,0.0,0.0,0.0,0.0,0.0,inf,inf,inf,inf,1,1,1,1,0,0,0,0,1,1,0
2621828000,0,47.3977508,8.5456074,-0.11119492,0.015053677,-3.6620178,0.0,0.0,0.0,-0.69,0.03,-0.21,0.0,0.0,0.0,0.0,0.0,0.0,0.0,0.6992748,488.83002,0.0,0.0,0.0,0.0,0.0,0.0,inf,inf,inf,inf,1,1,1,1,0,0,0,0,1,1,0
2621928000,0,47.3977508,8.5456074,-0.18903138,0.022580517,-3.683014,0.0,0.0,0.0,-0.93,0.03,-0.19999999,0.0,0.0,0.0,0.0,0.0,0.0,0.0,0.77112615,488.83002,0.0,0.0,0.0,0.0,0.0,0.0,inf,inf,inf,inf,1,1,1,1,0,0,0,0,1,1,0
2622024000,0,47.3977508,8.5456074,-0.28910682,0.022580517,-3.7019958,0.0,0.0,0.0,-1.16,0.04,-0.17999999,0.0,0.0,0.0,0.0,0.0,0.0,0.0,0.84143,488.83002,0.0,0.0,0.0,0.0,0.0,0.0,inf,inf,inf,inf,1,1,1,1,0,0,0,0,1,1,0
2622128000,0,47.3977508,8.5456074,-0.4336602,0.030107357,-3.7200012,0.0,0.0,0.0,-1.41,0.049999997,-0.17,0.0,0.0,0.0,0.0,0.0,0.0,0.0,0.9188017,488.83002,0.0,0.0,0.0,0.0,0.0,0.0,inf,inf,inf,inf,1,1,1,1,0,0,0,0,1,1,0
2622228000,0,47.3977508,8.5456074,-0.57821363,0.037634198,-3.7369995,0.0,0.0,0.0,-1.64,0.06,-0.16,0.0,0.0,0.0,0.0,0.0,0.0,0.0,0.9940454,488.83002,0.0,0.0,0.0,0.0,0.0,0.0,inf,inf,inf,inf,1,1,1,1,0,0,0,0,1,1,0
2622328000,0,47.3977508,8.5456074,-0.7561255,0.037634198,-3.7530212,0.0,0.0,0.0,-1.86,0.07,-0.14999999,0.0,0.0,0.0,0.0,0.0,0.0,0.0,1.070436,488.83002,0.0,0.0,0.0,0.0,0.0,0.0,inf,inf,inf,inf,1,1,1,1,0,0,0,0,1,1,0
2622428000,0,47.3977508,8.5456074,-0.95627636,0.04516104,-3.7690125,0.0,0.0,0.0,-2.08,0.07,-0.14999999,0.0,0.0,0.0,0.0,0.0,0.0,0.0,1.1476656,488.83002,0.0,0.0,0.0,0.0,0.0,0.0,inf,inf,inf,inf,1,1,1,1,0,0,0,0,1,1,0
2622528000,0,47.3977508,8.5456074,-1.1786662,0.06021472,-3.78302,0.0,0.0,0.0,-2.28,0.08,-0.14,0.0,0.0,0.0,0.0,0.0,0.0,0.0,1.2254455,488.83002,0.0,0.0,0.0,0.0,0.0,0.0,inf,inf,inf,inf,1,1,1,1,0,0,0,0,1,1,0
2622624000,0,47.3977508,8.5456074,-1.4121755,0.067741565,-3.796997,0.0,0.0,0.0,-2.47,0.089999996,-0.13,0.0,0.0,0.0,0.0,0.0,0.0,0.0,1.3,488.83002,0.0,0.0,0.0,0.0,0.0,0.0,inf,inf,inf,inf,1,1,1,1,0,0,0,0,1,1,0
2622728000,0,47.3977508,8.5456074,-1.6790434,0.07526841,-3.8110046,0.0,0.0,0.0,-2.6599998,0.089999996,-0.13,0.0,0.0,0.0,0.0,0.0,0.0,0.0,1.3810498,488.83002,0.0,0.0,0.0,0.0,0.0,0.0,inf,inf,inf,inf,1,1,1,1,0,0,0,0,1,1,0
2622828000,0,47.3977508,8.5456074,-1.9570307,0.082795255,-3.8240051,0.0,0.0,0.0,-2.85,0.099999994,-0.12,0.0,0.0,0.0,0.0,0.0,0.0,0.0,1.4590459,488.83002,0.0,0.0,0.0,0.0,0.0,0.0,inf,inf,inf,inf,1,1,1,1,0,0,0,0,1,1,0
2622928000,0,47.3977508,8.5456074,-2.2461376,0.09784894,-3.8370056,0.0,0.0,0.0,-3.03,0.11,-0.12,0.0,0.0,0.0,0.0,0.0,0.0,0.0,1.5370747,488.83002,0.0,0.0,0.0,0.0,0.0,0.0,inf,inf,inf,inf,1,1,1,1,0,0,0,0,1,1,0
2623028000,0,47.3977508,8.5456074,-2.5574832,0.10537579,-3.847992,0.0,0.0,0.0,-3.1999998,0.11,-0.11,0.0,0.0,0.0,0.0,0.0,0.0,0.0,1.6148347,488.83002,0.0,0.0,0.0,0.0,0.0,0.0,inf,inf,inf,inf,1,1,1,1,0,0,0,0,1,1,0
2623128000,0,47.3977508,8.5456074,-2.8799486,0.12042948,-3.8600159,0.0,0.0,0.0,-3.3799999,0.12,-0.12,0.0,0.0,0.0,0.0,0.0,0.0,0.0,1.6927205,488.83002,0.0,0.0,0.0,0.0,0.0,0.0,inf,inf,inf,inf,1,1,1,1,0,0,0,0,1,1,0
2623228000,0,47.3977508,8.5456074,-3.2246528,0.13548318,-3.8720093,0.0,0.0,0.0,-3.55,0.13,-0.11,0.0,0.0,0.0,0.0,0.0,0.0,0.0,1.7706827,488.83002,0.0,0.0,0.0,0.0,0.0,0.0,inf,inf,inf,inf,1,1,1,1,0,0,0,0,1,1,0
2623328000,0,47.3977508,8.5456074,-3.6027157,0.14301002,-3.8829956,0.0,0.0,0.0,-3.73,0.13,-0.099999994,0.0,0.0,0.0,0.0,0.0,0.0,0.0,1.8493733,488.83002,0.0,0.0,0.0,0.0,0.0,0.0,inf,inf,inf,inf,1,1,1,1,0,0,0,0,1,1,0
2623428000,0,47.3977508,8.5456074,-3.9918978,0.15806372,-3.8919983,0.0,0.0,0.0,-3.8799999,0.14,-0.08,0.0,0.0,0.0,0.0,0.0,0.0,0.0,1.9297372,488.83002,0.0,0.0,0.0,0.0,0.0,0.0,inf,inf,inf,inf,1,1,1,1,0,0,0,0,1,1,0
2623524000,0,47.3977508,8.5456074,-4.369961,0.17311741,-3.899994,0.0,0.0,0.0,-4.0,0.14,-0.07,0.0,0.0,0.0,0.0,0.0,0.0,0.0,2.0084996,488.83002,0.0,0.0,0.0,0.0,0.0,0.0,inf,inf,inf,inf,1,1,1,1,0,0,0,0,1,1,0
2623624000,0,47.3977508,8.5456074,-4.759143,0.18817112,-3.9060059,0.0,0.0,0.0,-4.1,0.14,-0.06,0.0,0.0,0.0,0.0,0.0,0.0,0.0,2.091535,488.83002,0.0,0.0,0.0,0.0,0.0,0.0,inf,inf,inf,inf,1,1,1,1,0,0,0,0,1,1,0
2623728000,0,47.3977508,8.5456074,-5.2039227,0.20322482,-3.9129944,0.0,0.0,0.0,-4.15,0.14999999,-0.049999997,0.0,0.0,0.0,0.0,0.0,0.0,0.0,2.1781602,488.83002,0.0,0.0,0.0,0.0,0.0,0.0,inf,inf,inf,inf,1,1,1,1,0,0,0,0,1,1,0
2623828000,0,47.3977508,8.5456074,-5.6264634,0.21827853,-3.9179993,0.0,0.0,0.0,-4.18,0.14999999,-0.049999997,0.0,0.0,0.0,0.0,0.0,0.0,0.0,2.260346,488.83002,0.0,0.0,0.0,0.0,0.0,0.0,inf,inf,inf,inf,1,1,1,1,0,0,0,0,1,1,0
2623924000,0,47.3977508,8.5456074,-6.026765,0.23333225,-3.9240112,0.0,0.0,0.0,-4.18,0.14999999,-0.06,0.0,0.0,0.0,0.0,0.0,0.0,0.0,2.3377173,488.83002,0.0,0.0,0.0,0.0,0.0,0.0,inf,inf,inf,inf,1,1,1,1,0,0,0,0,1,1,0
2624024000,0,47.3977508,8.5456074,-6.4493055,0.24838595,-3.9299927,0.0,0.0,0.0,-4.18,0.14999999,-0.06,0.0,0.0,0.0,0.0,0.0,0.0,0.0,2.416831,488.83002,0.0,0.0,0.0,0.0,0.0,0.0,inf,inf,inf,inf,1,1,1,1,0,0,0,0,1,1,0
2624128000,0,47.3977508,8.5456074,-6.882966,0.26343966,-3.9360046,0.0,0.0,0.0,-4.18,0.14999999,-0.049999997,0.0,0.0,0.0,0.0,0.0,0.0,0.0,2.498617,488.83002,0.0,0.0,0.0,0.0,0.0,0.0,inf,inf,inf,inf,1,1,1,1,0,0,0,0,1,1,0
2624228000,0,47.3977508,8.5456074,-7.3055067,0.27849337,-3.9420166,0.0,0.0,0.0,-4.18,0.14999999,-0.049999997,0.0,0.0,0.0,0.0,0.0,0.0,0.0,2.5774384,488.83002,0.0,0.0,0.0,0.0,0.0,0.0,inf,inf,inf,inf,1,1,1,1,0,0,0,0,1,1,0
2624328000,0,47.3977508,8.5456074,-7.7280474,0.2935471,-3.947998,0.0,0.0,0.0,-4.19,0.14999999,-0.049999997,0.0,0.0,0.0,0.0,0.0,0.0,0.0,2.657036,488.83002,0.0,0.0,0.0,0.0,0.0,0.0,inf,inf,inf,inf,1,1,1,1,0,0,0,0,1,1,0
2624428000,0,47.3977508,8.5456074,-8.128349,0.3086008,-3.953003,0.0,0.0,0.0,-4.2,0.14,-0.049999997,0.0,0.0,0.0,0.0,0.0,0.0,0.0,2.737008,488.83002,0.0,0.0,0.0,0.0,0.0,0.0,inf,inf,inf,inf,1,1,1,1,0,0,0,0,1,1,0
2624528000,0,47.3977508,8.5456074,-8.573129,0.32365453,-3.959015,0.0,0.0,0.0,-4.2,0.14,-0.06,0.0,0.0,0.0,0.0,0.0,0.0,0.0,2.8164747,488.83002,0.0,0.0,0.0,0.0,0.0,0.0,inf,inf,inf,inf,1,1,1,1,0,0,0,0,1,1,0
2624624000,0,47.3977508,8.5456074,-8.973431,0.33870825,-3.9649963,0.0,0.0,0.0,-4.21,0.14,-0.06,0.0,0.0,0.0,0.0,0.0,0.0,0.0,2.8919168,488.83002,0.0,0.0,0.0,0.0,0.0,0.0,inf,inf,inf,inf,1,1,1,1,0,0,0,0,1,1,0
2624724000,0,47.3977508,8.5456074,-9.395971,0.35376197,-3.9710083,0.0,0.0,0.0,-4.22,0.14,-0.06,0.0,0.0,0.0,0.0,0.0,0.0,0.0,2.9603155,488.83002,0.0,0.0,0.0,0.0,0.0,0.0,inf,inf,inf,inf,1,1,1,1,0,0,0,0,1,1,0
2624828000,0,47.3977508,8.5456074,-9.840751,0.36881572,-3.9779968,0.0,0.0,0.0,-4.24,0.14,-0.049999997,0.0,0.0,0.0,0.0,0.0,0.0,0.0,3.0136428,488.83002,0.0,0.0,0.0,0.0,0.0,0.0,inf,inf,inf,inf,1,1,1,1,0,0,0,0,1,1,0
2624928000,0,47.3977508,8.5456074,-10.263291,0.38386944,-3.9830017,0.0,0.0,0.0,-4.25,0.14,-0.049999997,0.0,0.0,0.0,0.0,0.0,0.0,0.0,3.0501106,488.83002,0.0,0.0,0.0,0.0,0.0,0.0,inf,inf,inf,inf,1,1,1,1,0,0,0,0,1,1,0
2625024000,0,47.3977508,8.5456074,-10.674713,0.3989232,-3.9880066,0.0,0.0,0.0,-4.27,0.14,-0.049999997,0.0,0.0,0.0,0.0,0.0,0.0,0.0,3.0758073,488.83002,0.0,0.0,0.0,0.0,0.0,0.0,inf,inf,inf,inf,1,1,1,1,0,0,0,0,1,1,0
2625128000,0,47.3977508,8.5456074,-11.119493,0.4139769,-3.9930115,0.0,0.0,0.0,-4.29,0.14,-0.04,0.0,0.0,0.0,0.0,0.0,0.0,0.0,3.0959556,488.83002,0.0,0.0,0.0,0.0,0.0,0.0,inf,inf,inf,inf,1,1,1,1,0,0,0,0,1,1,0
2625224000,0,47.3977508,8.5456074,-11.519794,0.42903066,-3.9980164,0.0,0.0,0.0,-4.2999997,0.13,-0.04,0.0,0.0,0.0,0.0,0.0,0.0,0.0,3.1088707,488.83002,0.0,0.0,0.0,0.0,0.0,0.0,inf,inf,inf,inf,1,1,1,1,0,0,0,0,1,1,0
2625328000,0,47.3977508,8.5456074,-11.986814,0.44408438,-4.0030212,0.0,0.0,0.0,-4.31,0.13,-0.04,0.0,0.0,0.0,0.0,0.0,0.0,0.0,3.1184433,488.83002,0.0,0.0,0.0,0.0,0.0,0.0,inf,inf,inf,inf,1,1,1,1,0,0,0,0,1,1,0
2625424000,0,47.3977508,8.5456074,-12.398234,0.45913813,-4.007019,0.0,0.0,0.0,-4.3199997,0.13,-0.04,0.0,0.0,0.0,0.0,0.0,0.0,0.0,3.1243186,488.83002,0.0,0.0,0.0,0.0,0.0,0.0,inf,inf,inf,inf,1,1,1,1,0,0,0,0,1,1,0
2625528000,0,47.3977508,8.5456074,-12.854134,0.47419187,-4.0119934,0.0,0.0,0.0,-4.33,0.13,-0.04,0.0,0.0,0.0,0.0,0.0,0.0,0.0,3.128356,488.83002,0.0,0.0,0.0,0.0,0.0,0.0,inf,inf,inf,inf,1,1,1,1,0,0,0,0,1,1,0
2625628000,0,47.3977508,8.5456074,-13.287794,0.48171878,-4.015991,0.0,0.0,0.0,-4.3399997,0.13,-0.04,0.0,0.0,0.0,0.0,0.0,0.0,0.0,3.130895,488.83002,0.0,0.0,0.0,0.0,0.0,0.0,inf,inf,inf,inf,1,1,1,1,0,0,0,0,1,1,0
2625728000,0,47.3977508,8.5456074,-13.721454,0.49677253,-4.0200195,0.0,0.0,0.0,-4.3399997,0.13,-0.03,0.0,0.0,0.0,0.0,0.0,0.0,0.0,3.132171,488.83002,0.0,0.0,0.0,0.0,0.0,0.0,inf,inf,inf,inf,1,1,1,1,0,0,0,0,1,1,0
2625828000,0,47.3977508,8.5456074,-14.166234,0.5118263,-4.0230103,0.0,0.0,0.0,-4.35,0.12,-0.03,0.0,0.0,0.0,0.0,0.0,0.0,0.0,3.1326942,488.83002,0.0,0.0,0.0,0.0,0.0,0.0,inf,inf,inf,inf,1,1,1,1,0,0,0,0,1,1,0
2625928000,0,47.3977508,8.5456074,-14.599894,0.51935315,-4.027008,0.0,0.0,0.0,-4.36,0.12,-0.03,0.0,0.0,0.0,0.0,0.0,0.0,0.0,3.13271,488.83002,0.0,0.0,0.0,0.0,0.0,0.0,inf,inf,inf,inf,1,1,1,1,0,0,0,0,1,1,0
2626024000,0,47.3977508,8.5456074,-15.022434,0.5344069,-4.0289917,0.0,0.0,0.0,-4.36,0.12,-0.02,0.0,0.0,0.0,0.0,0.0,0.0,0.0,3.1320577,488.83002,0.0,0.0,0.0,0.0,0.0,0.0,inf,inf,inf,inf,1,1,1,1,0,0,0,0,1,1,0
2626128000,0,47.3977508,8.5456074,-15.478333,0.54946065,-4.032013,0.0,0.0,0.0,-4.36,0.13,-0.02,0.0,0.0,0.0,0.0,0.0,0.0,0.0,3.1310976,488.83002,0.0,0.0,0.0,0.0,0.0,0.0,inf,inf,inf,inf,1,1,1,1,0,0,0,0,1,1,0
2626228000,0,47.3977508,8.5456074,-15.911994,0.56451446,-4.0339966,0.0,0.0,0.0,-4.37,0.13,-0.02,0.0,0.0,0.0,0.0,0.0,0.0,0.0,3.1301355,488.83002,0.0,0.0,0.0,0.0,0.0,0.0,inf,inf,inf,inf,1,1,1,1,0,0,0,0,1,1,0
2626328000,0,47.3977508,8.5456074,-16.356773,0.57204133,-4.0360107,0.0,0.0,0.0,-4.37,0.13,-0.01,0.0,0.0,0.0,0.0,0.0,0.0,0.0,3.1291375,488.83002,0.0,0.0,0.0,0.0,0.0,0.0,inf,inf,inf,inf,1,1,1,1,0,0,0,0,1,1,0
2626428000,0,47.3977508,8.5456074,-16.790434,0.5870951,-4.0379944,0.0,0.0,0.0,-4.38,0.13,-0.01,0.0,0.0,0.0,0.0,0.0,0.0,0.0,3.127904,488.83002,0.0,0.0,0.0,0.0,0.0,0.0,inf,inf,inf,inf,1,1,1,1,0,0,0,0,1,1,0
2626528000,0,47.3977508,8.5456074,-17.235214,0.6021489,-4.0400085,0.0,0.0,0.0,-4.38,0.13,-0.01,0.0,0.0,0.0,0.0,0.0,0.0,0.0,3.126582,488.83002,0.0,0.0,0.0,0.0,0.0,0.0,inf,inf,inf,inf,1,1,1,1,0,0,0,0,1,1,0
2626628000,0,47.3977508,8.5456074,-17.668875,0.61720264,-4.0410156,0.0,0.0,0.0,-4.38,0.14,-0.01,0.0,0.0,0.0,0.0,0.0,0.0,0.0,3.125387,488.83002,0.0,0.0,0.0,0.0,0.0,0.0,inf,inf,inf,inf,1,1,1,1,0,0,0,0,1,1,0
2626724000,0,47.3977508,8.5456074,-18.091415,0.6322564,-4.0429993,0.0,0.0,0.0,-4.39,0.14,-0.01,0.0,0.0,0.0,0.0,0.0,0.0,0.0,3.124364,488.83002,0.0,0.0,0.0,0.0,0.0,0.0,inf,inf,inf,inf,1,1,1,1,0,0,0,0,1,1,0
2626828000,0,47.3977508,8.5456074,-18.547314,0.6473102,-4.0440063,0.0,0.0,0.0,-4.39,0.14,-0.01,0.0,0.0,0.0,0.0,0.0,0.0,0.0,3.1233451,488.83002,0.0,0.0,0.0,0.0,0.0,0.0,inf,inf,inf,inf,1,1,1,1,0,0,0,0,1,1,0
2626924000,0,47.3977508,8.5456074,-18.958735,0.6548371,-4.0450134,0.0,0.0,0.0,-4.4,0.14,0.0,0.0,0.0,0.0,0.0,0.0,0.0,0.0,3.1224518,488.83002,0.0,0.0,0.0,0.0,0.0,0.0,inf,inf,inf,inf,1,1,1,1,0,0,0,0,1,1,0
2627024000,0,47.3977508,8.5456074,-19.403515,0.6698909,-4.0460205,0.0,0.0,0.0,-4.4,0.14,0.0,0.0,0.0,0.0,0.0,0.0,0.0,0.0,3.121479,488.83002,0.0,0.0,0.0,0.0,0.0,0.0,inf,inf,inf,inf,1,1,1,1,0,0,0,0,1,1,0
2627128000,0,47.3977508,8.5456074,-19.881653,0.6849446,-4.0460205,0.0,0.0,0.0,-4.41,0.14,0.0,0.0,0.0,0.0,0.0,0.0,0.0,0.0,3.1204004,488.83002,0.0,0.0,0.0,0.0,0.0,0.0,inf,inf,inf,inf,1,1,1,1,0,0,0,0,1,1,0
2627228000,0,47.3977508,8.5456074,-20.315313,0.69999844,-4.046997,0.0,0.0,0.0,-4.41,0.14,0.0,0.0,0.0,0.0,0.0,0.0,0.0,0.0,3.1194901,488.83002,0.0,0.0,0.0,0.0,0.0,0.0,inf,inf,inf,inf,1,1,1,1,0,0,0,0,1,1,0
2627328000,0,47.3977508,8.5456074,-20.760094,0.7150522,-4.048004,0.0,0.0,0.0,-4.41,0.14999999,0.0,0.0,0.0,0.0,0.0,0.0,0.0,0.0,3.1184516,488.83002,0.0,0.0,0.0,0.0,0.0,0.0,inf,inf,inf,inf,1,1,1,1,0,0,0,0,1,1,0
2627428000,0,47.3977508,8.5456074,-21.193752,0.730106,-4.048004,0.0,0.0,0.0,-4.42,0.14999999,0.0,0.0,0.0,0.0,0.0,0.0,0.0,0.0,3.1176772,488.83002,0.0,0.0,0.0,0.0,0.0,0.0,inf,inf,inf,inf,1,1,1,1,0,0,0,0,1,1,0
2627524000,0,47.3977508,8.5456074,-21.627413,0.7451598,-4.049011,0.0,0.0,0.0,-4.42,0.14999999,0.0,0.0,0.0,0.0,0.0,0.0,0.0,0.0,3.1169708,488.83002,0.0,0.0,0.0,0.0,0.0,0.0,inf,inf,inf,inf,1,1,1,1,0,0,0,0,1,1,0
2627628000,0,47.3977508,8.5456074,-22.09443,0.7677404,-4.049011,0.0,0.0,0.0,-4.42,0.14999999,0.0,0.0,0.0,0.0,0.0,0.0,0.0,0.0,3.1161437,488.83002,0.0,0.0,0.0,0.0,0.0,0.0,inf,inf,inf,inf,1,1,1,1,0,0,0,0,1,1,0
2627728000,0,47.3977508,8.5456074,-22.539211,0.78279424,-4.0500183,0.0,0.0,0.0,-4.42,0.14999999,0.0,0.0,0.0,0.0,0.0,0.0,0.0,0.0,3.1151173,488.83002,0.0,0.0,0.0,0.0,0.0,0.0,inf,inf,inf,inf,1,1,1,1,0,0,0,0,1,1,0
2627824000,0,47.3977508,8.5456074,-22.950632,0.79784805,-4.0500183,0.0,0.0,0.0,-4.42,0.14999999,0.0,0.0,0.0,0.0,0.0,0.0,0.0,0.0,3.1141915,488.83002,0.0,0.0,0.0,0.0,0.0,0.0,inf,inf,inf,inf,1,1,1,1,0,0,0,0,1,1,0
2627928000,0,47.3977508,8.5456074,-23.42877,0.81290185,-4.0500183,0.0,0.0,0.0,-4.42,0.14999999,0.0,0.0,0.0,0.0,0.0,0.0,0.0,0.0,3.1134439,488.83002,0.0,0.0,0.0,0.0,0.0,0.0,inf,inf,inf,inf,1,1,1,1,0,0,0,0,1,1,0
2628028000,0,47.3977508,8.5456074,-23.87355,0.8279556,-4.0500183,0.0,0.0,0.0,-4.43,0.16,0.0,0.0,0.0,0.0,0.0,0.0,0.0,0.0,3.112921,488.83002,0.0,0.0,0.0,0.0,0.0,0.0,inf,inf,inf,inf,1,1,1,1,0,0,0,0,1,1,0
2628128000,0,47.3977508,8.5456074,-24.31833,0.8430094,-4.050995,0.0,0.0,0.0,-4.43,0.16,0.0,0.0,0.0,0.0,0.0,0.0,0.0,0.0,3.1124256,488.83002,0.0,0.0,0.0,0.0,0.0,0.0,inf,inf,inf,inf,1,1,1,1,0,0,0,0,1,1,0
2628228000,0,47.3977508,8.5456074,-24.76311,0.8580632,-4.050995,0.0,0.0,0.0,-4.43,0.16,0.0,0.0,0.0,0.0,0.0,0.0,0.0,0.0,3.1119912,488.83002,0.0,0.0,0.0,0.0,0.0,0.0,inf,inf,inf,inf,1,1,1,1,0,0,0,0,1,1,0
2628324000,0,47.3977508,8.5456074,-25.18565,0.873117,-4.050995,0.0,0.0,0.0,-4.43,0.16,0.0,0.0,0.0,0.0,0.0,0.0,0.0,0.0,3.1115987,488.83002,0.0,0.0,0.0,0.0,0.0,0.0,inf,inf,inf,inf,1,1,1,1,0,0,0,0,1,1,0
2628428000,0,47.3977508,8.5456074,-25.65267,0.8956977,-4.050995,0.0,0.0,0.0,-4.43,0.16,0.0,0.0,0.0,0.0,0.0,0.0,0.0,0.0,3.1112068,488.83002,0.0,0.0,0.0,0.0,0.0,0.0,inf,inf,inf,inf,1,1,1,1,0,0,0,0,1,1,0
2628524000,0,47.3977508,8.5456074,-26.07521,0.9107515,-4.050995,0.0,0.0,0.0,-4.44,0.16,0.0,0.0,0.0,0.0,0.0,0.0,0.0,0.0,3.110837,488.83002,0.0,0.0,0.0,0.0,0.0,0.0,inf,inf,inf,inf,1,1,1,1,0,0,0,0,1,1,0
2628628000,0,47.3977508,8.5456074,-26.542229,0.92580533,-4.0500183,0.0,0.0,0.0,-4.44,0.17,0.0,0.0,0.0,0.0,0.0,0.0,0.0,0.0,3.1104639,488.83002,0.0,0.0,0.0,0.0,0.0,0.0,inf,inf,inf,inf,1,1,1,1,0,0,0,0,1,1,0
2628724000,0,47.3977508,8.5456074,-26.96477,0.94085914,-4.050995,0.0,0.0,0.0,-4.44,0.17,0.0,0.0,0.0,0.0,0.0,0.0,0.0,0.0,3.110105,488.83002,0.0,0.0,0.0,0.0,0.0,0.0,inf,inf,inf,inf,1,1,1,1,0,0,0,0,1,1,0
2628824000,0,47.3977508,8.5456074,-27.40955,0.9634399,-4.050995,0.0,0.0,0.0,-4.44,0.17,0.0,0.0,0.0,0.0,0.0,0.0,0.0,0.0,3.1096947,488.83002,0.0,0.0,0.0,0.0,0.0,0.0,inf,inf,inf,inf,1,1,1,1,0,0,0,0,1,1,0
2628928000,0,47.3977508,8.5456074,-27.876568,0.9784937,-4.0500183,0.0,0.0,0.0,-4.45,0.17,0.0,0.0,0.0,0.0,0.0,0.0,0.0,0.0,3.109201,488.83002,0.0,0.0,0.0,0.0,0.0,0.0,inf,inf,inf,inf,1,1,1,1,0,0,0,0,1,1,0
2629028000,0,47.3977508,8.5456074,-28.321348,1.0010744,-4.0500183,0.0,0.0,0.0,-4.45,0.17,0.0,0.0,0.0,0.0,0.0,0.0,0.0,0.0,3.1090336,488.83002,0.0,0.0,0.0,0.0,0.0,0.0,inf,inf,inf,inf,1,1,1,1,0,0,0,0,1,1,0
2629128000,0,47.3977508,8.5456074,-28.766127,1.0161282,-4.0500183,0.0,0.0,0.0,-4.45,0.17,0.0,0.0,0.0,0.0,0.0,0.0,0.0,0.0,3.1086447,488.83002,0.0,0.0,0.0,0.0,0.0,0.0,inf,inf,inf,inf,1,1,1,1,0,0,0,0,1,1,0
2629228000,0,47.3977508,8.5456074,-29.222027,1.031182,-4.0500183,0.0,0.0,0.0,-4.45,0.17,0.0,0.0,0.0,0.0,0.0,0.0,0.0,0.0,3.1083493,488.83002,0.0,0.0,0.0,0.0,0.0,0.0,inf,inf,inf,inf,1,1,1,1,0,0,0,0,1,1,0
2629324000,0,47.3977508,8.5456074,-29.644567,1.0537628,-4.049011,0.0,0.0,0.0,-4.46,0.17,0.0,0.0,0.0,0.0,0.0,0.0,0.0,0.0,3.1079934,488.83002,0.0,0.0,0.0,0.0,0.0,0.0,inf,inf,inf,inf,1,1,1,1,0,0,0,0,1,1,0
2629428000,0,47.3977508,8.5456074,-30.111586,1.0688165,-4.048004,0.0,0.0,0.0,-4.46,0.17,0.0,0.0,0.0,0.0,0.0,0.0,0.0,0.0,3.1075118,488.83002,0.0,0.0,0.0,0.0,0.0,0.0,inf,inf,inf,inf,1,1,1,1,0,0,0,0,1,1,0
2629528000,0,47.3977508,8.5456074,-30.567486,1.0913973,-4.046997,0.0,0.0,0.0,-4.47,0.17,0.0,0.0,0.0,0.0,0.0,0.0,0.0,0.0,3.107181,488.83002,0.0,0.0,0.0,0.0,0.0,0.0,inf,inf,inf,inf,1,1,1,1,0,0,0,0,1,1,0
2629624000,0,47.3977508,8.5456074,-30.990026,1.1064512,-4.046997,0.0,0.0,0.0,-4.47,0.17,0.0,0.0,0.0,0.0,0.0,0.0,0.0,0.0,3.1070766,488.83002,0.0,0.0,0.0,0.0,0.0,0.0,inf,inf,inf,inf,1,1,1,1,0,0,0,0,1,1,0
2629728000,0,47.3977508,8.5456074,-31.445925,1.121505,-4.0460205,0.0,0.0,0.0,-4.48,0.17,0.0,0.0,0.0,0.0,0.0,0.0,0.0,0.0,3.1070507,488.83002,0.0,0.0,0.0,0.0,0.0,0.0,inf,inf,inf,inf,1,1,1,1,0,0,0,0,1,1,0
2629828000,0,47.3977508,8.5456074,-31.912943,1.1365589,-4.0450134,0.0,0.0,0.0,-4.49,0.17,0.01,0.0,0.0,0.0,0.0,0.0,0.0,0.0,3.1068919,488.83002,0.0,0.0,0.0,0.0,0.0,0.0,inf,inf,inf,inf,1,1,1,1,0,0,0,0,1,1,0
2629924000,0,47.3977508,8.5456074,-32.346603,1.1591395,-4.0429993,0.0,0.0,0.0,-4.5099998,0.17,0.01,0.0,0.0,0.0,0.0,0.0,0.0,0.0,3.1067839,488.83002,0.0,0.0,0.0,0.0,0.0,0.0,inf,inf,inf,inf,1,1,1,1,0,0,0,0,1,1,0
2630028000,0,47.3977508,8.5456074,-32.81362,1.1741934,-4.0410156,0.0,0.0,0.0,-4.52,0.16,0.01,0.0,0.0,0.0,0.0,0.0,0.0,0.0,3.1066573,488.83002,0.0,0.0,0.0,0.0,0.0,0.0,inf,inf,inf,inf,1,1,1,1,0,0,0,0,1,1,0
2630128000,0,47.3977508,8.5456074,-33.269524,1.1892473,-4.0390015,0.0,0.0,0.0,-4.5299997,0.16,0.01,0.0,0.0,0.0,0.0,0.0,0.0,0.0,3.1066115,488.83002,0.0,0.0,0.0,0.0,0.0,0.0,inf,inf,inf,inf,1,1,1,1,0,0,0,0,1,1,0
2630228000,0,47.3977508,8.5456074,-33.72542,1.211828,-4.037018,0.0,0.0,0.0,-4.54,0.16,0.02,0.0,0.0,0.0,0.0,0.0,0.0,0.0,3.1065593,488.83002,0.0,0.0,0.0,0.0,0.0,0.0,inf,inf,inf,inf,1,1,1,1,0,0,0,0,1,1,0
2630328000,0,47.3977508,8.5456074,-34.18132,1.2268819,-4.0350037,0.0,0.0,0.0,-4.5499997,0.17,0.02,0.0,0.0,0.0,0.0,0.0,0.0,0.0,3.106354,488.83002,0.0,0.0,0.0,0.0,0.0,0.0,inf,inf,inf,inf,1,1,1,1,0,0,0,0,1,1,0
2630428000,0,47.3977508,8.5456074,-34.63722,1.2419357,-4.03302,0.0,0.0,0.0,-4.56,0.17,0.02,0.0,0.0,0.0,0.0,0.0,0.0,0.0,3.106095,488.83002,0.0,0.0,0.0,0.0,0.0,0.0,inf,inf,inf,inf,1,1,1,1,0,0,0,0,1,1,0
2630528000,0,47.3977508,8.5456074,-35.082,1.2569896,-4.031006,0.0,0.0,0.0,-4.5699997,0.17,0.02,0.0,0.0,0.0,0.0,0.0,0.0,0.0,3.1059651,488.83002,0.0,0.0,0.0,0.0,0.0,0.0,inf,inf,inf,inf,1,1,1,1,0,0,0,0,1,1,0
2630628000,0,47.3977508,8.5456074,-35.56014,1.2795703,-4.0289917,0.0,0.0,0.0,-4.5699997,0.17,0.01,0.0,0.0,0.0,0.0,0.0,0.0,0.0,3.1059215,488.83002,0.0,0.0,0.0,0.0,0.0,0.0,inf,inf,inf,inf,1,1,1,1,0,0,0,0,1,1,0
2630728000,0,47.3977508,8.5456074,-36.016037,1.2946242,-4.027008,0.0,0.0,0.0,-4.5699997,0.17,0.01,0.0,0.0,0.0,0.0,0.0,0.0,0.0,3.1058445,488.83002,0.0,0.0,0.0,0.0,0.0,0.0,inf,inf,inf,inf,1,1,1,1,0,0,0,0,1,1,0
2630824000,0,47.3977508,8.5456074,-36.460815,1.3096781,-4.026001,0.0,0.0,0.0,-4.58,0.17,0.01,0.0,0.0,0.0,0.0,0.0,0.0,0.0,3.105873,488.83002,0.0,0.0,0.0,0.0,0.0,0.0,inf,inf,inf,inf,1,1,1,1,0,0,0,0,1,1,0
2630928000,0,47.3977508,8.5456074,-36.916714,1.324732,-4.024994,0.0,0.0,0.0,-4.58,0.17,0.01,0.0,0.0,0.0,0.0,0.0,0.0,0.0,3.1058643,488.83002,0.0,0.0,0.0,0.0,0.0,0.0,inf,inf,inf,inf,1,1,1,1,0,0,0,0,1,1,0
2631028000,0,47.3977508,8.5456074,-37.394855,1.3473127,-4.0230103,0.0,0.0,0.0,-4.5899997,0.17,0.01,0.0,0.0,0.0,0.0,0.0,0.0,0.0,3.1058788,488.83002,0.0,0.0,0.0,0.0,0.0,0.0,inf,inf,inf,inf,1,1,1,1,0,0,0,0,1,1,0
2631124000,0,47.3977508,8.5456074,-37.839634,1.3623666,-4.022003,0.0,0.0,0.0,-4.5899997,0.17,0.01,0.0,0.0,0.0,0.0,0.0,0.0,0.0,3.1057649,488.83002,0.0,0.0,0.0,0.0,0.0,0.0,inf,inf,inf,inf,1,1,1,1,0,0,0,0,1,1,0
2631228000,0,47.3977508,8.5456074,-38.317772,1.3774205,-4.020996,0.0,0.0,0.0,-4.5899997,0.17,0.01,0.0,0.0,0.0,0.0,0.0,0.0,0.0,3.1055887,488.83002,0.0,0.0,0.0,0.0,0.0,0.0,inf,inf,inf,inf,1,1,1,1,0,0,0,0,1,1,0
2631324000,0,47.3977508,8.5456074,-38.76255,1.4000013,-4.0190125,0.0,0.0,0.0,-4.6,0.17,0.01,0.0,0.0,0.0,0.0,0.0,0.0,0.0,3.1054628,488.83002,0.0,0.0,0.0,0.0,0.0,0.0,inf,inf,inf,inf,1,1,1,1,0,0,0,0,1,1,0
2631428000,0,47.3977508,8.5456074,-39.24069,1.4150552,-4.0180054,0.0,0.0,0.0,-4.6,0.17,0.01,0.0,0.0,0.0,0.0,0.0,0.0,0.0,3.1053562,488.83002,0.0,0.0,0.0,0.0,0.0,0.0,inf,inf,inf,inf,1,1,1,1,0,0,0,0,1,1,0
2631524000,0,47.3977508,8.5456074,-39.68547,1.430109,-4.015991,0.0,0.0,0.0,-4.6,0.17,0.01,0.0,0.0,0.0,0.0,0.0,0.0,0.0,3.1054296,488.83002,0.0,0.0,0.0,0.0,0.0,0.0,inf,inf,inf,inf,1,1,1,1,0,0,0,0,1,1,0
2631628000,0,47.3977508,8.5456074,-40.16361,1.4526898,-4.0150146,0.0,0.0,0.0,-4.6,0.17,0.01,0.0,0.0,0.0,0.0,0.0,0.0,0.0,3.105583,488.83002,0.0,0.0,0.0,0.0,0.0,0.0,inf,inf,inf,inf,1,1,1,1,0,0,0,0,1,1,0
2631728000,0,47.3977508,8.5456074,-40.619507,1.4677438,-4.0130005,0.0,0.0,0.0,-4.6,0.17,0.01,0.0,0.0,0.0,0.0,0.0,0.0,0.0,3.1056516,488.83002,0.0,0.0,0.0,0.0,0.0,0.0,inf,inf,inf,inf,1,1,1,1,0,0,0,0,1,1,0
2631828000,0,47.3977508,8.5456074,-41.064285,1.4827976,-4.011017,0.0,0.0,0.0,-4.61,0.17,0.01,0.0,0.0,0.0,0.0,0.0,0.0,0.0,3.1054099,488.83002,0.0,0.0,0.0,0.0,0.0,0.0,inf,inf,inf,inf,1,1,1,1,0,0,0,0,1,1,0
2631928000,0,47.3977508,8.5456074,-41.553543,1.5053784,-4.01001,0.0,0.0,0.0,-4.61,0.17,0.01,0.0,0.0,0.0,0.0,0.0,0.0,0.0,3.1052265,488.83002,0.0,0.0,0.0,0.0,0.0,0.0,inf,inf,inf,inf,1,1,1,1,0,0,0,0,1,1,0
2632028000,0,47.3977508,8.5456074,-42.00944,1.5204324,-4.0090027,0.0,0.0,0.0,-4.61,0.17,0.01,0.0,0.0,0.0,0.0,0.0,0.0,0.0,3.1050935,488.83002,0.0,0.0,0.0,0.0,0.0,0.0,inf,inf,inf,inf,1,1,1,1,0,0,0,0,1,1,0
2632124000,0,47.3977508,8.5456074,-42.454224,1.5354862,-4.007019,0.0,0.0,0.0,-4.61,0.17,0.01,0.0,0.0,0.0,0.0,0.0,0.0,0.0,3.105178,488.83002,0.0,0.0,0.0,0.0,0.0,0.0,inf,inf,inf,inf,1,1,1,1,0,0,0,0,1,1,0
2632228000,0,47.3977508,8.5456074,-42.93236,1.5580671,-4.006012,0.0,0.0,0.0,-4.61,0.17,0.01,0.0,0.0,0.0,0.0,0.0,0.0,0.0,3.1053286,488.83002,0.0,0.0,0.0,0.0,0.0,0.0,inf,inf,inf,inf,1,1,1,1,0,0,0,0,1,1,0
2632328000,0,47.3977508,8.5456074,-43.39938,1.573121,-4.003998,0.0,0.0,0.0,-4.62,0.17,0.01,0.0,0.0,0.0,0.0,0.0,0.0,0.0,3.1055713,488.83002,0.0,0.0,0.0,0.0,0.0,0.0,inf,inf,inf,inf,1,1,1,1,0,0,0,0,1,1,0
2632428000,0,47.3977508,8.5456074,-43.866398,1.5881748,-4.002014,0.0,0.0,0.0,-4.62,0.17,0.02,0.0,0.0,0.0,0.0,0.0,0.0,0.0,3.1056976,488.83002,0.0,0.0,0.0,0.0,0.0,0.0,inf,inf,inf,inf,1,1,1,1,0,0,0,0,1,1,0
2632528000,0,47.3977508,8.5456074,-44.322296,1.6032288,-4.0,0.0,0.0,0.0,-4.62,0.17,0.01,0.0,0.0,0.0,0.0,0.0,0.0,0.0,3.105445,488.83002,0.0,0.0,0.0,0.0,0.0,0.0,inf,inf,inf,inf,1,1,1,1,0,0,0,0,1,1,0
2632628000,0,47.3977508,8.5456074,-44.7782,1.6258096,-3.998993,0.0,0.0,0.0,-4.62,0.17,0.01,0.0,0.0,0.0,0.0,0.0,0.0,0.0,3.1054165,488.83002,0.0,0.0,0.0,0.0,0.0,0.0,inf,inf,inf,inf,1,1,1,1,0,0,0,0,1,1,0
2632728000,0,47.3977508,8.5456074,-45.256336,1.6408635,-3.9970093,0.0,0.0,0.0,-4.62,0.17,0.01,0.0,0.0,0.0,0.0,0.0,0.0,0.0,3.1053567,488.83002,0.0,0.0,0.0,0.0,0.0,0.0,inf,inf,inf,inf,1,1,1,1,0,0,0,0,1,1,0
2632828000,0,47.3977508,8.5456074,-45.723354,1.6559174,-3.9960022,0.0,0.0,0.0,-4.62,0.17,0.0,0.0,0.0,0.0,0.0,0.0,0.0,0.0,3.1055365,488.83002,0.0,0.0,0.0,0.0,0.0,0.0,inf,inf,inf,inf,1,1,1,1,0,0,0,0,1,1,0
2632928000,0,47.3977508,8.5456074,-46.179253,1.6784983,-3.994995,0.0,0.0,0.0,-4.62,0.17,0.0,0.0,0.0,0.0,0.0,0.0,0.0,0.0,3.1055632,488.83002,0.0,0.0,0.0,0.0,0.0,0.0,inf,inf,inf,inf,1,1,1,1,0,0,0,0,1,1,0
2633028000,0,47.3977508,8.5456074,-46.62403,1.6935521,-3.994995,0.0,0.0,0.0,-4.62,0.17,0.0,0.0,0.0,0.0,0.0,0.0,0.0,0.0,3.1057723,488.83002,0.0,0.0,0.0,0.0,0.0,0.0,inf,inf,inf,inf,1,1,1,1,0,0,0,0,1,1,0
2633128000,0,47.3977508,8.5456074,-47.11329,1.7086061,-3.9940186,0.0,0.0,0.0,-4.62,0.17,0.0,0.0,0.0,0.0,0.0,0.0,0.0,0.0,3.106122,488.83002,0.0,0.0,0.0,0.0,0.0,0.0,inf,inf,inf,inf,1,1,1,1,0,0,0,0,1,1,0
2633224000,0,47.3977508,8.5456074,-47.55807,1.731187,-3.9940186,0.0,0.0,0.0,-4.62,0.17999999,0.0,0.0,0.0,0.0,0.0,0.0,0.0,0.0,3.1061575,488.83002,0.0,0.0,0.0,0.0,0.0,0.0,inf,inf,inf,inf,1,1,1,1,0,0,0,0,1,1,0
2633328000,0,47.3977508,8.5456074,-48.03621,1.7462409,-3.9940186,0.0,0.0,0.0,-4.63,0.17999999,0.0,0.0,0.0,0.0,0.0,0.0,0.0,0.0,3.1060207,488.83002,0.0,0.0,0.0,0.0,0.0,0.0,inf,inf,inf,inf,1,1,1,1,0,0,0,0,1,1,0
2633428000,0,47.3977508,8.5456074,-48.503227,1.7688217,-3.9930115,0.0,0.0,0.0,-4.63,0.17999999,0.0,0.0,0.0,0.0,0.0,0.0,0.0,0.0,3.106066,488.83002,0.0,0.0,0.0,0.0,0.0,0.0,inf,inf,inf,inf,1,1,1,1,0,0,0,0,1,1,0
2633524000,0,47.3977508,8.5456074,-48.948006,1.7838757,-3.9930115,0.0,0.0,0.0,-4.63,0.17999999,0.0,0.0,0.0,0.0,0.0,0.0,0.0,0.0,3.1063056,488.83002,0.0,0.0,0.0,0.0,0.0,0.0,inf,inf,inf,inf,1,1,1,1,0,0,0,0,1,1,0
2633628000,0,47.3977508,8.5456074,-49.437263,1.8064566,-3.9920044,0.0,0.0,0.0,-4.63,0.17999999,0.0,0.0,0.0,0.0,0.0,0.0,0.0,0.0,3.1063306,488.83002,0.0,0.0,0.0,0.0,0.0,0.0,inf,inf,inf,inf,1,1,1,1,0,0,0,0,1,1,0
2633728000,0,47.3977508,8.5456074,-49.89316,1.8215104,-3.9920044,0.0,0.0,0.0,-4.63,0.17999999,0.0,0.0,0.0,0.0,0.0,0.0,0.0,0.0,3.1060867,488.83002,0.0,0.0,0.0,0.0,0.0,0.0,inf,inf,inf,inf,1,1,1,1,0,0,0,0,1,1,0
2633824000,0,47.3977508,8.5456074,-50.349064,1.8365644,-3.9909973,0.0,0.0,0.0,-4.63,0.17999999,0.0,0.0,0.0,0.0,0.0,0.0,0.0,0.0,3.1059108,488.83002,0.0,0.0,0.0,0.0,0.0,0.0,inf,inf,inf,inf,1,1,1,1,0,0,0,0,1,1,0
2633928000,0,47.3977508,8.5456074,-50.8272,1.8591453,-3.9900208,0.0,0.0,0.0,-4.63,0.17999999,0.0,0.0,0.0,0.0,0.0,0.0,0.0,0.0,3.1058981,488.83002,0.0,0.0,0.0,0.0,0.0,0.0,inf,inf,inf,inf,1,1,1,1,0,0,0,0,1,1,0
2634028000,0,47.3977508,8.5456074,-51.29422,1.8741993,-3.9900208,0.0,0.0,0.0,-4.63,0.17999999,0.0,0.0,0.0,0.0,0.0,0.0,0.0,0.0,3.1058893,488.83002,0.0,0.0,0.0,0.0,0.0,0.0,inf,inf,inf,inf,1,1,1,1,0,0,0,0,1,1,0
2634128000,0,47.3977508,8.5456074,-51.76124,1.8967801,-3.9890137,0.0,0.0,0.0,-4.63,0.17999999,0.0,0.0,0.0,0.0,0.0,0.0,0.0,0.0,3.1058764,488.83002,0.0,0.0,0.0,0.0,0.0,0.0,inf,inf,inf,inf,1,1,1,1,0,0,0,0,1,1,0
2634228000,0,47.3977508,8.5456074,-52.217136,1.9118341,-3.9880066,0.0,0.0,0.0,-4.63,0.17999999,0.0,0.0,0.0,0.0,0.0,0.0,0.0,0.0,3.105961,488.83002,0.0,0.0,0.0,0.0,0.0,0.0,inf,inf,inf,inf,1,1,1,1,0,0,0,0,1,1,0
2634328000,0,47.3977508,8.5456074,-52.684155,1.934415,-3.9880066,0.0,0.0,0.0,-4.63,0.17999999,0.0,0.0,0.0,0.0,0.0,0.0,0.0,0.0,3.106032,488.83002,0.0,0.0,0.0,0.0,0.0,0.0,inf,inf,inf,inf,1,1,1,1,0,0,0,0,1,1,0
2634424000,0,47.3977508,8.5456074,-53.128937,1.9494689,-3.9890137,0.0,0.0,0.0,-4.63,0.17999999,0.0,0.0,0.0,0.0,0.0,0.0,0.0,0.0,3.1060348,488.83002,0.0,0.0,0.0,0.0,0.0,0.0,inf,inf,inf,inf,1,1,1,1,0,0,0,0,1,1,0
2634528000,0,47.3977508,8.5456074,-53.618195,1.9720498,-3.9900208,0.0,0.0,0.0,-4.63,0.17999999,-0.01,0.0,0.0,0.0,0.0,0.0,0.0,0.0,3.1058583,488.83002,0.0,0.0,0.0,0.0,0.0,0.0,inf,inf,inf,inf,1,1,1,1,0,0,0,0,1,1,0
2634628000,0,47.3977508,8.5456074,-54.085213,1.9871037,-3.9909973,0.0,0.0,0.0,-4.64,0.17999999,-0.01,0.0,0.0,0.0,0.0,0.0,0.0,0.0,3.1057804,488.83002,0.0,0.0,0.0,0.0,0.0,0.0,inf,inf,inf,inf,1,1,1,1,0,0,0,0,1,1,0
2634728000,0,47.3977508,8.5456074,-54.55223,2.0096846,-3.9920044,0.0,0.0,0.0,-4.65,0.17999999,-0.01,0.0,0.0,0.0,0.0,0.0,0.0,0.0,3.1058743,488.83002,0.0,0.0,0.0,0.0,0.0,0.0,inf,inf,inf,inf,1,1,1,1,0,0,0,0,1,1,0
2634828000,0,47.3977508,8.5456074,-55.01925,2.0247386,-3.9930115,0.0,0.0,0.0,-4.67,0.17999999,0.0,0.0,0.0,0.0,0.0,0.0,0.0,0.0,3.106154,488.83002,0.0,0.0,0.0,0.0,0.0,0.0,inf,inf,inf,inf,1,1,1,1,0,0,0,0,1,1,0
2634928000,0,47.3977508,8.5456074,-55.486267,2.0397925,-3.9940186,0.0,0.0,0.0,-4.68,0.17999999,0.0,0.0,0.0,0.0,0.0,0.0,0.0,0.0,3.1060016,488.83002,0.0,0.0,0.0,0.0,0.0,0.0,inf,inf,inf,inf,1,1,1,1,0,0,0,0,1,1,0
2635028000,0,47.3977508,8.5456074,-55.953285,2.0623734,-3.994995,0.0,0.0,0.0,-4.69,0.17999999,0.0,0.0,0.0,0.0,0.0,0.0,0.0,0.0,3.1057866,488.83002,0.0,0.0,0.0,0.0,0.0,0.0,inf,inf,inf,inf,1,1,1,1,0,0,0,0,1,1,0
2635128000,0,47.3977508,8.5456074,-56.431423,2.0774274,-3.9960022,0.0,0.0,0.0,-4.7,0.17999999,-0.01,0.0,0.0,0.0,0.0,0.0,0.0,0.0,3.1055827,488.83002,0.0,0.0,0.0,0.0,0.0,0.0,inf,inf,inf,inf,1,1,1,1,0,0,0,0,1,1,0
2635228000,0,47.3977508,8.5456074,-56.898445,2.1000085,-3.9970093,0.0,0.0,0.0,-4.7,0.17999999,-0.01,0.0,0.0,0.0,0.0,0.0,0.0,0.0,3.105573,488.83002,0.0,0.0,0.0,0.0,0.0,0.0,inf,inf,inf,inf,1,1,1,1,0,0,0,0,1,1,0
2635328000,0,47.3977508,8.5456074,-57.376583,2.1150625,-3.998993,0.0,0.0,0.0,-4.71,0.17999999,-0.01,0.0,0.0,0.0,0.0,0.0,0.0,0.0,3.1055126,488.83002,0.0,0.0,0.0,0.0,0.0,0.0,inf,inf,inf,inf,1,1,1,1,0,0,0,0,1,1,0
2635428000,0,47.3977508,8.5456074,-57.8436,2.1376433,-4.001007,0.0,0.0,0.0,-4.71,0.17999999,-0.01,0.0,0.0,0.0,0.0,0.0,0.0,0.0,3.105641,488.83002,0.0,0.0,0.0,0.0,0.0,0.0,inf,inf,inf,inf,1,1,1,1,0,0,0,0,1,1,0
2635528000,0,47.3977508,8.5456074,-58.32174,2.1526973,-4.0030212,0.0,0.0,0.0,-4.72,0.17999999,-0.02,0.0,0.0,0.0,0.0,0.0,0.0,0.0,3.105737,488.83002,0.0,0.0,0.0,0.0,0.0,0.0,inf,inf,inf,inf,1,1,1,1,0,0,0,0,1,1,0
2635628000,0,47.3977508,8.5456074,-58.788757,2.1752782,-4.005005,0.0,0.0,0.0,-4.72,0.17999999,-0.02,0.0,0.0,0.0,0.0,0.0,0.0,0.0,3.1059513,488.83002,0.0,0.0,0.0,0.0,0.0,0.0,inf,inf,inf,inf,1,1,1,1,0,0,0,0,1,1,0
2635728000,0,47.3977508,8.5456074,-59.266895,2.1903322,-4.007019,0.0,0.0,0.0,-4.73,0.17999999,-0.02,0.0,0.0,0.0,0.0,0.0,0.0,0.0,3.1058807,488.83002,0.0,0.0,0.0,0.0,0.0,0.0,inf,inf,inf,inf,1,1,1,1,0,0,0,0,1,1,0
2635828000,0,47.3977508,8.5456074,-59.745033,2.212913,-4.01001,0.0,0.0,0.0,-4.73,0.17999999,-0.02,0.0,0.0,0.0,0.0,0.0,0.0,0.0,3.1057413,488.83002,0.0,0.0,0.0,0.0,0.0,0.0,inf,inf,inf,inf,1,1,1,1,0,0,0,0,1,1,0
2635928000,0,47.3977508,8.5456074,-60.21205,2.2279673,-4.0130005,0.0,0.0,0.0,-4.73,0.19,-0.03,0.0,0.0,0.0,0.0,0.0,0.0,0.0,3.1057997,488.83002,0.0,0.0,0.0,0.0,0.0,0.0,inf,inf,inf,inf,1,1,1,1,0,0,0,0,1,1,0
2636028000,0,47.3977508,8.5456074,-60.69019,2.2505481,-4.015991,0.0,0.0,0.0,-4.73,0.19,-0.03,0.0,0.0,0.0,0.0,0.0,0.0,0.0,3.1058698,488.83002,0.0,0.0,0.0,0.0,0.0,0.0,inf,inf,inf,inf,1,1,1,1,0,0,0,0,1,1,0
2636128000,0,47.3977508,8.5456074,-61.168327,2.265602,-4.0190125,0.0,0.0,0.0,-4.73,0.19,-0.03,0.0,0.0,0.0,0.0,0.0,0.0,0.0,3.1057127,488.83002,0.0,0.0,0.0,0.0,0.0,0.0,inf,inf,inf,inf,1,1,1,1,0,0,0,0,1,1,0
2636224000,0,47.3977508,8.5456074,-61.62423,2.288183,-4.022003,0.0,0.0,0.0,-4.74,0.19,-0.03,0.0,0.0,0.0,0.0,0.0,0.0,0.0,3.1057045,488.83002,0.0,0.0,0.0,0.0,0.0,0.0,inf,inf,inf,inf,1,1,1,1,0,0,0,0,1,1,0
2636328000,0,47.3977508,8.5456074,-62.113487,2.310764,-4.026001,0.0,0.0,0.0,-4.74,0.19,-0.03,0.0,0.0,0.0,0.0,0.0,0.0,0.0,3.10579,488.83002,0.0,0.0,0.0,0.0,0.0,0.0,inf,inf,inf,inf,1,1,1,1,0,0,0,0,1,1,0
2636428000,0,47.3977508,8.5456074,-62.591625,2.325818,-4.0289917,0.0,0.0,0.0,-4.74,0.19999999,-0.03,0.0,0.0,0.0,0.0,0.0,0.0,0.0,3.1056695,488.83002,0.0,0.0,0.0,0.0,0.0,0.0,inf,inf,inf,inf,1,1,1,1,0,0,0,0,1,1,0
2636528000,0,47.3977508,8.5456074,-63.069763,2.348399,-4.032013,0.0,0.0,0.0,-4.74,0.19999999,-0.03,0.0,0.0,0.0,0.0,0.0,0.0,0.0,3.105414,488.83002,0.0,0.0,0.0,0.0,0.0,0.0,inf,inf,inf,inf,1,1,1,1,0,0,0,0,1,1,0
2636628000,0,47.3977508,8.5456074,-63.5479,2.3709798,-4.0360107,0.0,0.0,0.0,-4.74,0.19999999,-0.03,0.0,0.0,0.0,0.0,0.0,0.0,0.0,3.1051202,488.83002,0.0,0.0,0.0,0.0,0.0,0.0,inf,inf,inf,inf,1,1,1,1,0,0,0,0,1,1,0
2636728000,0,47.3977508,8.5456074,-64.02604,2.386034,-4.0390015,0.0,0.0,0.0,-4.74,0.19999999,-0.03,0.0,0.0,0.0,0.0,0.0,0.0,0.0,3.1050878,488.83002,0.0,0.0,0.0,0.0,0.0,0.0,inf,inf,inf,inf,1,1,1,1,0,0,0,0,1,1,0
2636828000,0,47.3977508,8.5456074,-64.49306,2.4086149,-4.0429993,0.0,0.0,0.0,-4.74,0.19999999,-0.03,0.0,0.0,0.0,0.0,0.0,0.0,0.0,3.104941,488.83002,0.0,0.0,0.0,0.0,0.0,0.0,inf,inf,inf,inf,1,1,1,1,0,0,0,0,1,1,0
2636928000,0,47.3977508,8.5456074,-64.97119,2.4311957,-4.0460205,0.0,0.0,0.0,-4.75,0.19999999,-0.03,0.0,0.0,0.0,0.0,0.0,0.0,0.0,3.1050503,488.83002,0.0,0.0,0.0,0.0,0.0,0.0,inf,inf,inf,inf,1,1,1,1,0,0,0,0,1,1,0
2637028000,0,47.3977508,8.5456074,-65.44933,2.4537768,-4.0500183,0.0,0.0,0.0,-4.75,0.19999999,-0.04,0.0,0.0,0.0,0.0,0.0,0.0,0.0,3.1050925,488.83002,0.0,0.0,0.0,0.0,0.0,0.0,inf,inf,inf,inf,1,1,1,1,0,0,0,0,1,1,0
2637124000,0,47.3977508,8.5456074,-65.905235,2.4688308,-4.0549927,0.0,0.0,0.0,-4.74,0.19999999,-0.04,0.0,0.0,0.0,0.0,0.0,0.0,0.0,3.1050181,488.83002,0.0,0.0,0.0,0.0,0.0,0.0,inf,inf,inf,inf,1,1,1,1,0,0,0,0,1,1,0
2637228000,0,47.3977508,8.5456074,-66.40561,2.491412,-4.0599976,0.0,0.0,0.0,-4.74,0.19999999,-0.04,0.0,0.0,0.0,0.0,0.0,0.0,0.0,3.1048717,488.83002,0.0,0.0,0.0,0.0,0.0,0.0,inf,inf,inf,inf,1,1,1,1,0,0,0,0,1,1,0
2637328000,0,47.3977508,8.5456074,-66.86151,2.5139928,-4.0639954,0.0,0.0,0.0,-4.75,0.19999999,-0.04,0.0,0.0,0.0,0.0,0.0,0.0,0.0,3.1047585,488.83002,0.0,0.0,0.0,0.0,0.0,0.0,inf,inf,inf,inf,1,1,1,1,0,0,0,0,1,1,0
2637428000,0,47.3977508,8.5456074,-67.361885,2.536574,-4.0690002,0.0,0.0,0.0,-4.75,0.19999999,-0.04,0.0,0.0,0.0,0.0,0.0,0.0,0.0,3.1047726,488.83002,0.0,0.0,0.0,0.0,0.0,0.0,inf,inf,inf,inf,1,1,1,1,0,0,0,0,1,1,0
2637528000,0,47.3977508,8.5456074,-67.81779,2.5516279,-4.072998,0.0,0.0,0.0,-4.75,0.19999999,-0.04,0.0,0.0,0.0,0.0,0.0,0.0,0.0,3.1047134,488.83002,0.0,0.0,0.0,0.0,0.0,0.0,inf,inf,inf,inf,1,1,1,1,0,0,0,0,1,1,0
2637628000,0,47.3977508,8.5456074,-68.307045,2.5742087,-4.078003,0.0,0.0,0.0,-4.75,0.19999999,-0.04,0.0,0.0,0.0,0.0,0.0,0.0,0.0,3.1045775,488.83002,0.0,0.0,0.0,0.0,0.0,0.0,inf,inf,inf,inf,1,1,1,1,0,0,0,0,1,1,0
2637728000,0,47.3977508,8.5456074,-68.78518,2.5967898,-4.083008,0.0,0.0,0.0,-4.75,0.21,-0.04,0.0,0.0,0.0,0.0,0.0,0.0,0.0,3.1044242,488.83002,0.0,0.0,0.0,0.0,0.0,0.0,inf,inf,inf,inf,1,1,1,1,0,0,0,0,1,1,0
2637828000,0,47.3977508,8.5456074,-69.26332,2.619371,-4.0870056,0.0,0.0,0.0,-4.75,0.21,-0.04,0.0,0.0,0.0,0.0,0.0,0.0,0.0,3.1043456,488.83002,0.0,0.0,0.0,0.0,0.0,0.0,inf,inf,inf,inf,1,1,1,1,0,0,0,0,1,1,0
2637928000,0,47.3977508,8.5456074,-69.741455,2.6419518,-4.0920105,0.0,0.0,0.0,-4.7599998,0.19999999,-0.04,0.0,0.0,0.0,0.0,0.0,0.0,0.0,3.1043348,488.83002,0.0,0.0,0.0,0.0,0.0,0.0,inf,inf,inf,inf,1,1,1,1,0,0,0,0,1,1,0
2638024000,0,47.3977508,8.5456074,-70.19736,2.6570058,-4.0960083,0.0,0.0,0.0,-4.7599998,0.19999999,-0.04,0.0,0.0,0.0,0.0,0.0,0.0,0.0,3.1043622,488.83002,0.0,0.0,0.0,0.0,0.0,0.0,inf,inf,inf,inf,1,1,1,1,0,0,0,0,1,1,0
2638128000,0,47.3977508,8.5456074,-70.69773,2.679587,-4.100006,0.0,0.0,0.0,-4.7599998,0.19999999,-0.03,0.0,0.0,0.0,0.0,0.0,0.0,0.0,3.1046534,488.83002,0.0,0.0,0.0,0.0,0.0,0.0,inf,inf,inf,inf,1,1,1,1,0,0,0,0,1,1,0
2638228000,0,47.3977508,8.5456074,-71.17587,2.702168,-4.104004,0.0,0.0,0.0,-4.7599998,0.19999999,-0.03,0.0,0.0,0.0,0.0,0.0,0.0,0.0,3.104549,488.83002,0.0,0.0,0.0,0.0,0.0,0.0,inf,inf,inf,inf,1,1,1,1,0,0,0,0,1,1,0
2638328000,0,47.3977508,8.5456074,-71.65401,2.7247488,-4.1080017,0.0,0.0,0.0,-4.7599998,0.19999999,-0.03,0.0,0.0,0.0,0.0,0.0,0.0,0.0,3.104421,488.83002,0.0,0.0,0.0,0.0,0.0,0.0,inf,inf,inf,inf,1,1,1,1,0,0,0,0,1,1,0
2638428000,0,47.3977508,8.5456074,-72.13215,2.739803,-4.1109924,0.0,0.0,0.0,-4.7599998,0.19999999,-0.03,0.0,0.0,0.0,0.0,0.0,0.0,0.0,3.1042767,488.83002,0.0,0.0,0.0,0.0,0.0,0.0,inf,inf,inf,inf,1,1,1,1,0,0,0,0,1,1,0
2638528000,0,47.3977508,8.5456074,-72.61028,2.762384,-4.1150208,0.0,0.0,0.0,-4.77,0.19999999,-0.03,0.0,0.0,0.0,0.0,0.0,0.0,0.0,3.1041734,488.83002,0.0,0.0,0.0,0.0,0.0,0.0,inf,inf,inf,inf,1,1,1,1,0,0,0,0,1,1,0
2638628000,0,47.3977508,8.5456074,-73.066185,2.784965,-4.1180115,0.0,0.0,0.0,-4.77,0.19999999,-0.03,0.0,0.0,0.0,0.0,0.0,0.0,0.0,3.1042285,488.83002,0.0,0.0,0.0,0.0,0.0,0.0,inf,inf,inf,inf,1,1,1,1,0,0,0,0,1,1,0
2638724000,0,47.3977508,8.5456074,-73.54433,2.800019,-4.121002,0.0,0.0,0.0,-4.77,0.19999999,-0.03,0.0,0.0,0.0,0.0,0.0,0.0,0.0,3.10421,488.83002,0.0,0.0,0.0,0.0,0.0,0.0,inf,inf,inf,inf,1,1,1,1,0,0,0,0,1,1,0
2638828000,0,47.3977508,8.5456074,-74.0447,2.8226001,-4.125,0.0,0.0,0.0,-4.77,0.19,-0.03,0.0,0.0,0.0,0.0,0.0,0.0,0.0,3.104275,488.83002,0.0,0.0,0.0,0.0,0.0,0.0,inf,inf,inf,inf,1,1,1,1,0,0,0,0,1,1,0
2638928000,0,47.3977508,8.5456074,-74.52284,2.8451812,-4.1280212,0.0,0.0,0.0,-4.7599998,0.19,-0.03,0.0,0.0,0.0,0.0,0.0,0.0,0.0,3.104336,488.83002,0.0,0.0,0.0,0.0,0.0,0.0,inf,inf,inf,inf,1,1,1,1,0,0,0,0,1,1,0
2639024000,0,47.3977508,8.5456074,-74.96762,2.8602352,-4.132019,0.0,0.0,0.0,-4.7599998,0.19,-0.03,0.0,0.0,0.0,0.0,0.0,0.0,0.0,3.1043327,488.83002,0.0,0.0,0.0,0.0,0.0,0.0,inf,inf,inf,inf,1,1,1,1,0,0,0,0,1,1,0
2639128000,0,47.3977508,8.5456074,-75.47912,2.8828163,-4.13501,0.0,0.0,0.0,-4.7599998,0.19,-0.03,0.0,0.0,0.0,0.0,0.0,0.0,0.0,3.1042888,488.83002,0.0,0.0,0.0,0.0,0.0,0.0,inf,inf,inf,inf,1,1,1,1,0,0,0,0,1,1,0
2639228000,0,47.3977508,8.5456074,-75.95725,2.9053974,-4.1390076,0.0,0.0,0.0,-4.7599998,0.19,-0.03,0.0,0.0,0.0,0.0,0.0,0.0,0.0,3.104322,488.83002,0.0,0.0,0.0,0.0,0.0,0.0,inf,inf,inf,inf,1,1,1,1,0,0,0,0,1,1,0
2639328000,0,47.3977508,8.5456074,-76.435394,2.9204514,-4.1419983,0.0,0.0,0.0,-4.7599998,0.19,-0.03,0.0,0.0,0.0,0.0,0.0,0.0,0.0,3.1043782,488.83002,0.0,0.0,0.0,0.0,0.0,0.0,inf,inf,inf,inf,1,1,1,1,0,0,0,0,1,1,0
2639428000,0,47.3977508,8.5456074,-76.91353,2.9430325,-4.145996,0.0,0.0,0.0,-4.7599998,0.19,-0.03,0.0,0.0,0.0,0.0,0.0,0.0,0.0,3.10433,488.83002,0.0,0.0,0.0,0.0,0.0,0.0,inf,inf,inf,inf,1,1,1,1,0,0,0,0,1,1,0
2639528000,0,47.3977508,8.5456074,-77.39167,2.9580867,-4.1490173,0.0,0.0,0.0,-4.7599998,0.17999999,-0.03,0.0,0.0,0.0,0.0,0.0,0.0,0.0,3.1042998,488.83002,0.0,0.0,0.0,0.0,0.0,0.0,inf,inf,inf,inf,1,1,1,1,0,0,0,0,1,1,0
2639628000,0,47.3977508,8.5456074,-77.869804,2.9806678,-4.153015,0.0,0.0,0.0,-4.7599998,0.17999999,-0.03,0.0,0.0,0.0,0.0,0.0,0.0,0.0,3.104274,488.83002,0.0,0.0,0.0,0.0,0.0,0.0,inf,inf,inf,inf,1,1,1,1,0,0,0,0,1,1,0
2639724000,0,47.3977508,8.5456074,-78.32571,2.9957218,-4.156006,0.0,0.0,0.0,-4.77,0.17999999,-0.03,0.0,0.0,0.0,0.0,0.0,0.0,0.0,3.104249,488.83002,0.0,0.0,0.0,0.0,0.0,0.0,inf,inf,inf,inf,1,1,1,1,0,0,0,0,1,1,0
2639828000,0,47.3977508,8.5456074,-78.82608,3.018303,-4.1600037,0.0,0.0,0.0,-4.77,0.17999999,-0.03,0.0,0.0,0.0,0.0,0.0,0.0,0.0,3.1042416,488.83002,0.0,0.0,0.0,0.0,0.0,0.0,inf,inf,inf,inf,1,1,1,1,0,0,0,0,1,1,0
2639928000,0,47.3977508,8.5456074,-79.30422,3.0333571,-4.1629944,0.0,0.0,0.0,-4.79,0.17999999,-0.03,0.0,0.0,0.0,0.0,0.0,0.0,0.0,3.1042533,488.83002,0.0,0.0,0.0,0.0,0.0,0.0,inf,inf,inf,inf,1,1,1,1,0,0,0,0,1,1,0
2640028000,0,47.3977508,8.5456074,-79.78236,3.055938,-4.1660156,0.0,0.0,0.0,-4.7999997,0.17999999,-0.03,0.0,0.0,0.0,0.0,0.0,0.0,0.0,3.1043804,488.83002,0.0,0.0,0.0,0.0,0.0,0.0,inf,inf,inf,inf,1,1,1,1,0,0,0,0,1,1,0
2640128000,0,47.3977508,8.5456074,-80.271614,3.0709922,-4.1690063,0.0,0.0,0.0,-4.7999997,0.17999999,-0.03,0.0,0.0,0.0,0.0,0.0,0.0,0.0,3.1043563,488.83002,0.0,0.0,0.0,0.0,0.0,0.0,inf,inf,inf,inf,1,1,1,1,0,0,0,0,1,1,0
2640228000,0,47.3977508,8.5456074,-80.749756,3.0935733,-4.173004,0.0,0.0,0.0,-4.81,0.17999999,-0.03,0.0,0.0,0.0,0.0,0.0,0.0,0.0,3.104197,488.83002,0.0,0.0,0.0,0.0,0.0,0.0,inf,inf,inf,inf,1,1,1,1,0,0,0,0,1,1,0
2640328000,0,47.3977508,8.5456074,-81.23901,3.1086276,-4.175995,0.0,0.0,0.0,-4.8199997,0.17999999,-0.03,0.0,0.0,0.0,0.0,0.0,0.0,0.0,3.1041043,488.83002,0.0,0.0,0.0,0.0,0.0,0.0,inf,inf,inf,inf,1,1,1,1,0,0,0,0,1,1,0
2640424000,0,47.3977508,8.5456074,-81.68379,3.1236815,-4.179016,0.0,0.0,0.0,-4.8199997,0.17999999,-0.02,0.0,0.0,0.0,0.0,0.0,0.0,0.0,3.1039727,488.83002,0.0,0.0,0.0,0.0,0.0,0.0,inf,inf,inf,inf,1,1,1,1,0,0,0,0,1,1,0
2640528000,0,47.3977508,8.5456074,-82.206406,3.1462626,-4.182007,0.0,0.0,0.0,-4.83,0.17999999,-0.02,0.0,0.0,0.0,0.0,0.0,0.0,0.0,3.1037414,488.83002,0.0,0.0,0.0,0.0,0.0,0.0,inf,inf,inf,inf,1,1,1,1,0,0,0,0,1,1,0
2640628000,0,47.3977508,8.5456074,-82.68455,3.1688437,-4.184021,0.0,0.0,0.0,-4.83,0.17999999,-0.02,0.0,0.0,0.0,0.0,0.0,0.0,0.0,3.1035461,488.83002,0.0,0.0,0.0,0.0,0.0,0.0,inf,inf,inf,inf,1,1,1,1,0,0,0,0,1,1,0
2640724000,0,47.3977508,8.5456074,-83.151566,3.183898,-4.1860046,0.0,0.0,0.0,-4.8399997,0.17999999,-0.02,0.0,0.0,0.0,0.0,0.0,0.0,0.0,3.1034324,488.83002,0.0,0.0,0.0,0.0,0.0,0.0,inf,inf,inf,inf,1,1,1,1,0,0,0,0,1,1,0
2640824000,0,47.3977508,8.5456074,-83.64082,3.1989522,-4.188019,0.0,0.0,0.0,-4.8399997,0.17999999,-0.01,0.0,0.0,0.0,0.0,0.0,0.0,0.0,3.1034484,488.83002,0.0,0.0,0.0,0.0,0.0,0.0,inf,inf,inf,inf,1,1,1,1,0,0,0,0,1,1,0
2640924000,0,47.3977508,8.5456074,-84.13008,3.2215333,-4.1900024,0.0,0.0,0.0,-4.8399997,0.17999999,-0.01,0.0,0.0,0.0,0.0,0.0,0.0,0.0,3.1035392,488.83002,0.0,0.0,0.0,0.0,0.0,0.0,inf,inf,inf,inf,1,1,1,1,0,0,0,0,1,1,0
2641024000,0,47.3977508,8.5456074,-84.608215,3.2365873,-4.1910095,0.0,0.0,0.0,-4.8399997,0.17999999,0.0,0.0,0.0,0.0,0.0,0.0,0.0,0.0,3.1037314,488.83002,0.0,0.0,0.0,0.0,0.0,0.0,inf,inf,inf,inf,1,1,1,1,0,0,0,0,1,1,0
2641128000,0,47.3977508,8.5456074,-85.11971,3.2591684,-4.1910095,0.0,0.0,0.0,-4.85,0.17999999,0.0,0.0,0.0,0.0,0.0,0.0,0.0,0.0,3.103816,488.83002,0.0,0.0,0.0,0.0,0.0,0.0,inf,inf,inf,inf,1,1,1,1,0,0,0,0,1,1,0
2641228000,0,47.3977508,8.5456074,-85.60897,3.2742226,-4.1920166,0.0,0.0,0.0,-4.85,0.17999999,0.0,0.0,0.0,0.0,0.0,0.0,0.0,0.0,3.103799,488.83002,0.0,0.0,0.0,0.0,0.0,0.0,inf,inf,inf,inf,1,1,1,1,0,0,0,0,1,1,0
2641328000,0,47.3977508,8.5456074,-86.08711,3.2968037,-4.1920166,0.0,0.0,0.0,-4.85,0.17999999,0.0,0.0,0.0,0.0,0.0,0.0,0.0,0.0,3.1036823,488.83002,0.0,0.0,0.0,0.0,0.0,0.0,inf,inf,inf,inf,1,1,1,1,0,0,0,0,1,1,0
2641428000,0,47.3977508,8.5456074,-86.57637,3.311858,-4.1920166,0.0,0.0,0.0,-4.85,0.17999999,0.0,0.0,0.0,0.0,0.0,0.0,0.0,0.0,3.1036983,488.83002,0.0,0.0,0.0,0.0,0.0,0.0,inf,inf,inf,inf,1,1,1,1,0,0,0,0,1,1,0
2641524000,0,47.3977508,8.5456074,-87.04339,3.3269122,-4.1920166,0.0,0.0,0.0,-4.85,0.17999999,0.0,0.0,0.0,0.0,0.0,0.0,0.0,0.0,3.10377,488.83002,0.0,0.0,0.0,0.0,0.0,0.0,inf,inf,inf,inf,1,1,1,1,0,0,0,0,1,1,0
2641624000,0,47.3977508,8.5456074,-87.51041,3.3494933,-4.1920166,0.0,0.0,0.0,-4.85,0.17999999,0.0,0.0,0.0,0.0,0.0,0.0,0.0,0.0,3.1039634,488.83002,0.0,0.0,0.0,0.0,0.0,0.0,inf,inf,inf,inf,1,1,1,1,0,0,0,0,1,1,0
2641728000,0,47.3977508,8.5456074,-88.03302,3.3645475,-4.1920166,0.0,0.0,0.0,-4.85,0.17999999,0.0,0.0,0.0,0.0,0.0,0.0,0.0,0.0,3.1041763,488.83002,0.0,0.0,0.0,0.0,0.0,0.0,inf,inf,inf,inf,1,1,1,1,0,0,0,0,1,1,0
2641828000,0,47.3977508,8.5456074,-88.52228,3.3871286,-4.1910095,0.0,0.0,0.0,-4.85,0.17,0.0,0.0,0.0,0.0,0.0,0.0,0.0,0.0,3.1041105,488.83002,0.0,0.0,0.0,0.0,0.0,0.0,inf,inf,inf,inf,1,1,1,1,0,0,0,0,1,1,0
