timestamp,noutputs,output[0],output[1],output[2],output[3],output[4],output[5],output[6],output[7],output[8],output[9],output[10],output[11],output[12],output[13],output[14],output[15]
3782264000,6,900.0,900.0,900.0,900.0,900.0,900.0,nan,nan,nan,nan,nan,nan,nan,nan,nan,nan
3782364000,6,1000.0,1000.0,1000.0,1000.0,1500.0,1500.0,nan,nan,nan,nan,nan,nan,nan,nan,nan,nan
3782460000,6,1000.0,1000.0,1000.0,1000.0,1500.0,1500.0,nan,nan,nan,nan,nan,nan,nan,nan,nan,nan
3782564000,6,1000.0,1000.0,1000.0,1000.0,1500.0,1500.0,nan,nan,nan,nan,nan,nan,nan,nan,nan,nan
3782660000,6,1000.0,1000.0,1000.0,1000.0,1500.0,1500.0,nan,nan,nan,nan,nan,nan,nan,nan,nan,nan
3782760000,6,1000.0,1000.0,1000.0,1000.0,1500.0,1500.0,nan,nan,nan,nan,nan,nan,nan,nan,nan,nan
3782864000,6,1000.0,1000.0,1000.0,1000.0,1500.0,1500.0,nan,nan,nan,nan,nan,nan,nan,nan,nan,nan
3782964000,6,1000.0,1000.0,1000.0,1000.0,1500.0,1500.0,nan,nan,nan,nan,nan,nan,nan,nan,nan,nan
3783060000,6,1000.0,1000.0,1000.0,1000.0,1500.0,1500.0,nan,nan,nan,nan,nan,nan,nan,nan,nan,nan
3783164000,6,1000.0,1000.0,1000.0,1000.0,1500.0,1500.0,nan,nan,nan,nan,nan,nan,nan,nan,nan,nan
3783264000,6,1000.0,1000.0,1000.0,1000.0,1500.0,1500.0,nan,nan,nan,nan,nan,nan,nan,nan,nan,nan
3783360000,6,1061.7189,1177.3354,1101.1444,1140.4839,1500.0,1500.0,nan,nan,nan,nan,nan,nan,nan,nan,nan,nan
3783460000,6,1086.9991,1204.2047,1119.5613,1171.7472,1500.0,1500.0,nan,nan,nan,nan,nan,nan,nan,nan,nan,nan
3783560000,6,1177.5922,1268.5115,1204.1315,1244.8948,1500.0,1500.0,nan,nan,nan,nan,nan,nan,nan,nan,nan,nan
3783660000,6,1246.5437,1330.9368,1276.04,1305.3401,1500.0,1500.0,nan,nan,nan,nan,nan,nan,nan,nan,nan,nan
3783760000,6,1322.5251,1401.6425,1345.7905,1375.6368,1500.0,1500.0,nan,nan,nan,nan,nan,nan,nan,nan,nan,nan
3783864000,6,1407.4841,1481.0018,1432.6129,1454.3541,1500.0,1500.0,nan,nan,nan,nan,nan,nan,nan,nan,nan,nan
3783964000,6,1473.3662,1551.092,1502.3003,1524.5625,1500.0,1500.0,nan,nan,nan,nan,nan,nan,nan,nan,nan,nan
3784060000,6,1564.5315,1627.3157,1590.224,1608.1595,1500.0,1500.0,nan,nan,nan,nan,nan,nan,nan,nan,nan,nan
3784160000,6,1619.5511,1599.113,1611.8115,1606.0486,1500.0,1500.0,nan,nan,nan,nan,nan,nan,nan,nan,nan,nan
3784260000,6,1615.9465,1606.4236,1615.9749,1605.7776,1500.0,1500.0,nan,nan,nan,nan,nan,nan,nan,nan,nan,nan
3784360000,6,1618.0549,1615.0204,1612.1853,1619.4739,1500.0,1500.0,nan,nan,nan,nan,nan,nan,nan,nan,nan,nan
3784460000,6,1614.129,1615.1411,1613.6938,1614.6473,1500.0,1500.0,nan,nan,nan,nan,nan,nan,nan,nan,nan,nan
3784564000,6,1613.9586,1619.0881,1616.5111,1616.8015,1500.0,1500.0,nan,nan,nan,nan,nan,nan,nan,nan,nan,nan
3784664000,6,1610.4115,1620.0055,1611.158,1617.5372,1500.0,1500.0,nan,nan,nan,nan,nan,nan,nan,nan,nan,nan
3784764000,6,1621.2635,1622.9463,1623.095,1623.421,1500.0,1500.0,nan,nan,nan,nan,nan,nan,nan,nan,nan,nan
3784860000,6,1621.1904,1623.136,1620.1172,1624.1938,1500.0,1500.0,nan,nan,nan,nan,nan,nan,nan,nan,nan,nan
3784960000,6,1622.2758,1625.9409,1621.0917,1626.072,1500.0,1500.0,nan,nan,nan,nan,nan,nan,nan,nan,nan,nan
3785064000,6,1623.1744,1622.354,1622.7175,1622.6522,1500.0,1500.0,nan,nan,nan,nan,nan,nan,nan,nan,nan,nan
3785160000,6,1627.1389,1629.6852,1632.8807,1627.6669,1500.0,1500.0,nan,nan,nan,nan,nan,nan,nan,nan,nan,nan
3785264000,6,1631.6887,1632.6123,1633.2898,1632.177,1500.0,1500.0,nan,nan,nan,nan,nan,nan,nan,nan,nan,nan
3785364000,6,1630.7286,1631.179,1631.522,1628.5391,1500.0,1500.0,nan,nan,nan,nan,nan,nan,nan,nan,nan,nan
3785460000,6,1633.4077,1632.5964,1635.8091,1632.4742,1500.0,1500.0,nan,nan,nan,nan,nan,nan,nan,nan,nan,nan
3785564000,6,1633.1245,1631.1777,1633.4514,1632.1614,1500.0,1500.0,nan,nan,nan,nan,nan,nan,nan,nan,nan,nan
3785664000,6,1639.8752,1641.6808,1641.6328,1639.714,1500.0,1500.0,nan,nan,nan,nan,nan,nan,nan,nan,nan,nan
3785760000,6,1645.979,1646.0935,1632.5514,1630.5549,1500.0,1500.0,nan,nan,nan,nan,nan,nan,nan,nan,nan,nan
3785860000,6,1643.0873,1642.66,1641.2599,1637.1238,1500.0,1500.0,nan,nan,nan,nan,nan,nan,nan,nan,nan,nan
3785960000,6,1617.0161,1615.5441,1617.1256,1619.0414,1500.0,1500.0,nan,nan,nan,nan,nan,nan,nan,nan,nan,nan
3786060000,6,1529.2993,1531.2341,1531.7928,1531.037,1500.0,1500.0,nan,nan,nan,nan,nan,nan,nan,nan,nan,nan
3786160000,6,1568.3306,1565.5015,1570.6062,1567.5302,1500.0,1500.0,nan,nan,nan,nan,nan,nan,nan,nan,nan,nan
3786260000,6,1568.7198,1571.7134,1573.361,1571.366,1500.0,1500.0,nan,nan,nan,nan,nan,nan,nan,nan,nan,nan
3786360000,6,1562.4657,1569.5435,1566.2742,1565.3208,1500.0,1500.0,nan,nan,nan,nan,nan,nan,nan,nan,nan,nan
3786460000,6,1566.2007,1564.1555,1565.3486,1565.0167,1500.0,1500.0,nan,nan,nan,nan,nan,nan,nan,nan,nan,nan
3786560000,6,1573.7449,1571.3927,1574.6898,1573.8418,1500.0,1500.0,nan,nan,nan,nan,nan,nan,nan,nan,nan,nan
3786660000,6,1576.5599,1575.327,1578.8634,1575.9946,1500.0,1500.0,nan,nan,nan,nan,nan,nan,nan,nan,nan,nan
3786760000,6,1575.2906,1572.7405,1576.6863,1571.7405,1500.0,1500.0,nan,nan,nan,nan,nan,nan,nan,nan,nan,nan
3786860000,6,1577.0323,1573.4033,1576.2645,1573.6296,1500.0,1500.0,nan,nan,nan,nan,nan,nan,nan,nan,nan,nan
3786960000,6,1576.3043,1569.5824,1573.2927,1574.0082,1500.0,1500.0,nan,nan,nan,nan,nan,nan,nan,nan,nan,nan
3787064000,6,1578.9003,1577.2263,1579.6233,1578.9352,1500.0,1500.0,nan,nan,nan,nan,nan,nan,nan,nan,nan,nan
3787160000,6,1569.9395,1565.1855,1567.6206,1571.2743,1500.0,1500.0,nan,nan,nan,nan,nan,nan,nan,nan,nan,nan
3787260000,6,1557.0098,1553.4033,1557.1288,1553.6564,1500.0,1500.0,nan,nan,nan,nan,nan,nan,nan,nan,nan,nan
3787364000,6,1560.3419,1556.4728,1562.8218,1556.493,1500.0,1500.0,nan,nan,nan,nan,nan,nan,nan,nan,nan,nan
3787460000,6,1562.6002,1564.6897,1563.6246,1565.21,1500.0,1500.0,nan,nan,nan,nan,nan,nan,nan,nan,nan,nan
3787560000,6,1564.8248,1561.8505,1564.0255,1560.7859,1500.0,1500.0,nan,nan,nan,nan,nan,nan,nan,nan,nan,nan
3787660000,6,1563.7274,1561.6808,1562.7936,1561.2034,1500.0,1500.0,nan,nan,nan,nan,nan,nan,nan,nan,nan,nan
3787764000,6,1561.5485,1560.7635,1559.6476,1567.0966,1500.0,1500.0,nan,nan,nan,nan,nan,nan,nan,nan,nan,nan
3787864000,6,1559.6165,1556.0562,1561.9503,1557.8535,1500.0,1500.0,nan,nan,nan,nan,nan,nan,nan,nan,nan,nan
3787964000,6,1564.0255,1565.0504,1562.5896,1563.8219,1500.0,1500.0,nan,nan,nan,nan,nan,nan,nan,nan,nan,nan
3788064000,6,1564.269,1568.5673,1564.0626,1567.9684,1500.0,1500.0,nan,nan,nan,nan,nan,nan,nan,nan,nan,nan
3788164000,6,1563.3569,1567.7843,1565.0842,1567.6133,1500.0,1500.0,nan,nan,nan,nan,nan,nan,nan,nan,nan,nan
3788260000,6,1564.5685,1562.3154,1564.3264,1561.895,1500.0,1500.0,nan,nan,nan,nan,nan,nan,nan,nan,nan,nan
3788360000,6,1559.0771,1560.8826,1560.9972,1559.588,1500.0,1500.0,nan,nan,nan,nan,nan,nan,nan,nan,nan,nan
3788460000,6,1561.0405,1563.3594,1561.3431,1563.417,1500.0,1500.0,nan,nan,nan,nan,nan,nan,nan,nan,nan,nan
3788564000,6,1564.1003,1562.6223,1562.9172,1562.9009,1500.0,1500.0,nan,nan,nan,nan,nan,nan,nan,nan,nan,nan
3788660000,6,1566.4692,1566.4457,1565.9009,1564.9819,1500.0,1500.0,nan,nan,nan,nan,nan,nan,nan,nan,nan,nan
3788760000,6,1564.2026,1563.4258,1564.621,1563.9352,1500.0,1500.0,nan,nan,nan,nan,nan,nan,nan,nan,nan,nan
3788864000,6,1563.9164,1561.7815,1561.7683,1563.709,1500.0,1500.0,nan,nan,nan,nan,nan,nan,nan,nan,nan,nan
3788964000,6,1565.0087,1560.6567,1559.0309,1565.0536,1500.0,1500.0,nan,nan,nan,nan,nan,nan,nan,nan,nan,nan
3789064000,6,1565.8763,1565.9026,1564.6077,1565.8546,1500.0,1500.0,nan,nan,nan,nan,nan,nan,nan,nan,nan,nan
3789160000,6,1562.0004,1563.2488,1564.3757,1566.7626,1500.0,1500.0,nan,nan,nan,nan,nan,nan,nan,nan,nan,nan
3789264000,6,1562.9188,1561.6854,1564.4174,1561.7926,1500.0,1500.0,nan,nan,nan,nan,nan,nan,nan,nan,nan,nan
3789360000,6,1565.1083,1563.0822,1566.6987,1562.13,1500.0,1500.0,nan,nan,nan,nan,nan,nan,nan,nan,nan,nan
3789464000,6,1565.3947,1566.4005,1564.4828,1569.1124,1500.0,1500.0,nan,nan,nan,nan,nan,nan,nan,nan,nan,nan
3789560000,6,1563.4468,1564.8489,1562.6849,1564.7227,1500.0,1500.0,nan,nan,nan,nan,nan,nan,nan,nan,nan,nan
3789660000,6,1562.793,1564.721,1561.3962,1564.1434,1500.0,1500.0,nan,nan,nan,nan,nan,nan,nan,nan,nan,nan
3789760000,6,1566.515,1564.8705,1568.5369,1566.202,1500.0,1500.0,nan,nan,nan,nan,nan,nan,nan,nan,nan,nan
3789864000,6,1566.2692,1564.4552,1566.4344,1563.0946,1500.0,1500.0,nan,nan,nan,nan,nan,nan,nan,nan,nan,nan
3789960000,6,1563.2567,1565.6382,1564.0369,1564.073,1500.0,1500.0,nan,nan,nan,nan,nan,nan,nan,nan,nan,nan
3790060000,6,1562.739,1564.3075,1562.6577,1563.4594,1500.0,1500.0,nan,nan,nan,nan,nan,nan,nan,nan,nan,nan
3790160000,6,1560.5936,1562.7306,1561.7202,1564.3252,1500.0,1500.0,nan,nan,nan,nan,nan,nan,nan,nan,nan,nan
3790264000,6,1564.2529,1564.7329,1568.816,1561.7129,1500.0,1500.0,nan,nan,nan,nan,nan,nan,nan,nan,nan,nan
3790360000,6,1563.9503,1563.8093,1563.3196,1564.0387,1500.0,1500.0,nan,nan,nan,nan,nan,nan,nan,nan,nan,nan
3790464000,6,1561.9023,1563.079,1564.4956,1565.4202,1500.0,1500.0,nan,nan,nan,nan,nan,nan,nan,nan,nan,nan
3790560000,6,1561.3857,1561.2438,1560.2212,1564.9852,1500.0,1500.0,nan,nan,nan,nan,nan,nan,nan,nan,nan,nan
3790664000,6,1562.4114,1562.4746,1562.3406,1563.5609,1500.0,1500.0,nan,nan,nan,nan,nan,nan,nan,nan,nan,nan
3790760000,6,1565.2056,1564.676,1567.5602,1563.6453,1500.0,1500.0,nan,nan,nan,nan,nan,nan,nan,nan,nan,nan
3790864000,6,1562.984,1564.3934,1562.84,1565.889,1500.0,1500.0,nan,nan,nan,nan,nan,nan,nan,nan,nan,nan
3790960000,6,1564.2733,1564.9495,1565.9951,1563.2983,1500.0,1500.0,nan,nan,nan,nan,nan,nan,nan,nan,nan,nan
3791060000,6,1564.812,1565.7097,1566.0671,1566.1428,1500.0,1500.0,nan,nan,nan,nan,nan,nan,nan,nan,nan,nan
3791160000,6,1565.2441,1566.1895,1569.2998,1564.7488,1500.0,1500.0,nan,nan,nan,nan,nan,nan,nan,nan,nan,nan
3791260000,6,1565.1926,1565.76,1567.2618,1565.4613,1500.0,1500.0,nan,nan,nan,nan,nan,nan,nan,nan,nan,nan
3791360000,6,1565.0176,1565.5403,1560.5228,1565.0675,1500.0,1500.0,nan,nan,nan,nan,nan,nan,nan,nan,nan,nan
3791460000,6,1564.7073,1565.3508,1566.9823,1564.1831,1500.0,1500.0,nan,nan,nan,nan,nan,nan,nan,nan,nan,nan
3791560000,6,1565.9426,1566.2058,1564.7131,1565.5677,1500.0,1500.0,nan,nan,nan,nan,nan,nan,nan,nan,nan,nan
3791660000,6,1566.7422,1563.4647,1564.6982,1568.291,1500.0,1500.0,nan,nan,nan,nan,nan,nan,nan,nan,nan,nan
3791760000,6,1563.881,1564.3757,1565.8468,1563.295,1500.0,1500.0,nan,nan,nan,nan,nan,nan,nan,nan,nan,nan
3791860000,6,1564.7262,1563.9073,1568.0093,1562.7952,1500.0,1500.0,nan,nan,nan,nan,nan,nan,nan,nan,nan,nan
3791960000,6,1565.9841,1561.4855,1561.6815,1563.5244,1500.0,1500.0,nan,nan,nan,nan,nan,nan,nan,nan,nan,nan
3792064000,6,1561.9023,1561.1438,1560.4696,1561.0826,1500.0,1500.0,nan,nan,nan,nan,nan,nan,nan,nan,nan,nan
3792160000,6,1562.7834,1562.0562,1565.285,1562.8871,1500.0,1500.0,nan,nan,nan,nan,nan,nan,nan,nan,nan,nan
3792260000,6,1568.73,1559.2184,1565.2225,1560.692,1500.0,1500.0,nan,nan,nan,nan,nan,nan,nan,nan,nan,nan
3792360000,6,1564.287,1562.9568,1561.5555,1565.9381,1500.0,1500.0,nan,nan,nan,nan,nan,nan,nan,nan,nan,nan
3792464000,6,1563.2833,1564.6392,1562.0955,1564.8656,1500.0,1500.0,nan,nan,nan,nan,nan,nan,nan,nan,nan,nan
3792560000,6,1565.9912,1558.3728,1564.4851,1560.7366,1500.0,1500.0,nan,nan,nan,nan,nan,nan,nan,nan,nan,nan
3792664000,6,1564.5864,1562.7522,1566.4585,1561.2318,1500.0,1500.0,nan,nan,nan,nan,nan,nan,nan,nan,nan,nan
3792760000,6,1561.5826,1566.8125,1563.4211,1565.9431,1500.0,1500.0,nan,nan,nan,nan,nan,nan,nan,nan,nan,nan
3792864000,6,1565.2445,1562.6201,1561.0703,1566.6033,1500.0,1500.0,nan,nan,nan,nan,nan,nan,nan,nan,nan,nan
3792960000,6,1564.1908,1564.0333,1565.9138,1564.4064,1500.0,1500.0,nan,nan,nan,nan,nan,nan,nan,nan,nan,nan
3793060000,6,1565.6691,1563.8466,1564.2686,1565.2933,1500.0,1500.0,nan,nan,nan,nan,nan,nan,nan,nan,nan,nan
3793160000,6,1560.4487,1567.5012,1561.8759,1567.2396,1500.0,1500.0,nan,nan,nan,nan,nan,nan,nan,nan,nan,nan
3793260000,6,1562.0752,1561.8884,1563.2264,1562.7819,1500.0,1500.0,nan,nan,nan,nan,nan,nan,nan,nan,nan,nan
3793364000,6,1551.1995,1562.3575,1567.8013,1576.4763,1500.0,1500.0,nan,nan,nan,nan,nan,nan,nan,nan,nan,nan
3793464000,6,1539.7734,1510.4674,1598.2377,1592.7999,1500.0,1500.0,nan,nan,nan,nan,nan,nan,nan,nan,nan,nan
3793560000,6,1542.2019,1488.8372,1616.286,1598.0262,1500.0,1500.0,nan,nan,nan,nan,nan,nan,nan,nan,nan,nan
3793660000,6,1547.3867,1503.4353,1612.1348,1602.0466,1500.0,1500.0,nan,nan,nan,nan,nan,nan,nan,nan,nan,nan
3793764000,6,1551.2552,1506.5808,1608.0583,1611.1511,1500.0,1500.0,nan,nan,nan,nan,nan,nan,nan,nan,nan,nan
3793864000,6,1529.7666,1548.3326,1597.5854,1615.0563,1500.0,1500.0,nan,nan,nan,nan,nan,nan,nan,nan,nan,nan
3793960000,6,1550.7839,1558.0078,1606.855,1621.4226,1500.0,1500.0,nan,nan,nan,nan,nan,nan,nan,nan,nan,nan
3794064000,6,1566.9556,1554.2887,1625.7549,1633.1621,1500.0,1500.0,nan,nan,nan,nan,nan,nan,nan,nan,nan,nan
3794160000,6,1567.9285,1568.9008,1636.7961,1638.9525,1500.0,1500.0,nan,nan,nan,nan,nan,nan,nan,nan,nan,nan
3794260000,6,1582.9286,1564.2417,1658.4686,1654.0355,1500.0,1500.0,nan,nan,nan,nan,nan,nan,nan,nan,nan,nan
3794364000,6,1580.499,1579.7327,1657.231,1652.6116,1500.0,1500.0,nan,nan,nan,nan,nan,nan,nan,nan,nan,nan
3794460000,6,1619.1204,1572.531,1668.8718,1665.6151,1500.0,1500.0,nan,nan,nan,nan,nan,nan,nan,nan,nan,nan
3794564000,6,1628.6992,1574.528,1679.0698,1692.7622,1500.0,1500.0,nan,nan,nan,nan,nan,nan,nan,nan,nan,nan
3794660000,6,1622.8212,1590.34,1684.4613,1692.9775,1500.0,1500.0,nan,nan,nan,nan,nan,nan,nan,nan,nan,nan
3794764000,6,1627.7526,1598.9078,1686.904,1686.9619,1500.0,1500.0,nan,nan,nan,nan,nan,nan,nan,nan,nan,nan
3794860000,6,1631.8972,1596.8811,1697.9492,1709.0269,1500.0,1500.0,nan,nan,nan,nan,nan,nan,nan,nan,nan,nan
3794960000,6,1658.857,1605.7657,1703.6084,1731.2206,1500.0,1500.0,nan,nan,nan,nan,nan,nan,nan,nan,nan,nan
3795064000,6,1659.3285,1621.8076,1700.6531,1725.5696,1500.0,1500.0,nan,nan,nan,nan,nan,nan,nan,nan,nan,nan
3795160000,6,1662.2673,1620.566,1715.1533,1736.2072,1500.0,1500.0,nan,nan,nan,nan,nan,nan,nan,nan,nan,nan
3795260000,6,1658.5315,1636.2972,1706.1233,1729.9756,1500.0,1500.0,nan,nan,nan,nan,nan,nan,nan,nan,nan,nan
3795360000,6,1674.7871,1642.6117,1696.9686,1750.1532,1500.0,1500.0,nan,nan,nan,nan,nan,nan,nan,nan,nan,nan
3795460000,6,1666.8018,1643.3323,1696.7495,1759.4373,1500.0,1500.0,nan,nan,nan,nan,nan,nan,nan,nan,nan,nan
3795560000,6,1664.9927,1647.6106,1689.5361,1745.212,1500.0,1500.0,nan,nan,nan,nan,nan,nan,nan,nan,nan,nan
3795660000,6,1663.8295,1652.5059,1682.4553,1738.6766,1500.0,1500.0,nan,nan,nan,nan,nan,nan,nan,nan,nan,nan
3795764000,6,1657.0753,1645.7468,1674.2007,1751.0903,1500.0,1500.0,nan,nan,nan,nan,nan,nan,nan,nan,nan,nan
3795860000,6,1655.6721,1655.3972,1671.8363,1760.1095,1500.0,1500.0,nan,nan,nan,nan,nan,nan,nan,nan,nan,nan
3795960000,6,1651.3411,1653.0066,1674.0664,1761.8948,1500.0,1500.0,nan,nan,nan,nan,nan,nan,nan,nan,nan,nan
3796060000,6,1647.2479,1658.5509,1670.5714,1752.2239,1500.0,1500.0,nan,nan,nan,nan,nan,nan,nan,nan,nan,nan
3796160000,6,1649.8672,1662.6051,1670.8628,1741.8158,1500.0,1500.0,nan,nan,nan,nan,nan,nan,nan,nan,nan,nan
3796260000,6,1642.5614,1664.375,1669.6953,1752.054,1500.0,1500.0,nan,nan,nan,nan,nan,nan,nan,nan,nan,nan
3796360000,6,1639.6716,1670.6737,1662.8695,1760.9907,1500.0,1500.0,nan,nan,nan,nan,nan,nan,nan,nan,nan,nan
3796460000,6,1642.0687,1678.5311,1661.8759,1748.373,1500.0,1500.0,nan,nan,nan,nan,nan,nan,nan,nan,nan,nan
3796560000,6,1638.5416,1674.8279,1669.4813,1750.6442,1500.0,1500.0,nan,nan,nan,nan,nan,nan,nan,nan,nan,nan
3796664000,6,1635.4386,1678.875,1665.4427,1744.4204,1500.0,1500.0,nan,nan,nan,nan,nan,nan,nan,nan,nan,nan
3796760000,6,1638.4344,1685.8572,1663.4373,1737.6072,1500.0,1500.0,nan,nan,nan,nan,nan,nan,nan,nan,nan,nan
3796864000,6,1658.4648,1716.5815,1638.7269,1726.6257,1500.0,1500.0,nan,nan,nan,nan,nan,nan,nan,nan,nan,nan
3796964000,6,1662.1482,1723.2179,1636.2345,1724.5045,1500.0,1500.0,nan,nan,nan,nan,nan,nan,nan,nan,nan,nan
3797060000,6,1655.2599,1719.8232,1644.1362,1718.7606,1500.0,1500.0,nan,nan,nan,nan,nan,nan,nan,nan,nan,nan
3797160000,6,1654.6663,1713.6464,1646.0422,1713.342,1500.0,1500.0,nan,nan,nan,nan,nan,nan,nan,nan,nan,nan
3797264000,6,1655.2861,1714.8528,1651.2101,1713.5134,1500.0,1500.0,nan,nan,nan,nan,nan,nan,nan,nan,nan,nan
3797364000,6,1650.6167,1727.4316,1649.6522,1723.3973,1500.0,1500.0,nan,nan,nan,nan,nan,nan,nan,nan,nan,nan
3797464000,6,1651.8577,1725.0059,1649.9124,1720.8241,1500.0,1500.0,nan,nan,nan,nan,nan,nan,nan,nan,nan,nan
3797564000,6,1650.8638,1720.9443,1650.0875,1720.3732,1500.0,1500.0,nan,nan,nan,nan,nan,nan,nan,nan,nan,nan
3797664000,6,1652.95,1716.2595,1653.9923,1715.4108,1500.0,1500.0,nan,nan,nan,nan,nan,nan,nan,nan,nan,nan
3797764000,6,1651.5826,1726.7539,1655.9751,1724.3035,1500.0,1500.0,nan,nan,nan,nan,nan,nan,nan,nan,nan,nan
3797860000,6,1651.9414,1723.8966,1656.0427,1718.9005,1500.0,1500.0,nan,nan,nan,nan,nan,nan,nan,nan,nan,nan
3797964000,6,1650.4713,1723.8097,1654.4263,1722.1322,1500.0,1500.0,nan,nan,nan,nan,nan,nan,nan,nan,nan,nan
3798060000,6,1655.9324,1717.8066,1658.9528,1716.4042,1500.0,1500.0,nan,nan,nan,nan,nan,nan,nan,nan,nan,nan
3798160000,6,1655.7583,1720.0885,1661.2505,1719.1981,1500.0,1500.0,nan,nan,nan,nan,nan,nan,nan,nan,nan,nan
3798260000,6,1648.8483,1731.4077,1654.8698,1726.3679,1500.0,1500.0,nan,nan,nan,nan,nan,nan,nan,nan,nan,nan
3798360000,6,1653.1323,1724.5023,1657.1307,1723.982,1500.0,1500.0,nan,nan,nan,nan,nan,nan,nan,nan,nan,nan
3798460000,6,1652.6471,1724.1097,1656.7018,1722.8391,1500.0,1500.0,nan,nan,nan,nan,nan,nan,nan,nan,nan,nan
3798564000,6,1655.9325,1719.5548,1657.6113,1720.0743,1500.0,1500.0,nan,nan,nan,nan,nan,nan,nan,nan,nan,nan
3798660000,6,1653.1627,1732.1294,1658.1888,1730.3131,1500.0,1500.0,nan,nan,nan,nan,nan,nan,nan,nan,nan,nan
3798760000,6,1651.9401,1732.6488,1656.056,1732.0935,1500.0,1500.0,nan,nan,nan,nan,nan,nan,nan,nan,nan,nan
3798864000,6,1653.4254,1727.8944,1657.4932,1727.4773,1500.0,1500.0,nan,nan,nan,nan,nan,nan,nan,nan,nan,nan
3798964000,6,1653.946,1726.917,1658.2563,1725.1569,1500.0,1500.0,nan,nan,nan,nan,nan,nan,nan,nan,nan,nan
3799064000,6,1657.0637,1721.8483,1659.1666,1722.3761,1500.0,1500.0,nan,nan,nan,nan,nan,nan,nan,nan,nan,nan
3799164000,6,1651.3947,1733.4384,1657.7991,1729.664,1500.0,1500.0,nan,nan,nan,nan,nan,nan,nan,nan,nan,nan
3799260000,6,1655.099,1728.4302,1659.9999,1730.3881,1500.0,1500.0,nan,nan,nan,nan,nan,nan,nan,nan,nan,nan
3799360000,6,1655.5253,1727.2151,1656.1641,1728.8175,1500.0,1500.0,nan,nan,nan,nan,nan,nan,nan,nan,nan,nan
3799464000,6,1653.7778,1726.5636,1659.171,1726.9784,1500.0,1500.0,nan,nan,nan,nan,nan,nan,nan,nan,nan,nan
3799564000,6,1652.6062,1726.6302,1658.6877,1724.3126,1500.0,1500.0,nan,nan,nan,nan,nan,nan,nan,nan,nan,nan
3799660000,6,1650.5961,1732.2087,1656.157,1731.6366,1500.0,1500.0,nan,nan,nan,nan,nan,nan,nan,nan,nan,nan
3799760000,6,1651.2637,1729.4497,1656.7091,1725.7468,1500.0,1500.0,nan,nan,nan,nan,nan,nan,nan,nan,nan,nan
3799864000,6,1658.2678,1723.3542,1659.7185,1726.3303,1500.0,1500.0,nan,nan,nan,nan,nan,nan,nan,nan,nan,nan
3799960000,6,1655.4828,1722.7994,1658.239,1723.787,1500.0,1500.0,nan,nan,nan,nan,nan,nan,nan,nan,nan,nan
3800060000,6,1650.9224,1732.6993,1655.0195,1734.5371,1500.0,1500.0,nan,nan,nan,nan,nan,nan,nan,nan,nan,nan
3800160000,6,1648.9542,1734.0417,1651.8536,1733.0198,1500.0,1500.0,nan,nan,nan,nan,nan,nan,nan,nan,nan,nan
3800260000,6,1653.235,1726.4829,1655.4587,1729.2139,1500.0,1500.0,nan,nan,nan,nan,nan,nan,nan,nan,nan,nan
3800360000,6,1655.5709,1728.2828,1659.4512,1726.6475,1500.0,1500.0,nan,nan,nan,nan,nan,nan,nan,nan,nan,nan
3800460000,6,1656.4583,1723.6771,1660.0385,1724.3735,1500.0,1500.0,nan,nan,nan,nan,nan,nan,nan,nan,nan,nan
3800560000,6,1655.3267,1733.4723,1656.3617,1734.8848,1500.0,1500.0,nan,nan,nan,nan,nan,nan,nan,nan,nan,nan
3800664000,6,1653.1855,1734.5308,1657.2458,1734.9615,1500.0,1500.0,nan,nan,nan,nan,nan,nan,nan,nan,nan,nan
3800764000,6,1653.4374,1731.5614,1657.1947,1731.5137,1500.0,1500.0,nan,nan,nan,nan,nan,nan,nan,nan,nan,nan
3800860000,6,1654.3748,1724.6521,1663.1304,1726.3992,1500.0,1500.0,nan,nan,nan,nan,nan,nan,nan,nan,nan,nan
3800960000,6,1656.1382,1727.8578,1656.5764,1726.9255,1500.0,1500.0,nan,nan,nan,nan,nan,nan,nan,nan,nan,nan
3801060000,6,1652.2544,1735.1631,1656.7775,1734.7676,1500.0,1500.0,nan,nan,nan,nan,nan,nan,nan,nan,nan,nan
3801164000,6,1655.5603,1728.1096,1656.069,1730.0446,1500.0,1500.0,nan,nan,nan,nan,nan,nan,nan,nan,nan,nan
3801260000,6,1658.0371,1728.5443,1659.7266,1728.9163,1500.0,1500.0,nan,nan,nan,nan,nan,nan,nan,nan,nan,nan
3801360000,6,1657.1201,1726.7448,1661.1001,1724.492,1500.0,1500.0,nan,nan,nan,nan,nan,nan,nan,nan,nan,nan
3801464000,6,1653.6045,1725.6753,1659.2825,1727.7357,1500.0,1500.0,nan,nan,nan,nan,nan,nan,nan,nan,nan,nan
3801560000,6,1653.6648,1733.2848,1658.4585,1735.6034,1500.0,1500.0,nan,nan,nan,nan,nan,nan,nan,nan,nan,nan
3801664000,6,1659.6284,1726.6396,1663.4323,1729.9226,1500.0,1500.0,nan,nan,nan,nan,nan,nan,nan,nan,nan,nan
3801764000,6,1656.1362,1730.5837,1662.9296,1731.521,1500.0,1500.0,nan,nan,nan,nan,nan,nan,nan,nan,nan,nan
3801860000,6,1658.2983,1727.079,1662.1735,1725.4442,1500.0,1500.0,nan,nan,nan,nan,nan,nan,nan,nan,nan,nan
3801964000,6,1654.3743,1734.4039,1658.3584,1733.894,1500.0,1500.0,nan,nan,nan,nan,nan,nan,nan,nan,nan,nan
3802060000,6,1652.9729,1735.0873,1656.4634,1736.0593,1500.0,1500.0,nan,nan,nan,nan,nan,nan,nan,nan,nan,nan
3802160000,6,1658.9911,1728.0465,1660.756,1730.3785,1500.0,1500.0,nan,nan,nan,nan,nan,nan,nan,nan,nan,nan
3802260000,6,1658.2166,1726.5028,1662.1858,1726.4731,1500.0,1500.0,nan,nan,nan,nan,nan,nan,nan,nan,nan,nan
3802364000,6,1660.0417,1726.7891,1659.8353,1730.1367,1500.0,1500.0,nan,nan,nan,nan,nan,nan,nan,nan,nan,nan
3802460000,6,1656.465,1737.5522,1659.8198,1737.0615,1500.0,1500.0,nan,nan,nan,nan,nan,nan,nan,nan,nan,nan
3802564000,6,1654.7146,1739.9883,1660.4584,1736.1923,1500.0,1500.0,nan,nan,nan,nan,nan,nan,nan,nan,nan,nan
3802660000,6,1656.4375,1730.6255,1660.224,1734.1531,1500.0,1500.0,nan,nan,nan,nan,nan,nan,nan,nan,nan,nan
3802764000,6,1661.1063,1732.1815,1663.0648,1732.7493,1500.0,1500.0,nan,nan,nan,nan,nan,nan,nan,nan,nan,nan
3802860000,6,1657.155,1740.9512,1661.2327,1740.877,1500.0,1500.0,nan,nan,nan,nan,nan,nan,nan,nan,nan,nan
3802964000,6,1659.0343,1739.2997,1658.3656,1739.3313,1500.0,1500.0,nan,nan,nan,nan,nan,nan,nan,nan,nan,nan
3803064000,6,1660.9569,1734.418,1664.7854,1733.3569,1500.0,1500.0,nan,nan,nan,nan,nan,nan,nan,nan,nan,nan
3803164000,6,1661.9517,1733.9548,1665.5989,1734.0922,1500.0,1500.0,nan,nan,nan,nan,nan,nan,nan,nan,nan,nan
3803260000,6,1665.1218,1727.0964,1668.5173,1731.34,1500.0,1500.0,nan,nan,nan,nan,nan,nan,nan,nan,nan,nan
3803360000,6,1657.5873,1743.5276,1663.8226,1743.2458,1500.0,1500.0,nan,nan,nan,nan,nan,nan,nan,nan,nan,nan
3803464000,6,1663.109,1738.862,1663.8357,1741.946,1500.0,1500.0,nan,nan,nan,nan,nan,nan,nan,nan,nan,nan
3803560000,6,1661.5999,1738.201,1665.0143,1738.3379,1500.0,1500.0,nan,nan,nan,nan,nan,nan,nan,nan,nan,nan
3803664000,6,1663.9557,1733.655,1668.0826,1734.9229,1500.0,1500.0,nan,nan,nan,nan,nan,nan,nan,nan,nan,nan
3803764000,6,1660.046,1735.109,1665.3058,1736.9167,1500.0,1500.0,nan,nan,nan,nan,nan,nan,nan,nan,nan,nan
3803860000,6,1659.7655,1741.4264,1662.8323,1742.9387,1500.0,1500.0,nan,nan,nan,nan,nan,nan,nan,nan,nan,nan
3803960000,6,1662.572,1735.0806,1665.2388,1737.3738,1500.0,1500.0,nan,nan,nan,nan,nan,nan,nan,nan,nan,nan
3804060000,6,1659.3901,1738.0485,1667.5721,1737.8917,1500.0,1500.0,nan,nan,nan,nan,nan,nan,nan,nan,nan,nan
3804164000,6,1662.763,1733.9716,1667.5076,1733.9377,1500.0,1500.0,nan,nan,nan,nan,nan,nan,nan,nan,nan,nan
3804264000,6,1660.3915,1734.9689,1665.718,1737.9817,1500.0,1500.0,nan,nan,nan,nan,nan,nan,nan,nan,nan,nan
3804360000,6,1661.9261,1744.093,1666.353,1744.1714,1500.0,1500.0,nan,nan,nan,nan,nan,nan,nan,nan,nan,nan
3804460000,6,1665.7577,1738.0623,1668.2034,1737.9785,1500.0,1500.0,nan,nan,nan,nan,nan,nan,nan,nan,nan,nan
3804560000,6,1663.571,1735.1958,1668.6964,1734.2035,1500.0,1500.0,nan,nan,nan,nan,nan,nan,nan,nan,nan,nan
3804660000,6,1664.845,1732.6509,1667.4883,1738.2484,1500.0,1500.0,nan,nan,nan,nan,nan,nan,nan,nan,nan,nan
3804760000,6,1661.4896,1742.2648,1666.5372,1742.0947,1500.0,1500.0,nan,nan,nan,nan,nan,nan,nan,nan,nan,nan
3804860000,6,1661.1816,1742.4395,1667.2349,1739.9376,1500.0,1500.0,nan,nan,nan,nan,nan,nan,nan,nan,nan,nan
3804960000,6,1660.8734,1739.8713,1664.1024,1740.7401,1500.0,1500.0,nan,nan,nan,nan,nan,nan,nan,nan,nan,nan
3805064000,6,1664.4918,1740.1956,1668.575,1738.3191,1500.0,1500.0,nan,nan,nan,nan,nan,nan,nan,nan,nan,nan
3805164000,6,1665.471,1736.2842,1668.3533,1736.5469,1500.0,1500.0,nan,nan,nan,nan,nan,nan,nan,nan,nan,nan
3805260000,6,1660.757,1745.883,1665.8754,1747.8551,1500.0,1500.0,nan,nan,nan,nan,nan,nan,nan,nan,nan,nan
3805360000,6,1664.26,1738.1989,1667.169,1739.2258,1500.0,1500.0,nan,nan,nan,nan,nan,nan,nan,nan,nan,nan
3805464000,6,1665.1619,1738.9856,1669.731,1738.3344,1500.0,1500.0,nan,nan,nan,nan,nan,nan,nan,nan,nan,nan
3805560000,6,1664.6389,1739.0076,1671.1852,1736.2595,1500.0,1500.0,nan,nan,nan,nan,nan,nan,nan,nan,nan,nan
3805660000,6,1660.3619,1746.1216,1664.52,1746.8287,1500.0,1500.0,nan,nan,nan,nan,nan,nan,nan,nan,nan,nan
3805760000,6,1660.6274,1747.9368,1666.3728,1749.8378,1500.0,1500.0,nan,nan,nan,nan,nan,nan,nan,nan,nan,nan
3805864000,6,1662.9099,1742.3428,1667.1699,1741.2427,1500.0,1500.0,nan,nan,nan,nan,nan,nan,nan,nan,nan,nan
3805964000,6,1666.6271,1737.8115,1668.9556,1737.8019,1500.0,1500.0,nan,nan,nan,nan,nan,nan,nan,nan,nan,nan
3806064000,6,1667.6143,1736.7766,1668.683,1738.2776,1500.0,1500.0,nan,nan,nan,nan,nan,nan,nan,nan,nan,nan
3806164000,6,1661.157,1746.4681,1665.753,1747.9788,1500.0,1500.0,nan,nan,nan,nan,nan,nan,nan,nan,nan,nan
3806260000,6,1664.7789,1742.4421,1669.7845,1743.1672,1500.0,1500.0,nan,nan,nan,nan,nan,nan,nan,nan,nan,nan
3806360000,6,1663.9574,1744.0083,1670.7054,1743.434,1500.0,1500.0,nan,nan,nan,nan,nan,nan,nan,nan,nan,nan
3806460000,6,1665.7119,1738.5308,1668.3833,1739.2124,1500.0,1500.0,nan,nan,nan,nan,nan,nan,nan,nan,nan,nan
3806560000,6,1665.1858,1738.2942,1671.0281,1739.1263,1500.0,1500.0,nan,nan,nan,nan,nan,nan,nan,nan,nan,nan
3806660000,6,1660.6555,1746.3842,1666.8384,1748.0822,1500.0,1500.0,nan,nan,nan,nan,nan,nan,nan,nan,nan,nan
3806764000,6,1664.2153,1745.7437,1664.9142,1748.7185,1500.0,1500.0,nan,nan,nan,nan,nan,nan,nan,nan,nan,nan
3806864000,6,1664.13,1742.0457,1667.5413,1742.5682,1500.0,1500.0,nan,nan,nan,nan,nan,nan,nan,nan,nan,nan
3806960000,6,1664.9607,1736.925,1667.4994,1739.3258,1500.0,1500.0,nan,nan,nan,nan,nan,nan,nan,nan,nan,nan
3807064000,6,1664.077,1737.8353,1669.9077,1737.9456,1500.0,1500.0,nan,nan,nan,nan,nan,nan,nan,nan,nan,nan
3807164000,6,1664.7576,1746.3306,1667.6614,1744.836,1500.0,1500.0,nan,nan,nan,nan,nan,nan,nan,nan,nan,nan
3807260000,6,1663.3145,1741.0265,1669.9303,1743.5674,1500.0,1500.0,nan,nan,nan,nan,nan,nan,nan,nan,nan,nan
3807360000,6,1665.0836,1737.2258,1670.9414,1734.9534,1500.0,1500.0,nan,nan,nan,nan,nan,nan,nan,nan,nan,nan
3807460000,6,1666.1993,1736.7896,1668.5972,1739.2927,1500.0,1500.0,nan,nan,nan,nan,nan,nan,nan,nan,nan,nan
3807560000,6,1661.0673,1750.2823,1667.229,1747.1244,1500.0,1500.0,nan,nan,nan,nan,nan,nan,nan,nan,nan,nan
3807664000,6,1661.824,1751.605,1668.891,1749.1539,1500.0,1500.0,nan,nan,nan,nan,nan,nan,nan,nan,nan,nan
3807760000,6,1667.9219,1743.4584,1669.3333,1745.5133,1500.0,1500.0,nan,nan,nan,nan,nan,nan,nan,nan,nan,nan
3807860000,6,1669.5405,1740.2714,1673.8293,1742.067,1500.0,1500.0,nan,nan,nan,nan,nan,nan,nan,nan,nan,nan
3807960000,6,1669.7239,1738.6663,1671.8181,1740.2346,1500.0,1500.0,nan,nan,nan,nan,nan,nan,nan,nan,nan,nan
3808060000,6,1663.5275,1747.6625,1670.5381,1749.9868,1500.0,1500.0,nan,nan,nan,nan,nan,nan,nan,nan,nan,nan
3808160000,6,1667.3737,1742.8029,1671.3835,1744.7678,1500.0,1500.0,nan,nan,nan,nan,nan,nan,nan,nan,nan,nan
3808260000,6,1669.7139,1741.0721,1674.8527,1744.2902,1500.0,1500.0,nan,nan,nan,nan,nan,nan,nan,nan,nan,nan
3808360000,6,1669.2577,1744.4014,1672.2576,1743.2437,1500.0,1500.0,nan,nan,nan,nan,nan,nan,nan,nan,nan,nan
3808464000,6,1668.3522,1743.3977,1673.2812,1743.3625,1500.0,1500.0,nan,nan,nan,nan,nan,nan,nan,nan,nan,nan
3808560000,6,1668.29,1742.687,1671.652,1744.6782,1500.0,1500.0,nan,nan,nan,nan,nan,nan,nan,nan,nan,nan
3808660000,6,1663.8262,1753.5347,1671.3062,1753.8182,1500.0,1500.0,nan,nan,nan,nan,nan,nan,nan,nan,nan,nan
3808764000,6,1667.1462,1745.5441,1673.3801,1747.0723,1500.0,1500.0,nan,nan,nan,nan,nan,nan,nan,nan,nan,nan
3808864000,6,1671.5575,1743.4171,1672.0787,1746.8867,1500.0,1500.0,nan,nan,nan,nan,nan,nan,nan,nan,nan,nan
3808960000,6,1667.6016,1742.2668,1673.4813,1742.9556,1500.0,1500.0,nan,nan,nan,nan,nan,nan,nan,nan,nan,nan
3809064000,6,1664.8164,1753.286,1670.4819,1752.9159,1500.0,1500.0,nan,nan,nan,nan,nan,nan,nan,nan,nan,nan
3809160000,6,1662.8197,1753.6041,1668.6869,1756.5619,1500.0,1500.0,nan,nan,nan,nan,nan,nan,nan,nan,nan,nan
3809264000,6,1664.1676,1748.4889,1670.6456,1747.531,1500.0,1500.0,nan,nan,nan,nan,nan,nan,nan,nan,nan,nan
3809364000,6,1668.361,1747.5189,1673.0645,1747.4557,1500.0,1500.0,nan,nan,nan,nan,nan,nan,nan,nan,nan,nan
3809464000,6,1666.552,1744.1179,1671.0452,1742.0564,1500.0,1500.0,nan,nan,nan,nan,nan,nan,nan,nan,nan,nan
3809560000,6,1664.644,1752.8542,1668.9612,1755.0227,1500.0,1500.0,nan,nan,nan,nan,nan,nan,nan,nan,nan,nan
3809660000,6,1664.7212,1753.0913,1668.5131,1751.7776,1500.0,1500.0,nan,nan,nan,nan,nan,nan,nan,nan,nan,nan
3809760000,6,1665.334,1748.5781,1673.6367,1747.502,1500.0,1500.0,nan,nan,nan,nan,nan,nan,nan,nan,nan,nan
3809864000,6,1667.3494,1748.9402,1673.763,1745.4642,1500.0,1500.0,nan,nan,nan,nan,nan,nan,nan,nan,nan,nan
3809960000,6,1665.7467,1751.4861,1669.0609,1752.548,1500.0,1500.0,nan,nan,nan,nan,nan,nan,nan,nan,nan,nan
3810064000,6,1664.852,1752.116,1669.2817,1753.2308,1500.0,1500.0,nan,nan,nan,nan,nan,nan,nan,nan,nan,nan
3810164000,6,1667.0482,1749.4093,1668.9417,1752.3093,1500.0,1500.0,nan,nan,nan,nan,nan,nan,nan,nan,nan,nan
3810260000,6,1668.5409,1745.6171,1670.3013,1748.0558,1500.0,1500.0,nan,nan,nan,nan,nan,nan,nan,nan,nan,nan
3810364000,6,1668.4081,1739.599,1673.1625,1742.8076,1500.0,1500.0,nan,nan,nan,nan,nan,nan,nan,nan,nan,nan
3810464000,6,1666.2902,1743.949,1670.5273,1743.166,1500.0,1500.0,nan,nan,nan,nan,nan,nan,nan,nan,nan,nan
3810560000,6,1665.6572,1753.3054,1670.1458,1753.8792,1500.0,1500.0,nan,nan,nan,nan,nan,nan,nan,nan,nan,nan
3810660000,6,1668.8751,1745.2932,1672.3209,1744.0421,1500.0,1500.0,nan,nan,nan,nan,nan,nan,nan,nan,nan,nan
3810764000,6,1664.6426,1749.475,1672.0282,1748.1793,1500.0,1500.0,nan,nan,nan,nan,nan,nan,nan,nan,nan,nan
3810860000,6,1669.8782,1740.4355,1671.62,1743.3889,1500.0,1500.0,nan,nan,nan,nan,nan,nan,nan,nan,nan,nan
3810960000,6,1666.8301,1753.2598,1672.3846,1751.589,1500.0,1500.0,nan,nan,nan,nan,nan,nan,nan,nan,nan,nan
3811060000,6,1670.5709,1746.6298,1671.909,1747.863,1500.0,1500.0,nan,nan,nan,nan,nan,nan,nan,nan,nan,nan
3811164000,6,1667.964,1746.3678,1675.8489,1748.1992,1500.0,1500.0,nan,nan,nan,nan,nan,nan,nan,nan,nan,nan
3811264000,6,1666.8877,1747.3833,1675.9084,1744.471,1500.0,1500.0,nan,nan,nan,nan,nan,nan,nan,nan,nan,nan
3811360000,6,1667.607,1744.2454,1672.167,1743.3153,1500.0,1500.0,nan,nan,nan,nan,nan,nan,nan,nan,nan,nan
3811460000,6,1667.0088,1751.5756,1668.6066,1755.7446,1500.0,1500.0,nan,nan,nan,nan,nan,nan,nan,nan,nan,nan
3811564000,6,1668.6248,1750.6272,1674.5603,1751.2936,1500.0,1500.0,nan,nan,nan,nan,nan,nan,nan,nan,nan,nan
3811664000,6,1667.9746,1748.1746,1669.6127,1750.0574,1500.0,1500.0,nan,nan,nan,nan,nan,nan,nan,nan,nan,nan
3811764000,6,1672.0165,1739.7012,1672.7347,1744.4441,1500.0,1500.0,nan,nan,nan,nan,nan,nan,nan,nan,nan,nan
3811860000,6,1666.0399,1753.7595,1669.6101,1755.1735,1500.0,1500.0,nan,nan,nan,nan,nan,nan,nan,nan,nan,nan
3811960000,6,1665.6825,1752.163,1671.3478,1754.0704,1500.0,1500.0,nan,nan,nan,nan,nan,nan,nan,nan,nan,nan
3812060000,6,1669.9244,1748.5759,1671.45,1748.9335,1500.0,1500.0,nan,nan,nan,nan,nan,nan,nan,nan,nan,nan
3812164000,6,1670.6938,1743.9255,1674.8938,1742.3073,1500.0,1500.0,nan,nan,nan,nan,nan,nan,nan,nan,nan,nan
3812260000,6,1673.4542,1742.9209,1676.5339,1744.27,1500.0,1500.0,nan,nan,nan,nan,nan,nan,nan,nan,nan,nan
3812360000,6,1668.8474,1754.7812,1672.1467,1755.5122,1500.0,1500.0,nan,nan,nan,nan,nan,nan,nan,nan,nan,nan
3812460000,6,1668.5017,1748.1066,1674.2622,1751.3563,1500.0,1500.0,nan,nan,nan,nan,nan,nan,nan,nan,nan,nan
3812560000,6,1666.8632,1750.348,1670.123,1748.6542,1500.0,1500.0,nan,nan,nan,nan,nan,nan,nan,nan,nan,nan
3812660000,6,1669.8555,1742.5042,1675.9807,1742.5558,1500.0,1500.0,nan,nan,nan,nan,nan,nan,nan,nan,nan,nan
3812760000,6,1670.9368,1743.9287,1674.8379,1743.918,1500.0,1500.0,nan,nan,nan,nan,nan,nan,nan,nan,nan,nan
3812860000,6,1667.1774,1753.8875,1671.4954,1754.201,1500.0,1500.0,nan,nan,nan,nan,nan,nan,nan,nan,nan,nan
3812960000,6,1671.4462,1748.553,1674.3304,1751.3501,1500.0,1500.0,nan,nan,nan,nan,nan,nan,nan,nan,nan,nan
3813060000,6,1672.886,1749.6588,1674.8735,1751.4087,1500.0,1500.0,nan,nan,nan,nan,nan,nan,nan,nan,nan,nan
3813160000,6,1670.4156,1745.4972,1676.2643,1746.2412,1500.0,1500.0,nan,nan,nan,nan,nan,nan,nan,nan,nan,nan
3813260000,6,1668.6581,1757.3245,1675.3229,1756.5491,1500.0,1500.0,nan,nan,nan,nan,nan,nan,nan,nan,nan,nan
3813360000,6,1672.1392,1755.6351,1676.8749,1758.2382,1500.0,1500.0,nan,nan,nan,nan,nan,nan,nan,nan,nan,nan
3813460000,6,1675.372,1751.4421,1679.1052,1753.9619,1500.0,1500.0,nan,nan,nan,nan,nan,nan,nan,nan,nan,nan
3813564000,6,1672.3914,1752.1262,1679.9047,1753.3766,1500.0,1500.0,nan,nan,nan,nan,nan,nan,nan,nan,nan,nan
3813660000,6,1672.5306,1748.5402,1675.5193,1752.5598,1500.0,1500.0,nan,nan,nan,nan,nan,nan,nan,nan,nan,nan
3813760000,6,1671.1343,1757.8677,1674.5665,1757.3486,1500.0,1500.0,nan,nan,nan,nan,nan,nan,nan,nan,nan,nan
3813860000,6,1672.5996,1757.0308,1678.7369,1757.7285,1500.0,1500.0,nan,nan,nan,nan,nan,nan,nan,nan,nan,nan
3813960000,6,1675.2721,1754.0223,1676.3617,1753.6986,1500.0,1500.0,nan,nan,nan,nan,nan,nan,nan,nan,nan,nan
3814064000,6,1672.6056,1753.8112,1677.922,1754.184,1500.0,1500.0,nan,nan,nan,nan,nan,nan,nan,nan,nan,nan
3814160000,6,1676.1012,1747.4429,1682.159,1747.7847,1500.0,1500.0,nan,nan,nan,nan,nan,nan,nan,nan,nan,nan
3814260000,6,1672.9772,1760.0154,1678.0221,1759.5955,1500.0,1500.0,nan,nan,nan,nan,nan,nan,nan,nan,nan,nan
3814360000,6,1675.3998,1754.105,1678.4172,1756.3976,1500.0,1500.0,nan,nan,nan,nan,nan,nan,nan,nan,nan,nan
3814460000,6,1671.1533,1757.0863,1677.3616,1757.655,1500.0,1500.0,nan,nan,nan,nan,nan,nan,nan,nan,nan,nan
3814560000,6,1677.1592,1747.5946,1680.0048,1750.3337,1500.0,1500.0,nan,nan,nan,nan,nan,nan,nan,nan,nan,nan
3814660000,6,1672.2511,1760.9316,1674.874,1758.4946,1500.0,1500.0,nan,nan,nan,nan,nan,nan,nan,nan,nan,nan
3814760000,6,1671.8062,1758.4736,1674.7242,1759.8469,1500.0,1500.0,nan,nan,nan,nan,nan,nan,nan,nan,nan,nan
3814864000,6,1673.0106,1753.7946,1677.2592,1753.6877,1500.0,1500.0,nan,nan,nan,nan,nan,nan,nan,nan,nan,nan
3814960000,6,1674.9822,1748.2725,1675.9006,1748.4102,1500.0,1500.0,nan,nan,nan,nan,nan,nan,nan,nan,nan,nan
3815060000,6,1673.6028,1747.6063,1678.3081,1751.0712,1500.0,1500.0,nan,nan,nan,nan,nan,nan,nan,nan,nan,nan
3815160000,6,1674.1755,1758.3157,1675.4733,1758.8478,1500.0,1500.0,nan,nan,nan,nan,nan,nan,nan,nan,nan,nan
3815264000,6,1669.2589,1759.6019,1676.1284,1761.8125,1500.0,1500.0,nan,nan,nan,nan,nan,nan,nan,nan,nan,nan
3815360000,6,1672.0698,1752.9497,1674.4458,1757.9106,1500.0,1500.0,nan,nan,nan,nan,nan,nan,nan,nan,nan,nan
3815464000,6,1670.0385,1754.0487,1676.3271,1753.8204,1500.0,1500.0,nan,nan,nan,nan,nan,nan,nan,nan,nan,nan
3815564000,6,1672.017,1749.0231,1676.6555,1748.8972,1500.0,1500.0,nan,nan,nan,nan,nan,nan,nan,nan,nan,nan
3815664000,6,1672.8876,1759.1898,1675.6797,1757.0574,1500.0,1500.0,nan,nan,nan,nan,nan,nan,nan,nan,nan,nan
3815760000,6,1671.6095,1754.4211,1678.2894,1753.9325,1500.0,1500.0,nan,nan,nan,nan,nan,nan,nan,nan,nan,nan
3815864000,6,1671.0137,1757.443,1673.4109,1756.669,1500.0,1500.0,nan,nan,nan,nan,nan,nan,nan,nan,nan,nan
3815960000,6,1669.6427,1752.2673,1675.2803,1752.7621,1500.0,1500.0,nan,nan,nan,nan,nan,nan,nan,nan,nan,nan
3816060000,6,1673.2954,1756.4346,1674.5319,1757.1703,1500.0,1500.0,nan,nan,nan,nan,nan,nan,nan,nan,nan,nan
3816164000,6,1672.8176,1757.9685,1675.6649,1757.9763,1500.0,1500.0,nan,nan,nan,nan,nan,nan,nan,nan,nan,nan
3816264000,6,1672.005,1751.1862,1676.2396,1751.9377,1500.0,1500.0,nan,nan,nan,nan,nan,nan,nan,nan,nan,nan
3816360000,6,1676.129,1746.5369,1679.698,1746.74,1500.0,1500.0,nan,nan,nan,nan,nan,nan,nan,nan,nan,nan
3816464000,6,1674.3954,1749.6189,1678.7513,1749.862,1500.0,1500.0,nan,nan,nan,nan,nan,nan,nan,nan,nan,nan
3816560000,6,1670.2278,1760.3018,1673.8784,1760.0385,1500.0,1500.0,nan,nan,nan,nan,nan,nan,nan,nan,nan,nan
3816660000,6,1666.8167,1755.427,1672.7749,1757.5626,1500.0,1500.0,nan,nan,nan,nan,nan,nan,nan,nan,nan,nan
3816764000,6,1671.6072,1751.2572,1676.2837,1751.2269,1500.0,1500.0,nan,nan,nan,nan,nan,nan,nan,nan,nan,nan
3816860000,6,1672.1145,1746.025,1674.393,1747.0149,1500.0,1500.0,nan,nan,nan,nan,nan,nan,nan,nan,nan,nan
3816964000,6,1674.3315,1742.2587,1675.6003,1748.951,1500.0,1500.0,nan,nan,nan,nan,nan,nan,nan,nan,nan,nan
3817064000,6,1667.5654,1755.7621,1672.2925,1757.922,1500.0,1500.0,nan,nan,nan,nan,nan,nan,nan,nan,nan,nan
3817164000,6,1669.3242,1756.2964,1674.9716,1756.3973,1500.0,1500.0,nan,nan,nan,nan,nan,nan,nan,nan,nan,nan
3817260000,6,1670.4335,1753.6588,1674.265,1752.9359,1500.0,1500.0,nan,nan,nan,nan,nan,nan,nan,nan,nan,nan
3817364000,6,1670.9792,1746.8955,1674.0576,1750.0496,1500.0,1500.0,nan,nan,nan,nan,nan,nan,nan,nan,nan,nan
3817464000,6,1672.9117,1743.4448,1675.4158,1748.4271,1500.0,1500.0,nan,nan,nan,nan,nan,nan,nan,nan,nan,nan
3817560000,6,1669.9452,1756.1729,1675.2438,1753.6589,1500.0,1500.0,nan,nan,nan,nan,nan,nan,nan,nan,nan,nan
3817660000,6,1672.9072,1750.2397,1676.6113,1751.6543,1500.0,1500.0,nan,nan,nan,nan,nan,nan,nan,nan,nan,nan
3817764000,6,1672.3,1752.106,1676.4579,1753.4717,1500.0,1500.0,nan,nan,nan,nan,nan,nan,nan,nan,nan,nan
3817864000,6,1671.2883,1750.6818,1675.7952,1752.4629,1500.0,1500.0,nan,nan,nan,nan,nan,nan,nan,nan,nan,nan
3817960000,6,1669.197,1759.7186,1674.453,1760.8977,1500.0,1500.0,nan,nan,nan,nan,nan,nan,nan,nan,nan,nan
3818060000,6,1671.5568,1757.169,1675.6162,1758.1483,1500.0,1500.0,nan,nan,nan,nan,nan,nan,nan,nan,nan,nan
3818160000,6,1677.1884,1749.7369,1679.1196,1750.8623,1500.0,1500.0,nan,nan,nan,nan,nan,nan,nan,nan,nan,nan
3818260000,6,1677.336,1748.5557,1680.5101,1748.6978,1500.0,1500.0,nan,nan,nan,nan,nan,nan,nan,nan,nan,nan
3818360000,6,1678.2401,1749.8578,1681.6262,1752.6759,1500.0,1500.0,nan,nan,nan,nan,nan,nan,nan,nan,nan,nan
3818460000,6,1670.4131,1761.579,1676.6627,1762.4552,1500.0,1500.0,nan,nan,nan,nan,nan,nan,nan,nan,nan,nan
3818564000,6,1671.8044,1760.4667,1676.914,1761.0735,1500.0,1500.0,nan,nan,nan,nan,nan,nan,nan,nan,nan,nan
3818660000,6,1679.3726,1752.8947,1680.9264,1757.4297,1500.0,1500.0,nan,nan,nan,nan,nan,nan,nan,nan,nan,nan
3818760000,6,1674.6266,1753.5585,1678.2883,1754.0281,1500.0,1500.0,nan,nan,nan,nan,nan,nan,nan,nan,nan,nan
3818860000,6,1672.7427,1760.5258,1677.1566,1762.303,1500.0,1500.0,nan,nan,nan,nan,nan,nan,nan,nan,nan,nan
3818960000,6,1676.4829,1759.9485,1678.08,1761.405,1500.0,1500.0,nan,nan,nan,nan,nan,nan,nan,nan,nan,nan
3819060000,6,1675.1069,1754.7872,1679.1365,1757.9028,1500.0,1500.0,nan,nan,nan,nan,nan,nan,nan,nan,nan,nan
3819160000,6,1676.6234,1756.3525,1678.4325,1755.852,1500.0,1500.0,nan,nan,nan,nan,nan,nan,nan,nan,nan,nan
3819264000,6,1676.475,1751.9386,1678.559,1754.8295,1500.0,1500.0,nan,nan,nan,nan,nan,nan,nan,nan,nan,nan
3819360000,6,1672.7987,1763.3999,1679.0144,1760.6317,1500.0,1500.0,nan,nan,nan,nan,nan,nan,nan,nan,nan,nan
3819460000,6,1674.4006,1758.3777,1679.5594,1757.7096,1500.0,1500.0,nan,nan,nan,nan,nan,nan,nan,nan,nan,nan
3819564000,6,1672.1511,1757.0325,1679.6447,1756.6636,1500.0,1500.0,nan,nan,nan,nan,nan,nan,nan,nan,nan,nan
3819660000,6,1676.1248,1750.0607,1678.9376,1751.8141,1500.0,1500.0,nan,nan,nan,nan,nan,nan,nan,nan,nan,nan
3819760000,6,1674.003,1761.3109,1677.0167,1763.027,1500.0,1500.0,nan,nan,nan,nan,nan,nan,nan,nan,nan,nan
3819864000,6,1673.33,1760.1042,1675.114,1763.9698,1500.0,1500.0,nan,nan,nan,nan,nan,nan,nan,nan,nan,nan
3819960000,6,1675.2859,1753.7072,1680.3239,1757.8611,1500.0,1500.0,nan,nan,nan,nan,nan,nan,nan,nan,nan,nan
3820064000,6,1675.4202,1758.0647,1677.6008,1755.6353,1500.0,1500.0,nan,nan,nan,nan,nan,nan,nan,nan,nan,nan
3820164000,6,1676.1232,1752.273,1680.436,1751.0618,1500.0,1500.0,nan,nan,nan,nan,nan,nan,nan,nan,nan,nan
3820260000,6,1671.8973,1764.2522,1674.6765,1762.9474,1500.0,1500.0,nan,nan,nan,nan,nan,nan,nan,nan,nan,nan
3820360000,6,1674.2406,1746.2589,1679.6985,1745.9352,1500.0,1500.0,nan,nan,nan,nan,nan,nan,nan,nan,nan,nan
3820464000,6,1671.6184,1731.9492,1672.1794,1735.5111,1500.0,1500.0,nan,nan,nan,nan,nan,nan,nan,nan,nan,nan
3820560000,6,1670.752,1714.4232,1671.7863,1721.2909,1500.0,1500.0,nan,nan,nan,nan,nan,nan,nan,nan,nan,nan
3820664000,6,1638.4426,1735.3845,1651.4747,1732.8973,1500.0,1500.0,nan,nan,nan,nan,nan,nan,nan,nan,nan,nan
3820764000,6,1623.6272,1734.4344,1630.4327,1726.2316,1500.0,1500.0,nan,nan,nan,nan,nan,nan,nan,nan,nan,nan
3820860000,6,1623.0933,1713.0596,1625.1558,1706.1619,1500.0,1500.0,nan,nan,nan,nan,nan,nan,nan,nan,nan,nan
3820960000,6,1618.3086,1699.7659,1622.7676,1692.5521,1500.0,1500.0,nan,nan,nan,nan,nan,nan,nan,nan,nan,nan
3821064000,6,1620.6774,1682.8456,1619.7059,1680.2535,1500.0,1500.0,nan,nan,nan,nan,nan,nan,nan,nan,nan,nan
3821160000,6,1607.009,1686.7151,1607.189,1683.316,1500.0,1500.0,nan,nan,nan,nan,nan,nan,nan,nan,nan,nan
3821260000,6,1609.0276,1671.8218,1606.4801,1670.2794,1500.0,1500.0,nan,nan,nan,nan,nan,nan,nan,nan,nan,nan
3821360000,6,1596.3762,1669.195,1597.1863,1670.9193,1500.0,1500.0,nan,nan,nan,nan,nan,nan,nan,nan,nan,nan
3821464000,6,1598.0635,1659.8314,1598.1215,1658.0735,1500.0,1500.0,nan,nan,nan,nan,nan,nan,nan,nan,nan,nan
3821560000,6,1594.3344,1656.439,1593.4531,1655.122,1500.0,1500.0,nan,nan,nan,nan,nan,nan,nan,nan,nan,nan
3821664000,6,1591.6495,1649.4741,1593.3885,1645.894,1500.0,1500.0,nan,nan,nan,nan,nan,nan,nan,nan,nan,nan
3821760000,6,1591.4905,1643.0818,1593.4795,1634.7207,1500.0,1500.0,nan,nan,nan,nan,nan,nan,nan,nan,nan,nan
3821860000,6,1587.1504,1637.6581,1588.2183,1633.4589,1500.0,1500.0,nan,nan,nan,nan,nan,nan,nan,nan,nan,nan
3821964000,6,1588.1,1629.3195,1587.8776,1623.5638,1500.0,1500.0,nan,nan,nan,nan,nan,nan,nan,nan,nan,nan
3822060000,6,1581.971,1631.7958,1581.2063,1627.9016,1500.0,1500.0,nan,nan,nan,nan,nan,nan,nan,nan,nan,nan
3822160000,6,1585.4861,1622.6909,1583.6086,1617.8983,1500.0,1500.0,nan,nan,nan,nan,nan,nan,nan,nan,nan,nan
3822260000,6,1583.3699,1619.3712,1581.367,1611.8438,1500.0,1500.0,nan,nan,nan,nan,nan,nan,nan,nan,nan,nan
3822360000,6,1582.6519,1616.8634,1573.9108,1611.5453,1500.0,1500.0,nan,nan,nan,nan,nan,nan,nan,nan,nan,nan
3822464000,6,1567.3792,1606.1378,1579.9785,1614.0701,1500.0,1500.0,nan,nan,nan,nan,nan,nan,nan,nan,nan,nan
3822564000,6,1587.6256,1620.5232,1569.0707,1586.2697,1500.0,1500.0,nan,nan,nan,nan,nan,nan,nan,nan,nan,nan
3822660000,6,1606.3021,1645.003,1546.9508,1549.833,1500.0,1500.0,nan,nan,nan,nan,nan,nan,nan,nan,nan,nan
3822760000,6,1612.8434,1647.074,1548.0947,1533.4983,1500.0,1500.0,nan,nan,nan,nan,nan,nan,nan,nan,nan,nan
3822864000,6,1616.8264,1653.1356,1554.5381,1523.5363,1500.0,1500.0,nan,nan,nan,nan,nan,nan,nan,nan,nan,nan
3822960000,6,1606.7748,1652.3832,1527.5803,1550.2946,1500.0,1500.0,nan,nan,nan,nan,nan,nan,nan,nan,nan,nan
3823060000,6,1605.5012,1639.3364,1519.588,1562.9258,1500.0,1500.0,nan,nan,nan,nan,nan,nan,nan,nan,nan,nan
3823160000,6,1607.6254,1637.6932,1545.8505,1552.5552,1500.0,1500.0,nan,nan,nan,nan,nan,nan,nan,nan,nan,nan
3823260000,6,1621.9138,1626.662,1518.4885,1562.237,1500.0,1500.0,nan,nan,nan,nan,nan,nan,nan,nan,nan,nan
3823364000,6,1620.5597,1616.9336,1523.9927,1548.72,1500.0,1500.0,nan,nan,nan,nan,nan,nan,nan,nan,nan,nan
3823464000,6,1612.7036,1626.7478,1545.9769,1543.6045,1500.0,1500.0,nan,nan,nan,nan,nan,nan,nan,nan,nan,nan
3823560000,6,1594.9702,1643.1,1562.2015,1524.5956,1500.0,1500.0,nan,nan,nan,nan,nan,nan,nan,nan,nan,nan
3823660000,6,1603.1346,1625.1332,1544.0458,1530.5876,1500.0,1500.0,nan,nan,nan,nan,nan,nan,nan,nan,nan,nan
3823764000,6,1605.0427,1630.5974,1547.3519,1534.5203,1500.0,1500.0,nan,nan,nan,nan,nan,nan,nan,nan,nan,nan
3823864000,6,1594.5879,1632.3068,1549.21,1537.8518,1500.0,1500.0,nan,nan,nan,nan,nan,nan,nan,nan,nan,nan
3823960000,6,1602.6959,1637.7201,1544.332,1529.7666,1500.0,1500.0,nan,nan,nan,nan,nan,nan,nan,nan,nan,nan
3824064000,6,1594.5809,1638.7628,1544.22,1536.3212,1500.0,1500.0,nan,nan,nan,nan,nan,nan,nan,nan,nan,nan
3824160000,6,1592.6438,1637.8939,1544.853,1536.277,1500.0,1500.0,nan,nan,nan,nan,nan,nan,nan,nan,nan,nan
3824260000,6,1606.5701,1631.8922,1545.2721,1529.7422,1500.0,1500.0,nan,nan,nan,nan,nan,nan,nan,nan,nan,nan
3824360000,6,1619.3038,1617.4827,1542.8539,1541.7417,1500.0,1500.0,nan,nan,nan,nan,nan,nan,nan,nan,nan,nan
3824460000,6,1596.2173,1633.7913,1546.6609,1542.8104,1500.0,1500.0,nan,nan,nan,nan,nan,nan,nan,nan,nan,nan
3824560000,6,1611.7482,1628.2363,1541.4753,1538.1731,1500.0,1500.0,nan,nan,nan,nan,nan,nan,nan,nan,nan,nan
3824660000,6,1615.2043,1621.1783,1546.1317,1538.8022,1500.0,1500.0,nan,nan,nan,nan,nan,nan,nan,nan,nan,nan
3824764000,6,1597.1335,1631.1078,1545.6289,1549.476,1500.0,1500.0,nan,nan,nan,nan,nan,nan,nan,nan,nan,nan
3824860000,6,1606.2825,1639.6104,1545.2518,1545.5013,1500.0,1500.0,nan,nan,nan,nan,nan,nan,nan,nan,nan,nan
3824960000,6,1598.6572,1640.5869,1539.4968,1552.8615,1500.0,1500.0,nan,nan,nan,nan,nan,nan,nan,nan,nan,nan
3825060000,6,1585.1234,1658.9009,1539.1335,1565.68,1500.0,1500.0,nan,nan,nan,nan,nan,nan,nan,nan,nan,nan
3825164000,6,1585.6848,1660.7136,1537.4723,1563.4861,1500.0,1500.0,nan,nan,nan,nan,nan,nan,nan,nan,nan,nan
3825260000,6,1618.4584,1623.5448,1557.2714,1547.9905,1500.0,1500.0,nan,nan,nan,nan,nan,nan,nan,nan,nan,nan
3825360000,6,1615.7031,1641.382,1551.2261,1551.514,1500.0,1500.0,nan,nan,nan,nan,nan,nan,nan,nan,nan,nan
3825464000,6,1596.0553,1622.9153,1564.6737,1581.1613,1500.0,1500.0,nan,nan,nan,nan,nan,nan,nan,nan,nan,nan
3825560000,6,1564.4288,1620.9255,1577.2296,1618.8651,1500.0,1500.0,nan,nan,nan,nan,nan,nan,nan,nan,nan,nan
3825660000,6,1575.2502,1608.4863,1593.3567,1616.8073,1500.0,1500.0,nan,nan,nan,nan,nan,nan,nan,nan,nan,nan
3825760000,6,1575.4567,1614.0194,1590.4722,1623.13,1500.0,1500.0,nan,nan,nan,nan,nan,nan,nan,nan,nan,nan
3825860000,6,1581.3833,1618.6896,1589.8555,1625.511,1500.0,1500.0,nan,nan,nan,nan,nan,nan,nan,nan,nan,nan
3825960000,6,1588.3195,1620.3663,1593.2242,1627.0126,1500.0,1500.0,nan,nan,nan,nan,nan,nan,nan,nan,nan,nan
3826060000,6,1587.5669,1625.782,1592.1929,1628.7952,1500.0,1500.0,nan,nan,nan,nan,nan,nan,nan,nan,nan,nan
3826164000,6,1589.7345,1641.4143,1587.93,1647.2424,1500.0,1500.0,nan,nan,nan,nan,nan,nan,nan,nan,nan,nan
3826260000,6,1600.8086,1637.4452,1600.8136,1642.5057,1500.0,1500.0,nan,nan,nan,nan,nan,nan,nan,nan,nan,nan
3826360000,6,1604.689,1630.9694,1603.5155,1632.6656,1500.0,1500.0,nan,nan,nan,nan,nan,nan,nan,nan,nan,nan
3826460000,6,1606.738,1647.8296,1605.4857,1650.1499,1500.0,1500.0,nan,nan,nan,nan,nan,nan,nan,nan,nan,nan
3826560000,6,1603.0238,1662.6929,1597.694,1666.4688,1500.0,1500.0,nan,nan,nan,nan,nan,nan,nan,nan,nan,nan
3826664000,6,1606.4072,1663.539,1601.6216,1667.9923,1500.0,1500.0,nan,nan,nan,nan,nan,nan,nan,nan,nan,nan
3826764000,6,1624.6195,1642.8757,1620.5819,1640.6135,1500.0,1500.0,nan,nan,nan,nan,nan,nan,nan,nan,nan,nan
3826864000,6,1630.4366,1660.4623,1623.3181,1658.216,1500.0,1500.0,nan,nan,nan,nan,nan,nan,nan,nan,nan,nan
3826960000,6,1620.7909,1672.6493,1612.0154,1673.9054,1500.0,1500.0,nan,nan,nan,nan,nan,nan,nan,nan,nan,nan
3827060000,6,1624.2958,1680.2811,1613.8163,1679.4712,1500.0,1500.0,nan,nan,nan,nan,nan,nan,nan,nan,nan,nan
3827160000,6,1634.5521,1677.3252,1621.7981,1673.3564,1500.0,1500.0,nan,nan,nan,nan,nan,nan,nan,nan,nan,nan
3827260000,6,1640.1053,1670.3945,1628.532,1653.7065,1500.0,1500.0,nan,nan,nan,nan,nan,nan,nan,nan,nan,nan
3827364000,6,1641.81,1674.7507,1624.6787,1648.4053,1500.0,1500.0,nan,nan,nan,nan,nan,nan,nan,nan,nan,nan
3827460000,6,1627.0186,1693.794,1605.23,1672.4392,1500.0,1500.0,nan,nan,nan,nan,nan,nan,nan,nan,nan,nan
3827560000,6,1630.3104,1697.2981,1596.6356,1682.7415,1500.0,1500.0,nan,nan,nan,nan,nan,nan,nan,nan,nan,nan
3827660000,6,1641.0587,1696.3408,1593.9022,1666.4095,1500.0,1500.0,nan,nan,nan,nan,nan,nan,nan,nan,nan,nan
3827764000,6,1644.6211,1692.7417,1600.1326,1656.0325,1500.0,1500.0,nan,nan,nan,nan,nan,nan,nan,nan,nan,nan
3827860000,6,1624.1963,1666.4287,1622.5635,1672.7793,1500.0,1500.0,nan,nan,nan,nan,nan,nan,nan,nan,nan,nan
3827964000,6,1585.813,1645.9141,1652.2354,1717.5186,1500.0,1500.0,nan,nan,nan,nan,nan,nan,nan,nan,nan,nan
3828064000,6,1588.8617,1632.1052,1660.5305,1703.1445,1500.0,1500.0,nan,nan,nan,nan,nan,nan,nan,nan,nan,nan
3828160000,6,1596.3857,1639.2191,1648.3693,1711.1176,1500.0,1500.0,nan,nan,nan,nan,nan,nan,nan,nan,nan,nan
3828260000,6,1594.9622,1636.2477,1648.9678,1725.3599,1500.0,1500.0,nan,nan,nan,nan,nan,nan,nan,nan,nan,nan
3828360000,6,1613.9326,1661.0662,1626.9253,1697.6797,1500.0,1500.0,nan,nan,nan,nan,nan,nan,nan,nan,nan,nan
3828464000,6,1625.9961,1674.7863,1615.7043,1684.36,1500.0,1500.0,nan,nan,nan,nan,nan,nan,nan,nan,nan,nan
3828564000,6,1630.8558,1680.6406,1619.5857,1683.617,1500.0,1500.0,nan,nan,nan,nan,nan,nan,nan,nan,nan,nan
3828664000,6,1627.4005,1681.5549,1624.8369,1679.9498,1500.0,1500.0,nan,nan,nan,nan,nan,nan,nan,nan,nan,nan
3828760000,6,1626.7849,1675.9446,1626.4615,1671.6853,1500.0,1500.0,nan,nan,nan,nan,nan,nan,nan,nan,nan,nan
3828860000,6,1630.1335,1674.5847,1628.8435,1673.1019,1500.0,1500.0,nan,nan,nan,nan,nan,nan,nan,nan,nan,nan
3828960000,6,1622.7567,1690.9999,1621.9547,1685.4656,1500.0,1500.0,nan,nan,nan,nan,nan,nan,nan,nan,nan,nan
3829060000,6,1622.226,1686.5195,1623.3167,1686.3254,1500.0,1500.0,nan,nan,nan,nan,nan,nan,nan,nan,nan,nan
3829160000,6,1622.2848,1694.3206,1624.3362,1693.0452,1500.0,1500.0,nan,nan,nan,nan,nan,nan,nan,nan,nan,nan
3829260000,6,1621.4073,1676.6992,1628.8314,1671.6478,1500.0,1500.0,nan,nan,nan,nan,nan,nan,nan,nan,nan,nan
3829360000,6,1625.9531,1684.9109,1627.9114,1684.7964,1500.0,1500.0,nan,nan,nan,nan,nan,nan,nan,nan,nan,nan
3829460000,6,1621.2102,1687.0264,1626.8408,1685.0895,1500.0,1500.0,nan,nan,nan,nan,nan,nan,nan,nan,nan,nan
3829560000,6,1626.2017,1682.5792,1628.5801,1682.2249,1500.0,1500.0,nan,nan,nan,nan,nan,nan,nan,nan,nan,nan
3829660000,6,1628.2286,1679.9855,1633.2776,1676.8926,1500.0,1500.0,nan,nan,nan,nan,nan,nan,nan,nan,nan,nan
3829764000,6,1625.5798,1681.5083,1628.8005,1681.198,1500.0,1500.0,nan,nan,nan,nan,nan,nan,nan,nan,nan,nan
3829864000,6,1630.0663,1677.958,1636.5515,1677.5276,1500.0,1500.0,nan,nan,nan,nan,nan,nan,nan,nan,nan,nan
3829960000,6,1625.8785,1693.9117,1629.5758,1691.5056,1500.0,1500.0,nan,nan,nan,nan,nan,nan,nan,nan,nan,nan
3830064000,6,1624.7434,1688.6599,1628.6348,1689.1521,1500.0,1500.0,nan,nan,nan,nan,nan,nan,nan,nan,nan,nan
3830160000,6,1623.0957,1687.3359,1632.3792,1683.4847,1500.0,1500.0,nan,nan,nan,nan,nan,nan,nan,nan,nan,nan
3830260000,6,1627.7336,1687.1549,1635.6401,1682.2786,1500.0,1500.0,nan,nan,nan,nan,nan,nan,nan,nan,nan,nan
3830364000,6,1631.3878,1677.1504,1635.2316,1678.7166,1500.0,1500.0,nan,nan,nan,nan,nan,nan,nan,nan,nan,nan
3830460000,6,1624.5065,1695.1443,1630.2021,1693.7018,1500.0,1500.0,nan,nan,nan,nan,nan,nan,nan,nan,nan,nan
3830564000,6,1624.3032,1693.1528,1627.8104,1693.4158,1500.0,1500.0,nan,nan,nan,nan,nan,nan,nan,nan,nan,nan
3830664000,6,1630.4186,1683.4568,1634.4749,1683.899,1500.0,1500.0,nan,nan,nan,nan,nan,nan,nan,nan,nan,nan
3830760000,6,1626.9067,1687.9578,1632.5116,1683.4678,1500.0,1500.0,nan,nan,nan,nan,nan,nan,nan,nan,nan,nan
3830860000,6,1628.1471,1685.3486,1633.9092,1683.403,1500.0,1500.0,nan,nan,nan,nan,nan,nan,nan,nan,nan,nan
3830960000,6,1623.9076,1696.4792,1629.0505,1696.7013,1500.0,1500.0,nan,nan,nan,nan,nan,nan,nan,nan,nan,nan
3831060000,6,1623.0483,1693.5396,1628.8865,1692.4299,1500.0,1500.0,nan,nan,nan,nan,nan,nan,nan,nan,nan,nan
3831164000,6,1630.8228,1684.066,1637.3734,1680.697,1500.0,1500.0,nan,nan,nan,nan,nan,nan,nan,nan,nan,nan
3831264000,6,1625.9534,1695.1852,1631.1155,1695.4667,1500.0,1500.0,nan,nan,nan,nan,nan,nan,nan,nan,nan,nan
3831360000,6,1627.5833,1696.2854,1629.764,1694.2266,1500.0,1500.0,nan,nan,nan,nan,nan,nan,nan,nan,nan,nan
3831460000,6,1628.6428,1694.3137,1632.2986,1693.6799,1500.0,1500.0,nan,nan,nan,nan,nan,nan,nan,nan,nan,nan
3831560000,6,1629.4216,1690.658,1633.5541,1692.5002,1500.0,1500.0,nan,nan,nan,nan,nan,nan,nan,nan,nan,nan
3831664000,6,1629.0822,1685.7645,1637.5156,1685.3988,1500.0,1500.0,nan,nan,nan,nan,nan,nan,nan,nan,nan,nan
3831760000,6,1628.8932,1699.8202,1630.9751,1697.3896,1500.0,1500.0,nan,nan,nan,nan,nan,nan,nan,nan,nan,nan
3831864000,6,1627.4056,1701.2085,1631.4653,1698.6382,1500.0,1500.0,nan,nan,nan,nan,nan,nan,nan,nan,nan,nan
3831960000,6,1633.7054,1688.9287,1639.8502,1688.8853,1500.0,1500.0,nan,nan,nan,nan,nan,nan,nan,nan,nan,nan
3832064000,6,1632.7769,1689.5718,1639.5011,1689.1257,1500.0,1500.0,nan,nan,nan,nan,nan,nan,nan,nan,nan,nan
3832164000,6,1633.852,1691.7543,1636.383,1690.4359,1500.0,1500.0,nan,nan,nan,nan,nan,nan,nan,nan,nan,nan
3832260000,6,1630.4166,1696.4264,1634.8009,1695.7184,1500.0,1500.0,nan,nan,nan,nan,nan,nan,nan,nan,nan,nan
3832364000,6,1629.2806,1696.1377,1635.211,1691.5479,1500.0,1500.0,nan,nan,nan,nan,nan,nan,nan,nan,nan,nan
3832460000,6,1634.478,1696.7972,1634.9723,1697.894,1500.0,1500.0,nan,nan,nan,nan,nan,nan,nan,nan,nan,nan
3832564000,6,1634.9384,1688.0468,1638.135,1689.5857,1500.0,1500.0,nan,nan,nan,nan,nan,nan,nan,nan,nan,nan
3832660000,6,1631.837,1694.0588,1640.1024,1691.3693,1500.0,1500.0,nan,nan,nan,nan,nan,nan,nan,nan,nan,nan
3832760000,6,1633.127,1692.6876,1637.154,1692.002,1500.0,1500.0,nan,nan,nan,nan,nan,nan,nan,nan,nan,nan
3832864000,6,1635.1381,1689.9247,1638.9696,1690.805,1500.0,1500.0,nan,nan,nan,nan,nan,nan,nan,nan,nan,nan
3832964000,6,1632.9176,1702.927,1634.0942,1704.2361,1500.0,1500.0,nan,nan,nan,nan,nan,nan,nan,nan,nan,nan
3833060000,6,1634.0396,1695.7551,1640.4365,1691.0482,1500.0,1500.0,nan,nan,nan,nan,nan,nan,nan,nan,nan,nan
3833164000,6,1636.6937,1691.087,1639.4832,1690.8538,1500.0,1500.0,nan,nan,nan,nan,nan,nan,nan,nan,nan,nan
3833260000,6,1633.4758,1696.2814,1637.2312,1699.9673,1500.0,1500.0,nan,nan,nan,nan,nan,nan,nan,nan,nan,nan
3833360000,6,1633.5609,1698.5669,1637.8717,1696.5562,1500.0,1500.0,nan,nan,nan,nan,nan,nan,nan,nan,nan,nan
3833464000,6,1637.7223,1700.789,1638.5364,1701.5172,1500.0,1500.0,nan,nan,nan,nan,nan,nan,nan,nan,nan,nan
3833560000,6,1635.0762,1695.0432,1641.948,1695.4817,1500.0,1500.0,nan,nan,nan,nan,nan,nan,nan,nan,nan,nan
3833660000,6,1637.4036,1696.654,1640.534,1699.4856,1500.0,1500.0,nan,nan,nan,nan,nan,nan,nan,nan,nan,nan
3833764000,6,1636.5388,1702.1066,1640.114,1702.4961,1500.0,1500.0,nan,nan,nan,nan,nan,nan,nan,nan,nan,nan
3833864000,6,1637.7472,1701.8333,1641.0841,1701.695,1500.0,1500.0,nan,nan,nan,nan,nan,nan,nan,nan,nan,nan
3833960000,6,1637.5945,1696.1244,1642.8972,1696.5387,1500.0,1500.0,nan,nan,nan,nan,nan,nan,nan,nan,nan,nan
3834064000,6,1640.3307,1694.0198,1644.2965,1694.6624,1500.0,1500.0,nan,nan,nan,nan,nan,nan,nan,nan,nan,nan
3834164000,6,1635.0278,1706.1335,1643.0024,1702.3673,1500.0,1500.0,nan,nan,nan,nan,nan,nan,nan,nan,nan,nan
3834264000,6,1640.1367,1701.5623,1642.5901,1700.3793,1500.0,1500.0,nan,nan,nan,nan,nan,nan,nan,nan,nan,nan
3834360000,6,1639.3873,1702.8336,1641.9713,1706.3982,1500.0,1500.0,nan,nan,nan,nan,nan,nan,nan,nan,nan,nan
3834464000,6,1639.2319,1698.7157,1645.056,1696.408,1500.0,1500.0,nan,nan,nan,nan,nan,nan,nan,nan,nan,nan
3834560000,6,1639.0522,1707.5625,1640.6532,1707.9136,1500.0,1500.0,nan,nan,nan,nan,nan,nan,nan,nan,nan,nan
3834660000,6,1639.1361,1703.6342,1641.1637,1705.2882,1500.0,1500.0,nan,nan,nan,nan,nan,nan,nan,nan,nan,nan
3834764000,6,1640.3052,1702.7762,1645.4261,1701.6249,1500.0,1500.0,nan,nan,nan,nan,nan,nan,nan,nan,nan,nan
3834860000,6,1639.7756,1701.6836,1643.0488,1700.8333,1500.0,1500.0,nan,nan,nan,nan,nan,nan,nan,nan,nan,nan
3834960000,6,1642.6499,1697.2102,1646.6742,1692.5151,1500.0,1500.0,nan,nan,nan,nan,nan,nan,nan,nan,nan,nan
3835060000,6,1638.221,1706.3531,1640.456,1703.8291,1500.0,1500.0,nan,nan,nan,nan,nan,nan,nan,nan,nan,nan
3835164000,6,1640.0164,1705.0339,1645.948,1698.9902,1500.0,1500.0,nan,nan,nan,nan,nan,nan,nan,nan,nan,nan
3835264000,6,1640.3289,1704.5386,1645.3418,1706.377,1500.0,1500.0,nan,nan,nan,nan,nan,nan,nan,nan,nan,nan
3835360000,6,1641.6544,1702.9099,1644.0459,1701.9747,1500.0,1500.0,nan,nan,nan,nan,nan,nan,nan,nan,nan,nan
3835464000,6,1640.3287,1701.4276,1645.4895,1703.7642,1500.0,1500.0,nan,nan,nan,nan,nan,nan,nan,nan,nan,nan
3835560000,6,1633.9023,1710.606,1642.3029,1710.4749,1500.0,1500.0,nan,nan,nan,nan,nan,nan,nan,nan,nan,nan
3835660000,6,1640.0994,1702.9379,1647.546,1701.9182,1500.0,1500.0,nan,nan,nan,nan,nan,nan,nan,nan,nan,nan
3835760000,6,1643.194,1703.9779,1646.9635,1703.8374,1500.0,1500.0,nan,nan,nan,nan,nan,nan,nan,nan,nan,nan
3835860000,6,1642.4418,1699.7262,1643.3582,1701.9668,1500.0,1500.0,nan,nan,nan,nan,nan,nan,nan,nan,nan,nan
3835964000,6,1640.7147,1709.323,1647.1143,1707.446,1500.0,1500.0,nan,nan,nan,nan,nan,nan,nan,nan,nan,nan
3836060000,6,1638.8516,1711.3015,1642.476,1711.0758,1500.0,1500.0,nan,nan,nan,nan,nan,nan,nan,nan,nan,nan
3836160000,6,1641.1725,1704.6934,1645.476,1702.7107,1500.0,1500.0,nan,nan,nan,nan,nan,nan,nan,nan,nan,nan
3836260000,6,1644.385,1705.9293,1646.5615,1707.2216,1500.0,1500.0,nan,nan,nan,nan,nan,nan,nan,nan,nan,nan
3836364000,6,1644.3019,1703.0466,1649.1335,1702.5272,1500.0,1500.0,nan,nan,nan,nan,nan,nan,nan,nan,nan,nan
3836460000,6,1639.6799,1716.3035,1645.5958,1715.1361,1500.0,1500.0,nan,nan,nan,nan,nan,nan,nan,nan,nan,nan
3836560000,6,1643.0315,1707.9269,1649.2241,1705.6888,1500.0,1500.0,nan,nan,nan,nan,nan,nan,nan,nan,nan,nan
3836660000,6,1642.5408,1709.1113,1647.2131,1707.2183,1500.0,1500.0,nan,nan,nan,nan,nan,nan,nan,nan,nan,nan
3836764000,6,1642.2748,1704.5214,1646.6549,1700.334,1500.0,1500.0,nan,nan,nan,nan,nan,nan,nan,nan,nan,nan
3836864000,6,1647.9915,1700.6898,1647.0725,1702.9404,1500.0,1500.0,nan,nan,nan,nan,nan,nan,nan,nan,nan,nan
3836964000,6,1640.5658,1713.3208,1644.3097,1713.1783,1500.0,1500.0,nan,nan,nan,nan,nan,nan,nan,nan,nan,nan
3837060000,6,1642.1216,1706.1193,1646.4788,1705.2616,1500.0,1500.0,nan,nan,nan,nan,nan,nan,nan,nan,nan,nan
3837164000,6,1644.8997,1708.4342,1646.698,1708.7008,1500.0,1500.0,nan,nan,nan,nan,nan,nan,nan,nan,nan,nan
3837260000,6,1641.5498,1703.9976,1645.95,1706.2186,1500.0,1500.0,nan,nan,nan,nan,nan,nan,nan,nan,nan,nan
3837360000,6,1639.9167,1710.5659,1644.5219,1710.5494,1500.0,1500.0,nan,nan,nan,nan,nan,nan,nan,nan,nan,nan
3837460000,6,1639.1194,1709.5012,1643.7913,1709.843,1500.0,1500.0,nan,nan,nan,nan,nan,nan,nan,nan,nan,nan
3837560000,6,1640.9841,1711.7487,1646.4067,1708.1628,1500.0,1500.0,nan,nan,nan,nan,nan,nan,nan,nan,nan,nan
3837664000,6,1643.5912,1708.7708,1649.588,1709.4966,1500.0,1500.0,nan,nan,nan,nan,nan,nan,nan,nan,nan,nan
3837760000,6,1641.7241,1708.2599,1642.9244,1708.6255,1500.0,1500.0,nan,nan,nan,nan,nan,nan,nan,nan,nan,nan
3837864000,6,1640.298,1715.429,1645.8553,1713.3345,1500.0,1500.0,nan,nan,nan,nan,nan,nan,nan,nan,nan,nan
3837960000,6,1645.2252,1707.3425,1647.7302,1707.6571,1500.0,1500.0,nan,nan,nan,nan,nan,nan,nan,nan,nan,nan
3838060000,6,1645.1571,1710.2012,1648.2239,1713.4049,1500.0,1500.0,nan,nan,nan,nan,nan,nan,nan,nan,nan,nan
3838164000,6,1642.1847,1712.8472,1647.8425,1710.944,1500.0,1500.0,nan,nan,nan,nan,nan,nan,nan,nan,nan,nan
3838264000,6,1642.1544,1714.2607,1646.1206,1712.7034,1500.0,1500.0,nan,nan,nan,nan,nan,nan,nan,nan,nan,nan
3838360000,6,1647.7059,1706.1573,1651.3854,1703.8518,1500.0,1500.0,nan,nan,nan,nan,nan,nan,nan,nan,nan,nan
3838460000,6,1642.8651,1717.8228,1644.253,1715.4325,1500.0,1500.0,nan,nan,nan,nan,nan,nan,nan,nan,nan,nan
