timestamp,timestamp_sample,control[0],control[1],control[2],control[3],control[4],control[5],control[6],control[7]
3782264000,3782264000,0.0038594604,0.001323303,-0.23918395,-0.0,0.0,0.0,0.0,-1.0
3782364000,3782364000,0.006426991,-0.0025469908,-0.23925416,-0.0,0.0,0.0,0.0,-1.0
3782464000,3782464000,0.0055871257,-0.00095508865,-0.24014603,-0.0,0.0,0.0,0.0,-1.0
3782564000,3782564000,0.003773568,-0.0016602434,-0.23931172,-0.0,0.0,0.0,0.0,-1.0
3782660000,3782660000,0.0039971382,-0.002296336,-0.23913121,-0.0,0.0,0.0,0.0,-1.0
3782760000,3782760000,0.0048271655,-0.0019394093,-0.2401013,-0.0,0.0,0.0,0.0,-1.0
3782864000,3782864000,0.007036102,0.0014270346,-0.23919702,-0.0,0.0,0.0,0.0,-1.0
3782964000,3782964000,0.003558787,0.0006505409,-0.23890157,-0.0,0.0,0.0,0.0,-1.0
3783060000,3783060000,0.0051569254,-0.00012178009,-0.23920536,-0.0,0.0,0.0,0.0,-1.0
3783164000,3783164000,0.0032680554,-0.0022597066,-0.24011178,-0.0,0.0,0.0,0.0,-1.0
3783264000,3783264000,0.005168654,-0.0014579158,-0.23994844,-0.0,0.0,0.0,0.0,-1.0
3783360000,3783360000,0.03866672,-0.054785203,-0.000729053,0.12017062,0.0,0.0,0.0,-1.0
3783464000,3783464000,0.028884206,-0.057308227,-0.00049770373,0.15933254,0.0,0.0,0.0,-1.0
3783564000,3783564000,0.024254147,-0.047592577,-0.0010586032,0.22378248,0.0,0.0,0.0,-1.0
3783664000,3783664000,0.028786913,-0.041268587,-0.0013416788,0.28971514,0.0,0.0,0.0,-1.0
3783764000,3783764000,0.025503278,-0.037369166,0.0003606581,0.3731168,0.0,0.0,0.0,-1.0
3783864000,3783864000,0.026027635,-0.033679135,0.00043023456,0.44386324,0.0,0.0,0.0,-1.0
3783964000,3783964000,0.02815162,-0.035351094,-0.00068103604,0.5128303,0.0,0.0,0.0,-1.0
3784064000,3784064000,0.022485126,-0.028431008,-0.0013923296,0.59755766,0.0,0.0,0.0,-1.0
3784164000,3784164000,-0.007561492,0.00844348,0.00038278505,0.6091311,0.0,0.0,0.0,-1.0
3784260000,3784260000,0.00029885583,0.0069721853,0.00017494052,0.61103064,0.0,0.0,0.0,-1.0
3784364000,3784364000,-0.004921507,-0.0017937887,0.0005031757,0.61618364,0.0,0.0,0.0,-1.0
3784460000,3784460000,-3.2740645e-05,-0.00069488864,0.00026310686,0.61440283,0.0,0.0,0.0,-1.0
3784564000,3784564000,0.0024599698,-0.0019162679,-7.533188e-05,0.61658984,0.0,0.0,0.0,-1.0
3784664000,3784664000,0.0015067616,-0.005647392,0.0004876732,0.61477804,0.0,0.0,0.0,-1.0
3784764000,3784764000,0.0008393964,-0.00071019493,-0.0006531776,0.62268144,0.0,0.0,0.0,-1.0
3784860000,3784860000,-0.0010765572,-0.0021292255,4.3480395e-06,0.62215936,0.0,0.0,0.0,-1.0
3784964000,3784964000,0.00025942177,-0.0022889832,0.0004422292,0.6238451,0.0,0.0,0.0,-1.0
3785064000,3785064000,-0.00039171614,0.0003131451,4.4924192e-05,0.62272453,0.0,0.0,0.0,-1.0
3785160000,3785160000,0.0041660937,0.0009431611,-0.0010546402,0.6293429,0.0,0.0,0.0,-1.0
3785260000,3785260000,0.0006905538,-0.0005425364,-0.0005744888,0.63244194,0.0,0.0,0.0,-1.0
3785364000,3785364000,0.0016087418,0.0008953777,0.00052304595,0.63049215,0.0,0.0,0.0,-1.0
3785460000,3785460000,0.0014264113,0.0014658463,-0.0006455446,0.63357186,0.0,0.0,0.0,-1.0
3785564000,3785564000,-0.00024342281,0.0011444148,-0.00037121814,0.6324788,0.0,0.0,0.0,-1.0
3785664000,3785664000,0.0018655565,4.008808e-05,5.9232116e-05,0.64072573,0.0,0.0,0.0,-1.0
3785764000,3785764000,-0.004913144,0.0022001297,0.008117885,0.6425688,0.0,0.0,0.0,-1.0
3785864000,3785864000,0.00018588686,0.00189939,0.0016786953,0.64103276,0.0,0.0,0.0,1.0
3785964000,3785964000,0.00077804376,-9.266892e-06,-0.0007200723,0.6171818,0.0,0.0,0.0,1.0
3786060000,3786060000,0.0015119214,-0.00041682832,-0.00065039843,0.5308408,0.0,0.0,0.0,1.0
3786160000,3786160000,0.00041345914,0.0020877898,-0.0012191032,0.5679921,0.0,0.0,0.0,1.0
3786260000,3786260000,0.0028056153,-0.00035305624,-0.0012161322,0.57129,0.0,0.0,0.0,1.0
3786360000,3786360000,0.0040251827,-0.0021653268,0.00011727789,0.56590104,0.0,0.0,0.0,1.0
3786464000,3786464000,0.00060806924,-0.00095265475,-5.462656e-05,0.56518036,0.0,0.0,0.0,1.0
3786564000,3786564000,0.00020425476,0.0032433677,-0.00084400707,0.5667783,0.0,0.0,0.0,1.0
3786660000,3786660000,0.0010248974,0.0014502187,-0.0008414936,0.57668626,0.0,0.0,0.0,1.0
3786764000,3786764000,0.0010303976,0.0020199388,0.00014064298,0.57411444,0.0,0.0,0.0,1.0
3786860000,3786860000,-0.000538083,0.0022146823,0.000153362,0.5750825,0.0,0.0,0.0,1.0
3786964000,3786964000,-0.00095503964,0.0026404737,-0.00055871095,0.5732969,0.0,0.0,0.0,1.0
3787064000,3787064000,-0.0003343019,0.00083515357,-0.0006888289,0.5786713,0.0,0.0,0.0,1.0
3787164000,3787164000,-0.004241094,0.00040738215,-0.001383768,0.56714535,0.0,0.0,0.0,1.0
3787260000,3787260000,-4.265178e-05,0.002502753,-0.000105396146,0.5552996,0.0,0.0,0.0,1.0
3787364000,3787364000,0.0014090291,0.0036055145,-0.00070810516,0.5590324,0.0,0.0,0.0,1.0
3787464000,3787464000,-0.0012878795,1.5304657e-05,-0.00019328852,0.5590141,0.0,0.0,0.0,1.0
3787564000,3787564000,-0.0017153913,0.00036411328,0.0009855753,0.56287163,0.0,0.0,0.0,1.0
3787660000,3787660000,-0.0003250633,0.0012857586,0.00039971236,0.5623513,0.0,0.0,0.0,1.0
3787764000,3787764000,-0.0038579446,-0.0023560622,-0.0012553559,0.562264,0.0,0.0,0.0,1.0
3787864000,3787864000,0.0005478208,0.0027072185,-0.0011701211,0.5588691,0.0,0.0,0.0,1.0
3787964000,3787964000,-0.0002834713,-0.00079797534,0.00075464713,0.56387186,0.0,0.0,0.0,1.0
3788064000,3788064000,0.00014404085,-0.002900554,0.0002281025,0.5662168,0.0,0.0,0.0,1.0
3788164000,3788164000,0.0010624225,-0.0024594304,-0.00044078907,0.5659597,0.0,0.0,0.0,1.0
3788264000,3788264000,0.0021007091,-0.00022055517,0.0002520674,0.56327635,0.0,0.0,0.0,1.0
3788360000,3788360000,0.0016642684,-0.00014010498,-0.0001771439,0.56013626,0.0,0.0,0.0,1.0
3788460000,3788460000,0.0001478254,-0.0015529795,-0.000102027436,0.56229,0.0,0.0,0.0,1.0
3788564000,3788564000,-0.00079832436,0.00052837795,0.00025622416,0.5631352,0.0,0.0,0.0,1.0
3788660000,3788660000,0.00031556844,0.0003332235,0.0005755593,0.56594944,0.0,0.0,0.0,1.0
3788760000,3788760000,1.6252976e-05,0.00051717565,-0.00026279571,0.56404614,0.0,0.0,0.0,1.0
3788864000,3788864000,-0.002071583,6.8650064e-05,6.249284e-05,0.5627938,0.0,0.0,0.0,1.0
3788964000,3788964000,-0.005341748,-0.00059075066,0.00044772038,0.5624375,0.0,0.0,0.0,1.0
3789064000,3789064000,-0.0007044005,-0.0004501847,0.0003729214,0.5655603,0.0,0.0,0.0,1.0
3789164000,3789164000,0.0010513669,-0.000383018,-0.0012613558,0.56409687,0.0,0.0,0.0,1.0
3789264000,3789264000,0.00080982,0.0013640448,-0.00045480483,0.56270355,0.0,0.0,0.0,1.0
3789364000,3789364000,0.001172986,0.0007685951,-7.633171e-06,0.56425476,0.0,0.0,0.0,1.0
3789464000,3789464000,-0.0017079341,-0.0019924543,-0.00050985883,0.5663476,0.0,0.0,0.0,1.0
3789560000,3789560000,-0.00038037208,-0.0012161811,0.00025153,0.5639258,0.0,0.0,0.0,1.0
3789660000,3789660000,-0.0005458859,-0.0016529314,0.0005591774,0.5632634,0.0,0.0,0.0,1.0
3789764000,3789764000,-7.1720744e-05,0.0012445224,-0.0005351969,0.5641154,0.0,0.0,0.0,1.0
3789864000,3789864000,0.00068982795,0.001822137,0.00033855872,0.56506336,0.0,0.0,0.0,1.0
3789960000,3789960000,0.0011309664,-0.00085480505,0.00022235606,0.5642512,0.0,0.0,0.0,1.0
3790064000,3790064000,0.0026249713,-0.0004283168,0.00010254078,0.56398,0.0,0.0,0.0,1.0
3790164000,3790164000,-0.0011130762,-0.0015836569,-0.00031210657,0.5623424,0.0,0.0,0.0,1.0
3790264000,3790264000,0.003930486,0.0023416441,-0.00043699966,0.5648787,0.0,0.0,0.0,1.0
3790364000,3790364000,-0.00078887196,-0.0009769624,0.00029848257,0.5647417,0.0,0.0,0.0,1.0
3790464000,3790464000,0.0004582195,-0.00074285164,-0.0013976155,0.5637243,0.0,0.0,0.0,1.0
3790564000,3790564000,-0.0016356376,0.00057202845,-0.0008225868,0.56195897,0.0,0.0,0.0,1.0
3790664000,3790664000,-0.00051580044,-0.0004538637,-0.00028764337,0.5626969,0.0,0.0,0.0,1.0
3790760000,3790760000,0.0017972692,0.0015713254,-0.00037499072,0.56527174,0.0,0.0,0.0,1.0
3790864000,3790864000,-0.0007367539,-0.0015763384,-0.00038282532,0.5640266,0.0,0.0,0.0,1.0
3790964000,3790964000,0.0018825815,0.00079250656,0.00060105405,0.5646291,0.0,0.0,0.0,1.0
3791060000,3791060000,0.0005280691,-0.00034414305,-0.0004781429,0.56568295,0.0,0.0,0.0,1.0
3791164000,3791164000,-0.0010445054,-0.0024778775,-0.0007771085,0.5646752,0.0,0.0,0.0,1.0
3791260000,3791260000,0.0013138292,0.00043601563,-0.0005015126,0.5659189,0.0,0.0,0.0,1.0
3791364000,3791364000,-0.00027566878,-0.00047768193,0.000979246,0.564037,0.0,0.0,0.0,1.0
3791460000,3791460000,0.0018117579,0.00076207775,-0.0003136422,0.5653059,0.0,0.0,0.0,1.0
3791564000,3791564000,-0.00082093163,-0.0006152432,0.0003149888,0.5656073,0.0,0.0,0.0,1.0
3791664000,3791664000,-0.0038339666,-0.00074008526,-0.00080902665,0.56579906,0.0,0.0,0.0,1.0
3791764000,3791764000,0.0010465258,-0.00027193854,-0.00032502634,0.56434965,0.0,0.0,0.0,1.0
3791864000,3791864000,0.0012202486,-0.00028660256,-0.00043225373,0.5648595,0.0,0.0,0.0,1.0
3791964000,3791964000,-0.002939407,0.0021463388,0.00030857252,0.5631689,0.0,0.0,0.0,1.0
3792064000,3792064000,-0.000792448,5.15172e-05,0.00042313014,0.5611496,0.0,0.0,0.0,1.0
3792160000,3792160000,0.0010667255,0.0011049875,-0.0009439227,0.5632529,0.0,0.0,0.0,1.0
3792260000,3792260000,-0.0026502123,0.0049646525,0.0005760174,0.5634657,0.0,0.0,0.0,1.0
3792360000,3792360000,-0.0028661997,-0.0010791442,-7.072094e-05,0.56368434,0.0,0.0,0.0,1.0
3792464000,3792464000,-0.0007782533,-0.0014587556,0.0002723245,0.5637209,0.0,0.0,0.0,1.0
3792564000,3792564000,-0.002003396,0.0036261985,4.4539196e-05,0.5612051,0.0,0.0,0.0,1.0
3792664000,3792664000,0.0017356904,0.0024964323,-9.96258e-05,0.56375724,0.0,0.0,0.0,1.0
3792764000,3792764000,0.0024038926,-0.0011231101,-0.00023759829,0.56443983,0.0,0.0,0.0,1.0
3792864000,3792864000,-0.0041294275,-0.0010283587,5.4119082e-05,0.56388456,0.0,0.0,0.0,1.0
3792960000,3792960000,0.00082186284,0.0005886206,-0.0005936906,0.56463605,0.0,0.0,0.0,1.0
3793064000,3793064000,-0.0007703302,0.0018710821,0.00021258507,0.5647694,0.0,0.0,0.0,1.0
3793164000,3793164000,0.0012947437,-0.002179836,-0.00031493767,0.5642664,0.0,0.0,0.0,1.0
3793260000,3793260000,0.00026730393,0.00022314089,-0.0005791323,0.56249297,0.0,0.0,0.0,1.0
3793364000,3793364000,0.0033142301,-0.0070120348,-0.008701207,0.5644586,0.0,0.0,0.0,1.0
3793464000,3793464000,-0.002598885,0.012283755,-0.03987884,0.5603196,0.0,0.0,0.0,1.0
3793564000,3793564000,-0.0043725297,0.02327112,-0.05039449,0.5613378,0.0,0.0,0.0,1.0
3793664000,3793664000,-0.015329584,0.039729442,-0.052181408,0.56732464,0.0,0.0,0.0,1.0
3793764000,3793764000,-0.0132790655,0.014701312,-0.045706905,0.5692614,0.0,0.0,0.0,1.0
3793864000,3793864000,0.009579657,-0.012741026,-0.0381074,0.57268524,0.0,0.0,0.0,1.0
3793964000,3793964000,0.010344094,-0.018114494,-0.04062695,0.58117557,0.0,0.0,0.0,1.0
3794064000,3794064000,-0.0008936384,0.0018595348,-0.03899403,0.5950403,0.0,0.0,0.0,1.0
3794164000,3794164000,0.011267154,-5.7418365e-05,-0.03721412,0.60314447,0.0,0.0,0.0,1.0
3794264000,3794264000,0.0054079522,0.0070512313,-0.044612322,0.6149186,0.0,0.0,0.0,1.0
3794364000,3794364000,0.011982402,0.0019041657,-0.04237535,0.61751854,0.0,0.0,0.0,1.0
3794460000,3794460000,-0.01228486,0.017623177,-0.04045634,0.6315346,0.0,0.0,0.0,1.0
3794564000,3794564000,-0.02293586,0.014311394,-0.04775513,0.6437648,0.0,0.0,0.0,1.0
3794664000,3794664000,-0.0061248615,0.007425231,-0.04251197,0.64765,0.0,0.0,0.0,1.0
3794764000,3794764000,-0.004709429,0.01017767,-0.04169406,0.6501316,0.0,0.0,0.0,1.0
3794864000,3794864000,-0.009752409,0.009850111,-0.048267767,0.6589386,0.0,0.0,0.0,1.0
3794960000,3794960000,-0.029308118,0.009008177,-0.048208687,0.6748629,0.0,0.0,0.0,1.0
3795064000,3795064000,-0.021775253,0.004456331,-0.041093886,0.6768397,0.0,0.0,0.0,1.0
3795160000,3795160000,-0.020362865,0.007299957,-0.047733143,0.68354845,0.0,0.0,0.0,1.0
3795260000,3795260000,-0.013779685,-0.00057212776,-0.040012956,0.68273187,0.0,0.0,0.0,1.0
3795364000,3795364000,-0.03507688,-0.007965706,-0.036789693,0.69113016,0.0,0.0,0.0,1.0
3795460000,3795460000,-0.03368093,-0.013865717,-0.041367523,0.69158024,0.0,0.0,0.0,1.0
3795564000,3795564000,-0.030171238,-0.013839438,-0.030884197,0.68683785,0.0,0.0,0.0,1.0
3795660000,3795660000,-0.027055994,-0.015873693,-0.029682333,0.6843668,0.0,0.0,0.0,1.0
3795764000,3795764000,-0.036303286,-0.023179324,-0.034687698,0.6820283,0.0,0.0,0.0,1.0
3795864000,3795864000,-0.030599048,-0.026184857,-0.038732547,0.6825315,0.0,0.0,0.0,1.0
3795960000,3795960000,-0.034652587,-0.031640913,-0.037277848,0.6850772,0.0,0.0,0.0,1.0
3796060000,3796060000,-0.027652945,-0.03286469,-0.03313773,0.6821485,0.0,0.0,0.0,1.0
3796160000,3796160000,-0.022655599,-0.029589167,-0.028382096,0.6812877,0.0,0.0,0.0,1.0
3796260000,3796260000,-0.022851452,-0.036830395,-0.03251926,0.6821714,0.0,0.0,0.0,1.0
3796364000,3796364000,-0.026480371,-0.04482069,-0.029106949,0.6835514,0.0,0.0,0.0,1.0
3796464000,3796464000,-0.017471034,-0.043621495,-0.02561594,0.6827122,0.0,0.0,0.0,1.0
3796564000,3796564000,-0.014513924,-0.044977278,-0.02815104,0.68337375,0.0,0.0,0.0,1.0
3796664000,3796664000,-0.011525579,-0.043279853,-0.02706313,0.68104416,0.0,0.0,0.0,1.0
3796764000,3796764000,-0.008094648,-0.044125453,-0.019962994,0.681334,0.0,0.0,0.0,1.0
3796864000,3796864000,-0.015680242,-0.051624257,0.0027456526,0.6850997,0.0,0.0,0.0,1.0
3796964000,3796964000,-0.015379188,-0.05279955,0.006975308,0.68652624,0.0,0.0,0.0,1.0
3797064000,3797064000,-0.0057712365,-0.04944141,0.003384566,0.68449503,0.0,0.0,0.0,1.0
3797164000,3797164000,-0.006395801,-0.044476505,0.0020293146,0.6819242,0.0,0.0,0.0,1.0
3797264000,3797264000,-0.0017444119,-0.043087523,0.0015338399,0.6837156,0.0,0.0,0.0,1.0
3797364000,3797364000,0.0012138095,-0.05323098,0.001415804,0.6877745,0.0,0.0,0.0,1.0
3797464000,3797464000,0.0007175943,-0.050932862,0.0017354582,0.6869,0.0,0.0,0.0,1.0
3797564000,3797564000,-0.00019400101,-0.04962694,0.00038164668,0.6855672,0.0,0.0,0.0,1.0
3797664000,3797664000,0.0009673722,-0.04409801,-5.484186e-05,0.68465316,0.0,0.0,0.0,1.0
3797764000,3797764000,0.0035836408,-0.0507348,-0.0005500056,0.68965375,0.0,0.0,0.0,1.0
3797860000,3797860000,0.004531014,-0.04766363,0.0002534557,0.6876953,0.0,0.0,0.0,1.0
3797964000,3797964000,0.0029952908,-0.049866676,-0.00064511504,0.68770987,0.0,0.0,0.0,1.0
3798064000,3798064000,0.0024113907,-0.042256683,-0.00029616337,0.687274,0.0,0.0,0.0,1.0
3798160000,3798160000,0.003529808,-0.043231744,-0.0013033738,0.68907386,0.0,0.0,0.0,1.0
3798260000,3798260000,0.005648047,-0.054467518,-0.00027803984,0.6903734,0.0,0.0,0.0,1.0
3798364000,3798364000,0.0012474132,-0.049556445,-0.00070648827,0.68968683,0.0,0.0,0.0,1.0
3798464000,3798464000,0.0042690057,-0.048011806,-0.000984543,0.68907446,0.0,0.0,0.0,1.0
3798564000,3798564000,0.00073250313,-0.04457785,-0.0006226441,0.6882933,0.0,0.0,0.0,1.0
3798664000,3798664000,0.0012169634,-0.04416549,-0.000586777,0.69006634,0.0,0.0,0.0,1.0
3798760000,3798760000,0.0025962957,-0.05541811,-0.0010085274,0.6931846,0.0,0.0,0.0,1.0
3798864000,3798864000,0.0025082882,-0.051071882,-0.0010340186,0.69157255,0.0,0.0,0.0,1.0
3798964000,3798964000,0.0032346752,-0.04945209,-0.00072232634,0.69106907,0.0,0.0,0.0,1.0
3799064000,3799064000,0.00097130996,-0.045252718,-0.00074508693,0.69011366,0.0,0.0,0.0,1.0
3799164000,3799164000,0.005313288,-0.054414906,-0.000744869,0.693074,0.0,0.0,0.0,1.0
3799260000,3799260000,0.0019453752,-0.050812416,-0.0019426304,0.6934793,0.0,0.0,0.0,1.0
3799364000,3799364000,-0.0007213786,-0.05107785,-0.00022483151,0.6919305,0.0,0.0,0.0,1.0
3799464000,3799464000,0.0029020594,-0.0497072,-0.0016450314,0.6916227,0.0,0.0,0.0,1.0
3799564000,3799564000,0.004491257,-0.049373254,-0.001066064,0.6905592,0.0,0.0,0.0,1.0
3799664000,3799664000,0.0036819545,-0.055335056,-0.00033782143,0.6926496,0.0,0.0,0.0,1.0
3799760000,3799760000,0.004733716,-0.05205144,-0.0004935758,0.6907923,0.0,0.0,0.0,1.0
3799864000,3799864000,-0.00047285773,-0.046562277,-0.0012538126,0.6919177,0.0,0.0,0.0,1.0
3799964000,3799964000,0.0032500469,-0.045587257,-0.0009532799,0.69007707,0.0,0.0,0.0,1.0
3800060000,3800060000,0.0015384748,-0.057026204,-0.0016810093,0.6932946,0.0,0.0,0.0,1.0
3800164000,3800164000,0.0010109331,-0.058894444,-0.00064793276,0.69196737,0.0,0.0,0.0,1.0
3800264000,3800264000,0.0019484054,-0.05037012,-0.0011210223,0.6910976,0.0,0.0,0.0,1.0
3800360000,3800360000,0.0029340521,-0.049465004,-0.0006358302,0.6924881,0.0,0.0,0.0,1.0
3800464000,3800464000,0.0020469634,-0.048105292,-0.0011149808,0.69113684,0.0,0.0,0.0,1.0
3800564000,3800564000,-0.0010463787,-0.057824656,-0.0010650349,0.6950114,0.0,0.0,0.0,1.0
3800664000,3800664000,0.0021330272,-0.05623655,-0.0012720732,0.6949809,0.0,0.0,0.0,1.0
3800764000,3800764000,0.0021691225,-0.053896733,-0.0010507323,0.6934268,0.0,0.0,0.0,1.0
3800864000,3800864000,0.0027281982,-0.047989752,-0.0028379653,0.6921391,0.0,0.0,0.0,1.0
3800964000,3800964000,0.00063920603,-0.049475305,-6.908644e-05,0.6918745,0.0,0.0,0.0,1.0
3801064000,3801064000,0.0013024055,-0.055897128,-0.0009918595,0.69474065,0.0,0.0,0.0,1.0
3801164000,3801164000,-0.0005557444,-0.051804382,-0.00069210026,0.6924459,0.0,0.0,0.0,1.0
3801264000,3801264000,0.0013769808,-0.049002465,-0.00036228565,0.69380605,0.0,0.0,0.0,1.0
3801360000,3801360000,0.0032613021,-0.047028363,-0.0004892037,0.6923642,0.0,0.0,0.0,1.0
3801464000,3801464000,0.0023448537,-0.049682725,-0.002191824,0.6915745,0.0,0.0,0.0,1.0
3801560000,3801560000,0.0017262776,-0.055424735,-0.0020144763,0.6952529,0.0,0.0,0.0,1.0
3801664000,3801664000,0.00073832413,-0.047199905,-0.0020072532,0.69490576,0.0,0.0,0.0,1.0
3801764000,3801764000,0.0034740488,-0.050571892,-0.0021895994,0.69529265,0.0,0.0,0.0,1.0
3801864000,3801864000,0.0055791815,-0.04659649,-0.000924391,0.69324875,0.0,0.0,0.0,1.0
3801964000,3801964000,0.0025010642,-0.055000655,-0.0009840252,0.69525766,0.0,0.0,0.0,1.0
3802060000,3802060000,0.0015704345,-0.057173215,-0.0012639706,0.6951457,0.0,0.0,0.0,1.0
3802160000,3802160000,-1.1351774e-05,-0.049030066,-0.0011603783,0.694543,0.0,0.0,0.0,1.0
3802260000,3802260000,0.0022823105,-0.046871826,-0.0011158551,0.6933446,0.0,0.0,0.0,1.0
3802364000,3802364000,-0.0015828765,-0.048454005,-0.00088969665,0.6942007,0.0,0.0,0.0,1.0
3802464000,3802464000,0.00031831255,-0.05704268,-0.0013900703,0.69772464,0.0,0.0,0.0,1.0
3802564000,3802564000,0.004945037,-0.056924775,-0.00055165845,0.69783837,0.0,0.0,0.0,1.0
3802660000,3802660000,0.0006214519,-0.052367304,-0.002071646,0.69536,0.0,0.0,0.0,1.0
3802764000,3802764000,0.00087129115,-0.04976598,-0.0007154866,0.69727546,0.0,0.0,0.0,1.0
3802860000,3802860000,0.002363908,-0.0577849,-0.0011339248,0.700054,0.0,0.0,0.0,1.0
3802964000,3802964000,-0.0003961859,-0.057003822,0.00018043979,0.6990077,0.0,0.0,0.0,1.0
3803064000,3803064000,0.0026532277,-0.050216075,-0.00078387046,0.6983793,0.0,0.0,0.0,1.0
3803164000,3803164000,0.0020251696,-0.049672935,-0.0010718944,0.6988994,0.0,0.0,0.0,1.0
3803264000,3803264000,-0.0011977713,-0.045081884,-0.0019926988,0.6980189,0.0,0.0,0.0,1.0
3803364000,3803364000,0.005118077,-0.048810758,-0.0017276558,0.6988239,0.0,0.0,0.0,1.0
3803464000,3803464000,-0.0009339923,-0.054398935,-0.0010792989,0.7019382,0.0,0.0,0.0,1.0
3803564000,3803564000,0.0021447795,-0.05134684,-0.0005608797,0.70078826,0.0,0.0,0.0,1.0
3803664000,3803664000,0.0018048593,-0.048273984,-0.0015280296,0.70015407,0.0,0.0,0.0,1.0
3803764000,3803764000,0.0022163119,-0.051857065,-0.0020017393,0.6993444,0.0,0.0,0.0,1.0
3803864000,3803864000,0.0017398805,-0.058923736,-0.0013706833,0.70174074,0.0,0.0,0.0,1.0
3803960000,3803960000,0.00052124285,-0.051139247,-0.001404885,0.70006627,0.0,0.0,0.0,1.0
3804064000,3804064000,0.0045508733,-0.053216275,-0.0020666441,0.7007256,0.0,0.0,0.0,1.0
3804164000,3804164000,0.0027276266,-0.04866262,-0.0013342436,0.69954497,0.0,0.0,0.0,1.0
3804264000,3804264000,0.0017272088,-0.0519161,-0.002362064,0.699765,0.0,0.0,0.0,1.0
3804360000,3804360000,0.002496755,-0.056563336,-0.0012760155,0.7041359,0.0,0.0,0.0,1.0
3804460000,3804460000,0.0014350391,-0.050232697,-0.0006689762,0.70250046,0.0,0.0,0.0,1.0
3804560000,3804560000,0.0033646987,-0.048483387,-0.0011706492,0.7004167,0.0,0.0,0.0,1.0
3804660000,3804660000,-0.00093788165,-0.048990466,-0.0023340895,0.70080817,0.0,0.0,0.0,1.0
3804760000,3804760000,0.002960416,-0.0552719,-0.0013815282,0.70309657,0.0,0.0,0.0,1.0
3804864000,3804864000,0.0044013583,-0.05794133,-0.0013304637,0.70430773,0.0,0.0,0.0,1.0
3804960000,3804960000,0.0014659918,-0.055025514,-0.0011606258,0.7013968,0.0,0.0,0.0,1.0
3805064000,3805064000,0.0031557567,-0.051423557,-0.00062499417,0.70289534,0.0,0.0,0.0,1.0
3805164000,3805164000,0.0015330962,-0.0491463,-0.0008907994,0.7016638,0.0,0.0,0.0,1.0
3805260000,3805260000,0.0020635263,-0.059080806,-0.00200829,0.7050926,0.0,0.0,0.0,1.0
3805364000,3805364000,0.0013221244,-0.053912275,-0.00085334014,0.7022134,0.0,0.0,0.0,1.0
3805464000,3805464000,0.002897429,-0.050355494,-0.0011097145,0.7030532,0.0,0.0,0.0,1.0
3805560000,3805560000,0.004945263,-0.04930054,-0.0010758054,0.7027728,0.0,0.0,0.0,1.0
3805660000,3805660000,0.0020679696,-0.059421103,-0.0013780515,0.70445806,0.0,0.0,0.0,1.0
3805760000,3805760000,0.002453179,-0.060377836,-0.0021657057,0.7061937,0.0,0.0,0.0,1.0
3805864000,3805864000,0.002917058,-0.054272406,-0.0008950055,0.70341635,0.0,0.0,0.0,1.0
3805964000,3805964000,0.0013355303,-0.049508274,-0.0006568009,0.702799,0.0,0.0,0.0,1.0
3806064000,3806064000,-4.570838e-05,-0.049057968,-0.0007278065,0.7028378,0.0,0.0,0.0,1.0
3806164000,3806164000,0.0019668133,-0.059233185,-0.0017296028,0.70533925,0.0,0.0,0.0,1.0
3806264000,3806264000,0.002368128,-0.054993846,-0.0015742821,0.7050432,0.0,0.0,0.0,1.0
3806364000,3806364000,0.0025347464,-0.051971886,-0.0012816074,0.7055263,0.0,0.0,0.0,1.0
3806464000,3806464000,0.0023140209,-0.048602685,-0.00066964974,0.7029596,0.0,0.0,0.0,1.0
3806564000,3806564000,0.0028764533,-0.0500355,-0.0015976138,0.7034086,0.0,0.0,0.0,1.0
3806660000,3806660000,0.0027921463,-0.059033684,-0.0022321425,0.70549005,0.0,0.0,0.0,1.0
3806764000,3806764000,-0.00090208673,-0.058453925,-0.0010405164,0.7058979,0.0,0.0,0.0,1.0
3806864000,3806864000,0.0017216875,-0.05407336,-0.0011141734,0.7040713,0.0,0.0,0.0,1.0
3806960000,3806960000,0.00040105882,-0.05083767,-0.0013990471,0.7021777,0.0,0.0,0.0,1.0
3807064000,3807064000,0.0032854758,-0.050132472,-0.0016827129,0.7024414,0.0,0.0,0.0,1.0
3807164000,3807164000,0.002314181,-0.05612577,-0.00039913738,0.7058964,0.0,0.0,0.0,1.0
3807264000,3807264000,0.0035101445,-0.05402466,-0.002515807,0.70445967,0.0,0.0,0.0,1.0
3807364000,3807364000,0.0042366264,-0.052158184,-0.0011242849,0.7031606,0.0,0.0,0.0,1.0
3807464000,3807464000,-0.0005060802,-0.05059805,-0.0011827506,0.7027197,0.0,0.0,0.0,1.0
3807560000,3807560000,0.0049048522,-0.059789542,-0.000850815,0.7064258,0.0,0.0,0.0,1.0
3807664000,3807664000,0.0051131463,-0.060119607,-0.0013074499,0.70786846,0.0,0.0,0.0,1.0
3807760000,3807760000,-9.223726e-05,-0.05363987,-0.0009817863,0.7065567,0.0,0.0,0.0,1.0
3807860000,3807860000,0.0016663728,-0.04913278,-0.0017233725,0.70642704,0.0,0.0,0.0,1.0
3807964000,3807964000,-0.00025130564,-0.04807086,-0.0013666184,0.70511067,0.0,0.0,0.0,1.0
3808064000,3808064000,0.0033353008,-0.0579499,-0.0024697606,0.7079287,0.0,0.0,0.0,1.0
3808164000,3808164000,-2.6970869e-05,-0.05678336,-0.0016458057,0.7082818,0.0,0.0,0.0,1.0
3808260000,3808260000,0.0015299914,-0.049778767,-0.0023669535,0.7074822,0.0,0.0,0.0,1.0
3808360000,3808360000,0.0022218102,-0.05166466,-0.0005217751,0.70729005,0.0,0.0,0.0,1.0
3808464000,3808464000,0.002833581,-0.051310074,-0.0013861588,0.7070984,0.0,0.0,0.0,1.0
3808560000,3808560000,0.0010508706,-0.05212194,-0.0015162174,0.7068268,0.0,0.0,0.0,1.0
3808664000,3808664000,0.004970068,-0.06140014,-0.0018953658,0.7106213,0.0,0.0,0.0,1.0
3808764000,3808764000,0.0028955585,-0.053771917,-0.0021985264,0.7082856,0.0,0.0,0.0,1.0
3808864000,3808864000,-0.0012201371,-0.051854786,-0.0011303537,0.708485,0.0,0.0,0.0,1.0
3808964000,3808964000,0.0021423483,-0.049703024,-0.0011435869,0.70657635,0.0,0.0,0.0,1.0
3809064000,3809064000,0.0034013153,-0.06042351,-0.0014998083,0.7103751,0.0,0.0,0.0,1.0
3809164000,3809164000,0.0004812549,-0.06162488,-0.0025553317,0.71041816,0.0,0.0,0.0,1.0
3809264000,3809264000,0.0041228486,-0.05699517,-0.0015635146,0.7077083,0.0,0.0,0.0,1.0
3809364000,3809364000,0.0027169082,-0.05428786,-0.0013142821,0.7091,0.0,0.0,0.0,1.0
3809464000,3809464000,0.0034708849,-0.05252992,-0.00068870845,0.70594287,0.0,0.0,0.0,1.0
3809564000,3809564000,0.0017634461,-0.061198927,-0.0015351078,0.71037054,0.0,0.0,0.0,1.0
3809660000,3809660000,0.0027429648,-0.060681984,-0.00070190884,0.70952576,0.0,0.0,0.0,1.0
3809760000,3809760000,0.005218112,-0.055546552,-0.0020468086,0.7087627,0.0,0.0,0.0,1.0
3809864000,3809864000,0.00518797,-0.05419692,-0.0008320519,0.7088792,0.0,0.0,0.0,1.0
3809960000,3809960000,0.0014303224,-0.059830595,-0.0012394646,0.7097104,0.0,0.0,0.0,1.0
3810064000,3810064000,0.0020448223,-0.0605329,-0.0015704752,0.70987016,0.0,0.0,0.0,1.0
3810164000,3810164000,-0.0001863942,-0.058593974,-0.0013576536,0.7094271,0.0,0.0,0.0,1.0
3810264000,3810264000,0.0007867856,-0.052470423,-0.0012250863,0.70812875,0.0,0.0,0.0,1.0
3810364000,3810364000,0.0013143541,-0.049793083,-0.0022554002,0.7059943,0.0,0.0,0.0,1.0
3810464000,3810464000,0.002765201,-0.053138144,-0.0009783637,0.7059831,0.0,0.0,0.0,1.0
3810564000,3810564000,0.0036185975,-0.057260856,-0.0019190192,0.7107469,0.0,0.0,0.0,1.0
3810660000,3810660000,0.0025176117,-0.05237516,-0.00062161445,0.70763284,0.0,0.0,0.0,1.0
3810764000,3810764000,0.004789606,-0.05691622,-0.0017248933,0.70858127,0.0,0.0,0.0,1.0
3810864000,3810864000,0.0020109592,-0.04736405,-0.0008875805,0.70633066,0.0,0.0,0.0,1.0
3810960000,3810960000,0.003906925,-0.0585604,-0.0011000094,0.7110159,0.0,0.0,0.0,1.0
3811060000,3811060000,0.00022547436,-0.053744607,-0.0007282998,0.7092432,0.0,0.0,0.0,1.0
3811164000,3811164000,0.0037067523,-0.053299602,-0.0027520144,0.70959496,0.0,0.0,0.0,1.0
3811264000,3811264000,0.0064320303,-0.052699927,-0.001730067,0.7086626,0.0,0.0,0.0,1.0
3811364000,3811364000,0.002170137,-0.051771414,-0.0012228059,0.70683366,0.0,0.0,0.0,1.0
3811464000,3811464000,0.0007132734,-0.061130513,-0.0020057291,0.7107339,0.0,0.0,0.0,1.0
3811564000,3811564000,0.0031020553,-0.05612145,-0.0018699081,0.7112765,0.0,0.0,0.0,1.0
3811664000,3811664000,0.000112768146,-0.056796387,-0.0009972166,0.7089548,0.0,0.0,0.0,1.0
3811764000,3811764000,-0.0016646832,-0.049283255,-0.0015468248,0.70722413,0.0,0.0,0.0,1.0
3811860000,3811860000,0.0014225992,-0.061264724,-0.0014116956,0.71114576,0.0,0.0,0.0,1.0
3811960000,3811960000,0.0024044542,-0.05982233,-0.0021448967,0.7108159,0.0,0.0,0.0,1.0
3812060000,3812060000,0.0007158178,-0.05520206,-0.00053336006,0.70972097,0.0,0.0,0.0,1.0
3812164000,3812164000,0.0031094963,-0.04972556,-0.0007312372,0.7079551,0.0,0.0,0.0,1.0
3812260000,3812260000,0.0011704687,-0.048508443,-0.0012544318,0.7092948,0.0,0.0,0.0,1.0
3812364000,3812364000,0.0016378243,-0.059094038,-0.0009864663,0.7128219,0.0,0.0,0.0,1.0
3812460000,3812460000,0.0018715836,-0.055401463,-0.002552005,0.7105567,0.0,0.0,0.0,1.0
3812564000,3812564000,0.0027068593,-0.05639835,-0.00089515955,0.7089971,0.0,0.0,0.0,1.0
3812660000,3812660000,0.003479591,-0.049222983,-0.0017495059,0.70772403,0.0,0.0,0.0,1.0
3812764000,3812764000,0.0013304177,-0.05188038,-0.0010985007,0.7084054,0.0,0.0,0.0,1.0
3812860000,3812860000,0.002331579,-0.059897505,-0.0013118392,0.7116903,0.0,0.0,0.0,1.0
3812960000,3812960000,0.00042514072,-0.054491937,-0.0016092091,0.71141994,0.0,0.0,0.0,1.0
3813060000,3813060000,0.0003706636,-0.054202512,-0.001058582,0.7122067,0.0,0.0,0.0,1.0
3813164000,3813164000,0.0035129087,-0.05116648,-0.002066757,0.70960456,0.0,0.0,0.0,1.0
3813260000,3813260000,0.0041498845,-0.060066063,-0.0016681213,0.7144636,0.0,0.0,0.0,1.0
3813364000,3813364000,0.0024479027,-0.0586277,-0.0019221895,0.71572185,0.0,0.0,0.0,1.0
3813460000,3813460000,0.0010319899,-0.053360667,-0.0017710684,0.7149703,0.0,0.0,0.0,1.0
3813564000,3813564000,0.003748646,-0.054166764,-0.0024821998,0.7144497,0.0,0.0,0.0,1.0
3813660000,3813660000,-5.0135073e-05,-0.054111373,-0.0019849956,0.7122875,0.0,0.0,0.0,1.0
3813764000,3813764000,0.0013001508,-0.061574016,-0.0015311253,0.7152293,0.0,0.0,0.0,1.0
3813860000,3813860000,0.0032038628,-0.05777863,-0.0019359692,0.71652395,0.0,0.0,0.0,1.0
3813964000,3813964000,0.0010957038,-0.054664228,-0.00019271031,0.7148387,0.0,0.0,0.0,1.0
3814064000,3814064000,0.0028765043,-0.05567322,-0.0016114248,0.71463066,0.0,0.0,0.0,1.0
3814164000,3814164000,0.00069892977,-0.049075615,-0.0014864939,0.71337193,0.0,0.0,0.0,1.0
3814260000,3814260000,0.0030681817,-0.05961315,-0.0013099833,0.7176525,0.0,0.0,0.0,1.0
3814360000,3814360000,0.00072200084,-0.055396702,-0.0015039811,0.7160799,0.0,0.0,0.0,1.0
3814464000,3814464000,0.0026827613,-0.057148114,-0.0015523547,0.71581405,0.0,0.0,0.0,1.0
3814564000,3814564000,0.00077974587,-0.04954902,-0.002033774,0.7137731,0.0,0.0,0.0,1.0
3814664000,3814664000,0.0029776222,-0.051797178,5.741557e-05,0.71278375,0.0,0.0,0.0,1.0
3814764000,3814764000,0.0025565831,-0.062475767,-0.0013738533,0.71621275,0.0,0.0,0.0,1.0
3814864000,3814864000,0.0024758917,-0.055582922,-0.0011730775,0.714438,0.0,0.0,0.0,1.0
3814960000,3814960000,0.00046481704,-0.05154806,-0.0002991571,0.71189135,0.0,0.0,0.0,1.0
3815064000,3815064000,0.0008623868,-0.050461646,-0.002167996,0.7126471,0.0,0.0,0.0,1.0
3815160000,3815160000,0.00050906313,-0.059225343,-0.00051829085,0.71670306,0.0,0.0,0.0,1.0
3815264000,3815264000,0.0029603457,-0.06223493,-0.0025718273,0.71670043,0.0,0.0,0.0,1.0
3815364000,3815364000,-0.0008916152,-0.055809233,-0.0020823835,0.714344,0.0,0.0,0.0,1.0
3815464000,3815464000,0.0036955543,-0.057100102,-0.0017165651,0.7135587,0.0,0.0,0.0,1.0
3815564000,3815564000,0.0027071314,-0.052767027,-0.0012781507,0.71164817,0.0,0.0,0.0,1.0
3815664000,3815664000,0.0025294595,-0.059283756,-0.00018682005,0.71620363,0.0,0.0,0.0,1.0
3815764000,3815764000,0.004078067,-0.054694507,-0.0013746892,0.71456313,0.0,0.0,0.0,1.0
3815864000,3815864000,0.0017093772,-0.059993505,-0.00045978208,0.7146341,0.0,0.0,0.0,1.0
3815964000,3815964000,0.0025979825,-0.05494304,-0.0023185527,0.7124881,0.0,0.0,0.0,1.0
3816060000,3816060000,0.00038496207,-0.05861118,-0.000558576,0.715358,0.0,0.0,0.0,1.0
3816164000,3816164000,0.0016245106,-0.059206855,-0.0008086659,0.71610683,0.0,0.0,0.0,1.0
3816264000,3816264000,0.0020922488,-0.054758094,-0.001412258,0.71284217,0.0,0.0,0.0,1.0
3816364000,3816364000,0.0012826503,-0.05133847,-0.0006563979,0.7142048,0.0,0.0,0.0,1.0
3816464000,3816464000,0.0023842552,-0.051736973,-0.001302633,0.71315694,0.0,0.0,0.0,1.0
3816564000,3816564000,0.004084507,-0.06342885,-0.0008096407,0.7161116,0.0,0.0,0.0,1.0
3816660000,3816660000,0.0024721287,-0.061305493,-0.0022924892,0.71314526,0.0,0.0,0.0,1.0
3816760000,3816760000,0.0007457873,-0.054487728,-0.0018106613,0.71259373,0.0,0.0,0.0,1.0
3816860000,3816860000,0.0008694965,-0.051807027,-0.0009256873,0.70988685,0.0,0.0,0.0,1.0
3816964000,3816964000,-0.0022028475,-0.04994928,-0.0022548928,0.71028537,0.0,0.0,0.0,1.0
3817064000,3817064000,0.0017575305,-0.06145679,-0.0019506494,0.7133855,0.0,0.0,0.0,1.0
3817164000,3817164000,0.0031846394,-0.059537675,-0.0016281253,0.71424735,0.0,0.0,0.0,1.0
3817260000,3817260000,0.0025069835,-0.057238955,-0.0008805084,0.71282333,0.0,0.0,0.0,1.0
3817364000,3817364000,0.0003800703,-0.05370766,-0.0017652466,0.7104955,0.0,0.0,0.0,1.0
3817464000,3817464000,-0.0007483626,-0.05075059,-0.002120418,0.71004987,0.0,0.0,0.0,1.0
3817560000,3817560000,0.004129473,-0.058210023,-0.00078867225,0.7137552,0.0,0.0,0.0,1.0
3817660000,3817660000,0.0014988439,-0.053872876,-0.0014497684,0.7128532,0.0,0.0,0.0,1.0
3817764000,3817764000,0.0017797725,-0.055444174,-0.0015644745,0.7135839,0.0,0.0,0.0,1.0
3817864000,3817864000,0.0017974904,-0.05517594,-0.0017809821,0.712557,0.0,0.0,0.0,1.0
3817960000,3817960000,0.0024891975,-0.06256706,-0.0018226232,0.7160666,0.0,0.0,0.0,1.0
3818064000,3818064000,0.0016141774,-0.05965902,-0.0012374553,0.71562254,0.0,0.0,0.0,1.0
3818164000,3818164000,0.0012230873,-0.05157323,-0.0011354653,0.71422684,0.0,0.0,0.0,1.0
3818260000,3818260000,0.0017525879,-0.049287975,-0.0009392505,0.7137749,0.0,0.0,0.0,1.0
3818364000,3818364000,0.00050603645,-0.0501956,-0.0016283229,0.7156,0.0,0.0,0.0,1.0
3818460000,3818460000,0.0031898818,-0.0625642,-0.0020183553,0.7177775,0.0,0.0,0.0,1.0
3818564000,3818564000,0.0026558384,-0.061101694,-0.0016191109,0.71756464,0.0,0.0,0.0,1.0
3818660000,3818660000,-0.0010958835,-0.053041972,-0.0017245886,0.71765584,0.0,0.0,0.0,1.0
3818764000,3818764000,0.0017821987,-0.052576654,-0.0012422088,0.7151254,0.0,0.0,0.0,1.0
3818864000,3818864000,0.0042045536,-0.053268038,-0.0014239156,0.71448755,0.0,0.0,0.0,1.0
3818964000,3818964000,0.00054283184,-0.05928569,-0.0012172933,0.7189791,0.0,0.0,0.0,1.0
3819064000,3819064000,0.0032614302,-0.057997104,-0.0029285322,0.7167334,0.0,0.0,0.0,1.0
3819164000,3819164000,0.0025286588,-0.05482379,-0.00028021657,0.7168151,0.0,0.0,0.0,1.0
3819264000,3819264000,-7.3398114e-05,-0.053646088,-0.0014090765,0.7154505,0.0,0.0,0.0,1.0
3819364000,3819364000,0.0034276186,-0.061874513,-0.0012093415,0.7189612,0.0,0.0,0.0,1.0
3819464000,3819464000,0.0027849108,-0.060923416,-0.0015104512,0.7194743,0.0,0.0,0.0,1.0
3819564000,3819564000,0.0044459617,-0.057240367,-0.002017983,0.71637297,0.0,0.0,0.0,1.0
3819664000,3819664000,0.0022086075,-0.051724568,-0.0017965625,0.7142343,0.0,0.0,0.0,1.0
3819760000,3819760000,0.0009722068,-0.061277214,-0.001339604,0.7188394,0.0,0.0,0.0,1.0
3819864000,3819864000,-0.0006714552,-0.06209466,-0.0016001632,0.7181295,0.0,0.0,0.0,1.0
3819964000,3819964000,0.0016860147,-0.058063745,-0.0023365486,0.7167945,0.0,0.0,0.0,1.0
3820064000,3820064000,0.0023098094,-0.056808528,7.04563e-05,0.7166802,0.0,0.0,0.0,1.0
3820164000,3820164000,0.002995853,-0.05189295,-0.0008785311,0.7149735,0.0,0.0,0.0,1.0
3820260000,3820260000,0.0021599522,-0.0638608,-0.00041763938,0.71844333,0.0,0.0,0.0,1.0
3820364000,3820364000,-0.00029761717,-0.049240906,-0.001281246,0.7115333,0.0,0.0,0.0,1.0
3820464000,3820464000,-0.0012377875,-0.04372134,-0.0011677855,0.7028145,0.0,0.0,0.0,1.0
3820560000,3820560000,-0.0024137292,-0.03294266,-0.002238135,0.6945631,0.0,0.0,0.0,1.0
3820664000,3820664000,0.008539494,-0.06306133,-0.0029867054,0.6895498,0.0,0.0,0.0,1.0
3820764000,3820764000,0.0074803913,-0.07304623,0.00039577496,0.6786815,0.0,0.0,0.0,1.0
3820864000,3820864000,0.003640235,-0.05950584,0.0011580078,0.6668676,0.0,0.0,0.0,1.0
3820964000,3820964000,0.0049815606,-0.05562744,0.0004725192,0.65834856,0.0,0.0,0.0,1.0
3821064000,3821064000,0.0005787632,-0.043386564,0.0010093277,0.6508706,0.0,0.0,0.0,1.0
3821160000,3821160000,0.0015902538,-0.05509531,0.000911754,0.64605725,0.0,0.0,0.0,1.0
3821260000,3821260000,-0.0007817184,-0.04475753,0.0011583988,0.6394022,0.0,0.0,0.0,1.0
3821364000,3821364000,0.001589808,-0.051566865,-0.0003011722,0.6334192,0.0,0.0,0.0,1.0
3821464000,3821464000,0.0008022869,-0.043034513,0.00048150262,0.62852246,0.0,0.0,0.0,1.0
3821560000,3821560000,7.248868e-05,-0.04376048,0.00062258897,0.6248371,0.0,0.0,0.0,1.0
3821664000,3821664000,0.0025607455,-0.039007567,0.0005214541,0.6201016,0.0,0.0,0.0,1.0
3821764000,3821764000,0.0027233656,-0.033157427,0.0010766609,0.6156931,0.0,0.0,0.0,1.0
3821860000,3821860000,0.002448003,-0.03385212,0.000886903,0.6116214,0.0,0.0,0.0,1.0
3821964000,3821964000,0.0023912652,-0.027190322,0.0016931742,0.6072152,0.0,0.0,0.0,1.0
3822060000,3822060000,0.0012667382,-0.034124993,0.0013195848,0.6057187,0.0,0.0,0.0,1.0
3822164000,3822164000,0.0018125398,-0.028554328,0.0017369814,0.602421,0.0,0.0,0.0,1.0
3822260000,3822260000,0.0021485097,-0.023503548,0.0026993607,0.59898794,0.0,0.0,0.0,1.0
3822360000,3822360000,-0.0026707386,-0.025401423,0.0039820736,0.59624285,0.0,0.0,0.0,1.0
3822464000,3822464000,0.0037328242,-0.025756415,-0.00581533,0.5918914,0.0,0.0,0.0,1.0
3822564000,3822564000,0.004379329,-0.017711809,0.014957312,0.5908723,0.0,0.0,0.0,1.0
3822660000,3822660000,0.007708881,-0.014701875,0.0437662,0.58702224,0.0,0.0,0.0,1.0
3822760000,3822760000,0.01267655,-0.006941758,0.050508052,0.5853776,0.0,0.0,0.0,1.0
3822864000,3822864000,0.021094715,-0.001876425,0.054349713,0.58700913,0.0,0.0,0.0,1.0
3822964000,3822964000,-0.0044204453,-0.024849668,0.049586408,0.5842582,0.0,0.0,0.0,1.0
3823060000,3823060000,-0.015686369,-0.027284766,0.04597611,0.5818379,0.0,0.0,0.0,1.0
3823160000,3823160000,0.0019334992,-0.013001067,0.041611187,0.58593106,0.0,0.0,0.0,1.0
3823260000,3823260000,-0.030943643,-0.017146172,0.04754139,0.58232534,0.0,0.0,0.0,1.0
3823364000,3823364000,-0.025364533,-0.0074603967,0.04667197,0.5775515,0.0,0.0,0.0,1.0
3823464000,3823464000,-0.0017704996,-0.004126599,0.042448737,0.58225816,0.0,0.0,0.0,1.0
3823560000,3823560000,0.033117916,-0.0037207399,0.042846147,0.5812168,0.0,0.0,0.0,1.0
3823664000,3823664000,-0.0033632815,-0.005211752,0.048904877,0.5748033,0.0,0.0,0.0,1.0
3823764000,3823764000,0.009055226,-0.004498291,0.043552786,0.5793781,0.0,0.0,0.0,1.0
3823864000,3823864000,0.015385361,-0.009319917,0.03960584,0.5784891,0.0,0.0,0.0,1.0
3823964000,3823964000,0.009393987,-0.008262221,0.047012895,0.57862866,0.0,0.0,0.0,1.0
3824064000,3824064000,0.016030932,-0.012828053,0.043279372,0.5784712,0.0,0.0,0.0,1.0
3824164000,3824164000,0.013674875,-0.013469752,0.040426176,0.5779169,0.0,0.0,0.0,1.0
3824264000,3824264000,0.009894491,-0.004099329,0.04469569,0.57836914,0.0,0.0,0.0,1.0
3824364000,3824364000,-0.010319851,0.00033878628,0.039768327,0.5803455,0.0,0.0,0.0,1.0
3824460000,3824460000,0.01147605,-0.011923042,0.039805334,0.57987,0.0,0.0,0.0,1.0
3824564000,3824564000,-0.0027164132,-0.004229471,0.04327762,0.57990825,0.0,0.0,0.0,1.0
3824660000,3824660000,-0.0034474798,0.0004792912,0.042895913,0.5803292,0.0,0.0,0.0,1.0
3824764000,3824764000,0.0062713204,-0.013371823,0.03770921,0.58083653,0.0,0.0,0.0,1.0
3824864000,3824864000,0.0071158847,-0.012206183,0.042287745,0.5841615,0.0,0.0,0.0,1.0
3824960000,3824960000,0.004560565,-0.019549508,0.0416035,0.5829006,0.0,0.0,0.0,1.0
3825060000,3825060000,0.01449542,-0.035469856,0.039429646,0.58720946,0.0,0.0,0.0,1.0
3825164000,3825164000,0.014977822,-0.03572399,0.041193992,0.5868392,0.0,0.0,0.0,1.0
3825260000,3825260000,-0.0019239052,0.0014830288,0.03873018,0.58681625,0.0,0.0,0.0,1.0
3825364000,3825364000,0.0014945915,-0.0063831247,0.04162168,0.5899563,0.0,0.0,0.0,1.0
3825460000,3825460000,0.0007744797,-0.016057244,0.022225833,0.59120136,0.0,0.0,0.0,1.0
3825564000,3825564000,0.0070852684,-0.03494747,-0.003347842,0.59536225,0.0,0.0,0.0,1.0
3825660000,3825660000,0.0067115137,-0.02004175,-0.0074851885,0.5984751,0.0,0.0,0.0,1.0
3825764000,3825764000,0.0048927506,-0.025486145,-0.0065989085,0.6007696,0.0,0.0,0.0,1.0
3825864000,3825864000,0.0014852579,-0.024965951,-0.0046477523,0.60385984,0.0,0.0,0.0,1.0
3825964000,3825964000,-0.0009044241,-0.023031358,-0.003051661,0.60723066,0.0,0.0,0.0,1.0
3826060000,3826060000,0.0013263978,-0.02645192,-0.0021637268,0.6085842,0.0,0.0,0.0,1.0
3826164000,3826164000,-0.003581799,-0.039241634,-0.0011396259,0.6165803,0.0,0.0,0.0,1.0
3826260000,3826260000,-0.0022114117,-0.027693365,-0.0014347304,0.6203933,0.0,0.0,0.0,1.0
3826360000,3826360000,-0.0014132673,-0.01959764,-0.00014808401,0.61795986,0.0,0.0,0.0,1.0
3826464000,3826464000,0.0024974034,-0.00600012,0.0011503361,0.6211154,0.0,0.0,0.0,1.0
3826560000,3826560000,-0.0046995436,-0.045411758,0.00044009835,0.63246983,0.0,0.0,0.0,1.0
3826664000,3826664000,-0.0046847663,-0.043664694,9.4080344e-05,0.63489,0.0,0.0,0.0,1.0
3826764000,3826764000,-0.0013186792,-0.013536799,0.0017843088,0.63217264,0.0,0.0,0.0,1.0
3826864000,3826864000,-0.0030871145,-0.02295388,0.0026524384,0.64310825,0.0,0.0,0.0,1.0
3826964000,3826964000,-0.005591275,-0.039023463,0.0017312011,0.64484024,0.0,0.0,0.0,1.0
3827060000,3827060000,-0.0056373416,-0.04300633,0.0031975843,0.6494661,0.0,0.0,0.0,1.0
3827160000,3827160000,-0.0055555524,-0.03335121,0.004736524,0.65175796,0.0,0.0,0.0,1.0
3827260000,3827260000,0.0006849572,-0.019609403,0.008004585,0.6481846,0.0,0.0,0.0,1.0
3827364000,3827364000,0.001732985,-0.020034906,0.012314197,0.64741117,0.0,0.0,0.0,1.0
3827464000,3827464000,-0.0036290155,-0.047993563,0.011950632,0.6496204,0.0,0.0,0.0,1.0
3827560000,3827560000,-0.01288422,-0.054126687,0.013660924,0.6517464,0.0,0.0,0.0,1.0
3827660000,3827660000,-0.01386502,-0.04518038,0.021834124,0.64942783,0.0,0.0,0.0,1.0
3827764000,3827764000,-0.0093738325,-0.036776733,0.022998197,0.64838195,0.0,0.0,0.0,1.0
3827864000,3827864000,-0.0023509334,-0.031053273,-0.008628175,0.64645475,0.0,0.0,0.0,1.0
3827964000,3827964000,0.00664546,-0.044329975,-0.0390943,0.65037024,0.0,0.0,0.0,1.0
3828064000,3828064000,0.009892572,-0.030355208,-0.040420253,0.6461605,0.0,0.0,0.0,1.0
3828160000,3828160000,-0.0017386025,-0.037328724,-0.035087932,0.6487729,0.0,0.0,0.0,1.0
3828260000,3828260000,-0.008114592,-0.04160528,-0.040536307,0.65138435,0.0,0.0,0.0,1.0
3828360000,3828360000,-0.008592298,-0.041679677,-0.0140503105,0.6499009,0.0,0.0,0.0,1.0
3828464000,3828464000,-0.010073493,-0.04152334,0.00020337175,0.6502117,0.0,0.0,0.0,1.0
3828564000,3828564000,-0.007746142,-0.04024002,0.0023491255,0.6536748,0.0,0.0,0.0,1.0
3828664000,3828664000,-0.0007634205,-0.038631827,0.0011806824,0.6534355,0.0,0.0,0.0,1.0
3828760000,3828760000,0.0016788235,-0.03336956,0.0012979349,0.6502191,0.0,0.0,0.0,1.0
3828864000,3828864000,-0.0003036093,-0.03175436,0.0008532844,0.6516659,0.0,0.0,0.0,1.0
3828960000,3828960000,0.0019631144,-0.046582066,0.0017946733,0.6552942,0.0,0.0,0.0,1.0
3829060000,3829060000,0.0007085623,-0.04500816,-0.00025396585,0.6545969,0.0,0.0,0.0,1.0
3829160000,3829160000,0.0017309443,-0.04976072,-0.00021976721,0.6584967,0.0,0.0,0.0,1.0
3829260000,3829260000,0.006455006,-0.034686446,-0.0006720715,0.64964646,0.0,0.0,0.0,1.0
3829364000,3829364000,0.002094483,-0.042117383,-0.00011581415,0.65589297,0.0,0.0,0.0,1.0
3829460000,3829460000,0.0040667625,-0.04386353,-0.0010462027,0.6550417,0.0,0.0,0.0,1.0
3829564000,3829564000,0.0029781198,-0.039701466,-0.0005923774,0.65489644,0.0,0.0,0.0,1.0
3829660000,3829660000,0.004240072,-0.033719018,-0.000554048,0.6545961,0.0,0.0,0.0,1.0
3829764000,3829764000,0.001977252,-0.03829894,-0.0008243163,0.65427166,0.0,0.0,0.0,1.0
3829864000,3829864000,0.0038962462,-0.031419475,-0.00171497,0.65552586,0.0,0.0,0.0,1.0
3829960000,3829960000,0.0031667696,-0.045948826,-0.0003656462,0.66021794,0.0,0.0,0.0,1.0
3830064000,3830064000,0.0020095261,-0.04399398,-0.0012415494,0.6577976,0.0,0.0,0.0,1.0
3830160000,3830160000,0.0069930395,-0.040780887,-0.0015386208,0.6565739,0.0,0.0,0.0,1.0
3830264000,3830264000,0.005078886,-0.038316146,-0.0012560743,0.6582018,0.0,0.0,0.0,1.0
3830364000,3830364000,0.0015124227,-0.03155374,-0.0015322923,0.6556216,0.0,0.0,0.0,1.0
3830464000,3830464000,0.003431011,-0.047933962,-0.0012547811,0.6608887,0.0,0.0,0.0,1.0
3830564000,3830564000,0.0018902045,-0.047536977,-0.0010678784,0.65967053,0.0,0.0,0.0,1.0
3830664000,3830664000,0.0021256455,-0.036225893,-0.0012741779,0.6580623,0.0,0.0,0.0,1.0
3830760000,3830760000,0.005169263,-0.03960052,-0.0003157028,0.65771097,0.0,0.0,0.0,1.0
3830860000,3830860000,0.004145858,-0.037722517,-0.0010809421,0.65770197,0.0,0.0,0.0,1.0
3830964000,3830964000,0.002283197,-0.049829926,-0.0013834935,0.66153467,0.0,0.0,0.0,1.0
3831060000,3831060000,0.0038234796,-0.047388382,-0.0013393004,0.65947604,0.0,0.0,0.0,1.0
3831164000,3831164000,0.005219493,-0.034141514,-0.00090118835,0.65823984,0.0,0.0,0.0,1.0
3831264000,3831264000,0.0028282676,-0.047228757,-0.001541821,0.66193014,0.0,0.0,0.0,1.0
3831364000,3831364000,0.0029610873,-0.045258872,9.5633324e-05,0.66196483,0.0,0.0,0.0,1.0
3831460000,3831460000,0.0023675791,-0.04491976,-0.00085594854,0.66223377,0.0,0.0,0.0,1.0
3831564000,3831564000,0.0005457981,-0.04234623,-0.0018414697,0.6615335,0.0,0.0,0.0,1.0
3831664000,3831664000,0.0049817883,-0.036969475,-0.0022850672,0.6594403,0.0,0.0,0.0,1.0
3831760000,3831760000,0.002253823,-0.048557553,9.874115e-05,0.6642695,0.0,0.0,0.0,1.0
3831864000,3831864000,0.0034458903,-0.049842432,-0.00042182725,0.6646794,0.0,0.0,0.0,1.0
3831960000,3831960000,0.0035322644,-0.036860812,-0.0017281218,0.6628424,0.0,0.0,0.0,1.0
3832064000,3832064000,0.004039849,-0.03762503,-0.0017782276,0.66274387,0.0,0.0,0.0,1.0
3832164000,3832164000,0.0020239665,-0.039582092,-0.00034347287,0.6631063,0.0,0.0,0.0,1.0
3832264000,3832264000,0.0033557601,-0.04443012,-0.001230584,0.66434056,0.0,0.0,0.0,1.0
3832364000,3832364000,0.0053991503,-0.04355554,-0.00037971456,0.66304433,0.0,0.0,0.0,1.0
3832464000,3832464000,-0.0005440202,-0.046042424,-0.00021874238,0.6660354,0.0,0.0,0.0,1.0
3832564000,3832564000,0.0011542657,-0.036967188,-0.0013412695,0.66267645,0.0,0.0,0.0,1.0
3832664000,3832664000,0.0036254073,-0.039678812,-0.0014139367,0.6643419,0.0,0.0,0.0,1.0
3832764000,3832764000,0.00059483666,-0.041710228,-0.001237017,0.66374266,0.0,0.0,0.0,1.0
3832864000,3832864000,0.0018054851,-0.03769661,-0.0013346209,0.66370934,0.0,0.0,0.0,1.0
3832964000,3832964000,9.991252e-05,-0.049550943,-0.0007040433,0.66854376,0.0,0.0,0.0,1.0
3833060000,3833060000,0.005717095,-0.03971371,-0.00047866796,0.66531986,0.0,0.0,0.0,1.0
3833164000,3833164000,0.0016969934,-0.037393183,-0.0007240357,0.66452944,0.0,0.0,0.0,1.0
3833260000,3833260000,0.0005342886,-0.04438567,-0.00210766,0.6667389,0.0,0.0,0.0,1.0
3833360000,3833360000,0.003344507,-0.043731164,-0.00065150455,0.6666389,0.0,0.0,0.0,1.0
3833464000,3833464000,0.00014685164,-0.04456451,-0.0004368291,0.6696412,0.0,0.0,0.0,1.0
3833564000,3833564000,0.0033191629,-0.03949513,-0.0017606369,0.6668873,0.0,0.0,0.0,1.0
3833660000,3833660000,0.00055084145,-0.041790728,-0.0016887069,0.6685193,0.0,0.0,0.0,1.0
3833764000,3833764000,0.0018737874,-0.04523705,-0.0011229236,0.6703139,0.0,0.0,0.0,1.0
3833864000,3833864000,0.0019684061,-0.044086955,-0.0009059299,0.67058986,0.0,0.0,0.0,1.0
3833960000,3833960000,0.002850518,-0.03965854,-0.0016192821,0.6682887,0.0,0.0,0.0,1.0
3834064000,3834064000,0.0019862377,-0.036788967,-0.0013052453,0.66832733,0.0,0.0,0.0,1.0
3834164000,3834164000,0.0062074,-0.046128266,-0.0011919976,0.67163277,0.0,0.0,0.0,1.0
3834264000,3834264000,0.0019204298,-0.042148758,-0.00035982265,0.6711671,0.0,0.0,0.0,1.0
3834360000,3834360000,-8.22912e-05,-0.045209974,-0.001741498,0.6726476,0.0,0.0,0.0,1.0
3834464000,3834464000,0.004339765,-0.03918634,-0.0009960034,0.6698529,0.0,0.0,0.0,1.0
3834564000,3834564000,0.0007952289,-0.03636582,-0.00012802565,0.670642,0.0,0.0,0.0,1.0
3834660000,3834660000,0.00043552625,-0.045474924,-0.00104276,0.6723055,0.0,0.0,0.0,1.0
3834764000,3834764000,0.003431629,-0.041956093,-0.0011243268,0.6725331,0.0,0.0,0.0,1.0
3834860000,3834860000,0.0022435999,-0.04231758,-0.0006862256,0.67133534,0.0,0.0,0.0,1.0
3834960000,3834960000,0.0043552904,-0.03549717,0.0001899788,0.6697624,0.0,0.0,0.0,1.0
3835060000,3835060000,0.0023824146,-0.04649408,8.1849226e-05,0.6722148,0.0,0.0,0.0,1.0
3835164000,3835164000,0.00603594,-0.04174042,3.1725678e-05,0.67249715,0.0,0.0,0.0,1.0
3835264000,3835264000,0.002061753,-0.044280775,-0.0019405351,0.67414653,0.0,0.0,0.0,1.0
3835364000,3835364000,0.001070272,-0.045048837,-0.0009819228,0.67338014,0.0,0.0,0.0,1.0
3835464000,3835464000,0.001928212,-0.04220491,-0.002123516,0.6727525,0.0,0.0,0.0,1.0
3835564000,3835564000,0.004840935,-0.049169324,-0.0022696126,0.6743215,0.0,0.0,0.0,1.0
3835660000,3835660000,0.00470379,-0.041440215,-0.0018203957,0.6731254,0.0,0.0,0.0,1.0
3835760000,3835760000,0.0022167058,-0.04159833,-0.0010278814,0.6744932,0.0,0.0,0.0,1.0
3835864000,3835864000,0.0008739721,-0.03970993,-0.00064922124,0.6718732,0.0,0.0,0.0,1.0
3835964000,3835964000,0.00448018,-0.04558713,-0.0012809376,0.6761495,0.0,0.0,0.0,1.0
3836060000,3836060000,0.0021710154,-0.04986863,-0.000962625,0.6759262,0.0,0.0,0.0,1.0
3836160000,3836160000,0.0033280156,-0.04269348,-0.00065732223,0.6735131,0.0,0.0,0.0,1.0
3836260000,3836260000,0.00067895115,-0.043205727,-0.0009824926,0.6760244,0.0,0.0,0.0,1.0
3836364000,3836364000,0.0029898298,-0.039646946,-0.0012214017,0.6747523,0.0,0.0,0.0,1.0
3836460000,3836460000,0.0038931626,-0.05167666,-0.0013449952,0.67917883,0.0,0.0,0.0,1.0
3836564000,3836564000,0.0034539672,-0.045780674,-0.00084092043,0.67670155,0.0,0.0,0.0,1.0
3836664000,3836664000,0.0040557478,-0.044944253,-0.00087911234,0.6765209,0.0,0.0,0.0,1.0
3836764000,3836764000,0.0043366295,-0.040985905,-5.4612756e-05,0.67344624,0.0,0.0,0.0,1.0
3836864000,3836864000,-0.0015101966,-0.038383946,-0.0003771878,0.67467356,0.0,0.0,0.0,1.0
3836964000,3836964000,0.0022029032,-0.050071537,-0.001020072,0.67784363,0.0,0.0,0.0,1.0
3837064000,3837064000,0.0027225886,-0.042720705,-0.0007769102,0.6749953,0.0,0.0,0.0,1.0
3837164000,3837164000,0.00091153267,-0.044384133,-0.00058487675,0.67718315,0.0,0.0,0.0,1.0
3837260000,3837260000,0.001543889,-0.043386728,-0.0018754301,0.674429,0.0,0.0,0.0,1.0
3837360000,3837360000,0.002640198,-0.048322536,-0.0012996384,0.6763885,0.0,0.0,0.0,1.0
3837464000,3837464000,0.0009935643,-0.04628715,-0.000788503,0.67556375,0.0,0.0,0.0,1.0
3837560000,3837560000,0.004669457,-0.046853088,-0.00052021194,0.6768256,0.0,0.0,0.0,1.0
3837664000,3837664000,0.003111216,-0.04422531,-0.0019041027,0.67786163,0.0,0.0,0.0,1.0
3837760000,3837760000,0.0005262778,-0.046752695,-0.0004435255,0.6753835,0.0,0.0,0.0,1.0
3837864000,3837864000,0.004093894,-0.050420262,-0.0009808242,0.6787292,0.0,0.0,0.0,1.0
3837964000,3837964000,0.0019086766,-0.04453623,-0.0006304875,0.6777762,0.0,0.0,0.0,1.0
3838064000,3838064000,0.00084551354,-0.046554264,-0.0015375204,0.6792468,0.0,0.0,0.0,1.0
3838164000,3838164000,0.0040676193,-0.047292687,-0.0010634362,0.6784546,0.0,0.0,0.0,1.0
3838264000,3838264000,0.002949162,-0.049033966,-0.00068229064,0.67880976,0.0,0.0,0.0,1.0
3838360000,3838360000,0.0031125357,-0.039215367,-0.00038915215,0.6772751,0.0,0.0,0.0,1.0
3838460000,3838460000,0.0018394681,-0.05166728,0.000283913,0.68009335,0.0,0.0,0.0,1.0
3838564000,3838564000,0.0037494353,-0.04939437,-0.001033964,0.6812129,0.0,0.0,0.0,1.0
3838660000,3838660000,0.0027139424,-0.04354832,-0.0010261124,0.6789185,0.0,0.0,0.0,1.0
3838764000,3838764000,0.003536278,-0.04524142,-0.00096010586,0.68134034,0.0,0.0,0.0,1.0
3838864000,3838864000,0.0032489237,-0.03895511,-0.0014868445,0.6805892,0.0,0.0,0.0,1.0
3838964000,3838964000,0.0023769548,-0.046449598,-0.0005510703,0.6815213,0.0,0.0,0.0,1.0
3839064000,3839064000,0.0028281638,-0.056249633,-0.00037624082,0.6821122,0.0,0.0,0.0,1.0
3839164000,3839164000,0.0065688617,-0.05210628,-0.00048216552,0.68207324,0.0,0.0,0.0,1.0
3839260000,3839260000,0.00045046327,-0.043553274,-0.00073895813,0.6830607,0.0,0.0,0.0,1.0
3839364000,3839364000,-0.00073616207,-0.039202012,-0.0012185816,0.68082213,0.0,0.0,0.0,1.0
3839464000,3839464000,0.0030825215,-0.041196115,-0.0013004632,0.68000525,0.0,0.0,0.0,1.0
3839564000,3839564000,0.0015808619,-0.049972862,-0.0011093031,0.6830255,0.0,0.0,0.0,1.0
3839664000,3839664000,0.0065897075,-0.04495953,-0.0011596322,0.68310875,0.0,0.0,0.0,1.0
3839760000,3839760000,0.00011892966,-0.04525581,-0.0015021358,0.6832112,0.0,0.0,0.0,1.0
3839860000,3839860000,0.0020319542,-0.04253137,-0.0013410198,0.6812738,0.0,0.0,0.0,1.0
3839964000,3839964000,0.0026831653,-0.041231256,-0.0012033671,0.68249285,0.0,0.0,0.0,1.0
3840064000,3840064000,0.0006308565,-0.05259316,-0.0021578483,0.687931,0.0,0.0,0.0,1.0
3840164000,3840164000,0.0020607894,-0.044370994,-0.00062117726,0.6842445,0.0,0.0,0.0,1.0
3840264000,3840264000,0.00084424764,-0.050625287,-0.0010404439,0.68534356,0.0,0.0,0.0,1.0
3840360000,3840360000,0.0022285026,-0.03906633,-0.0016323515,0.68322104,0.0,0.0,0.0,1.0
3840460000,3840460000,0.0021156045,-0.05211749,-0.00064778945,0.6857148,0.0,0.0,0.0,1.0
3840564000,3840564000,0.003986022,-0.049558558,-0.0011593929,0.68552035,0.0,0.0,0.0,1.0
3840660000,3840660000,0.004324655,-0.05093056,-0.00059801975,0.685824,0.0,0.0,0.0,1.0
3840764000,3840764000,0.0040058517,-0.046958912,-0.001798626,0.68395716,0.0,0.0,0.0,1.0
3840860000,3840860000,0.0025864523,-0.040100373,6.858498e-05,0.6846504,0.0,0.0,0.0,1.0
3840964000,3840964000,-0.00038816757,-0.042653807,-0.0016531418,0.6835913,0.0,0.0,0.0,1.0
3841064000,3841064000,0.0033354664,-0.052643158,-0.0005296174,0.68584627,0.0,0.0,0.0,1.0
3841164000,3841164000,0.0006052818,-0.050706565,-0.0007824433,0.68598056,0.0,0.0,0.0,1.0
3841264000,3841264000,0.0021706382,-0.04826675,-0.0018048438,0.68531215,0.0,0.0,0.0,1.0
3841364000,3841364000,0.005731226,-0.044755083,-0.0009381127,0.683785,0.0,0.0,0.0,1.0
3841464000,3841464000,0.0030462341,-0.04394218,9.116274e-05,0.6836897,0.0,0.0,0.0,1.0
3841560000,3841560000,0.0029720133,-0.051000174,-0.00082388683,0.6864543,0.0,0.0,0.0,1.0
3841664000,3841664000,-9.0470305e-05,-0.048325922,0.0012572983,0.6882388,0.0,0.0,0.0,1.0
3841760000,3841760000,0.0034641894,-0.041108843,-0.0012703375,0.6848479,0.0,0.0,0.0,1.0
3841864000,3841864000,0.005856403,-0.03538355,-0.0003301006,0.67944604,0.0,0.0,0.0,1.0
3841964000,3841964000,0.0037413004,-0.020832127,0.00052583136,0.6740992,0.0,0.0,0.0,1.0
3842064000,3842064000,0.00040450215,-0.03631824,-0.00018042995,0.67144775,0.0,0.0,0.0,1.0
3842160000,3842160000,0.0010758877,-0.052979775,0.00039680826,0.6666916,0.0,0.0,0.0,1.0
3842264000,3842264000,0.0022555362,-0.061917182,0.00039370847,0.65757316,0.0,0.0,0.0,1.0
3842364000,3842364000,0.0032114456,-0.060450803,0.00044278067,0.6495607,0.0,0.0,0.0,1.0
3842464000,3842464000,0.0028922968,-0.0474692,0.00076442334,0.6421469,0.0,0.0,0.0,1.0
3842564000,3842564000,0.00014925771,-0.039312653,0.0008726039,0.6369495,0.0,0.0,0.0,1.0
3842664000,3842664000,0.00022525026,-0.04245451,0.00019131892,0.63378894,0.0,0.0,0.0,1.0
3842764000,3842764000,0.0002249023,-0.04804505,0.0020810233,0.628654,0.0,0.0,0.0,1.0
3842864000,3842864000,0.001984728,-0.043367557,0.0014351049,0.622103,0.0,0.0,0.0,1.0
3842960000,3842960000,-0.0017513552,-0.029447043,0.0010272944,0.61805546,0.0,0.0,0.0,1.0
3843064000,3843064000,0.002711847,-0.035119448,0.002059321,0.61644584,0.0,0.0,0.0,1.0
3843164000,3843164000,-0.0001395602,-0.035818636,0.0019696462,0.61009306,0.0,0.0,0.0,1.0
3843260000,3843260000,-0.002769018,-0.034946587,0.0023934122,0.6091722,0.0,0.0,0.0,1.0
3843360000,3843360000,-0.00039882038,-0.025412034,0.00045071,0.6042121,0.0,0.0,0.0,1.0
3843460000,3843460000,0.0022393405,-0.026832592,0.0024352728,0.6030851,0.0,0.0,0.0,1.0
3843560000,3843560000,1.2161094e-05,-0.028304817,0.0029533685,0.60037524,0.0,0.0,0.0,1.0
3843660000,3843660000,-0.0016887051,-0.03008,0.00405276,0.59642744,0.0,0.0,0.0,1.0
3843760000,3843760000,0.0029722014,-0.028737139,0.002537833,0.59521675,0.0,0.0,0.0,1.0
3843864000,3843864000,0.001089205,-0.023654634,0.0033656706,0.5936522,0.0,0.0,0.0,1.0
3843964000,3843964000,-0.00025973975,-0.022168526,0.0037155538,0.59065485,0.0,0.0,0.0,1.0
3844064000,3844064000,-2.3847912e-05,-0.019395165,0.0046225395,0.58900523,0.0,0.0,0.0,1.0
3844160000,3844160000,-0.0002877789,-0.021609835,0.0038944297,0.58693165,0.0,0.0,0.0,1.0
3844260000,3844260000,0.005146648,-0.026837539,-0.034713928,0.58506304,0.0,0.0,0.0,1.0
3844364000,3844364000,0.007363863,-0.030052172,-0.01622415,0.5831437,0.0,0.0,0.0,1.0
3844464000,3844464000,0.0021007173,-0.026041355,-0.0019109049,0.58798856,0.0,0.0,0.0,1.0
3844564000,3844564000,0.0003993978,-0.034691505,-0.0005311623,0.5904606,0.0,0.0,0.0,1.0
3844664000,3844664000,-0.0058968444,-0.015288958,-1.2616161e-05,0.5960513,0.0,0.0,0.0,1.0
3844764000,3844764000,0.0013153933,-0.014845163,0.00044047344,0.60324603,0.0,0.0,0.0,1.0
3844864000,3844864000,0.005034013,-0.018052828,0.0005654505,0.6172778,0.0,0.0,0.0,1.0
3844964000,3844964000,-0.0012790472,-0.007232005,-0.00027727836,0.6260826,0.0,0.0,0.0,1.0
3845064000,3845064000,-6.1827246e-05,-0.007999189,-0.0006822425,0.6384911,0.0,0.0,0.0,1.0
3845164000,3845164000,0.00097339373,-0.0066969898,0.00086095824,0.6457391,0.0,0.0,0.0,1.0
3845264000,3845264000,0.00046790377,-0.03693965,-0.00016351824,0.66416484,0.0,0.0,0.0,1.0
3845364000,3845364000,0.0015246787,-0.03356147,-0.0010013855,0.67884773,0.0,0.0,0.0,1.0
3845460000,3845460000,-0.0005041769,-0.015081468,-0.0004830459,0.6815351,0.0,0.0,0.0,1.0
3845560000,3845560000,0.0045268834,-0.0031069275,-0.0010396484,0.6795211,0.0,0.0,0.0,1.0
3845664000,3845664000,-0.00012597954,-0.0041517075,3.903004e-05,0.6857552,0.0,0.0,0.0,1.0
3845764000,3845764000,0.001352893,-0.043639526,-0.00026975857,0.6948288,0.0,0.0,0.0,1.0
3845864000,3845864000,-0.00015750877,-0.04657024,0.00025755522,0.68920064,0.0,0.0,0.0,1.0
3845964000,3845964000,0.0018166313,-0.042552866,-1.4251331e-05,0.6834045,0.0,0.0,0.0,1.0
3846060000,3846060000,0.002390066,-0.03519811,-0.0002891167,0.6762493,0.0,0.0,0.0,1.0
3846164000,3846164000,0.003366754,-0.03681877,2.4365727e-07,0.67002344,0.0,0.0,0.0,1.0
3846264000,3846264000,0.0010900488,-0.04208359,0.00040093478,0.66304624,0.0,0.0,0.0,1.0
3846364000,3846364000,0.004339538,-0.04748272,0.0020617316,0.65479714,0.0,0.0,0.0,1.0
3846464000,3846464000,-0.0008111296,-0.049497355,0.0016475382,0.6485273,0.0,0.0,0.0,1.0
3846560000,3846560000,-0.0006202848,-0.060177922,0.0010540744,0.6384751,0.0,0.0,0.0,1.0
3846660000,3846660000,0.0036435504,-0.040184602,0.00029109707,0.6292662,0.0,0.0,0.0,1.0
3846764000,3846764000,0.00062235584,-0.027939074,0.002800909,0.6216432,0.0,0.0,0.0,1.0
3846860000,3846860000,0.006562585,-0.04219575,0.0017156128,0.6173721,0.0,0.0,0.0,1.0
3846960000,3846960000,0.0001290458,-0.054453436,0.00070592604,0.6110188,0.0,0.0,0.0,1.0
3847064000,3847064000,-0.0018972745,-0.049524896,0.0023104898,0.6057388,0.0,0.0,0.0,1.0
3847164000,3847164000,0.0012285676,-0.026279457,0.0023166635,0.60210097,0.0,0.0,0.0,1.0
3847260000,3847260000,-0.00073611934,-0.029895032,0.0026028925,0.59788877,0.0,0.0,0.0,1.0
3847364000,3847364000,-0.00024395238,-0.02473535,0.0025392221,0.5944454,0.0,0.0,0.0,1.0
3847460000,3847460000,0.0019926515,-0.031135244,0.0010159493,0.5928474,0.0,0.0,0.0,1.0
3847564000,3847564000,-0.001750729,-0.027379995,0.0022780774,0.5900647,0.0,0.0,0.0,1.0
3847660000,3847660000,0.0015753177,-0.015805751,-0.006427513,0.58712614,0.0,0.0,0.0,1.0
3847764000,3847764000,0.006359464,-0.026263757,0.030094532,0.58648026,0.0,0.0,0.0,1.0
3847864000,3847864000,0.0090416465,-0.042540625,0.051204402,0.5851855,0.0,0.0,0.0,1.0
3847964000,3847964000,-0.013591633,-0.030628478,0.05219049,0.5863856,0.0,0.0,0.0,1.0
3848064000,3848064000,-0.016091751,-0.02617681,0.045507703,0.59313333,0.0,0.0,0.0,1.0
3848160000,3848160000,-0.01507901,-0.010116585,0.03249688,0.6009595,0.0,0.0,0.0,1.0
3848260000,3848260000,0.0017313834,-0.015901396,0.001184335,0.6102658,0.0,0.0,0.0,1.0
3848364000,3848364000,0.0070995274,0.005773166,-0.007509008,0.6169478,0.0,0.0,0.0,1.0
3848464000,3848464000,0.004389127,0.003451366,-0.0063993717,0.6340358,0.0,0.0,0.0,1.0
3848564000,3848564000,0.006213362,-0.032241512,-0.005532657,0.6565663,0.0,0.0,0.0,1.0
3848664000,3848664000,0.0040044263,-0.018321745,-0.0042516077,0.66599494,0.0,0.0,0.0,1.0
3848764000,3848764000,0.0024063832,-0.00093033724,-0.0035291687,0.6700418,0.0,0.0,0.0,1.0
3848864000,3848864000,0.004270654,0.00037937053,-0.0025521303,0.67242163,0.0,0.0,0.0,1.0
3848964000,3848964000,0.0050395783,-0.016806968,-0.0028161276,0.6859649,0.0,0.0,0.0,1.0
3849064000,3849064000,0.0078035914,-0.05261539,-0.0010327464,0.69735414,0.0,0.0,0.0,1.0
3849164000,3849164000,0.006932481,-0.042989075,0.0003975178,0.69355166,0.0,0.0,0.0,1.0
3849264000,3849264000,0.0017991923,-0.03909637,7.357914e-06,0.6923883,0.0,0.0,0.0,1.0
3849364000,3849364000,-0.0053878315,-0.036087025,-0.0018375944,0.69293094,0.0,0.0,0.0,1.0
3849464000,3849464000,0.0009971434,-0.044224396,-0.00246011,0.6935605,0.0,0.0,0.0,1.0
3849564000,3849564000,0.0029022386,-0.04818134,-0.00353591,0.6944396,0.0,0.0,0.0,1.0
3849664000,3849664000,0.00610861,-0.05040423,-0.002331243,0.6918189,0.0,0.0,0.0,1.0
3849764000,3849764000,0.0056304187,-0.050807953,-0.0009177446,0.6901232,0.0,0.0,0.0,1.0
3849864000,3849864000,0.007622691,-0.040108822,-0.0015857981,0.6877303,0.0,0.0,0.0,1.0
3849960000,3849960000,0.0038455555,-0.050486278,-0.0015802465,0.6919656,0.0,0.0,0.0,1.0
3850064000,3850064000,0.005899773,-0.049696878,-0.0023441869,0.6934474,0.0,0.0,0.0,1.0
3850164000,3850164000,0.0017321078,-0.052159667,-0.00017355173,0.69333696,0.0,0.0,0.0,1.0
3850264000,3850264000,0.00469302,-0.0444398,-0.0017560741,0.6908413,0.0,0.0,0.0,1.0
3850364000,3850364000,0.007486971,-0.04484142,-0.0025341953,0.6917789,0.0,0.0,0.0,1.0
