timestamp,roll_body,pitch_body,yaw_body,yaw_sp_move_rate,q_d[0],q_d[1],q_d[2],q_d[3],thrust_body[0],thrust_body[1],thrust_body[2],q_d_valid,roll_reset_integral,pitch_reset_integral,yaw_reset_integral,fw_control_yaw,apply_flaps
3783272000,0.057153996,0.018738441,0.42857334,0.0,0.9767434,0.025926843,0.015226878,0.21229275,0.0,0.0,-0.12021737,1,0,0,0,0,0
3783364000,0.030725805,-0.05166471,0.42762536,0.0,0.97670346,0.020487517,-0.021979745,0.21247922,0.0,0.0,-0.12021707,1,0,0,0,0,0
3783460000,0.019528262,-0.048577763,0.42762536,0.0,0.9768439,0.014691865,-0.021661153,0.21234633,0.0,0.0,-0.15933254,1,0,0,0,0,0
3783572000,0.015067779,-0.029942855,0.42762536,0.0,0.9770678,0.010537977,-0.01303115,0.21226771,0.0,0.0,-0.23778889,1,0,0,0,0,0
3783664000,0.014692765,-0.027317546,0.42762536,0.0,0.9770902,0.010076414,-0.011788325,0.21225986,0.0,0.0,-0.30458456,1,0,0,0,0,0
3783756000,0.013197387,-0.023506822,0.42762536,0.0,0.9771238,0.008941754,-0.010085207,0.21224378,0.0,0.0,-0.3731168,1,0,0,0,0,0
3783868000,0.0124218445,-0.017555006,0.42762536,0.0,0.97716093,0.007931636,-0.0072595356,0.2122283,0.0,0.0,-0.45517936,1,0,0,0,0,0
3783964000,0.011700289,-0.016283734,0.42762536,0.0,0.9771698,0.007444262,-0.006714967,0.21222316,0.0,0.0,-0.528002,1,0,0,0,0,0
3784076000,0.010202268,-0.014732057,0.42762536,0.0,0.97718185,0.0065477625,-0.0061157765,0.21221548,0.0,0.0,-0.6082473,1,0,0,0,0,0
3784168000,0.0074785817,-0.011181742,0.42762536,0.0,0.9772025,0.004840375,-0.0046700793,0.21220294,0.0,0.0,-0.61057734,1,0,0,0,0,0
3784260000,0.0012620621,-0.0035125886,0.42762536,0.0,0.9772271,0.000989324,-0.001582404,0.21218802,0.0,0.0,-0.6057729,1,0,0,0,0,0
3784372000,-0.0037031458,0.0013533712,0.42762536,0.0,0.97722685,-0.001952993,0.0002683957,0.2121881,0.0,0.0,-0.61130494,1,0,0,0,0,0
3784468000,-0.004857281,0.0035933272,0.42762536,0.0,0.97722363,-0.0027545597,0.0012404204,0.21219057,0.0,0.0,-0.6177242,1,0,0,0,0,0
3784560000,-0.003994423,0.004528415,0.42762536,0.0,0.97722363,-0.0024321612,0.0017888614,0.21219076,0.0,0.0,-0.61658984,1,0,0,0,0,0
3784672000,-0.0050674565,0.0028243202,0.42762536,0.0,0.9772241,-0.002775669,0.0008423752,0.21218991,0.0,0.0,-0.6178644,1,0,0,0,0,0
3784764000,-0.00442832,0.0030169915,0.42762536,0.0,0.9772248,-0.0024838198,0.0010043259,0.21218978,0.0,0.0,-0.61784923,1,0,0,0,0,0
3784860000,-0.003250829,0.0033299585,0.42762536,0.0,0.97722584,-0.0019416861,0.0012821716,0.21218938,0.0,0.0,-0.6245765,1,0,0,0,0,0
3784972000,-0.0035276182,0.0027113385,0.42762536,0.0,0.9772261,-0.0020112982,0.00095053954,0.21218912,0.0,0.0,-0.62762475,1,0,0,0,0,0
3785064000,-0.0031826142,0.0031114346,0.42762536,0.0,0.9772261,-0.0018851717,0.001182635,0.2121892,0.0,0.0,-0.6257919,1,0,0,0,0,0
3785156000,-0.0022985036,0.0022517338,0.42762536,0.0,0.9772275,-0.0013619756,0.00085637235,0.2121883,0.0,0.0,-0.62413406,1,0,0,0,0,0
3785268000,-0.0014391284,0.0026227937,0.42762536,0.0,0.97722775,-0.0009814398,0.001128852,0.21218799,0.0,0.0,-0.62725836,1,0,0,0,0,0
3785364000,-0.0022972184,0.0015430715,0.42762536,0.0,0.9772279,-0.0012861635,0.00051024643,0.21218793,0.0,0.0,-0.63429374,1,0,0,0,0,0
3785476000,-0.0006037764,0.0012242887,0.42762536,0.0,0.97722876,-0.0004249031,0.00053414825,0.21218745,0.0,0.0,-0.63622785,1,0,0,0,0,0
3785568000,-0.0014503102,0.0019575502,0.42762536,0.0,0.97722816,-0.00091632584,0.00080261845,0.21218781,0.0,0.0,-0.63559127,1,0,0,0,0,0
3785660000,-0.0038948779,0.0023234745,0.42762536,0.0,0.977226,-0.0021495966,0.00072205975,0.21218896,0.0,0.0,-0.63465536,1,0,0,0,0,0
3785772000,-0.0036256649,0.0013312323,0.42762536,0.0,0.977227,-0.0019127859,0.00026579862,0.21218805,0.0,0.0,-0.6367978,1,0,0,0,0,0
3785868000,-0.0028547847,0.0008495147,0.42762536,0.0,0.9772278,-0.0014850164,0.0001122104,0.21218765,0.0,0.0,-0.64376736,1,0,0,0,0,0
3785960000,-0.0017971344,0.0006091616,0.42762536,0.0,0.9772285,-0.00094273395,0.00010698058,0.21218747,0.0,0.0,-0.59966755,1,0,0,0,0,0
3786072000,-0.0034727398,0.0006989693,0.42762536,0.0,0.9772274,-0.001770986,-2.6909358e-05,0.21218753,0.0,0.0,-0.53733754,1,0,0,0,0,0
3786164000,-0.004453829,0.0005513804,0.42762536,0.0,0.97722644,-0.0022347015,-0.00020311074,0.21218738,0.0,0.0,-0.56729496,1,0,0,0,0,0
3786260000,-0.0038564722,0.00066405983,0.42762536,0.0,0.97722703,-0.0019547793,-8.467821e-05,0.21218751,0.0,0.0,-0.57337743,1,0,0,0,0,0
3786372000,-0.002749515,2.4152198e-05,0.42762536,0.0,0.9772281,-0.001346015,-0.00027990487,0.21218713,0.0,0.0,-0.56980306,1,0,0,0,0,0
3786464000,-0.0030378294,-0.00072525867,0.42762536,0.0,0.977228,-0.0014073816,-0.0006766657,0.21218652,0.0,0.0,-0.5693244,1,0,0,0,0,0
3786556000,-0.0028667885,-0.00020351601,0.42762536,0.0,0.97722805,-0.0013791622,-0.00040358867,0.21218693,0.0,0.0,-0.5667783,1,0,0,0,0,0
3786668000,-0.0033061162,-0.0012776093,0.42762536,0.0,0.9772277,-0.0014798694,-0.00097501534,0.21218595,0.0,0.0,-0.5703648,1,0,0,0,0,0
3786764000,-0.0039911564,0.00029839514,0.42762536,0.0,0.97722703,-0.001981793,-0.00027763602,0.21218716,0.0,0.0,-0.57794565,1,0,0,0,0,0
3786876000,-0.0014681907,0.00069339393,0.42762536,0.0,0.97722864,-0.0007909438,0.00018303655,0.21218747,0.0,0.0,-0.5784078,1,0,0,0,0,0
3786968000,-0.0018838126,0.001005063,0.42762536,0.0,0.97722834,-0.0010270887,0.00029122768,0.21218763,0.0,0.0,-0.5767323,1,0,0,0,0,0
3787060000,-0.0033866065,0.0014566812,0.42762536,0.0,0.9772271,-0.0018092883,0.00035245734,0.21218812,0.0,0.0,-0.57215226,1,0,0,0,0,0
3787172000,-0.0028481125,8.042283e-05,0.42762536,0.0,0.977228,-0.001400161,-0.0002628708,0.21218714,0.0,0.0,-0.557567,1,0,0,0,0,0
3787268000,-0.00310492,-0.0006207111,0.42762536,0.0,0.9772279,-0.0014512546,-0.0006327001,0.21218655,0.0,0.0,-0.55794346,1,0,0,0,0,0
3787360000,-0.0025546106,-0.0005696213,0.42762536,0.0,0.9772283,-0.0011877862,-0.0005493528,0.21218675,0.0,0.0,-0.56166035,1,0,0,0,0,0
3787472000,-0.0038522785,0.0007126147,0.42762536,0.0,0.97722703,-0.0019578815,-6.0508737e-05,0.21218754,0.0,0.0,-0.56068254,1,0,0,0,0,0
3787564000,-0.00314483,0.0018296818,0.42762536,0.0,0.9772271,-0.0017307258,0.00056036166,0.21218836,0.0,0.0,-0.5592168,1,0,0,0,0,0
3787660000,-0.0025972342,0.0021271997,0.42762536,0.0,0.9772274,-0.0014947274,0.00076382974,0.21218832,0.0,0.0,-0.5643863,1,0,0,0,0,0
3787772000,-0.004631767,0.00040116126,0.42762536,0.0,0.9772263,-0.0023057072,-0.00029538793,0.21218717,0.0,0.0,-0.5637678,1,0,0,0,0,0
3787864000,-0.0022312459,0.0013100271,0.42762536,0.0,0.97722805,-0.001229204,0.00040337685,0.21218783,0.0,0.0,-0.56023854,1,0,0,0,0,0
3787976000,-0.0033817147,0.0012604228,0.42762536,0.0,0.9772272,-0.0017860763,0.00025708173,0.212188,0.0,0.0,-0.56232077,1,0,0,0,0,0
3788068000,-0.004297539,0.0012951045,0.42762536,0.0,0.97722626,-0.0022372399,0.0001768642,0.2121881,0.0,0.0,-0.56389844,1,0,0,0,0,0
3788164000,-0.006130117,0.0005978754,0.42762536,0.0,0.97722423,-0.0030586899,-0.0003582361,0.21218717,0.0,0.0,-0.5675893,1,0,0,0,0,0
3788276000,-0.0054812673,0.004094319,0.42762536,0.0,0.97722214,-0.0031125974,0.0014190088,0.21219155,0.0,0.0,-0.564372,1,0,0,0,0,0
3788368000,-0.006159331,0.0037375647,0.42762536,0.0,0.9772214,-0.0034060578,0.0011727549,0.21219154,0.0,0.0,-0.5620678,1,0,0,0,0,0
3788464000,-0.0059442623,0.0035720235,0.42762536,0.0,0.977222,-0.0032834108,0.0011146873,0.21219121,0.0,0.0,-0.56346864,1,0,0,0,0,0
3788556000,-0.0067055817,0.0025887692,0.42762536,0.0,0.9772218,-0.0035510855,0.00055348506,0.21219015,0.0,0.0,-0.5631352,1,0,0,0,0,0
3788668000,-0.0051478916,0.0034050513,0.42762536,0.0,0.97722346,-0.002876581,0.0011175941,0.2121906,0.0,0.0,-0.5627696,1,0,0,0,0,0
3788764000,-0.0045488793,0.0031868184,0.42762536,0.0,0.97722447,-0.0025607438,0.0010745149,0.21219,0.0,0.0,-0.5656578,1,0,0,0,0,0
3788876000,-0.005424455,0.003401868,0.42762536,0.0,0.97722304,-0.0030113752,0.0010866966,0.21219072,0.0,0.0,-0.56431377,1,0,0,0,0,0
3788968000,-0.007724965,0.0025230623,0.42762536,0.0,0.97721994,-0.0040421966,0.00041322832,0.21219032,0.0,0.0,-0.56446475,1,0,0,0,0,0
3789064000,-0.0072245644,0.0022815596,0.42762536,0.0,0.97722113,-0.0037720744,0.00034831744,0.21218981,0.0,0.0,-0.5660835,1,0,0,0,0,0
3789160000,-0.00763284,0.002065871,0.42762536,0.0,0.97722054,-0.003948679,0.00019961361,0.21218947,0.0,0.0,-0.565704,1,0,0,0,0,0
3789272000,-0.008423068,0.0017878797,0.42762536,0.0,0.97721916,-0.0043053,-2.0054742e-05,0.21218897,0.0,0.0,-0.56352186,1,0,0,0,0,0
3789364000,-0.00816963,0.0033063006,0.42762536,0.0,0.9772181,-0.004342557,0.0007487502,0.21219182,0.0,0.0,-0.5630963,1,0,0,0,0,0
3789460000,-0.0075378576,0.0034313435,0.42762536,0.0,0.9772193,-0.004047133,0.0008768757,0.21219179,0.0,0.0,-0.5663476,1,0,0,0,0,0
3789572000,-0.0074546207,0.0027443974,0.42762536,0.0,0.97722024,-0.003933585,0.0005500574,0.21219061,0.0,0.0,-0.5651146,1,0,0,0,0,0
3789664000,-0.007852711,0.0015876037,0.42762536,0.0,0.97722054,-0.0040053697,-5.740005e-05,0.21218862,0.0,0.0,-0.56489885,1,0,0,0,0,0
3789756000,-0.007673685,0.0020158412,0.42762536,0.0,0.97722054,-0.0039633284,0.00017083512,0.21218938,0.0,0.0,-0.5641154,1,0,0,0,0,0
3789868000,-0.0065131495,0.00019148864,0.42762536,0.0,0.97722375,-0.0032027292,-0.0005974389,0.21218647,0.0,0.0,-0.5635244,1,0,0,0,0,0
3789964000,-0.0044607692,-6.368121e-05,0.42762536,0.0,0.9772266,-0.0021728387,-0.00050437433,0.2121867,0.0,0.0,-0.5652418,1,0,0,0,0,0
3790076000,-0.005208669,0.0016536645,0.42762536,0.0,0.9772249,-0.00272047,0.0002553958,0.2121886,0.0,0.0,-0.5649063,1,0,0,0,0,0
3790168000,-0.005858627,-0.00011849211,0.42762536,0.0,0.9772249,-0.0028500347,-0.0006794589,0.2121862,0.0,0.0,-0.56295276,1,0,0,0,0,0
3790260000,-0.0054030903,0.0016312728,0.42762536,0.0,0.97722465,-0.0028130913,0.00022382798,0.2121886,0.0,0.0,-0.56347466,1,0,0,0,0,0
3790372000,-0.0057918336,0.0013316359,0.42762536,0.0,0.97722435,-0.0029712468,3.617812e-05,0.21218823,0.0,0.0,-0.5633743,1,0,0,0,0,0
3790468000,-0.0048938454,0.0019484246,0.42762536,0.0,0.9772251,-0.002597915,0.0004328204,0.21218891,0.0,0.0,-0.56484795,1,0,0,0,0,0
3790560000,-0.0058921967,0.00220479,0.42762536,0.0,0.9772235,-0.0031129199,0.00045216412,0.2121894,0.0,0.0,-0.5625227,1,0,0,0,0,0
3790672000,-0.005388291,0.0016903717,0.42762536,0.0,0.97722465,-0.0028121301,0.00025427446,0.21218866,0.0,0.0,-0.5632781,1,0,0,0,0,0
3790764000,-0.0067453575,0.0022398285,0.42762536,0.0,0.977222,-0.0035335012,0.00037876845,0.21218964,0.0,0.0,-0.56420743,1,0,0,0,0,0
3790860000,-0.0069490634,0.000739146,0.42762536,0.0,0.9772228,-0.003473824,-0.00037609454,0.21218728,0.0,0.0,-0.56513506,1,0,0,0,0,0
3790972000,-0.006959291,0.0017373112,0.42762536,0.0,0.9772221,-0.003584719,0.000110535475,0.2121889,0.0,0.0,-0.5655193,1,0,0,0,0,0
3791064000,-0.0052829348,0.0021019701,0.42762536,0.0,0.97722447,-0.002804319,0.00046656447,0.21218915,0.0,0.0,-0.5661347,1,0,0,0,0,0
3791156000,-0.0059131896,0.0006795174,0.42762536,0.0,0.9772245,-0.0029613574,-0.00029533016,0.21218732,0.0,0.0,-0.5646752,1,0,0,0,0,0
3791268000,-0.0049795397,0.0009131053,0.42762536,0.0,0.97722566,-0.0025299466,-8.2141734e-05,0.21218774,0.0,0.0,-0.56529516,1,0,0,0,0,0
3791364000,-0.0061177965,0.0008507151,0.42762536,0.0,0.97722405,-0.003079494,-0.00023338846,0.21218754,0.0,0.0,-0.5643813,1,0,0,0,0,0
3791476000,-0.0060832873,0.0014268237,0.42762536,0.0,0.9772238,-0.0031237532,5.176657e-05,0.21218838,0.0,0.0,-0.56672317,1,0,0,0,0,0
3791568000,-0.005870489,0.0015783171,0.42762536,0.0,0.977224,-0.00303585,0.00014836475,0.2121886,0.0,0.0,-0.5652685,1,0,0,0,0,0
3791660000,-0.005284889,4.712186e-05,0.42762536,0.0,0.9772256,-0.0025872698,-0.0005376681,0.21218662,0.0,0.0,-0.5646544,1,0,0,0,0,0
3791772000,-0.0036304574,0.001216007,0.42762536,0.0,0.97722703,-0.0019029033,0.00020898943,0.21218798,0.0,0.0,-0.56367654,1,0,0,0,0,0
3791868000,-0.00428024,0.0012232494,0.42762536,0.0,0.9772263,-0.002221164,0.00014359016,0.21218805,0.0,0.0,-0.5653996,1,0,0,0,0,0
3791960000,-0.0049732723,0.0015561433,0.42762536,0.0,0.97722524,-0.0025951061,0.00023271995,0.21218845,0.0,0.0,-0.56300604,1,0,0,0,0,0
3792072000,-0.0040718243,0.0006671624,0.42762536,0.0,0.9772268,-0.002060332,-0.00010600973,0.21218748,0.0,0.0,-0.56188023,1,0,0,0,0,0
3792164000,-0.0018025929,0.0004807302,0.42762536,0.0,0.9772285,-0.0009317752,4.3648037e-05,0.21218741,0.0,0.0,-0.56270164,1,0,0,0,0,0
3792260000,-0.0028843393,0.002217212,0.42762536,0.0,0.9772271,-0.0016445604,0.0007773508,0.21218851,0.0,0.0,-0.56456107,1,0,0,0,0,0
3792372000,-0.0031303274,0.0024057068,0.42762536,0.0,0.97722673,-0.0017847514,0.000843354,0.21218872,0.0,0.0,-0.5643017,1,0,0,0,0,0
3792464000,-0.0030063374,0.00066681934,0.42762536,0.0,0.97722775,-0.0015396845,6.864089e-06,0.21218754,0.0,0.0,-0.5636378,1,0,0,0,0,0
3792556000,-0.0017913649,0.0011664442,0.42762536,0.0,0.9772284,-0.0009990388,0.0003798889,0.21218768,0.0,0.0,-0.5612051,1,0,0,0,0,0
3792668000,-0.002574273,0.0020121918,0.42762536,0.0,0.97722745,-0.0014713065,0.0007100713,0.21218829,0.0,0.0,-0.5633315,1,0,0,0,0,0
3792764000,-0.00087876193,0.00028195043,0.42762536,0.0,0.9772289,-0.000459289,4.453401e-05,0.21218733,0.0,0.0,-0.56554276,1,0,0,0,0,0
3792876000,-0.0011606488,-0.001082874,0.42762536,0.0,0.9772288,-0.0004522237,-0.00065224525,0.21218693,0.0,0.0,-0.5643005,1,0,0,0,0,0
3792968000,-0.0013944142,-0.001687314,0.42762536,0.0,0.9772286,-0.0005023175,-0.0009723842,0.21218659,0.0,0.0,-0.5641658,1,0,0,0,0,0
3793060000,-0.0007361169,-0.0012907557,0.42762536,0.0,0.9772288,-0.00022273637,-0.00070877915,0.212187,0.0,0.0,-0.5632545,1,0,0,0,0,0
3793172000,-0.0011366329,-0.0043789456,0.42762536,0.0,0.97722673,-9.079611e-05,-0.0022602035,0.21218555,0.0,0.0,-0.5635093,1,0,0,0,0,0
3793268000,-0.0022248265,-0.004831061,0.42762536,0.0,0.97722614,-0.0005745351,-0.0025965618,0.21218391,0.0,0.0,-0.5625503,1,0,0,0,0,0
3793360000,5.673934e-05,-0.012018135,0.41171265,0.0,0.9788686,0.0012560489,-0.0058763595,0.20440198,0.0,0.0,-0.5644586,1,0,0,0,0,0
3793472000,-0.009978817,-0.0013584645,0.32374805,0.0,0.98691505,-0.0048146914,-0.0014744736,0.16116264,0.0,0.0,-0.5596055,1,0,0,0,0,0
3793564000,-0.03984714,0.03964801,0.25149143,0.0,0.99166304,-0.022246633,0.017164242,0.12575687,0.0,0.0,-0.56202114,1,0,0,0,0,0
3793660000,-0.09396622,0.108621255,0.17609318,0.0,0.99333584,-0.051482998,0.04989023,0.09024593,0.0,0.0,-0.56732464,1,0,0,0,0,0
3793772000,-0.18871735,0.1887713,0.08812857,0.0,0.9897671,-0.09784134,0.089603364,0.05252995,0.0,0.0,-0.5716252,1,0,0,0,0,0
3793864000,-0.264864,0.22380261,0.015871933,0.0,0.98489594,-0.13209367,0.1096453,0.022561949,0.0,0.0,-0.5754942,1,0,0,0,0,0
3793956000,-0.31795698,0.229204,-0.056384705,0.0,0.98103315,-0.15402597,0.11729768,-0.009554851,0.0,0.0,-0.58117557,1,0,0,0,0,0
3794068000,-0.3720589,0.21919979,-0.1443493,0.0,0.9757655,-0.17561837,0.12047125,-0.050264426,0.0,0.0,-0.5909688,1,0,0,0,0,0
3794164000,-0.428374,0.21106353,-0.21974756,0.0,0.9683089,-0.19880955,0.12548575,-0.08429665,0.0,0.0,-0.60843265,1,0,0,0,0,0
3794276000,-0.465551,0.18082035,-0.30771217,0.0,0.96080065,-0.21355987,0.122021385,-0.12792632,0.0,0.0,-0.61940867,1,0,0,0,0,0
3794368000,-0.4869892,0.14908917,-0.3799688,0.0,0.95378345,-0.22245076,0.116381064,-0.1651313,0.0,0.0,-0.6229639,1,0,0,0,0,0
3794460000,-0.5007994,0.11435064,-0.45222542,0.0,0.9457843,-0.2286775,0.10941457,-0.20304486,0.0,0.0,-0.6261663,1,0,0,0,0,0
3794572000,-0.5232149,0.068809845,-0.54019004,0.0,0.9327774,-0.24024357,0.100991674,-0.24901798,0.0,0.0,-0.63805467,1,0,0,0,0,0
3794668000,-0.56047744,0.025988344,-0.6155883,0.0,0.91683847,-0.25978145,0.09568643,-0.28768912,0.0,0.0,-0.65244025,1,0,0,0,0,0
3794760000,-0.56966865,-0.019078428,-0.687845,0.0,0.9025621,-0.2676178,0.086124845,-0.3261056,0.0,0.0,-0.65617406,1,0,0,0,0,0
3794872000,-0.5865923,-0.078587875,-0.77580965,0.0,0.8811925,-0.28164738,0.07445882,-0.372331,0.0,0.0,-0.66405284,1,0,0,0,0,0
3794964000,-0.584634,-0.12537776,-0.84806633,0.0,0.8636304,-0.28681678,0.06365509,-0.40966654,0.0,0.0,-0.6679498,1,0,0,0,0,0
3795060000,-0.6016153,-0.18268812,-0.9234646,0.0,0.8394764,-0.30297127,0.05344948,-0.44791847,0.0,0.0,-0.68145305,1,0,0,0,0,0
3795172000,-0.5926949,-0.23158887,-1.0114292,0.0,0.81474656,-0.3072939,0.043852746,-0.4897299,0.0,0.0,-0.68745345,1,0,0,0,0,0
3795264000,-0.56709224,-0.26634413,-1.0836858,0.0,0.7961087,-0.3033083,0.033783123,-0.5225646,0.0,0.0,-0.6870167,1,0,0,0,0,0
3795376000,-0.52651125,-0.30467513,-1.1716503,0.0,0.77339834,-0.29533282,0.020119539,-0.56056106,0.0,0.0,-0.68973863,1,0,0,0,0,0
3795468000,-0.48169413,-0.3298072,-1.2439069,0.0,0.7557629,-0.284111,0.0075187823,-0.58995503,0.0,0.0,-0.6862342,1,0,0,0,0,0
3795564000,-0.4452987,-0.36174074,-1.3193051,0.0,0.7337847,-0.27916273,-0.0055210483,-0.6193527,0.0,0.0,-0.6887962,1,0,0,0,0,0
3795676000,-0.39748883,-0.3920627,-1.4072696,0.0,0.7082884,-0.27120224,-0.020299088,-0.6514329,0.0,0.0,-0.6882167,1,0,0,0,0,0
3795768000,-0.36672613,-0.41801605,-1.4795262,0.0,0.68493706,-0.26927513,-0.030447565,-0.67633206,0.0,0.0,-0.6831813,1,0,0,0,0,0
3795876000,-0.33311117,-0.45091724,-1.5643492,0.0,0.6557387,-0.27001497,-0.0424973,-0.70377034,0.0,0.0,-0.6839538,1,0,0,0,0,0
3795968000,-0.3004434,-0.47055057,-1.6366057,0.0,0.6316799,-0.26771837,-0.051289637,-0.725725,0.0,0.0,-0.6818264,1,0,0,0,0,0
3796064000,-0.26784298,-0.4947984,-1.712004,0.0,0.6051208,-0.26814023,-0.061305508,-0.7471086,0.0,0.0,-0.6832102,1,0,0,0,0,0
3796156000,-0.23143424,-0.5075889,-1.7842605,0.0,0.5810168,-0.26429352,-0.06956627,-0.7666349,0.0,0.0,-0.68245167,1,0,0,0,0,0
3796268000,-0.18679954,-0.52300835,-1.872225,0.0,0.55085206,-0.26069775,-0.08007411,-0.78878826,0.0,0.0,-0.68391186,1,0,0,0,0,0
3796360000,-0.15094854,-0.53357357,-1.9444816,0.0,0.5255465,-0.2581633,-0.08803105,-0.8058555,0.0,0.0,-0.6800893,1,0,0,0,0,0
3796472000,-0.10431754,-0.5438111,-2.0324461,0.0,-0.49464133,0.2544502,0.09853701,0.8251518,0.0,0.0,-0.6817388,1,0,0,0,0,0
3796568000,-0.0657187,-0.5553302,-2.1078444,0.0,-0.4671519,0.25378788,0.10791517,0.84006846,0.0,0.0,-0.6842982,1,0,0,0,0,0
3796660000,-0.02611723,-0.5560756,-2.180101,0.0,-0.44146517,0.24914429,0.115781486,0.854184,0.0,0.0,-0.6826383,1,0,0,0,0,0
3796772000,-0.00024152784,-0.55649054,-2.2270808,0.0,-0.42447773,0.24650262,0.12115867,0.8627721,0.0,0.0,-0.6829995,1,0,0,0,0,0
3796864000,-0.0013244695,-0.5536155,-2.2270675,0.0,-0.42452466,0.2454913,0.120082565,0.8631877,0.0,0.0,-0.68235457,1,0,0,0,0,0
3796960000,-0.0029447267,-0.55983806,-2.2270665,0.0,-0.42394468,0.24851866,0.120705195,0.8625194,0.0,0.0,-0.68652624,1,0,0,0,0,0
3797072000,-0.0050546452,-0.5609396,-2.2270737,0.0,-0.42361072,0.24944097,0.12002835,0.86251163,0.0,0.0,-0.68608874,1,0,0,0,0,0
3797164000,-0.0054929056,-0.5583014,-2.227086,0.0,-0.4237147,0.2483974,0.11927716,0.8628659,0.0,0.0,-0.6832419,1,0,0,0,0,0
3797276000,-0.0054253056,-0.5572392,-2.227097,0.0,-0.4237841,0.2479258,0.11907921,0.86299473,0.0,0.0,-0.6855718,1,0,0,0,0,0
3797368000,-0.0039028942,-0.5536606,-2.227094,0.0,-0.42419365,0.24605942,0.11897597,0.8633419,0.0,0.0,-0.68483466,1,0,0,0,0,0
3797464000,-0.0039418237,-0.56317973,-2.227102,0.0,-0.42359817,0.25017223,0.12098034,0.86217296,0.0,0.0,-0.688299,1,0,0,0,0,0
3797576000,-0.0034759121,-0.5671835,-2.2271118,0.0,-0.42340288,0.2517987,0.12202954,0.8616474,0.0,0.0,-0.68651414,1,0,0,0,0,0
3797668000,-0.005301887,-0.56480193,-2.227127,0.0,-0.42331564,0.25116053,0.12073533,0.8620587,0.0,0.0,-0.68660253,1,0,0,0,0,0
3797760000,-0.0066664605,-0.56051314,-2.2271404,0.0,-0.42340747,0.24960248,0.119234234,0.8626749,0.0,0.0,-0.68599296,1,0,0,0,0,0
3797872000,-0.008830236,-0.55876607,-2.2271676,0.0,-0.4232353,0.24930914,0.117925845,0.863024,0.0,0.0,-0.68603444,1,0,0,0,0,0
3797968000,-0.009980548,-0.5646622,-2.227188,0.0,-0.42270952,0.25209358,0.11868098,0.862369,0.0,0.0,-0.6892703,1,0,0,0,0,0
3798060000,-0.01053828,-0.560758,-2.2272146,0.0,-0.42287585,0.25053155,0.11760676,0.8628897,0.0,0.0,-0.6896779,1,0,0,0,0,0
3798172000,-0.009914416,-0.56002516,-2.2272408,0.0,-0.42298907,0.2500854,0.11771674,0.86294866,0.0,0.0,-0.6906199,1,0,0,0,0,0
3798264000,-0.011553461,-0.5564861,-2.2272651,0.0,-0.42299744,0.24890831,0.11625308,0.86348313,0.0,0.0,-0.6868867,1,0,0,0,0,0
3798360000,-0.0128990915,-0.5642016,-2.2272842,0.0,-0.42232934,0.2525175,0.11731228,0.8626185,0.0,0.0,-0.6916236,1,0,0,0,0,0
3798472000,-0.013589574,-0.5641391,-2.2273054,0.0,-0.422237,0.25263762,0.116998464,0.86267114,0.0,0.0,-0.6903007,1,0,0,0,0,0
3798564000,-0.01446966,-0.5599805,-2.227318,0.0,-0.4223878,0.2510334,0.115731746,0.8632363,0.0,0.0,-0.69086313,1,0,0,0,0,0
3798676000,-0.014382565,-0.55732477,-2.2273357,0.0,-0.42256093,0.2498719,0.115201406,0.8635594,0.0,0.0,-0.6915199,1,0,0,0,0,0
3798768000,-0.01359134,-0.55418974,-2.227345,0.0,-0.42285478,0.24835393,0.11487396,0.8638971,0.0,0.0,-0.69047225,1,0,0,0,0,0
3798864000,-0.013352967,-0.5630573,-2.2273464,0.0,-0.42231867,0.25212428,0.11686513,0.8627994,0.0,0.0,-0.69327086,1,0,0,0,0,0
3798976000,-0.014339871,-0.56326467,-2.2273417,0.0,-0.422183,0.25242165,0.1164841,0.8628304,0.0,0.0,-0.6926149,1,0,0,0,0,0
3799068000,-0.01540297,-0.5604397,-2.2273383,0.0,-0.4222324,0.25142944,0.11542417,0.8632383,0.0,0.0,-0.69095355,1,0,0,0,0,0
3799160000,-0.01415942,-0.55736136,-2.227334,0.0,-0.4225873,0.24984042,0.11530578,0.8635417,0.0,0.0,-0.6901523,1,0,0,0,0,0
3799272000,-0.014038988,-0.5557698,-2.2273283,0.0,-0.42270607,0.2491287,0.11501937,0.86372745,0.0,0.0,-0.68996954,1,0,0,0,0,0
3799368000,-0.015507433,-0.5633691,-2.227323,0.0,-0.42203677,0.25271195,0.11600497,0.8628815,0.0,0.0,-0.69327426,1,0,0,0,0,0
3799460000,-0.016076347,-0.55970985,-2.227323,0.0,-0.42220134,0.2512564,0.11497996,0.8633631,0.0,0.0,-0.6916227,1,0,0,0,0,0
3799572000,-0.016700063,-0.5606289,-2.227324,0.0,-0.4220632,0.25178385,0.11490644,0.8632868,0.0,0.0,-0.6923548,1,0,0,0,0,0
3799664000,-0.016137747,-0.55840826,-2.2273269,0.0,-0.42227578,0.2507089,0.11467558,0.86352634,0.0,0.0,-0.69025284,1,0,0,0,0,0
3799760000,-0.016159276,-0.5652702,-2.2273262,0.0,-0.42182964,0.25366792,0.1161282,0.8626857,0.0,0.0,-0.69282526,1,0,0,0,0,0
3799872000,-0.0175735,-0.5636552,-2.2273297,0.0,-0.421754,0.25327134,0.11517364,0.86296713,0.0,0.0,-0.69307023,1,0,0,0,0,0
3799964000,-0.017601648,-0.5617186,-2.2273343,0.0,-0.42187455,0.25244388,0.11474821,0.86320734,0.0,0.0,-0.6919861,1,0,0,0,0,0
3800076000,-0.017857464,-0.5627754,-2.2273397,0.0,-0.421771,0.25295308,0.11486237,0.8630936,0.0,0.0,-0.69141275,1,0,0,0,0,0
3800168000,-0.018435795,-0.5600915,-2.227341,0.0,-0.4218721,0.25191966,0.114040464,0.8634554,0.0,0.0,-0.6888664,1,0,0,0,0,0
3800264000,-0.017899824,-0.565719,-2.2273378,0.0,-0.42157432,0.25422874,0.11547152,0.86273354,0.0,0.0,-0.6928218,1,0,0,0,0,0
3800376000,-0.016912935,-0.5657778,-2.2273285,0.0,-0.4216999,0.25404543,0.11591092,0.8626672,0.0,0.0,-0.6939608,1,0,0,0,0,0
3800468000,-0.01804891,-0.56288934,-2.2273211,0.0,-0.42174742,0.25304142,0.114806354,0.86308676,0.0,0.0,-0.6928795,1,0,0,0,0,0
3800560000,-0.019115744,-0.5595523,-2.2273157,0.0,-0.42183238,0.25182942,0.11363508,0.86355454,0.0,0.0,-0.69178116,1,0,0,0,0,0
3800672000,-0.020290723,-0.5594127,-2.2273173,0.0,-0.4216928,0.2520172,0.11309774,0.86363846,0.0,0.0,-0.6915896,1,0,0,0,0,0
3800768000,-0.020079672,-0.56718755,-2.2273211,0.0,-0.42120725,0.25531882,0.11484629,0.86267436,0.0,0.0,-0.6952164,1,0,0,0,0,0
3800860000,-0.019953629,-0.5646376,-2.2273273,0.0,-0.42138875,0.25419566,0.114356324,0.86298245,0.0,0.0,-0.69335485,1,0,0,0,0,0
3800972000,-0.019582024,-0.5657431,-2.227333,0.0,-0.42136073,0.25459328,0.11475155,0.86282647,0.0,0.0,-0.69335717,1,0,0,0,0,0
3801064000,-0.02011797,-0.56308824,-2.2273343,0.0,-0.42146665,0.25356397,0.113954194,0.8631834,0.0,0.0,-0.6908981,1,0,0,0,0,0
3801160000,-0.021227384,-0.57072055,-2.227335,0.0,-0.4208197,0.25708026,0.11510247,0.8623061,0.0,0.0,-0.69396174,1,0,0,0,0,0
3801272000,-0.021702407,-0.56892693,-2.2273302,0.0,-0.42088026,0.2564089,0.114515975,0.8625545,0.0,0.0,-0.69511217,1,0,0,0,0,0
3801364000,-0.020344319,-0.5651365,-2.2273216,0.0,-0.42130864,0.25449228,0.11429484,0.8629422,0.0,0.0,-0.6942195,1,0,0,0,0,0
3801476000,-0.01999116,-0.56715435,-2.227309,0.0,-0.42122594,0.25528517,0.114878945,0.86267084,0.0,0.0,-0.6928465,1,0,0,0,0,0
3801568000,-0.02108432,-0.56363183,-2.2272987,0.0,-0.42132366,0.25399947,0.11365757,0.8631643,0.0,0.0,-0.6927452,1,0,0,0,0,0
3801664000,-0.021477334,-0.56942356,-2.2272847,0.0,-0.42089579,0.25657243,0.11472475,0.8624706,0.0,0.0,-0.6961175,1,0,0,0,0,0
3801756000,-0.02074744,-0.5653322,-2.2272694,0.0,-0.4212669,0.2546584,0.114169285,0.86293024,0.0,0.0,-0.69529265,1,0,0,0,0,0
3801868000,-0.02067686,-0.5667021,-2.2272508,0.0,-0.42119345,0.25523174,0.11449417,0.86275375,0.0,0.0,-0.6941706,1,0,0,0,0,0
3801960000,-0.021522548,-0.56457883,-2.2272367,0.0,-0.4212321,0.2544957,0.1136783,0.86306006,0.0,0.0,-0.69231206,1,0,0,0,0,0
3802072000,-0.019090846,-0.5659653,-2.2272134,0.0,-0.4214603,0.25457856,0.11502605,0.8627456,0.0,0.0,-0.692393,1,0,0,0,0,0
3802168000,-0.019838516,-0.5731882,-2.2271953,0.0,-0.4208942,0.25784048,0.116244815,0.8618895,0.0,0.0,-0.696196,1,0,0,0,0,0
3802260000,-0.018571062,-0.5690007,-2.227168,0.0,-0.4213463,0.25577193,0.11590275,0.8623309,0.0,0.0,-0.6948596,1,0,0,0,0,0
3802372000,-0.01820458,-0.56848574,-2.2271333,0.0,-0.42144212,0.2554713,0.11595554,0.8623661,0.0,0.0,-0.69574934,1,0,0,0,0,0
3802464000,-0.017914852,-0.5662903,-2.2271013,0.0,-0.42163703,0.25446403,0.115616836,0.8626141,0.0,0.0,-0.6947248,1,0,0,0,0,0
3802560000,-0.017652726,-0.57420677,-2.227075,0.0,-0.42116004,0.25781098,0.11741894,0.8616093,0.0,0.0,-0.69783837,1,0,0,0,0,0
3802672000,-0.016625853,-0.5756345,-2.2270503,0.0,-0.4212086,0.25820667,0.11816821,0.8613646,0.0,0.0,-0.69697976,1,0,0,0,0,0
3802764000,-0.016246632,-0.5741803,-2.2270198,0.0,-0.4213668,0.25750014,0.11802615,0.8615182,0.0,0.0,-0.69874626,1,0,0,0,0,0
3802876000,-0.015660468,-0.5785951,-2.2269843,0.0,-0.42116565,0.2592712,0.119222015,0.8609205,0.0,0.0,-0.69705826,1,0,0,0,0,0
3802968000,-0.015869703,-0.5795773,-2.2269511,0.0,-0.42108753,0.2597351,0.11934507,0.86080176,0.0,0.0,-0.6967702,1,0,0,0,0,0
3803064000,-0.015712418,-0.5882267,-2.2269266,0.0,-0.42053974,0.26341212,0.12125344,0.8596848,0.0,0.0,-0.7002028,1,0,0,0,0,0
3803176000,-0.015448477,-0.58863187,-2.2269003,0.0,-0.42055848,0.26352876,0.12145634,0.8596113,0.0,0.0,-0.7005582,1,0,0,0,0,0
3803268000,-0.016685436,-0.5828145,-2.2268853,0.0,-0.4207935,0.2612925,0.11969073,0.8604262,0.0,0.0,-0.69992274,1,0,0,0,0,0
3803360000,-0.015390198,-0.5788012,-2.2268734,0.0,-0.42123476,0.2592962,0.11939655,0.8608549,0.0,0.0,-0.6988239,1,0,0,0,0,0
3803472000,-0.015989486,-0.5789628,-2.2268624,0.0,-0.42115107,0.25949115,0.11917437,0.860868,0.0,0.0,-0.6992887,1,0,0,0,0,0
3803568000,-0.015792381,-0.5864539,-2.226854,0.0,-0.42067972,0.26266426,0.12085217,0.85990167,0.0,0.0,-0.7026563,1,0,0,0,0,0
3803660000,-0.015722606,-0.58375657,-2.2268467,0.0,-0.4208728,0.2614919,0.12031014,0.86024034,0.0,0.0,-0.7011859,1,0,0,0,0,0
3803772000,-0.015768752,-0.5846932,-2.226842,0.0,-0.42080614,0.26190323,0.12048993,0.8601227,0.0,0.0,-0.70099354,1,0,0,0,0,0
3803864000,-0.015902659,-0.5816467,-2.226842,0.0,-0.42099243,0.26062393,0.11978496,0.8605185,0.0,0.0,-0.6978211,1,0,0,0,0,0
3803960000,-0.016418742,-0.58762085,-2.226844,0.0,-0.42052305,0.26329583,0.12083203,0.85978794,0.0,0.0,-0.702136,1,0,0,0,0,0
3804072000,-0.01585644,-0.58794993,-2.2268512,0.0,-0.4205718,0.26331916,0.121142685,0.8597132,0.0,0.0,-0.70254546,1,0,0,0,0,0
3804164000,-0.01663731,-0.58363086,-2.2268612,0.0,-0.42075542,0.26163128,0.11988808,0.86031437,0.0,0.0,-0.70177895,1,0,0,0,0,0
3804276000,-0.015893947,-0.58479714,-2.226875,0.0,-0.42076856,0.26197612,0.12045381,0.86012393,0.0,0.0,-0.7017656,1,0,0,0,0,0
3804368000,-0.015625123,-0.5812602,-2.226882,0.0,-0.42103708,0.26040202,0.11981702,0.8605594,0.0,0.0,-0.7015106,1,0,0,0,0,0
3804464000,-0.016016386,-0.589045,-2.2268867,0.0,-0.42046165,0.26382455,0.121301815,0.85958976,0.0,0.0,-0.70368457,1,0,0,0,0,0
3804556000,-0.015628494,-0.5854857,-2.2268882,0.0,-0.42075157,0.26221648,0.12071251,0.8600228,0.0,0.0,-0.7015748,1,0,0,0,0,0
3804668000,-0.016760428,-0.5862277,-2.2268867,0.0,-0.4205537,0.2627728,0.1203836,0.85999584,0.0,0.0,-0.7020508,1,0,0,0,0,0
3804760000,-0.015009636,-0.5820154,-2.2268834,0.0,-0.42106637,0.2605967,0.120242104,0.86042684,0.0,0.0,-0.6998067,1,0,0,0,0,0
3804872000,-0.014712567,-0.5816674,-2.2268758,0.0,-0.42113143,0.26038432,0.120296955,0.86045164,0.0,0.0,-0.7012185,1,0,0,0,0,0
3804968000,-0.015636794,-0.5898347,-2.2268763,0.0,-0.42046288,0.26408264,0.121633954,0.8594629,0.0,0.0,-0.7028876,1,0,0,0,0,0
3805060000,-0.015083825,-0.5866261,-2.2268803,0.0,-0.4207498,0.26259062,0.12118991,0.8598423,0.0,0.0,-0.70289534,1,0,0,0,0,0
3805172000,-0.016091159,-0.5863034,-2.226894,0.0,-0.42063344,0.2626649,0.12068648,0.8599474,0.0,0.0,-0.70348567,1,0,0,0,0,0
3805264000,-0.017484399,-0.5831034,-2.226912,0.0,-0.42065814,0.26158616,0.119404934,0.8604428,0.0,0.0,-0.7016822,1,0,0,0,0,0
3805360000,-0.017961444,-0.5908135,-2.226934,0.0,-0.42006412,0.26499426,0.12083516,0.85949,0.0,0.0,-0.703371,1,0,0,0,0,0
3805472000,-0.016608521,-0.58912605,-2.2269616,0.0,-0.42034575,0.26398832,0.12105462,0.85963094,0.0,0.0,-0.70502204,1,0,0,0,0,0
3805564000,-0.017297238,-0.5866051,-2.2269833,0.0,-0.42041615,0.2630533,0.12022024,0.8600002,0.0,0.0,-0.70415366,1,0,0,0,0,0
3805676000,-0.017476846,-0.5879756,-2.2270074,0.0,-0.4202894,0.26368025,0.12043099,0.85984063,0.0,0.0,-0.7039669,1,0,0,0,0,0
3805768000,-0.018358665,-0.5860088,-2.2270355,0.0,-0.42029434,0.26302376,0.11963021,0.860151,0.0,0.0,-0.70263195,1,0,0,0,0,0
3805864000,-0.01736464,-0.59384537,-2.2270608,0.0,-0.41988215,0.2661758,0.12171841,0.8590891,0.0,0.0,-0.70505613,1,0,0,0,0,0
3805956000,-0.015910732,-0.58987933,-2.227083,0.0,-0.42033482,0.264172,0.12149841,0.8595173,0.0,0.0,-0.702799,1,0,0,0,0,0
3806068000,-0.016907953,-0.5891827,-2.2271004,0.0,-0.42024276,0.2640839,0.12091964,0.85967094,0.0,0.0,-0.7041308,1,0,0,0,0,0
3806160000,-0.016870122,-0.58502364,-2.2271104,0.0,-0.42052418,0.26229274,0.12005124,0.86020327,0.0,0.0,-0.7014944,1,0,0,0,0,0
3806272000,-0.017220402,-0.5845481,-2.2271163,0.0,-0.4205077,0.26216274,0.11979878,0.8602862,0.0,0.0,-0.7047295,1,0,0,0,0,0
3806368000,-0.017208291,-0.59096885,-2.2271256,0.0,-0.42007095,0.26491418,0.1211664,0.8594647,0.0,0.0,-0.70663995,1,0,0,0,0,0
3806460000,-0.01651029,-0.58946985,-2.2271366,0.0,-0.42026034,0.26412565,0.12114673,0.8596176,0.0,0.0,-0.704604,1,0,0,0,0,0
3806572000,-0.016476074,-0.58902985,-2.227147,0.0,-0.42029008,0.2639304,0.121066645,0.8596743,0.0,0.0,-0.7045127,1,0,0,0,0,0
3806664000,-0.016657038,-0.5852386,-2.2271545,0.0,-0.4205187,0.26234284,0.12018278,0.8601723,0.0,0.0,-0.7021558,1,0,0,0,0,0
3806760000,-0.018428897,-0.591158,-2.227165,0.0,-0.41987944,0.26525396,0.12067679,0.8595224,0.0,0.0,-0.7058979,1,0,0,0,0,0
3806872000,-0.018245963,-0.59227735,-2.2271817,0.0,-0.4198201,0.2656963,0.12099089,0.8593705,0.0,0.0,-0.70556086,1,0,0,0,0,0
3806964000,-0.018464964,-0.58995396,-2.2271988,0.0,-0.4199422,0.2647475,0.1204011,0.8596865,0.0,0.0,-0.70385385,1,0,0,0,0,0
3807056000,-0.016884511,-0.5872667,-2.2272134,0.0,-0.42032686,0.26326415,0.12050796,0.85993904,0.0,0.0,-0.7024414,1,0,0,0,0,0
3807168000,-0.016963702,-0.58574986,-2.2272208,0.0,-0.42041558,0.26263064,0.12015082,0.8601393,0.0,0.0,-0.70263934,1,0,0,0,0,0
3807264000,-0.016738374,-0.59270906,-2.2272217,0.0,-0.41997373,0.26556718,0.1217249,0.8592317,0.0,0.0,-0.70587826,1,0,0,0,0,0
3807376000,-0.017194582,-0.5936362,-2.2272277,0.0,-0.4198473,0.2660606,0.12172486,0.8591409,0.0,0.0,-0.7047296,1,0,0,0,0,0
3807468000,-0.016627284,-0.5888256,-2.2272325,0.0,-0.42024723,0.26387978,0.120947026,0.8597276,0.0,0.0,-0.70464325,1,0,0,0,0,0
3807560000,-0.016056491,-0.58545804,-2.2272313,0.0,-0.4205497,0.26231533,0.12047759,0.8601243,0.0,0.0,-0.70284426,1,0,0,0,0,0
3807672000,-0.015509881,-0.5882803,-2.2272353,0.0,-0.42043015,0.26341128,0.12131124,0.85973054,0.0,0.0,-0.7046572,1,0,0,0,0,0
3807768000,-0.01727495,-0.5983065,-2.2272367,0.0,-0.41951278,0.26807833,0.122679725,0.858541,0.0,0.0,-0.7080672,1,0,0,0,0,0
3807860000,-0.017681867,-0.59705997,-2.227257,0.0,-0.41953528,0.2676312,0.12223799,0.8587325,0.0,0.0,-0.708183,1,0,0,0,0,0
3807972000,-0.019029552,-0.6003322,-2.2272892,0.0,-0.41911468,0.26931652,0.12234912,0.8583951,0.0,0.0,-0.70627695,1,0,0,0,0,0
3808064000,-0.018625544,-0.5992057,-2.2273185,0.0,-0.41923454,0.2687515,0.122279696,0.8585236,0.0,0.0,-0.70430297,1,0,0,0,0,0
3808160000,-0.017800044,-0.60564184,-2.2273366,0.0,-0.4188917,0.27133334,0.12399561,0.8576322,0.0,0.0,-0.7082818,1,0,0,0,0,0
3808272000,-0.019155988,-0.602197,-2.2273674,0.0,-0.4189346,0.27014574,0.12267977,0.8581752,0.0,0.0,-0.70967764,1,0,0,0,0,0
3808364000,-0.019418282,-0.5978373,-2.2273946,0.0,-0.41919002,0.26833656,0.121638894,0.8587661,0.0,0.0,-0.70841247,1,0,0,0,0,0
3808476000,-0.019886207,-0.59969383,-2.2274294,0.0,-0.41898346,0.26923138,0.12182717,0.8585601,0.0,0.0,-0.7085375,1,0,0,0,0,0
3808572000,-0.019436624,-0.6001235,-2.2274523,0.0,-0.41900438,0.26932248,0.12210819,0.8584814,0.0,0.0,-0.70840997,1,0,0,0,0,0
3808664000,-0.01905976,-0.59736323,-2.2274768,0.0,-0.41923553,0.2680634,0.121681236,0.8588232,0.0,0.0,-0.70673084,1,0,0,0,0,0
3808760000,-0.017192772,-0.60530007,-2.2274897,0.0,-0.41893214,0.27106944,0.12416287,0.85767174,0.0,0.0,-0.7097757,1,0,0,0,0,0
3808872000,-0.01752434,-0.604455,-2.2275007,0.0,-0.41894117,0.27077812,0.12384018,0.857806,0.0,0.0,-0.7100148,1,0,0,0,0,0
3808964000,-0.01740194,-0.59939677,-2.2275043,0.0,-0.419306,0.26858816,0.1228205,0.8584626,0.0,0.0,-0.7082426,1,0,0,0,0,0
3809076000,-0.018808188,-0.5984056,-2.227519,0.0,-0.4191792,0.2684595,0.12200466,0.8586811,0.0,0.0,-0.7088077,1,0,0,0,0,0
3809168000,-0.017794337,-0.5969719,-2.227531,0.0,-0.41940868,0.2676338,0.12213435,0.85880834,0.0,0.0,-0.70694447,1,0,0,0,0,0
3809264000,-0.01689893,-0.60433596,-2.2275465,0.0,-0.41901448,0.27059904,0.12407704,0.85779244,0.0,0.0,-0.7092726,1,0,0,0,0,0
3809356000,-0.017746637,-0.5991642,-2.2275567,0.0,-0.41925323,0.2685641,0.122616194,0.8585251,0.0,0.0,-0.7091,1,0,0,0,0,0
3809468000,-0.017058348,-0.5984566,-2.2275805,0.0,-0.419384,0.2681183,0.122758456,0.85858023,0.0,0.0,-0.70797366,1,0,0,0,0,0
3809560000,-0.01694789,-0.59599,-2.2275972,0.0,-0.41956064,0.26703978,0.122280784,0.85889816,0.0,0.0,-0.70712864,1,0,0,0,0,0
3809672000,-0.017519731,-0.5955744,-2.2276247,0.0,-0.41950098,0.26698333,0.121943414,0.8589928,0.0,0.0,-0.7068685,1,0,0,0,0,0
3809768000,-0.016883597,-0.60209,-2.2276416,0.0,-0.41913107,0.2696407,0.12359509,0.85810685,0.0,0.0,-0.7103793,1,0,0,0,0,0
3809860000,-0.016298115,-0.598819,-2.2276573,0.0,-0.41942805,0.26811874,0.12315132,0.8585023,0.0,0.0,-0.7088792,1,0,0,0,0,0
3809972000,-0.017312048,-0.5983384,-2.2276678,0.0,-0.41932067,0.26812625,0.12261283,0.85862947,0.0,0.0,-0.7081983,1,0,0,0,0,0
3810064000,-0.017087922,-0.59420586,-2.2276874,0.0,-0.41962525,0.26631033,0.12183035,0.859157,0.0,0.0,-0.7065942,1,0,0,0,0,0
3810160000,-0.016722955,-0.601694,-2.2276978,0.0,-0.4191559,0.2694411,0.12357257,0.8581606,0.0,0.0,-0.7094271,1,0,0,0,0,0
3810272000,-0.017978268,-0.60255945,-2.227729,0.0,-0.41891336,0.27007636,0.12321306,0.85813105,0.0,0.0,-0.710155,1,0,0,0,0,0
3810364000,-0.01800922,-0.5996376,-2.2277572,0.0,-0.41909918,0.26883405,0.12257688,0.85852146,0.0,0.0,-0.7077366,1,0,0,0,0,0
3810476000,-0.017569412,-0.6002777,-2.2277899,0.0,-0.41910014,0.2690179,0.1228969,0.85841763,0.0,0.0,-0.7078991,1,0,0,0,0,0
3810568000,-0.017607016,-0.59621876,-2.2278059,0.0,-0.41936728,0.26728874,0.122018345,0.85895246,0.0,0.0,-0.7069476,1,0,0,0,0,0
3810664000,-0.018585363,-0.6019774,-2.2278218,0.0,-0.41883197,0.26996014,0.12281671,0.8582642,0.0,0.0,-0.70915115,1,0,0,0,0,0
3810776000,-0.017741885,-0.60294235,-2.2278342,0.0,-0.4188737,0.27019718,0.123381406,0.8580882,0.0,0.0,-0.7101192,1,0,0,0,0,0
3810868000,-0.018156093,-0.59911156,-2.2278464,0.0,-0.41907746,0.26864508,0.12239036,0.8586178,0.0,0.0,-0.7081956,1,0,0,0,0,0
3810960000,-0.016896285,-0.5949465,-2.227848,0.0,-0.4195312,0.2665972,0.12204825,0.8590831,0.0,0.0,-0.70815027,1,0,0,0,0,0
3811072000,-0.01800313,-0.5932668,-2.2278605,0.0,-0.4194931,0.2661104,0.12121492,0.8593706,0.0,0.0,-0.70813966,1,0,0,0,0,0
3811168000,-0.017728262,-0.6012236,-2.2278647,0.0,-0.41898128,0.2694607,0.12301906,0.8583192,0.0,0.0,-0.7111422,1,0,0,0,0,0
3811260000,-0.017186357,-0.59804505,-2.2278652,0.0,-0.4192729,0.26798636,0.12257813,0.85870147,0.0,0.0,-0.7086626,1,0,0,0,0,0
3811372000,-0.01646855,-0.599663,-2.2278497,0.0,-0.41926473,0.26852772,0.12323115,0.85844284,0.0,0.0,-0.70888585,1,0,0,0,0,0
3811464000,-0.018477371,-0.595148,-2.2278547,0.0,-0.41930354,0.26701555,0.121410936,0.85915464,0.0,0.0,-0.7078002,1,0,0,0,0,0
3811560000,-0.017581264,-0.6011869,-2.2278569,0.0,-0.41900706,0.26941365,0.12307542,0.8583134,0.0,0.0,-0.7112765,1,0,0,0,0,0
3811672000,-0.017013572,-0.6018728,-2.2278717,0.0,-0.4190298,0.26958922,0.123462334,0.85819155,0.0,0.0,-0.71015227,1,0,0,0,0,0
3811764000,-0.017494086,-0.5971646,-2.2278793,0.0,-0.41928604,0.26767462,0.12225749,0.85883796,0.0,0.0,-0.7091193,1,0,0,0,0,0
3811856000,-0.018382326,-0.5948533,-2.2278967,0.0,-0.4193185,0.26687193,0.12138369,0.85919577,0.0,0.0,-0.70720404,1,0,0,0,0,0
3811968000,-0.019265069,-0.5952598,-2.2279143,0.0,-0.41916507,0.26723215,0.1210883,0.85920036,0.0,0.0,-0.7072992,1,0,0,0,0,0
3812064000,-0.01815544,-0.6013452,-2.2279446,0.0,-0.418881,0.2696071,0.122850716,0.85834634,0.0,0.0,-0.7116997,1,0,0,0,0,0
3812176000,-0.018712645,-0.6004416,-2.2279742,0.0,-0.41885585,0.26933885,0.12241609,0.85850495,0.0,0.0,-0.71185964,1,0,0,0,0,0
3812268000,-0.019354716,-0.5975085,-2.228006,0.0,-0.4189587,0.2682196,0.12151443,0.8589331,0.0,0.0,-0.7107029,1,0,0,0,0,0
3812360000,-0.018642358,-0.5938233,-2.2280273,0.0,-0.4192982,0.26649305,0.12103609,0.85937226,0.0,0.0,-0.71008515,1,0,0,0,0,0
3812472000,-0.017770354,-0.5948101,-2.2280314,0.0,-0.41934514,0.2667333,0.121619426,0.8591925,0.0,0.0,-0.7080732,1,0,0,0,0,0
3812568000,-0.017062841,-0.6033703,-2.228016,0.0,-0.4188578,0.27024934,0.12373881,0.85802805,0.0,0.0,-0.7105097,1,0,0,0,0,0
3812660000,-0.016114382,-0.59905624,-2.2280006,0.0,-0.41928908,0.26820296,0.123234406,0.858532,0.0,0.0,-0.7095081,1,0,0,0,0,0
3812772000,-0.016193341,-0.5984171,-2.2279694,0.0,-0.41933566,0.26794386,0.12306932,0.8586138,0.0,0.0,-0.710363,1,0,0,0,0,0
3812864000,-0.0177876,-0.5949049,-2.2279315,0.0,-0.41937926,0.26677144,0.12164546,0.85916024,0.0,0.0,-0.70898503,1,0,0,0,0,0
3812976000,-0.017852226,-0.59955,-2.2279174,0.0,-0.4190576,0.2687735,0.12260416,0.8585568,0.0,0.0,-0.7110319,1,0,0,0,0,0
3813072000,-0.018735593,-0.6101141,-2.2279098,0.0,-0.41820577,0.2734766,0.12446333,0.8572184,0.0,0.0,-0.7133981,1,0,0,0,0,0
3813164000,-0.018152194,-0.60915023,-2.2279208,0.0,-0.41834834,0.27294332,0.12450794,0.85731226,0.0,0.0,-0.7115619,1,0,0,0,0,0
3813256000,-0.017800001,-0.6060517,-2.2279298,0.0,-0.41860878,0.27154535,0.12400188,0.8577024,0.0,0.0,-0.7110302,1,0,0,0,0,0
3813368000,-0.017953495,-0.6031561,-2.2279549,0.0,-0.41877848,0.2703404,0.12331959,0.85809845,0.0,0.0,-0.71315414,1,0,0,0,0,0
3813464000,-0.017579256,-0.6118996,-2.227972,0.0,-0.418212,0.27400172,0.12532811,0.8569216,0.0,0.0,-0.7159546,1,0,0,0,0,0
3813576000,-0.017063163,-0.61302996,-2.2279935,0.0,-0.4181942,0.27437812,0.12578528,0.85674286,0.0,0.0,-0.7161885,1,0,0,0,0,0
3813668000,-0.017267209,-0.6109449,-2.2280023,0.0,-0.41830862,0.2735304,0.12525576,0.8570356,0.0,0.0,-0.7135755,1,0,0,0,0,0
3813760000,-0.01751189,-0.60614145,-2.2280111,0.0,-0.41860673,0.27152848,0.12413342,0.8576896,0.0,0.0,-0.7125838,1,0,0,0,0,0
3813872000,-0.016516682,-0.6055625,-2.2280104,0.0,-0.4187823,0.27107248,0.12443779,0.8577041,0.0,0.0,-0.71268606,1,0,0,0,0,0
3813968000,-0.01610265,-0.6125836,-2.2280104,0.0,-0.41834992,0.2739876,0.12610005,0.85674554,0.0,0.0,-0.7162899,1,0,0,0,0,0
3814060000,-0.016663076,-0.6081772,-2.2280016,0.0,-0.41858456,0.27222082,0.1249294,0.85736537,0.0,0.0,-0.71463066,1,0,0,0,0,0
3814172000,-0.016747506,-0.60727704,-2.2280009,0.0,-0.41863605,0.27185354,0.124702886,0.85748976,0.0,0.0,-0.7154613,1,0,0,0,0,0
3814264000,-0.015866945,-0.60335475,-2.2279952,0.0,-0.41902927,0.26999083,0.12425131,0.85795164,0.0,0.0,-0.71435195,1,0,0,0,0,0
3814360000,-0.017079221,-0.6106727,-2.2280004,0.0,-0.41835424,0.27337462,0.12527901,0.8570596,0.0,0.0,-0.717762,1,0,0,0,0,0
3814472000,-0.017100433,-0.6120695,-2.22801,0.0,-0.4182494,0.27397653,0.12556396,0.85687685,0.0,0.0,-0.71766454,1,0,0,0,0,0
3814564000,-0.018780302,-0.6072117,-2.2280354,0.0,-0.41834924,0.27225307,0.123812705,0.8576319,0.0,0.0,-0.7156527,1,0,0,0,0,0
3814676000,-0.017870681,-0.6073501,-2.2280655,0.0,-0.4184505,0.27212384,0.12422798,0.8575635,0.0,0.0,-0.7140034,1,0,0,0,0,0
3814768000,-0.017040508,-0.60403454,-2.2280822,0.0,-0.41878638,0.27053297,0.12388003,0.85795313,0.0,0.0,-0.7129229,1,0,0,0,0,0
3814864000,-0.017097311,-0.61040145,-2.2280848,0.0,-0.41833457,0.27326775,0.12520237,0.85711455,0.0,0.0,-0.715947,1,0,0,0,0,0
3814976000,-0.017076636,-0.61093277,-2.2281065,0.0,-0.41829094,0.2734919,0.12532063,0.857047,0.0,0.0,-0.71492106,1,0,0,0,0,0
3815068000,-0.017017605,-0.60577476,-2.2281225,0.0,-0.4186516,0.2712751,0.12425266,0.8577307,0.0,0.0,-0.7145615,1,0,0,0,0,0
3815160000,-0.018964853,-0.6009565,-2.2281575,0.0,-0.4187075,0.26962328,0.12239225,0.8584914,0.0,0.0,-0.71353686,1,0,0,0,0,0
3815272000,-0.016357804,-0.6015499,-2.2281868,0.0,-0.4190052,0.26933312,0.12363289,0.85825944,0.0,0.0,-0.71335185,1,0,0,0,0,0
3815368000,-0.016554845,-0.60969883,-2.2282095,0.0,-0.4184043,0.27286175,0.12526926,0.8572,0.0,0.0,-0.7155358,1,0,0,0,0,0
3815460000,-0.016509231,-0.60638976,-2.2282226,0.0,-0.41863498,0.271438,0.12458723,0.8576387,0.0,0.0,-0.7135587,1,0,0,0,0,0
3815572000,-0.016678192,-0.6072279,-2.228226,0.0,-0.4185524,0.27183205,0.12469161,0.85753906,0.0,0.0,-0.7133448,1,0,0,0,0,0
3815664000,-0.017218243,-0.6010898,-2.228215,0.0,-0.41890892,0.2693181,0.12316239,0.85837877,0.0,0.0,-0.7129596,1,0,0,0,0,0
3815760000,-0.016661627,-0.6085156,-2.2282102,0.0,-0.4184718,0.27237824,0.12497318,0.85736406,0.0,0.0,-0.71601903,1,0,0,0,0,0
3815872000,-0.016947776,-0.60927486,-2.2281935,0.0,-0.41838703,0.27276167,0.12501335,0.8572777,0.0,0.0,-0.7156815,1,0,0,0,0,0
3815964000,-0.018297331,-0.6068859,-2.2281952,0.0,-0.41836923,0.27202266,0.12392917,0.8576785,0.0,0.0,-0.7139113,1,0,0,0,0,0
3816076000,-0.017906826,-0.6065209,-2.2281961,0.0,-0.41844738,0.27178493,0.12401924,0.85770273,0.0,0.0,-0.7144423,1,0,0,0,0,0
3816168000,-0.017953381,-0.602198,-2.2282035,0.0,-0.4187382,0.2699457,0.12308315,0.8582763,0.0,0.0,-0.7126532,1,0,0,0,0,0
3816264000,-0.018176317,-0.6092111,-2.2282043,0.0,-0.4182193,0.27299207,0.12447179,0.85736495,0.0,0.0,-0.714425,1,0,0,0,0,0
3816356000,-0.01727522,-0.6043916,-2.2282085,0.0,-0.4186757,0.27074265,0.123837814,0.8579471,0.0,0.0,-0.7142048,1,0,0,0,0,0
3816468000,-0.0192595,-0.6031384,-2.2282217,0.0,-0.41848856,0.2706226,0.122719355,0.85823697,0.0,0.0,-0.71475875,1,0,0,0,0,0
3816560000,-0.019180093,-0.60201013,-2.2282357,0.0,-0.41857174,0.27012408,0.122512564,0.85838294,0.0,0.0,-0.71182096,1,0,0,0,0,0
3816672000,-0.01845133,-0.6047465,-2.2282357,0.0,-0.41848004,0.27114233,0.12340473,0.85797876,0.0,0.0,-0.7106828,1,0,0,0,0,0
3816768000,-0.017423024,-0.6108345,-2.2282403,0.0,-0.41819313,0.27353066,0.1251331,0.8571098,0.0,0.0,-0.71399766,1,0,0,0,0,0
3816860000,-0.01831412,-0.60788554,-2.2282345,0.0,-0.41828024,0.27245602,0.12412812,0.85755557,0.0,0.0,-0.7115654,1,0,0,0,0,0
3816972000,-0.018820686,-0.6065985,-2.2282014,0.0,-0.4183155,0.27200958,0.12364301,0.8577502,0.0,0.0,-0.7120526,1,0,0,0,0,0
3817064000,-0.018969474,-0.60207206,-2.2281666,0.0,-0.41862565,0.27010226,0.12262539,0.8583475,0.0,0.0,-0.7101148,1,0,0,0,0,0
3817160000,-0.017774904,-0.6076524,-2.22814,0.0,-0.41841045,0.27223772,0.12432286,0.85753316,0.0,0.0,-0.71424735,1,0,0,0,0,0
3817272000,-0.018315872,-0.6075673,-2.2281034,0.0,-0.41835853,0.27231222,0.1240779,0.8575703,0.0,0.0,-0.7140678,1,0,0,0,0,0
3817364000,-0.017920425,-0.6069914,-2.2281222,0.0,-0.41844442,0.2719844,0.12412304,0.8576259,0.0,0.0,-0.71137875,1,0,0,0,0,0
3817476000,-0.018927053,-0.60694176,-2.228159,0.0,-0.4182952,0.27217603,0.123675846,0.85770255,0.0,0.0,-0.711886,1,0,0,0,0,0
3817568000,-0.018800225,-0.6026453,-2.2281632,0.0,-0.4186101,0.27031192,0.122819886,0.8582612,0.0,0.0,-0.7101275,1,0,0,0,0,0
3817664000,-0.018098608,-0.60852873,-2.2281513,0.0,-0.41830042,0.2726808,0.12436797,0.8574396,0.0,0.0,-0.7147524,1,0,0,0,0,0
3817756000,-0.018091831,-0.6053282,-2.2281275,0.0,-0.41853476,0.27130926,0.123696774,0.8578572,0.0,0.0,-0.7135839,1,0,0,0,0,0
3817868000,-0.018743232,-0.60939777,-2.228078,0.0,-0.41818294,0.27318257,0.12428554,0.85734904,0.0,0.0,-0.7144163,1,0,0,0,0,0
3817960000,-0.018946573,-0.6095208,-2.228034,0.0,-0.4181654,0.2732749,0.124230385,0.85733616,0.0,0.0,-0.7119225,1,0,0,0,0,0
3818072000,-0.019910658,-0.6128454,-2.2279994,0.0,-0.4178137,0.27489477,0.12452549,0.8569469,0.0,0.0,-0.7128157,1,0,0,0,0,0
3818168000,-0.019422466,-0.6190108,-2.2279835,0.0,-0.41744986,0.27742413,0.12604068,0.85608715,0.0,0.0,-0.7155731,1,0,0,0,0,0
3818260000,-0.018803759,-0.6150464,-2.2279258,0.0,-0.41784176,0.27559894,0.12547538,0.8565684,0.0,0.0,-0.7162576,1,0,0,0,0,0
3818372000,-0.019652644,-0.6133434,-2.2278476,0.0,-0.41787893,0.2750441,0.124762274,0.85683274,0.0,0.0,-0.71663445,1,0,0,0,0,0
3818464000,-0.02017255,-0.6122684,-2.227775,0.0,-0.41791463,0.27468905,0.12432196,0.8569932,0.0,0.0,-0.7142582,1,0,0,0,0,0
3818560000,-0.0191719,-0.6201973,-2.2277153,0.0,-0.41751477,0.27786115,0.12643595,0.85585546,0.0,0.0,-0.71756464,1,0,0,0,0,0
3818672000,-0.01985964,-0.61998665,-2.2276192,0.0,-0.41747537,0.27790877,0.12611045,0.8559072,0.0,0.0,-0.7190004,1,0,0,0,0,0
3818764000,-0.020416854,-0.61658704,-2.227543,0.0,-0.4176735,0.2765697,0.12516336,0.8563832,0.0,0.0,-0.7161869,1,0,0,0,0,0
3818876000,-0.018961385,-0.61702436,-2.2274415,0.0,-0.41788712,0.2764459,0.12589307,0.856212,0.0,0.0,-0.7156941,1,0,0,0,0,0
3818968000,-0.02035886,-0.6108414,-2.2273629,0.0,-0.41816667,0.27409282,0.123996496,0.8571083,0.0,0.0,-0.7158384,1,0,0,0,0,0
3819064000,-0.021176016,-0.61714077,-2.2272606,0.0,-0.41764987,0.27694684,0.12499458,0.8562975,0.0,0.0,-0.7184113,1,0,0,0,0,0
3819176000,-0.020901129,-0.6187562,-2.2271528,0.0,-0.41761842,0.27757195,0.12546918,0.85604095,0.0,0.0,-0.7184735,1,0,0,0,0,0
3819268000,-0.020523882,-0.61506057,-2.227012,0.0,-0.41799498,0.27590725,0.12486772,0.85648316,0.0,0.0,-0.71714926,1,0,0,0,0,0
3819360000,-0.021230062,-0.6119562,-2.2268877,0.0,-0.41817176,0.2747217,0.12392462,0.8569148,0.0,0.0,-0.7149054,1,0,0,0,0,0
3819472000,-0.02109487,-0.6089952,-2.2266755,0.0,-0.4184911,0.27341554,0.12338383,0.8572547,0.0,0.0,-0.7157867,1,0,0,0,0,0
3819568000,-0.020592183,-0.6166941,-2.2265148,0.0,-0.41808185,0.27658758,0.12525314,0.856165,0.0,0.0,-0.7179834,1,0,0,0,0,0
3819660000,-0.022269093,-0.61425155,-2.226334,0.0,-0.41810223,0.27588454,0.124042355,0.856558,0.0,0.0,-0.71617144,1,0,0,0,0,0
3819772000,-0.021765217,-0.61250937,-2.2261696,0.0,-0.4183665,0.27502534,0.12391135,0.85672426,0.0,0.0,-0.7175408,1,0,0,0,0,0
3819864000,-0.021329034,-0.6099822,-2.225905,0.0,-0.4187194,0.27383858,0.123598315,0.8569772,0.0,0.0,-0.71464294,1,0,0,0,0,0
3819960000,-0.020760281,-0.61889344,-2.2256513,0.0,-0.41827074,0.27750677,0.12576689,0.8556999,0.0,0.0,-0.7187469,1,0,0,0,0,0
3820072000,-0.021438414,-0.61759305,-2.2252917,0.0,-0.4184239,0.27707145,0.1252508,0.85584176,0.0,0.0,-0.71800226,1,0,0,0,0,0
3820164000,-0.021268379,-0.61358047,-2.2250237,0.0,-0.4188492,0.27530733,0.12450906,0.85631114,0.0,0.0,-0.7169127,1,0,0,0,0,0
3820256000,-0.020262018,-0.60983586,-2.2246265,0.0,-0.41942343,0.27347335,0.124199286,0.85666263,0.0,0.0,-0.71449155,1,0,0,0,0,0
3820368000,-0.019518552,-0.58775043,-2.2241316,0.0,-0.42127162,0.26384056,0.11988482,0.85938704,0.0,0.0,-0.7074197,1,0,0,0,0,0
3820464000,-0.022856362,-0.5525758,-2.223664,0.0,-0.42339554,0.24941088,0.11098508,0.8638361,0.0,0.0,-0.7023018,1,0,0,0,0,0
3820556000,-0.028148433,-0.49581712,-2.2231913,0.0,-0.4265429,0.2259831,0.09651798,0.8704465,0.0,0.0,-0.6945631,1,0,0,0,0,0
3820668000,-0.026346281,-0.4443351,-2.2225113,0.0,-0.4299964,0.20316693,0.08620632,0.87543976,0.0,0.0,-0.68772364,1,0,0,0,0,0
3820760000,-0.019557169,-0.4221396,-2.2217696,0.0,-0.4321617,0.19197169,0.08442086,0.8770726,0.0,0.0,-0.67642623,1,0,0,0,0,0
3820872000,-0.011696574,-0.39869457,-2.220373,0.0,-0.43464684,0.17993627,0.08288656,0.8785413,0.0,0.0,-0.6659018,1,0,0,0,0,0
3820968000,-0.0071090874,-0.3703452,-2.2190568,0.0,-0.43688607,0.16642798,0.078817986,0.8804658,0.0,0.0,-0.6568631,1,0,0,0,0,0
3821060000,-0.0019216875,-0.34498036,-2.217315,0.0,-0.43909937,0.15405361,0.07567896,0.88189113,0.0,0.0,-0.6508706,1,0,0,0,0,0
3821172000,-0.00040574986,-0.31837577,-2.2152188,0.0,-0.44112357,0.14190353,0.070646174,0.883336,0.0,0.0,-0.6441753,1,0,0,0,0,0
3821264000,-0.0032479025,-0.3045112,-2.2133,0.0,-0.44226,0.13634053,0.06646021,0.88396853,0.0,0.0,-0.63847226,1,0,0,0,0,0
3821360000,-0.0056621996,-0.283187,-2.2116842,0.0,-0.44353577,0.12739597,0.06077055,0.8850724,0.0,0.0,-0.6322413,1,0,0,0,0,0
3821472000,-0.0066413097,-0.263015,-2.2097154,0.0,-0.44499087,0.11862879,0.055969737,0.88587683,0.0,0.0,-0.6272664,1,0,0,0,0,0
3821564000,-0.0082721235,-0.24865623,-2.2081614,0.0,-0.4460207,0.11259123,0.052132446,0.88638085,0.0,0.0,-0.6231148,1,0,0,0,0,0
3821676000,-0.008370056,-0.23080562,-2.2061214,0.0,-0.4474333,0.10465252,0.048204698,0.88686395,0.0,0.0,-0.61988425,1,0,0,0,0,0
3821768000,-0.0099371,-0.2214931,-2.20435,0.0,-0.44839433,0.10083441,0.04551089,0.8869632,0.0,0.0,-0.61522573,1,0,0,0,0,0
3821864000,-0.009231504,-0.20441325,-2.2023883,0.0,-0.4497453,0.09306088,0.042076148,0.8872984,0.0,0.0,-0.6112732,1,0,0,0,0,0
3821976000,-0.008290156,-0.18753177,-2.199762,0.0,-0.4513594,0.08530904,0.038801443,0.8874072,0.0,0.0,-0.6067299,1,0,0,0,0,0
3822068000,-0.008407915,-0.17777365,-2.1968403,0.0,-0.4528709,0.080953166,0.03666144,0.8871361,0.0,0.0,-0.6046786,1,0,0,0,0,0
3822160000,-0.010755385,-0.17023602,-2.1936622,0.0,-0.45435226,0.078088135,0.0340344,0.8867401,0.0,0.0,-0.6014702,1,0,0,0,0,0
3822272000,-0.008898604,-0.15809557,-2.1892443,0.0,-0.4566342,0.07221339,0.032254048,0.8861321,0.0,0.0,-0.59920174,1,0,0,0,0,0
3822368000,-0.00923055,-0.1435281,-2.185307,0.0,-0.45864803,0.06577859,0.028905064,0.8857086,0.0,0.0,-0.59539634,1,0,0,0,0,0
3822460000,-0.0050106985,-0.13490283,-2.1987772,0.0,-0.45295632,0.061183926,0.028382115,0.8889778,0.0,0.0,-0.5918914,1,0,0,0,0,0
3822556000,-0.0058274893,-0.1217999,-2.1673613,0.0,-0.46705264,0.055144317,0.025918191,0.8821277,0.0,0.0,-0.5908723,1,0,0,0,0,0
3822668000,0.014554396,-0.09425539,-2.0793967,0.0,0.50620025,-0.036938176,-0.030127535,-0.8610976,0.0,0.0,-0.58609056,1,0,0,0,0,0
3822760000,0.055197246,-0.06519112,-2.0071402,0.0,0.5375633,-0.012656747,-0.040764865,-0.8421422,0.0,0.0,-0.58612454,1,0,0,0,0,0
3822872000,0.12866281,-0.032604005,-1.9191756,0.0,0.5734527,0.023564303,-0.061976466,-0.81655097,0.0,0.0,-0.58611083,1,0,0,0,0,0
3822968000,0.20018792,-0.015406704,-1.8437774,0.0,0.6018871,0.054278858,-0.08424576,-0.7922678,0.0,0.0,-0.58402324,1,0,0,0,0,0
3823060000,0.2481597,-0.015399354,-1.7715209,0.0,0.6285559,0.072385125,-0.10067189,-0.76781714,0.0,0.0,-0.5836108,1,0,0,0,0,0
3823172000,0.3047831,-0.02605845,-1.6835563,0.0,0.65983695,0.09150803,-0.12178742,-0.73580515,0.0,0.0,-0.58606523,1,0,0,0,0,0
3823264000,0.27800348,-0.04018736,-1.6112998,0.0,0.68783146,0.081596985,-0.11369915,-0.7122516,0.0,0.0,-0.5767957,1,0,0,0,0,0
3823360000,0.23064153,-0.046694923,-1.5359015,0.0,0.71622914,0.06663861,-0.09659138,-0.6879282,0.0,0.0,-0.5775515,1,0,0,0,0,0
3823472000,0.1660221,-0.051985454,-1.447937,0.0,0.7477785,0.04494268,-0.07430584,-0.6582448,0.0,0.0,-0.5824186,1,0,0,0,0,0
3823564000,0.15487488,-0.060352813,-1.3756804,0.0,0.7714348,0.04064486,-0.07233269,-0.6308758,0.0,0.0,-0.5804438,1,0,0,0,0,0
3823676000,0.13307314,-0.061737526,-1.2877159,0.0,0.79886776,0.03466429,-0.06452232,-0.5970307,0.0,0.0,-0.5754618,1,0,0,0,0,0
3823768000,0.13429898,-0.0730602,-1.2154593,0.0,0.8199492,0.034240734,-0.06820336,-0.5673263,0.0,0.0,-0.5781309,1,0,0,0,0,0
3823864000,0.13488105,-0.077919275,-1.1400611,0.0,0.8407498,0.035719275,-0.069056295,-0.5358127,0.0,0.0,-0.5781022,1,0,0,0,0,0
3823956000,0.13258566,-0.08741231,-1.0678046,0.0,0.8595896,0.034784485,-0.07120817,-0.50480217,0.0,0.0,-0.57862866,1,0,0,0,0,0
3824068000,0.12598597,-0.097103894,-0.97984,0.0,0.88102037,0.032688837,-0.07232621,-0.46637276,0.0,0.0,-0.57794696,1,0,0,0,0,0
3824160000,0.12076864,-0.107766986,-0.9075833,0.0,0.897276,0.030594405,-0.074734956,-0.43402132,0.0,0.0,-0.57680935,1,0,0,0,0,0
3824272000,0.10481626,-0.10889422,-0.81961864,0.0,0.91571605,0.026322251,-0.07068623,-0.3946831,0.0,0.0,-0.57849437,1,0,0,0,0,0
3824368000,0.11998034,-0.14015593,-0.7442204,0.0,0.9291304,0.030301537,-0.086855985,-0.35812643,0.0,0.0,-0.5822362,1,0,0,0,0,0
3824460000,0.10720725,-0.14296521,-0.6719637,0.0,0.9415851,0.026939418,-0.08495084,-0.3247693,0.0,0.0,-0.579177,1,0,0,0,0,0
3824572000,0.09118239,-0.14494978,-0.58399904,0.0,0.95511365,0.022708368,-0.08235949,-0.2836532,0.0,0.0,-0.5796765,1,0,0,0,0,0
3824664000,0.08773848,-0.16941081,-0.51174235,0.0,0.96398616,0.020883545,-0.09283038,-0.24834871,0.0,0.0,-0.5807576,1,0,0,0,0,0
3824760000,0.07599033,-0.17354287,-0.43634412,0.0,0.97263217,0.018201847,-0.09273814,-0.2122615,0.0,0.0,-0.5803456,1,0,0,0,0,0
3824872000,0.06490415,-0.18688214,-0.34837952,0.0,0.98057926,0.015653752,-0.097443566,-0.16948172,0.0,0.0,-0.58373266,1,0,0,0,0,0
3824964000,0.05354818,-0.20497045,-0.2761229,0.0,0.9853114,0.012302398,-0.10496108,-0.13413936,0.0,0.0,-0.5822143,1,0,0,0,0,0
3825056000,0.03989005,-0.22797672,-0.20386624,0.0,0.9883876,0.008139751,-0.115145005,-0.09881956,0.0,0.0,-0.5860798,1,0,0,0,0,0
3825168000,0.01901525,-0.24333157,-0.11590162,0.0,0.99096364,0.0023923642,-0.12170323,-0.056335695,0.0,0.0,-0.5856929,1,0,0,0,0,0
3825264000,0.00184639,-0.24376869,-0.040503398,0.0,0.9923796,-0.0015459304,-0.121576354,-0.019987853,0.0,0.0,-0.58554393,1,0,0,0,0,0
3825356000,-0.017648581,-0.25654924,0.031753242,0.0,0.9916384,-0.006719752,-0.12804097,0.0146162305,0.0,0.0,-0.5899563,1,0,0,0,0,0
3825468000,-0.029632678,-0.27057832,0.07258609,0.0,0.9901737,-0.009777267,-0.1353059,0.033952586,0.0,0.0,-0.59013754,1,0,0,0,0,0
3825560000,-0.032331977,-0.28721017,0.075655155,0.0,0.98895675,-0.010575857,-0.14359601,0.03511259,0.0,0.0,-0.59376734,1,0,0,0,0,0
3825672000,-0.03281455,-0.30051044,0.079398476,0.0,0.9879184,-0.010268666,-0.15019622,0.036782384,0.0,0.0,-0.59485584,1,0,0,0,0,0
3825768000,-0.035764612,-0.32663965,0.08241201,0.0,0.98581755,-0.010931515,-0.16315757,0.037734725,0.0,0.0,-0.6001947,1,0,0,0,0,0
3825860000,-0.037074555,-0.33416593,0.085833356,0.0,0.9851291,-0.01112734,-0.16690919,0.039218906,0.0,0.0,-0.60367167,1,0,0,0,0,0
3825972000,-0.04368365,-0.3665116,0.09001401,0.0,0.9822047,-0.013255661,-0.18297005,0.040251974,0.0,0.0,-0.61341524,1,0,0,0,0,0
3826064000,-0.046653148,-0.37583703,0.09379327,0.0,0.98125243,-0.014133269,-0.1876325,0.041689064,0.0,0.0,-0.6088753,1,0,0,0,0,0
3826160000,-0.049154796,-0.39382288,0.09746078,0.0,0.9794497,-0.014544386,-0.19652407,0.042953193,0.0,0.0,-0.6165803,1,0,0,0,0,0
3826272000,-0.052132085,-0.40015492,0.10249902,0.0,0.9786973,-0.015331946,-0.19972537,0.045014992,0.0,0.0,-0.61837834,1,0,0,0,0,0
3826364000,-0.055047475,-0.4005599,0.10720988,0.0,0.9785259,-0.016276196,-0.20002772,0.04702127,0.0,0.0,-0.6178917,1,0,0,0,0,0
3826456000,-0.05659356,-0.40769747,0.11235422,0.0,0.97768,-0.016301524,-0.20359528,0.049244408,0.0,0.0,-0.6211154,1,0,0,0,0,0
3826568000,-0.06168573,-0.43698445,0.119204186,0.0,0.9744266,-0.01714592,-0.21806338,0.051450465,0.0,0.0,-0.62724835,1,0,0,0,0,0
3826664000,-0.06540146,-0.4626225,0.12527534,0.0,0.9714076,-0.017418835,-0.2306742,0.05341624,0.0,0.0,-0.6333796,1,0,0,0,0,0
3826776000,-0.07095424,-0.47980538,0.13426048,0.0,0.9691287,-0.018447584,-0.2392349,0.05670882,0.0,0.0,-0.64110535,1,0,0,0,0,0
3826868000,-0.07275918,-0.4715648,0.14315194,0.0,0.9698081,-0.018579591,-0.23538068,0.061015397,0.0,0.0,-0.6408003,1,0,0,0,0,0
3826960000,-0.079824425,-0.47902036,0.15353832,0.0,0.96854764,-0.020469097,-0.23931259,0.0650073,0.0,0.0,-0.6455927,1,0,0,0,0,0
3827072000,-0.08662088,-0.47267762,0.1677104,0.0,0.9687263,-0.022352552,-0.23662885,0.07125018,0.0,0.0,-0.64889985,1,0,0,0,0,0
3827168000,-0.09304661,-0.47085345,0.1811133,0.0,0.96836364,-0.023966959,-0.23614053,0.077039614,0.0,0.0,-0.6500626,1,0,0,0,0,0
3827260000,-0.09971288,-0.46207163,0.19840926,0.0,0.96857023,-0.025622072,-0.23238161,0.084935024,0.0,0.0,-0.6531833,1,0,0,0,0,0
3827372000,-0.10435812,-0.442471,0.22346492,0.0,0.96950006,-0.026133163,-0.22344366,0.09726112,0.0,0.0,-0.6513274,1,0,0,0,0,0
3827464000,-0.10567942,-0.41722086,0.2502437,0.0,0.97068185,-0.025456963,-0.21164307,0.11106708,0.0,0.0,-0.64612657,1,0,0,0,0,0
3827560000,-0.119903766,-0.4247252,0.2809695,0.0,0.96793455,-0.028533336,-0.21651979,0.12412758,0.0,0.0,-0.6503776,1,0,0,0,0,0
3827672000,-0.14274864,-0.4206338,0.33132288,0.0,0.9645752,-0.034448035,-0.21688823,0.14617613,0.0,0.0,-0.6476125,1,0,0,0,0,0
3827764000,-0.15556572,-0.4185738,0.35978705,0.0,0.96237284,-0.03772085,-0.21739152,0.15860783,0.0,0.0,-0.64637214,1,0,0,0,0,0
3827856000,-0.15049237,-0.42037225,0.3472207,0.0,0.96327406,-0.036476817,-0.21762396,0.15301095,0.0,0.0,-0.64645475,1,0,0,0,0,0
3827968000,-0.100781225,-0.42642966,0.2592561,0.0,0.9693033,-0.021497468,-0.21592487,0.11560895,0.0,0.0,-0.64683187,1,0,0,0,0,0
3828064000,-0.049736775,-0.4444059,0.18385784,0.0,0.97149837,-0.0039276485,-0.22160709,0.08405808,0.0,0.0,-0.6501084,1,0,0,0,0,0
3828156000,-0.00047269152,-0.4339358,0.111601196,0.0,0.9750375,0.011775494,-0.2149474,0.054413255,0.0,0.0,-0.648459,1,0,0,0,0,0
3828268000,0.041893903,-0.4319733,0.0236366,0.0,0.9764299,0.022989513,-0.2140075,0.016029432,0.0,0.0,-0.64983815,1,0,0,0,0,0
3828360000,0.037887294,-0.44263768,0.012000273,0.0,0.9753912,0.019797036,-0.21936229,0.01001082,0.0,0.0,-0.64913833,1,0,0,0,0,0
3828472000,0.028373096,-0.44625404,0.012039944,0.0,0.9750756,0.01516611,-0.22117063,0.009009152,0.0,0.0,-0.6507491,1,0,0,0,0,0
3828568000,0.023406103,-0.44650903,0.012010203,0.0,0.97508216,0.012741597,-0.22131687,0.008446634,0.0,0.0,-0.65246737,1,0,0,0,0,0
3828660000,0.020679193,-0.44885707,0.0119853625,0.0,0.974838,0.01141352,-0.22247297,0.008143033,0.0,0.0,-0.6515315,1,0,0,0,0,0
3828772000,0.021001745,-0.45414987,0.0119355265,0.0,0.9742439,0.011574368,-0.22505106,0.008178172,0.0,0.0,-0.653413,1,0,0,0,0,0
3828864000,0.021209365,-0.45421803,0.011900517,0.0,0.9742351,0.01167168,-0.2250836,0.008184785,0.0,0.0,-0.65525043,1,0,0,0,0,0
3828976000,0.021346452,-0.454962,0.011835225,0.0,0.9741508,0.0117323585,-0.2254458,0.00817178,0.0,0.0,-0.6544478,1,0,0,0,0,0
3829068000,0.021415649,-0.44553468,0.011774634,0.0,0.97520304,0.011743451,-0.22085145,0.008107065,0.0,0.0,-0.65262747,1,0,0,0,0,0
3829164000,0.021019133,-0.45619875,0.011688259,0.0,0.9740136,0.011558415,-0.22605035,0.008068815,0.0,0.0,-0.65693295,1,0,0,0,0,0
3829276000,0.02101072,-0.45532078,0.011585818,0.0,0.9741133,0.011541305,-0.22562338,0.008014057,0.0,0.0,-0.65324455,1,0,0,0,0,0
3829368000,0.020890342,-0.45276853,0.011487652,0.0,0.9744016,0.01146746,-0.22438113,0.007941327,0.0,0.0,-0.65544003,1,0,0,0,0,0
3829460000,0.021075772,-0.45281386,0.011399102,0.0,0.9743958,0.011547937,-0.22440296,0.007919193,0.0,0.0,-0.65479845,1,0,0,0,0,0
3829572000,0.021085024,-0.45304322,0.011283478,0.0,0.9743705,0.011539831,-0.22451535,0.007864932,0.0,0.0,-0.6538102,1,0,0,0,0,0
3829668000,0.021623654,-0.45385227,0.011214594,0.0,0.9742766,0.011795739,-0.22490782,0.007895591,0.0,0.0,-0.6533338,1,0,0,0,0,0
3829760000,0.021424735,-0.4657553,0.011129228,0.0,0.97292167,0.011706954,-0.23070367,0.007886165,0.0,0.0,-0.65799457,1,0,0,0,0,0
3829872000,0.020610332,-0.4612119,0.011021593,0.0,0.9734486,0.011291555,-0.22849658,0.007719951,0.0,0.0,-0.6587376,1,0,0,0,0,0
3829964000,0.020137412,-0.45968303,0.010901965,0.0,0.9736262,0.011045406,-0.22775485,0.0076011526,0.0,0.0,-0.65970594,1,0,0,0,0,0
3830060000,0.0191504,-0.4605457,0.0108031025,0.0,0.9735336,0.0105549805,-0.22817901,0.007444114,0.0,0.0,-0.6577976,1,0,0,0,0,0
