timestamp,roll,pitch,yaw,thrust_body[0],thrust_body[1],thrust_body[2]
3782260000,0.023079125,-0.0048993835,-1.1969017,0.0,0.0,0.0
3782284000,0.022505088,-0.004539001,-1.1970737,0.0,0.0,0.0
3782300000,0.022779249,-0.0049364134,-1.1971095,0.0,0.0,0.0
3782320000,0.023149226,-0.005294989,-1.1973141,0.0,0.0,0.0
3782340000,0.02348316,-0.005387227,-1.1972742,0.0,0.0,0.0
3782364000,0.023493893,-0.0056374744,-1.1970612,0.0,0.0,0.0
3782380000,0.023432242,-0.0056441748,-1.1970431,0.0,0.0,0.0
3782400000,0.023378944,-0.005340584,-1.1970329,0.0,0.0,0.0
3782420000,0.02374026,-0.0052703475,-1.1971769,0.0,0.0,0.0
3782444000,0.023887824,-0.0051442,-1.1971283,0.0,0.0,0.0
3782464000,0.023750577,-0.004850379,-1.1972765,0.0,0.0,0.0
3782480000,0.024013298,-0.004885321,-1.1972857,0.0,0.0,0.0
3782504000,0.023764547,-0.00533348,-1.1974586,0.0,0.0,0.0
3782520000,0.023996154,-0.005246799,-1.1975024,0.0,0.0,0.0
3782536000,0.02400121,-0.0054427073,-1.1974939,0.0,0.0,0.0
3782564000,0.023856323,-0.0054516243,-1.1975605,0.0,0.0,0.0
3782580000,0.024088006,-0.005428454,-1.1975024,0.0,0.0,0.0
3782600000,0.024329763,-0.005247339,-1.1974052,0.0,0.0,0.0
3782620000,0.02411463,-0.0051824655,-1.1973865,0.0,0.0,0.0
3782644000,0.024116166,-0.0052919323,-1.1975697,0.0,0.0,0.0
3782660000,0.024049848,-0.005138751,-1.1974102,0.0,0.0,0.0
3782684000,0.023933109,-0.005339156,-1.1973699,0.0,0.0,0.0
3782704000,0.024229284,-0.005730318,-1.1973352,0.0,0.0,0.0
3782720000,0.024361953,-0.005969869,-1.1973934,0.0,0.0,0.0
3782744000,0.024335634,-0.0057581635,-1.1974956,0.0,0.0,0.0
3782760000,0.02440305,-0.0057683634,-1.1975873,0.0,0.0,0.0
3782784000,0.024312224,-0.005523714,-1.1977897,0.0,0.0,0.0
3782804000,0.024219826,-0.005170123,-1.1978196,0.0,0.0,0.0
3782824000,0.024088796,-0.004954256,-1.1976538,0.0,0.0,0.0
3782840000,0.023946378,-0.004575167,-1.1975917,0.0,0.0,0.0
3782864000,0.024257367,-0.0045756404,-1.1975183,0.0,0.0,0.0
3782880000,0.024145978,-0.0047604954,-1.1974459,0.0,0.0,0.0
3782900000,0.023913216,-0.004682217,-1.197488,0.0,0.0,0.0
3782924000,0.023451887,-0.004544185,-1.1975037,0.0,0.0,0.0
3782940000,0.023067199,-0.0044709397,-1.1975864,0.0,0.0,0.0
3782960000,0.022980068,-0.004187693,-1.197505,0.0,0.0,0.0
3782980000,0.022824842,-0.00413799,-1.1974723,0.0,0.0,0.0
3783000000,0.02294566,-0.004057584,-1.1974119,0.0,0.0,0.0
3783020000,0.023077743,-0.0044714087,-1.1973965,0.0,0.0,0.0
3783040000,0.023085961,-0.0046052225,-1.1973661,0.0,0.0,0.0
3783060000,0.022828933,-0.004801375,-1.1973819,0.0,0.0,0.0
3783080000,0.022600912,-0.005141222,-1.197372,0.0,0.0,0.0
3783104000,0.022285653,-0.0049086125,-1.197363,0.0,0.0,0.0
3783120000,0.02245225,-0.004771563,-1.1974223,0.0,0.0,0.0
3783144000,0.021763893,-0.004550538,-1.1975623,0.0,0.0,0.0
3783164000,0.022088945,-0.004291226,-1.1977541,0.0,0.0,0.0
3783180000,0.022299357,-0.0042962553,-1.1977531,0.0,0.0,0.0
3783204000,0.021856416,-0.004310766,-1.1978643,0.0,0.0,0.0
3783220000,0.021891616,-0.0041135484,-1.1978648,0.0,0.0,0.0
3783240000,0.021588271,-0.0036193072,-1.1979116,0.0,0.0,0.0
3783260000,0.02102437,-0.0036402568,-1.197952,0.0,0.0,0.0
3783280000,0.36339146,0.10657742,-0.0013350248,0.0,0.0,-0.12021737
3783300000,0.23319504,0.016251601,-0.0028213263,0.0,0.0,-0.12007644
3783324000,0.18696795,-0.049905665,-0.0025134087,0.0,0.0,-0.12004947
3783344000,0.18320893,-0.15412845,-0.0022240877,0.0,0.0,-0.12008109
3783360000,0.19187741,-0.27507037,-0.001478076,0.0,0.0,-0.12017062
3783380000,0.204999,-0.31492564,-0.0011921525,0.0,0.0,-0.12021707
3783400000,0.18804598,-0.35459033,-0.001067698,0.0,0.0,-0.12025087
3783420000,0.19782463,-0.36564952,-0.0009047985,0.0,0.0,-0.120270036
3783444000,0.1584863,-0.3120273,-0.0015254617,0.0,0.0,-0.14562808
3783464000,0.1369276,-0.29679975,-0.0017677546,0.0,0.0,-0.15933254
3783480000,0.13014114,-0.28020486,-0.0021573901,0.0,0.0,-0.1697201
3783496000,0.13064396,-0.27943128,-0.0023866296,0.0,0.0,-0.1697201
3783524000,0.12873809,-0.22453205,-0.0023565888,0.0,0.0,-0.19828865
3783540000,0.13754354,-0.22045219,-0.0024433136,0.0,0.0,-0.20934483
3783564000,0.122817524,-0.20768398,-0.0027183294,0.0,0.0,-0.22378248
3783584000,0.11136007,-0.18362264,-0.0029633045,0.0,0.0,-0.23778889
3783604000,0.11600744,-0.18700229,-0.0027760863,0.0,0.0,-0.24911994
3783624000,0.11701937,-0.17727116,-0.002788961,0.0,0.0,-0.26357317
3783640000,0.10750408,-0.17139956,-0.0028549433,0.0,0.0,-0.27835277
3783664000,0.11800909,-0.16734116,-0.0029482841,0.0,0.0,-0.28971514
3783680000,0.10950027,-0.1686087,-0.002910912,0.0,0.0,-0.30458456
3783700000,0.1017676,-0.16038953,-0.0029947758,0.0,0.0,-0.31978968
3783720000,0.10352908,-0.1551629,-0.0033613443,0.0,0.0,-0.33172733
3783744000,0.10141973,-0.14321505,-0.00342232,0.0,0.0,-0.36139873
3783764000,0.10052483,-0.14416447,-0.0030153394,0.0,0.0,-0.3731168
3783784000,0.102973655,-0.14475103,-0.002729416,0.0,0.0,-0.3879618
3783804000,0.10088286,-0.13675007,-0.0027664304,0.0,0.0,-0.4028096
3783824000,0.09912186,-0.13380025,-0.0025391579,0.0,0.0,-0.41459766
3783840000,0.09710625,-0.118719056,-0.002438128,0.0,0.0,-0.42887554
3783864000,0.09159693,-0.10968728,-0.0023846626,0.0,0.0,-0.44386324
3783880000,0.094816595,-0.10735598,-0.0023181438,0.0,0.0,-0.45517936
3783900000,0.09380928,-0.109520376,-0.002613008,0.0,0.0,-0.47046086
3783916000,0.08797646,-0.10885361,-0.0026269555,0.0,0.0,-0.4859444
3783944000,0.08983147,-0.10570441,-0.0024502873,0.0,0.0,-0.5128303
3783960000,0.09030331,-0.10534774,-0.0024206042,0.0,0.0,-0.5128303
3783988000,0.093074456,-0.09984715,-0.0024518967,0.0,0.0,-0.5398121
3784008000,0.08992869,-0.09790553,-0.0026028156,0.0,0.0,-0.555262
3784028000,0.085310124,-0.094844185,-0.0024704933,0.0,0.0,-0.57110804
3784044000,0.081772484,-0.09588459,-0.0026006699,0.0,0.0,-0.5840751
3784068000,0.08208828,-0.0895087,-0.0027440786,0.0,0.0,-0.59755766
3784088000,0.077030696,-0.08263888,-0.00277555,0.0,0.0,-0.6082473
3784104000,0.06289326,-0.06441291,-0.00292629,0.0,0.0,-0.608531
3784128000,0.044985905,-0.045103233,-0.002732277,0.0,0.0,-0.61329114
3784144000,0.032705173,-0.029919008,-0.0025146604,0.0,0.0,-0.6167601
3784164000,0.014131697,-0.0035177409,-0.002245903,0.0,0.0,-0.6091311
3784184000,-0.004834187,0.018984802,-0.0018036962,0.0,0.0,-0.61057734
3784208000,-0.03478548,0.0493166,-0.0014925599,0.0,0.0,-0.6055516
3784224000,-0.04038445,0.05640114,-0.0015515685,0.0,0.0,-0.6055516
3784248000,-0.053480677,0.07644892,-0.0016291738,0.0,0.0,-0.61103064
3784264000,-0.06584751,0.0968802,-0.0015419126,0.0,0.0,-0.6057729
3784288000,-0.067096666,0.09949773,-0.0015286803,0.0,0.0,-0.60930705
3784308000,-0.06801256,0.106098905,-0.00151366,0.0,0.0,-0.6133729
3784328000,-0.080649175,0.111412376,-0.0014932752,0.0,0.0,-0.608629
3784340000,-0.084975496,0.111668736,-0.0012672544,0.0,0.0,-0.61232066
3784368000,-0.083544925,0.10345909,-0.0010156631,0.0,0.0,-0.61618364
3784388000,-0.08340837,0.10712165,-0.0010557175,0.0,0.0,-0.61130494
3784404000,-0.081200294,0.1051193,-0.001000464,0.0,0.0,-0.61418885
3784424000,-0.07558931,0.099326506,-0.0009148121,0.0,0.0,-0.61721015
3784448000,-0.077716514,0.10363859,-0.00073349476,0.0,0.0,-0.61440283
3784464000,-0.07323463,0.09865482,-0.0005815029,0.0,0.0,-0.61440283
3784484000,-0.06366703,0.0899529,-0.0006310344,0.0,0.0,-0.6177242
3784500000,-0.05885827,0.08593143,-0.00049602985,0.0,0.0,-0.61177135
3784524000,-0.058725014,0.08342688,-0.0005071163,0.0,0.0,-0.61477494
3784544000,-0.048041437,0.08059326,-0.00035136938,0.0,0.0,-0.61274207
3784560000,-0.044635456,0.0755835,-0.00029289722,0.0,0.0,-0.61658984
3784584000,-0.047403686,0.07065219,-0.00026786327,0.0,0.0,-0.61967367
3784604000,-0.044207692,0.062444024,-0.0003771186,0.0,0.0,-0.6147288
3784628000,-0.041991413,0.055445477,-0.0004157424,0.0,0.0,-0.6174404
3784644000,-0.04008743,0.057330996,-0.0004118085,0.0,0.0,-0.62047654
3784664000,-0.03661702,0.05110956,-0.00031793118,0.0,0.0,-0.61477804
3784684000,-0.040007375,0.04605526,-0.00014162064,0.0,0.0,-0.6178644
3784708000,-0.03921021,0.048241418,-2.3245811e-05,0.0,0.0,-0.6207084
3784728000,-0.037253432,0.04802398,-7.581711e-05,0.0,0.0,-0.6154168
3784748000,-0.034533232,0.045465898,-0.000103890896,0.0,0.0,-0.6190753
3784768000,-0.031018212,0.043122865,-0.00018364191,0.0,0.0,-0.61784923
3784788000,-0.024202425,0.040884763,-1.6272068e-05,0.0,0.0,-0.62155634
3784804000,-0.02445807,0.043719653,-3.683567e-05,0.0,0.0,-0.624948
3784828000,-0.023312356,0.043277375,-8.225441e-06,0.0,0.0,-0.6194125
3784844000,-0.020210557,0.04259733,-2.682209e-05,0.0,0.0,-0.62215936
3784868000,-0.022217257,0.041993003,3.2365322e-05,0.0,0.0,-0.6245765
3784888000,-0.028794676,0.035513267,0.00021994114,0.0,0.0,-0.6185487
3784904000,-0.028690912,0.035467394,0.0003874898,0.0,0.0,-0.6214984
3784920000,-0.028742747,0.03800117,0.00044810772,0.0,0.0,-0.62490606
3784944000,-0.026091859,0.03947203,0.00056272745,0.0,0.0,-0.62036395
3784964000,-0.025704928,0.037510745,0.0006689429,0.0,0.0,-0.6238451
3784988000,-0.022780553,0.034941062,0.00073206425,0.0,0.0,-0.62762475
3785004000,-0.020238485,0.036505632,0.0008611679,0.0,0.0,-0.62216264
3785024000,-0.019564567,0.036724016,0.00086027384,0.0,0.0,-0.62504387
3785044000,-0.019342665,0.03519533,0.0007712245,0.0,0.0,-0.62826127
3785064000,-0.02073925,0.03540241,0.0008393526,0.0,0.0,-0.6257919
3785084000,-0.02100357,0.035226032,0.0008575916,0.0,0.0,-0.6257919
3785104000,-0.019386414,0.02597608,0.0005865097,0.0,0.0,-0.6231855
3785124000,-0.02128308,0.02849399,0.0005655885,0.0,0.0,-0.6264095
3785148000,-0.019154517,0.026849817,0.0007737279,0.0,0.0,-0.6293429
3785168000,-0.01620991,0.028092623,0.0005938411,0.0,0.0,-0.62413406
3785188000,-0.015588103,0.02967482,0.00063854456,0.0,0.0,-0.62790453
3785208000,-0.016880114,0.030374056,0.00074905157,0.0,0.0,-0.6310966
3785228000,-0.01398601,0.028062377,0.0007433295,0.0,0.0,-0.62543684
3785248000,-0.019740187,0.026894689,0.00080412626,0.0,0.0,-0.62897635
3785268000,-0.016142417,0.029100118,0.0006855726,0.0,0.0,-0.63244194
3785280000,-0.012430907,0.029689353,0.00052267313,0.0,0.0,-0.62725836
3785308000,-0.01541625,0.027269714,0.0005777478,0.0,0.0,-0.63320816
3785328000,-0.015106868,0.026980728,0.0007138252,0.0,0.0,-0.6275438
3785344000,-0.015316604,0.026190836,0.00080770254,0.0,0.0,-0.6275438
3785360000,-0.015247869,0.024166878,0.00092446804,0.0,0.0,-0.63049215
3785384000,-0.013130165,0.023298789,0.0010319352,0.0,0.0,-0.6292285
3785408000,-0.016166342,0.022843335,0.00087207556,0.0,0.0,-0.63271236
3785420000,-0.01075211,0.023521055,0.0007545948,0.0,0.0,-0.63617504
3785444000,-0.003443859,0.025821649,0.0008865595,0.0,0.0,-0.6307241
3785464000,-0.00502442,0.022570908,0.0007792711,0.0,0.0,-0.63357186
3785484000,-0.008479079,0.01878544,0.00026106834,0.0,0.0,-0.63622785
3785508000,-0.0072573996,0.016235888,0.0003259778,0.0,0.0,-0.6304394
3785528000,-0.011129253,0.01993083,0.00029039383,0.0,0.0,-0.63384676
3785544000,-0.014174662,0.02248757,0.00049299,0.0,0.0,-0.6373029
3785568000,-0.018896135,0.02213196,0.00037407875,0.0,0.0,-0.6324788
3785584000,-0.017317574,0.021777393,0.00044935942,0.0,0.0,-0.63559127
3785608000,-0.017468454,0.025022648,0.00053590536,0.0,0.0,-0.6337512
3785628000,-0.023466911,0.026991446,0.00047886372,0.0,0.0,-0.63748115
3785644000,-0.02679805,0.028514925,0.0005341172,0.0,0.0,-0.64072573
3785664000,-0.029568646,0.02343685,0.00048440695,0.0,0.0,-0.63465536
3785684000,-0.027374603,0.021065138,0.0007059574,0.0,0.0,-0.63733876
3785708000,-0.018917736,0.020515751,0.0008291602,0.0,0.0,-0.6401657
3785724000,-0.0145542305,0.021239825,0.04710996,0.0,0.0,-0.63487816
3785744000,-0.015552854,0.016322693,0.046845317,0.0,0.0,-0.6387947
3785768000,-0.018769491,0.016399838,0.04647374,0.0,0.0,-0.6425688
3785784000,-0.022055369,0.013622869,0.04608518,0.0,0.0,-0.6367978
3785804000,-0.016995732,0.015090102,0.04498315,0.0,0.0,-0.6399432
3785824000,-0.017298039,0.013848273,0.043509007,0.0,0.0,-0.6430608
3785848000,-0.01713315,0.010537336,0.041190326,0.0,0.0,-0.64103276
3785860000,-0.016513899,0.010589715,0.03931278,0.0,0.0,-0.64103276
3785888000,-0.013183305,0.009437732,0.036239147,0.0,0.0,-0.63809204
3785904000,-0.009640427,0.01123523,0.034072816,0.0,0.0,-0.6414037
3785928000,-0.008797623,0.010927376,0.030726314,0.0,0.0,-0.6452766
3785948000,-0.011189219,0.009466756,0.028307676,0.0,0.0,-0.6171818
3785968000,-0.006885117,0.010952294,0.025634766,0.0,0.0,-0.59966755
3785988000,-0.005790928,0.014194928,0.023323774,0.0,0.0,-0.58274984
3786004000,-0.0019518232,0.012229828,0.020909607,0.0,0.0,-0.5506959
3786024000,-0.005061505,0.012220088,0.019486606,0.0,0.0,-0.5424503
3786044000,-0.0073063364,0.011242755,0.01732403,0.0,0.0,-0.5389734
3786064000,-0.011841268,0.013400696,0.015516579,0.0,0.0,-0.5308408
3786088000,-0.016788937,0.011454247,0.013570368,0.0,0.0,-0.53733754
3786104000,-0.015758606,0.012016881,0.011735022,0.0,0.0,-0.546139
3786124000,-0.0155273,0.013086182,0.009827435,0.0,0.0,-0.5490262
3786144000,-0.017382858,0.015979443,0.0089457035,0.0,0.0,-0.55895376
3786160000,-0.014961546,0.012615057,0.0077240467,0.0,0.0,-0.5679921
3786188000,-0.015318088,0.0071999137,0.00632143,0.0,0.0,-0.5733145
3786200000,-0.014466267,0.0070581827,0.0053917766,0.0,0.0,-0.5733145
3786228000,-0.006143721,0.012540151,0.0040195584,0.0,0.0,-0.56927997
3786248000,-0.005337247,0.014621137,0.003278017,0.0,0.0,-0.57129
3786268000,-0.0099757295,0.010742256,0.0023687482,0.0,0.0,-0.57337743
3786284000,-0.0074556707,0.010347217,0.0020763874,0.0,0.0,-0.564921
3786304000,-0.0068636658,0.010674158,0.0016229153,0.0,0.0,-0.56722796
3786320000,-0.0031196787,0.009160156,0.0010362267,0.0,0.0,-0.56962204
3786344000,-0.0016871309,0.0060034674,0.000626564,0.0,0.0,-0.5624847
3786364000,-0.001753764,0.008315605,0.00033169985,0.0,0.0,-0.56590104
3786380000,-0.0028703474,0.0062814383,0.00011694431,0.0,0.0,-0.56980306
3786408000,-0.0063405787,0.0033322042,-4.2557716e-05,0.0,0.0,-0.56393665
3786428000,-0.004007271,0.0029349113,-2.8252602e-05,0.0,0.0,-0.5675385
3786444000,-0.003644742,0.0043021236,-0.00026589632,0.0,0.0,-0.57133025
3786464000,-0.0072946222,0.0033052145,-0.00041002035,0.0,0.0,-0.5693244
3786484000,-0.0068776393,0.0038153492,-0.0005183816,0.0,0.0,-0.57275856
3786508000,-0.00737503,0.0052881925,-0.00055933,0.0,0.0,-0.5666001
3786528000,-0.011821695,0.004197469,-0.00062298775,0.0,0.0,-0.57007974
3786548000,-0.007931364,0.0049473024,-0.00049960613,0.0,0.0,-0.5734173
3786564000,-0.0055556186,0.009867704,-0.0007444024,0.0,0.0,-0.5667783
3786584000,-0.002043726,0.0095843915,-0.000854373,0.0,0.0,-0.5709677
3786604000,0.00091771246,0.008502681,-0.0009918809,0.0,0.0,-0.5744994
3786624000,-0.009548326,-0.0010972819,-0.0010635853,0.0,0.0,-0.5685791
3786644000,-0.008205898,0.003027285,-0.0012549162,0.0,0.0,-0.572914
3786664000,-0.0062839044,0.0028659352,-0.0014909506,0.0,0.0,-0.57668626
3786688000,-0.0074329935,0.0043637343,-0.0015624762,0.0,0.0,-0.5703648
3786704000,-0.010498699,0.005580703,-0.0016248822,0.0,0.0,-0.57380044
3786724000,-0.009957994,0.008455072,-0.001766324,0.0,0.0,-0.5771181
3786744000,-0.012276119,0.013063612,-0.001760602,0.0,0.0,-0.57411444
3786764000,-0.01006518,0.015153229,-0.0017815232,0.0,0.0,-0.57794565
3786784000,-0.0015318184,0.013532132,-0.0018469691,0.0,0.0,-0.5712881
3786808000,0.00027588813,0.016343696,-0.0020905137,0.0,0.0,-0.57454437
3786824000,0.0022056387,0.012268543,-0.0022246242,0.0,0.0,-0.5780537
3786848000,-0.0008031414,0.012945316,-0.0024821162,0.0,0.0,-0.571311
3786864000,0.0042160726,0.014173237,-0.0025924444,0.0,0.0,-0.5750825
3786884000,0.0067519373,0.012644669,-0.002638936,0.0,0.0,-0.5784078
3786908000,0.008669745,0.0062207794,-0.0027313828,0.0,0.0,-0.57222766
3786928000,0.0068725445,0.0029926207,-0.003053069,0.0,0.0,-0.5758099
3786948000,-0.00027805113,0.0050397757,-0.003254056,0.0,0.0,-0.5797217
3786964000,-0.005097664,0.008218782,-0.003452003,0.0,0.0,-0.5732969
3786984000,-0.0009928597,0.011029627,-0.003521204,0.0,0.0,-0.5767323
3787008000,-0.0044620377,0.012167487,-0.0037679672,0.0,0.0,-0.57254046
3787028000,-0.004298132,0.011647243,-0.0035530329,0.0,0.0,-0.5754691
3787048000,-0.007956946,0.014235096,-0.0035803914,0.0,0.0,-0.5786713
3787068000,-0.010940635,0.01201777,-0.0036878586,0.0,0.0,-0.57215226
3787088000,-0.00756893,0.008854294,-0.003691256,0.0,0.0,-0.57513505
3787104000,-0.0082055135,0.0068707005,-0.0037938952,0.0,0.0,-0.5779885
3787124000,-0.0064041596,0.0071918154,-0.0036914349,0.0,0.0,-0.56936646
3787148000,-0.008195622,0.0060893563,-0.0037833452,0.0,0.0,-0.568505
3787168000,-0.008824928,0.006605701,-0.004049778,0.0,0.0,-0.56714535
3787188000,-0.0051583564,-0.00035495055,-0.0040828586,0.0,0.0,-0.557567
3787208000,-0.012617359,-0.0035340765,-0.0041595697,0.0,0.0,-0.5574736
3787224000,-0.011924786,-0.004485701,-0.0041913986,0.0,0.0,-0.5578684
3787240000,-0.008333494,-0.006134208,-0.004260063,0.0,0.0,-0.5522089
3787268000,-0.0038131126,-0.0036532672,-0.0042048097,0.0,0.0,-0.55794346
3787284000,-0.0026145931,-0.0034898152,-0.0042133927,0.0,0.0,-0.55794346
3787308000,-0.002581399,-0.0043942947,-0.004312277,0.0,0.0,-0.55842656
3787324000,-0.0015413149,-0.0033088885,-0.004510939,0.0,0.0,-0.5616178
3787344000,-0.0005902147,-0.002615585,-0.0043067336,0.0,0.0,-0.5590324
3787368000,0.0010982715,0.0023303307,-0.0044099092,0.0,0.0,-0.56166035
3787384000,-0.001080816,-0.00018005446,-0.004305303,0.0,0.0,-0.5643964
3787404000,0.0041750087,-0.00012508663,-0.004085362,0.0,0.0,-0.56087667
3787424000,-0.0014756862,0.0019518802,-0.003847003,0.0,0.0,-0.5629325
3787444000,-0.0012742972,0.0018783807,-0.0038251877,0.0,0.0,-0.5640311
3787464000,-0.0040428704,0.012602124,-0.0037822723,0.0,0.0,-0.5590141
3787488000,-0.008508225,0.013285881,-0.0035659075,0.0,0.0,-0.56068254
3787500000,-0.007487382,0.010097006,-0.0035723448,0.0,0.0,-0.5631284
3787524000,-0.005986591,0.013649911,-0.0033946037,0.0,0.0,-0.55846405
3787548000,-0.00038488093,0.012888341,-0.0032199025,0.0,0.0,-0.5609868
3787568000,-0.0033856542,0.017519496,-0.0029280782,0.0,0.0,-0.5592168
3787588000,-0.00030673566,0.015365529,-0.0030106902,0.0,0.0,-0.56126046
3787604000,-0.00018450263,0.014447533,-0.002879262,0.0,0.0,-0.56126046
3787624000,-0.0022912733,0.013953687,-0.0026291013,0.0,0.0,-0.5603248
3787644000,-0.0042758705,0.013888663,-0.0022934675,0.0,0.0,-0.5623513
3787664000,-0.00016765133,0.013521954,-0.0021523833,0.0,0.0,-0.5643863
3787688000,-0.003393875,0.01098147,-0.0021300316,0.0,0.0,-0.5603545
3787704000,-0.00997455,0.0067188554,-0.0020665526,0.0,0.0,-0.5626255
3787720000,-0.006686293,0.0006933636,-0.002112329,0.0,0.0,-0.5648107
3787744000,-0.010744878,-0.0035298313,-0.002122879,0.0,0.0,-0.56079924
3787764000,-0.0127646215,-0.0025283194,-0.0021952987,0.0,0.0,-0.562264
3787788000,-0.011593532,-0.0028933834,-0.0022407174,0.0,0.0,-0.5637678
3787804000,-0.0029695805,-0.0046545397,-0.0022090673,0.0,0.0,-0.55992144
3787824000,0.001543356,0.00093263516,-0.0023748279,0.0,0.0,-0.5618649
3787848000,0.0042246953,0.004409888,-0.002466023,0.0,0.0,-0.5588691
3787868000,0.0072311955,0.004922308,-0.0026205182,0.0,0.0,-0.56023854
3787884000,0.006720109,0.0047237333,-0.002472639,0.0,0.0,-0.56208515
3787908000,0.0016547285,0.010951292,-0.0024433136,0.0,0.0,-0.55964774
3787924000,0.0045303525,0.011637917,-0.0024125576,0.0,0.0,-0.56195617
3787944000,0.0020327647,0.008314647,-0.0023152828,0.0,0.0,-0.56387186
3787968000,-0.0037247357,0.0015449347,-0.0020139813,0.0,0.0,-0.56091636
3787988000,-0.0052306624,0.0032519954,-0.0018289089,0.0,0.0,-0.56232077
3788008000,-0.004802759,0.005340495,-0.0018521547,0.0,0.0,-0.5646474
3788024000,-0.0037629479,0.0053835073,-0.0021985173,0.0,0.0,-0.561778
3788048000,-0.009282897,-0.00084172364,-0.002280414,0.0,0.0,-0.5636429
3788064000,-0.010894643,-0.0035265968,-0.002196014,0.0,0.0,-0.5662168
3788088000,-0.009791223,0.0025141847,-0.0025069714,0.0,0.0,-0.56389844
3788108000,-0.012952,0.00041794754,-0.0024513602,0.0,0.0,-0.5657109
3788124000,-0.015165053,-0.00030143769,-0.0023303032,0.0,0.0,-0.5675789
3788148000,-0.019380525,0.0021291068,-0.0022371411,0.0,0.0,-0.5659597
3788168000,-0.01620771,-0.0009730649,-0.0022197962,0.0,0.0,-0.5675893
3788188000,-0.017051175,0.0065990584,-0.0021139383,0.0,0.0,-0.5634163
3788204000,-0.008515993,0.011205561,-0.0020792484,0.0,0.0,-0.56509864
3788224000,-0.0066762436,0.016285464,-0.002082646,0.0,0.0,-0.5659153
3788240000,-0.0062803198,0.02092953,-0.0022475123,0.0,0.0,-0.5621436
3788264000,-0.0029551694,0.0181562,-0.0021754503,0.0,0.0,-0.56327635
3788284000,-0.002944983,0.017277824,-0.0022321343,0.0,0.0,-0.564372
3788304000,-0.0039762943,0.013218678,-0.0025416613,0.0,0.0,-0.5601076
3788320000,-0.0035605538,0.012791231,-0.0026006699,0.0,0.0,-0.56121
3788348000,-0.0034865434,0.0066913543,-0.0024147034,0.0,0.0,-0.562889
3788364000,-0.008399311,0.006546779,-0.0023691058,0.0,0.0,-0.56013626
3788384000,-0.005330853,0.006641631,-0.002205491,0.0,0.0,-0.5620678
3788404000,-0.003267202,0.008630285,-0.002145052,0.0,0.0,-0.56099415
3788428000,-0.0037125559,0.0031441161,-0.0019841194,0.0,0.0,-0.5629794
3788444000,5.98646e-05,0.0067571905,-0.0015774965,0.0,0.0,-0.5655392
3788464000,-0.002773765,0.0030565476,-0.0014485717,0.0,0.0,-0.56346864
3788484000,-0.0057559735,0.0068851747,-0.0015994906,0.0,0.0,-0.56555945
3788504000,-0.0086419415,0.004726217,-0.0016973019,0.0,0.0,-0.56293607
3788528000,-0.0066276044,0.0018131481,-0.0017157197,0.0,0.0,-0.56420827
3788544000,-0.005772005,-0.0034412036,-0.0018433928,0.0,0.0,-0.5658546
3788564000,-0.0060809352,-0.0051299455,-0.001793325,0.0,0.0,-0.5631352
3788584000,-0.009560691,-0.003495591,-0.0016441941,0.0,0.0,-0.56452096
3788600000,-0.00527006,0.0003501114,-0.0017600656,0.0,0.0,-0.5660595
3788628000,0.003272821,0.0018560314,-0.0019497871,0.0,0.0,-0.56275874
3788644000,0.0055517694,0.0028205775,-0.001803875,0.0,0.0,-0.56461906
3788664000,0.0072936974,0.001474286,-0.0016220212,0.0,0.0,-0.56594944
3788684000,0.0055947346,0.0019474507,-0.0017859936,0.0,0.0,-0.5627696
3788708000,0.008035274,0.0013405122,-0.0019150972,0.0,0.0,-0.5638682
3788724000,0.0069019888,0.0028271251,-0.0021016002,0.0,0.0,-0.5651151
3788748000,0.0049103526,0.0015556987,-0.0021965504,0.0,0.0,-0.56404614
3788764000,0.0040732846,-0.00035101804,-0.0022337437,0.0,0.0,-0.5656578
3788784000,-0.006507074,-0.0009937787,-0.0023022294,0.0,0.0,-0.5628575
3788808000,-0.0034943603,0.0012052101,-0.0023884177,0.0,0.0,-0.56380624
3788828000,-0.006043137,0.002149067,-0.0025209188,0.0,0.0,-0.56462514
3788844000,-0.0051094536,-0.0016144426,-0.0027828813,0.0,0.0,-0.5615851
3788864000,-0.00393863,-0.0026300687,-0.0027435422,0.0,0.0,-0.5627938
3788888000,-0.0024749222,0.0017485118,-0.00271672,0.0,0.0,-0.56431377
3788904000,-0.0069129234,-0.0014226849,-0.002615869,0.0,0.0,-0.5617565
3788928000,-0.007951215,0.00028632302,-0.002435267,0.0,0.0,-0.5629989
3788948000,-0.01389537,0.0031187336,-0.0024481416,0.0,0.0,-0.5647587
3788964000,-0.014015673,0.0029957697,-0.0022915006,0.0,0.0,-0.5624375
3788984000,-0.014207363,-0.002344143,-0.0021336079,0.0,0.0,-0.56446475
3789008000,-0.013183517,-0.0034815408,-0.0020871162,0.0,0.0,-0.5639022
3789028000,-0.004869902,-0.0021981318,-0.002188146,0.0,0.0,-0.56770414
3789044000,-0.0034302752,-0.0019139454,-0.00183177,0.0,0.0,-0.56770414
3789068000,-0.0051733907,-0.0030854323,-0.0016304255,0.0,0.0,-0.5660835
3789088000,-0.0040893727,0.0010620898,-0.0013183951,0.0,0.0,-0.56714106
3789108000,-0.009725727,-0.0054837074,-0.0015919805,0.0,0.0,-0.56407726
3789128000,-0.01002816,-0.0026945563,-0.0014074445,0.0,0.0,-0.5652694
3789144000,-0.007609392,-0.0020753243,-0.0012418628,0.0,0.0,-0.56409687
3789168000,-0.006019028,-0.0023490395,-0.0014408827,0.0,0.0,-0.565704
3789188000,-0.0070516383,-0.0040843915,-0.0016919374,0.0,0.0,-0.56731606
3789204000,-0.005514443,-0.006588906,-0.0015308261,0.0,0.0,-0.5647445
3789224000,-0.00534983,-0.0053962623,-0.001376152,0.0,0.0,-0.5657273
3789248000,-0.003045434,-0.00096031046,-0.0012815595,0.0,0.0,-0.566317
3789268000,-0.0007407017,0.0035052525,-0.0013419986,0.0,0.0,-0.56270355
3789288000,-0.005951879,0.00042487658,-0.0011891127,0.0,0.0,-0.56352186
3789308000,-0.008431786,0.004003713,-0.0012261271,0.0,0.0,-0.56430405
3789324000,-0.009009536,0.006406332,-0.0013201833,0.0,0.0,-0.56134135
3789348000,-0.00655879,0.0074093835,-0.001253128,0.0,0.0,-0.56213325
3789368000,-0.0024848008,0.009269118,-0.0012261271,0.0,0.0,-0.5630963
3789384000,-0.00014885457,0.010088153,-0.0011572838,0.0,0.0,-0.5644393
3789404000,-0.0004354315,0.009324949,-0.0010555387,0.0,0.0,-0.5660253
3789428000,-0.00022548717,0.010216629,-0.0009303689,0.0,0.0,-0.5639195
3789444000,0.000336488,0.004870166,-0.0010190606,0.0,0.0,-0.5651426
3789464000,0.0019987035,0.00517931,-0.0010521412,0.0,0.0,-0.5663476
3789488000,0.0036684147,0.0009484305,-0.0008484721,0.0,0.0,-0.56372213
3789504000,0.003825926,-0.0017846168,-0.0006469488,0.0,0.0,-0.56403565
3789524000,0.0015010647,-0.0011126299,-0.00027018785,0.0,0.0,-0.5651448
3789548000,0.0006552874,0.0009795993,-0.00020885468,0.0,0.0,-0.5629016
3789564000,0.0024220243,0.0022533392,-0.00013893843,0.0,0.0,-0.5639258
3789588000,0.0006423065,-0.00035727932,-0.00028896332,0.0,0.0,-0.5651146
3789608000,-0.00013206329,-0.006066275,-0.00024354458,0.0,0.0,-0.56394666
3789624000,-0.00083870627,-0.006217418,-0.00039821863,0.0,0.0,-0.56394666
3789648000,-0.0054638777,-0.009054998,-0.00053822994,0.0,0.0,-0.5632634
3789664000,-0.0038631237,-0.007551673,-0.00039482117,0.0,0.0,-0.56489885
3789684000,-0.005184219,-0.012617195,-0.0004298687,0.0,0.0,-0.5664153
3789704000,-0.0059645856,-0.010124896,-0.0007211566,0.0,0.0,-0.56457484
3789728000,-0.0040971963,-0.002807883,-0.0006278157,0.0,0.0,-0.5654199
3789744000,-0.00045723343,0.0014383283,-0.00069379807,0.0,0.0,-0.5665311
3789760000,-0.00077273726,0.0017674025,-0.0008414984,0.0,0.0,-0.5641154
3789788000,0.00041466314,0.0026035162,-0.0009675622,0.0,0.0,-0.5642935
3789808000,0.0011096838,0.0012275206,-0.0009845495,0.0,0.0,-0.5648743
3789824000,-0.00025482776,-0.0053100428,-0.0008676052,0.0,0.0,-0.5624101
3789840000,0.0014318088,-0.004884659,-0.0006696582,0.0,0.0,-0.5633397
3789864000,0.005793986,-0.007959521,-0.0006405115,0.0,0.0,-0.56506336
3789888000,0.0057677906,-0.005230169,-0.00033581257,0.0,0.0,-0.5647451
3789908000,0.0066811144,-0.0022758746,-0.00015753508,0.0,0.0,-0.5660757
3789928000,0.008106072,-0.0053311517,-0.00020509958,0.0,0.0,-0.56400067
3789948000,0.0122167915,-0.0076600215,-0.0001269579,0.0,0.0,-0.5642512
3789964000,0.013508091,-0.006674631,-0.000109255314,0.0,0.0,-0.5652418
3789988000,0.010058679,-0.010238611,-0.00044757128,0.0,0.0,-0.5639185
3790004000,0.0042629554,-0.0067933295,-0.00060135126,0.0,0.0,-0.5650736
3790028000,0.0026531415,0.0038406504,-0.0006406903,0.0,0.0,-0.5657498
3790044000,0.0027538645,0.0018241424,-0.00059223175,0.0,0.0,-0.5632909
3790064000,0.0034978995,0.002677966,-0.00057685375,0.0,0.0,-0.56398
3790080000,0.0032408633,0.0069143362,-0.00054627657,0.0,0.0,-0.5649063
3790104000,-0.0032454638,0.0011306915,-0.00072580576,0.0,0.0,-0.562676
3790128000,-0.003711638,0.0026667747,-0.00069111586,0.0,0.0,-0.5628941
3790144000,-0.004018447,-0.0016495809,-0.0006340742,0.0,0.0,-0.56335264
3790168000,-0.0012906173,-0.005234967,-0.0007624626,0.0,0.0,-0.56295276
3790188000,-0.0009928178,-0.006072296,-0.0007739067,0.0,0.0,-0.56295276
3790208000,-0.008881189,-0.007999605,-0.00083988905,0.0,0.0,-0.5627619
3790224000,-0.009289075,-0.0074495184,-0.00086706877,0.0,0.0,-0.5627619
3790248000,-0.00040844796,0.001152949,-0.0008288026,0.0,0.0,-0.5648787
3790268000,0.0030431924,0.0073085236,-0.0008919239,0.0,0.0,-0.56347466
3790288000,0.0045110355,0.009015275,-0.000895679,0.0,0.0,-0.5642175
3790308000,0.00048456856,0.011747396,-0.0008211136,0.0,0.0,-0.56539124
3790328000,0.0011290695,0.010309383,-0.0005815029,0.0,0.0,-0.5635397
3790344000,0.0011166831,0.010612022,-0.0004454255,0.0,0.0,-0.5637795
3790368000,0.003626341,0.0061569456,-0.000436306,0.0,0.0,-0.5647417
3790384000,-0.0012427431,0.002804531,-0.0004541874,0.0,0.0,-0.5633743
3790404000,0.0043010092,0.0028536671,-0.00061386824,0.0,0.0,-0.56436926
3790424000,0.004273342,0.0020231716,-0.00083202124,0.0,0.0,-0.565551
3790448000,0.007086789,0.0028227041,-0.0008162856,0.0,0.0,-0.56349427
3790468000,0.0021779197,0.0004253355,-0.0010718107,0.0,0.0,-0.5637243
3790484000,0.0028014625,0.0031386712,-0.0010587573,0.0,0.0,-0.56484795
3790508000,0.0051903347,0.008032364,-0.0009986758,0.0,0.0,-0.5632241
3790528000,0.0043845093,0.0077376487,-0.00084006786,0.0,0.0,-0.5641707
3790548000,-0.003974882,0.0009978425,-0.00073617697,0.0,0.0,-0.56195897
3790564000,-0.005013307,0.0024231933,-0.00086438656,0.0,0.0,-0.5625227
3790588000,-0.0036673215,0.003971448,-0.00083756447,0.0,0.0,-0.56370974
3790608000,-0.0020809309,0.0026966615,-0.00078731775,0.0,0.0,-0.5625467
3790628000,-0.0016239581,0.0016116528,-0.00076693296,0.0,0.0,-0.5632586
3790644000,7.0100825e-05,0.002474824,-0.0006507039,0.0,0.0,-0.5641368
3790668000,-0.00074213423,0.00047918502,-0.0006058216,0.0,0.0,-0.5626969
3790684000,-0.0014308178,-0.0025999818,-0.00038802624,0.0,0.0,-0.5632781
3790704000,-0.002424026,0.0006022467,-0.00030988455,0.0,0.0,-0.5644203
3790724000,-0.008415458,-0.001160654,-5.5253506e-05,0.0,0.0,-0.5636018
3790748000,-0.0049267304,-0.0006249428,-6.186962e-05,0.0,0.0,-0.56527174
3790764000,-0.0039286176,-0.00048964005,-7.331371e-05,0.0,0.0,-0.56527174
3790788000,-0.006495758,-0.0026055942,3.9696693e-05,0.0,0.0,-0.5647483
3790804000,-0.0058016926,-0.0020492475,-0.000256598,0.0,0.0,-0.5647483
3790824000,-0.01154488,-0.0021390372,-0.0003463626,0.0,0.0,-0.563573
3790844000,-0.008143487,-0.008221428,-0.00035709143,0.0,0.0,-0.5640266
3790868000,-0.005722033,-0.008171352,-0.00036513805,0.0,0.0,-0.56513506
3790888000,-0.008109758,-0.010061001,-0.00030380487,0.0,0.0,-0.5634727
3790904000,-0.007342889,-0.007870024,-0.00019329786,0.0,0.0,-0.5642142
3790920000,-0.0045476034,-0.0011666589,-0.00011783838,0.0,0.0,-0.5651513
3790948000,0.0022646557,0.0027745739,-6.66976e-05,0.0,0.0,-0.5640165
3790968000,0.0026094206,0.0030206735,6.866455e-05,0.0,0.0,-0.5646291
3790988000,-0.0006363505,0.002840182,0.00022673607,0.0,0.0,-0.5655193
3791008000,0.0058699627,0.005899572,0.00029951334,0.0,0.0,-0.5652987
3791024000,0.0053034853,0.0052657276,0.00037944317,0.0,0.0,-0.5652987
3791044000,0.007004043,-0.0014938703,0.00045973063,0.0,0.0,-0.566223
3791064000,0.0067418916,0.0029283236,0.00046241283,0.0,0.0,-0.56568295
3791088000,0.010435065,-0.0015590941,0.00045132637,0.0,0.0,-0.5671423
3791108000,0.010982474,0.00034102786,0.00048422813,0.0,0.0,-0.56520927
3791124000,0.009304456,-0.0001931868,0.00045275688,0.0,0.0,-0.5657854
3791148000,0.010135027,-0.00097030937,0.00040841103,0.0,0.0,-0.56637055
3791168000,-0.0012876329,-0.005714867,0.00023585558,0.0,0.0,-0.5646752
3791184000,-0.0030951025,-0.0036067714,0.00016057491,0.0,0.0,-0.56543386
3791208000,-0.001538549,0.0009198028,0.00017148256,0.0,0.0,-0.5662898
3791228000,0.00088435994,-0.0009182403,0.00018060207,0.0,0.0,-0.56442183
3791244000,0.002763744,-0.003306813,0.00030255318,0.0,0.0,-0.56495625
3791264000,0.0014327494,-0.0027582014,0.00025320053,0.0,0.0,-0.5659189
3791284000,0.0020552808,-0.0041983654,0.00036782026,0.0,0.0,-0.56529516
3791304000,0.0003934295,-0.0028257666,0.00051891804,0.0,0.0,-0.56540316
3791328000,-0.0016362427,-0.004096626,0.000582397,0.0,0.0,-0.56436396
3791344000,-0.0031640183,-0.0042684968,0.00064873695,0.0,0.0,-0.564037
3791368000,-0.005628784,-0.0025426426,0.00091445446,0.0,0.0,-0.5643813
3791388000,-0.0032333573,0.006803684,0.0010979176,0.0,0.0,-0.56279296
3791408000,-0.0035251025,0.001922876,0.0011152625,0.0,0.0,-0.56368035
3791428000,-0.0016006154,-0.004728077,0.0010469556,0.0,0.0,-0.56479007
3791444000,-0.0011797475,-0.006494618,0.0009788275,0.0,0.0,-0.56407076
3791464000,0.0014714629,-0.004636352,0.00090175867,0.0,0.0,-0.5653059
3791488000,-0.0031072088,0.0022006254,0.0008055568,0.0,0.0,-0.56672317
3791504000,-0.0037499098,-0.000670854,0.0008520484,0.0,0.0,-0.5654373
3791528000,-0.0059304424,-0.0018738653,0.0009967089,0.0,0.0,-0.56611204
3791544000,-0.0053213136,-0.00020707981,0.0010952353,0.0,0.0,-0.56690323
3791564000,-0.006913474,0.0030966592,0.0011971593,0.0,0.0,-0.5656073
3791588000,0.0004229914,0.00046126032,0.0013357401,0.0,0.0,-0.5658026
3791604000,0.00088534044,0.00045364117,0.0012694001,0.0,0.0,-0.5658026
3791624000,-0.002744205,-0.0018109402,0.0012588501,0.0,0.0,-0.56524837
3791648000,-0.0026843906,-0.0016724174,0.0010862947,0.0,0.0,-0.56579906
3791668000,0.0040423525,-0.006434814,0.0008196831,0.0,0.0,-0.5646544
3791684000,-5.1117036e-05,-0.0046290066,0.0006939769,0.0,0.0,-0.56424177
3791708000,0.0021544662,-0.004752308,0.00044739246,0.0,0.0,-0.5647074
3791724000,0.0004808276,-0.0042057075,0.0002603531,0.0,0.0,-0.5628461
3791748000,0.005352633,-0.0064653293,-0.00012463331,0.0,0.0,-0.5634693
3791764000,0.008852697,-0.0016383694,-0.00021779537,0.0,0.0,-0.56434965
3791784000,0.013957482,0.0046396498,-0.00039035082,0.0,0.0,-0.56367654
3791808000,0.010379046,0.0069894986,-0.000605464,0.0,0.0,-0.56417555
3791824000,0.0056326264,0.010423309,-0.00072455406,0.0,0.0,-0.5653567
3791844000,0.004719571,0.009125197,-0.0006340742,0.0,0.0,-0.56455946
3791868000,0.0060800887,0.00356077,-0.00081020594,0.0,0.0,-0.5653996
3791884000,0.005162397,0.0028302243,-0.0008239746,0.0,0.0,-0.5653996
3791908000,0.002568727,0.0017354668,-0.00087565184,0.0,0.0,-0.56440187
3791928000,-0.00011776009,-0.0012986488,-0.00082844496,0.0,0.0,-0.56436586
3791948000,-0.0018468158,0.00057607284,-0.00066411495,0.0,0.0,-0.5631689
3791964000,-0.001238092,0.0012624606,-0.00052535534,0.0,0.0,-0.56300604
3791988000,0.0028368267,-0.0015553037,-0.00043988228,0.0,0.0,-0.5636981
3792008000,-0.0014427482,-0.0017654831,-0.00057184696,0.0,0.0,-0.56188196
3792028000,-0.0016973494,-0.0038939451,-0.00067037344,0.0,0.0,-0.56215775
3792048000,0.0022364696,-0.0037251986,-0.00069093704,0.0,0.0,-0.56253505
3792064000,0.005089923,-0.0017380372,-0.0005963445,0.0,0.0,-0.5611496
3792088000,0.0035343454,-0.0034983556,-0.00044220686,0.0,0.0,-0.56188023
3792104000,0.0045229862,-0.0077966955,-0.0005532503,0.0,0.0,-0.5625044
3792124000,0.008966872,-0.0045321425,-0.0007195473,0.0,0.0,-0.5625471
3792144000,0.012556834,0.001666523,-0.0007556677,0.0,0.0,-0.56276494
3792164000,0.012237642,-0.0012830012,-0.0008608103,0.0,0.0,-0.5632529
3792184000,0.009316649,-0.00075312937,-0.0007007718,0.0,0.0,-0.562827
3792204000,0.008583406,0.000590935,-0.0004490018,0.0,0.0,-0.5631931
3792228000,0.0040438203,0.0032913946,-0.00021868944,0.0,0.0,-0.56274986
3792244000,0.0034587602,0.00838701,-0.00019419193,0.0,0.0,-0.5634657
3792268000,0.0027195467,0.007928098,-4.774332e-05,0.0,0.0,-0.56456107
3792288000,-0.0022238141,0.010386953,-7.7962875e-05,0.0,0.0,-0.5637264
3792304000,-0.0035334032,0.0100718085,-0.00016915798,0.0,0.0,-0.56427485
3792324000,-4.6013156e-05,0.012199041,-0.00021779537,0.0,0.0,-0.5648836
3792344000,-0.0023240051,0.015395377,-0.00021243095,0.0,0.0,-0.56392854
3792368000,-0.0010050107,0.008750321,-0.00024282932,0.0,0.0,-0.56368434
3792384000,0.00074565166,0.003184195,-0.00016075373,0.0,0.0,-0.5643017
3792408000,0.0016294193,-0.007156448,-8.547306e-05,0.0,0.0,-0.5636607
3792428000,0.002795347,-7.458497e-05,-0.00012034178,0.0,0.0,-0.5635886
3792448000,0.0020139548,-0.010402061,-0.00013107061,0.0,0.0,-0.5637209
3792468000,0.0012916527,-0.009786231,-7.2062016e-05,0.0,0.0,-0.5636378
3792488000,0.003867243,-0.0075269938,0.00010120869,0.0,0.0,-0.56425095
3792504000,0.0034406364,-0.0069681234,0.00024926662,0.0,0.0,-0.56284815
3792528000,0.00724766,-0.003977957,0.00042915344,0.0,0.0,-0.5627406
3792548000,0.00523696,-0.0005798426,0.00046777725,0.0,0.0,-0.5623964
3792564000,0.008155229,-0.002797563,0.00044506788,0.0,0.0,-0.5612051
3792584000,0.007480409,-0.0011019147,0.00072187185,0.0,0.0,-0.5614078
3792604000,0.007560611,-0.0021522888,0.00059455633,0.0,0.0,-0.56167287
3792624000,0.0012354925,0.0031457432,0.0002939701,0.0,0.0,-0.56162107
3792648000,0.00065586594,0.0062378696,0.00012713671,0.0,0.0,-0.5622775
3792668000,-0.0015733066,0.0063530486,0.00011587143,0.0,0.0,-0.56375724
3792688000,0.004015192,0.004080305,-7.688999e-06,0.0,0.0,-0.5638785
3792704000,0.0042920336,0.0035288043,0.0001861453,0.0,0.0,-0.5638785
3792724000,0.0028300718,0.0029427581,2.6464462e-05,0.0,0.0,-0.5647837
3792748000,0.003180446,-0.007458467,-0.00016218424,0.0,0.0,-0.56443983
3792768000,0.008093376,-0.009393798,-0.00015628338,0.0,0.0,-0.56554276
3792788000,0.012939047,-0.008136369,-9.351969e-05,0.0,0.0,-0.5648997
3792808000,0.01303244,-0.007921765,-0.00026786327,0.0,0.0,-0.56491774
3792828000,0.009743579,-0.011646496,-0.0002515912,0.0,0.0,-0.5652392
3792848000,0.008480363,-0.016738547,-3.5226345e-05,0.0,0.0,-0.5638825
3792868000,0.0042150277,-0.012879597,0.00010371208,0.0,0.0,-0.56388456
3792888000,0.00024318259,-0.012017998,0.00040715933,0.0,0.0,-0.5643005
3792908000,-0.00405333,-0.009718514,0.0003311634,0.0,0.0,-0.5637607
3792924000,-0.005683859,-0.0061484184,0.00037443638,0.0,0.0,-0.5637904
3792944000,-0.004113102,-0.009152599,0.0004196763,0.0,0.0,-0.5648563
3792964000,-0.0034434213,-0.009282999,0.00023961067,0.0,0.0,-0.56463605
3792988000,-0.0021111239,-0.0110442685,0.00032812357,0.0,0.0,-0.5647229
3793004000,-0.001584011,-0.010148676,0.0003928542,0.0,0.0,-0.5647229
3793024000,0.0037649563,-0.009351925,0.0005337596,0.0,0.0,-0.5641207
3793048000,0.0009030416,-0.0035886331,0.0006760955,0.0,0.0,-0.5647694
3793064000,0.0049512647,-0.0015076292,0.0006789565,0.0,0.0,-0.5632545
3793088000,0.0029589282,-0.00015684855,0.00093734264,0.0,0.0,-0.563419
3793108000,0.00031591288,0.003971014,0.0009822249,0.0,0.0,-0.56406516
3793120000,0.0023738914,-0.0048617534,0.0010142326,0.0,0.0,-0.5631412
3793144000,0.0014809663,-0.005532088,0.0010310411,0.0,0.0,-0.56366843
3793168000,-6.6796783e-06,-0.008598304,0.00086921453,0.0,0.0,-0.5642664
3793184000,0.00046225567,-0.017768154,0.0007343888,0.0,0.0,-0.5635093
3793204000,-0.00430753,-0.019766515,0.0007045269,0.0,0.0,-0.5632523
3793224000,-0.0060312003,-0.013767006,0.00048547983,0.0,0.0,-0.5636115
3793248000,-0.010297306,-0.013060592,0.000516057,0.0,0.0,-0.5623224
3793264000,-0.0042709606,-0.013655044,0.0003733635,0.0,0.0,-0.56249297
3793284000,-0.004164896,-0.013369848,0.00054752827,0.0,0.0,-0.5625503
3793308000,-0.005604117,-0.012151534,7.3850155e-05,0.0,0.0,-0.56352746
3793324000,0.0015765047,-0.024770588,6.812811e-05,0.0,0.0,-0.5650539
3793344000,0.008298991,-0.03773067,0.00011640787,0.0,0.0,-0.56446147
3793360000,0.011878338,-0.04921944,-0.043792963,0.0,0.0,-0.5644586
3793384000,0.009103859,-0.055060823,-0.08795285,0.0,0.0,-0.56443655
3793404000,0.0040811165,-0.05043151,-0.12297034,0.0,0.0,-0.5628219
3793424000,-0.007085206,-0.04188344,-0.16635364,0.0,0.0,-0.56189775
3793444000,-0.01682,-0.014383012,-0.20882267,0.0,0.0,-0.5620115
3793468000,-0.031243997,0.01740849,-0.24143064,0.0,0.0,-0.5603196
3793488000,-0.044981338,0.04992408,-0.28150338,0.0,0.0,-0.5596055
3793504000,-0.069422245,0.09392008,-0.32099658,0.0,0.0,-0.55992836
3793524000,-0.08653632,0.13556567,-0.34916157,0.0,0.0,-0.559805
3793544000,-0.10518236,0.18664035,-0.38256437,0.0,0.0,-0.56013983
3793564000,-0.1317369,0.24481139,-0.41764408,0.0,0.0,-0.5613378
3793584000,-0.15115586,0.28854886,-0.44006646,0.0,0.0,-0.56202114
3793604000,-0.22042254,0.43881845,-0.51042634,0.0,0.0,-0.5652046
3793624000,-0.23545629,0.4878617,-0.528142,0.0,0.0,-0.56525373
3793640000,-0.21261075,0.4499209,-0.5113022,0.0,0.0,-0.56525373
3793668000,-0.29651475,0.61132145,-0.56825405,0.0,0.0,-0.56732464
3793684000,-0.29962504,0.63401145,-0.57980347,0.0,0.0,-0.5656424
3793708000,-0.3376199,0.68737996,-0.59613186,0.0,0.0,-0.56665015
3793724000,-0.3899004,0.74793243,-0.6145976,0.0,0.0,-0.56860167
3793744000,-0.3897212,0.74092114,-0.62150836,0.0,0.0,-0.5673618
3793768000,-0.42154694,0.73585534,-0.62221366,0.0,0.0,-0.5692614
3793780000,-0.4832072,0.7935469,-0.6413267,0.0,0.0,-0.5716252
3793804000,-0.4559819,0.71466255,-0.64125556,0.0,0.0,-0.57057536
3793824000,-0.5011416,0.7435203,-0.6529353,0.0,0.0,-0.5727852
3793848000,-0.53128195,0.74090046,-0.68689495,0.0,0.0,-0.57268524
3793864000,-0.48021555,0.6636421,-0.66382724,0.0,0.0,-0.57268524
3793884000,-0.5775022,0.7533959,-0.7020477,0.0,0.0,-0.5791064
3793908000,-0.48955062,0.6255229,-0.70323515,0.0,0.0,-0.5762157
3793924000,-0.5218353,0.639742,-0.71257424,0.0,0.0,-0.58010757
3793948000,-0.51664484,0.60973144,-0.71011084,0.0,0.0,-0.5842673
3793968000,-0.41684222,0.48502252,-0.71931803,0.0,0.0,-0.58117557
3793984000,-0.44416445,0.50302273,-0.7278407,0.0,0.0,-0.5854377
3794004000,-0.45091313,0.49711233,-0.7308167,0.0,0.0,-0.5894044
3794024000,-0.34527147,0.37269557,-0.7419159,0.0,0.0,-0.58559734
3794048000,-0.3581267,0.37502474,-0.7366344,0.0,0.0,-0.59042305
3794068000,-0.37483934,0.38002473,-0.739537,0.0,0.0,-0.5950403
3794084000,-0.27047992,0.2779592,-0.7571348,0.0,0.0,-0.5909688
3794104000,-0.29413974,0.29490095,-0.75016737,0.0,0.0,-0.59610456
3794124000,-0.3237604,0.31503588,-0.75975305,0.0,0.0,-0.60113484
3794148000,-0.2789799,0.2721908,-0.7996826,0.0,0.0,-0.60314447
3794164000,-0.31465143,0.29152521,-0.81040335,0.0,0.0,-0.60843265
3794184000,-0.19142506,0.1923903,-0.82126975,0.0,0.0,-0.603793
3794204000,-0.23977962,0.22757694,-0.8215072,0.0,0.0,-0.6096027
3794224000,-0.27077034,0.25148943,-0.8233085,0.0,0.0,-0.61436844
3794244000,-0.14564021,0.15791643,-0.8249434,0.0,0.0,-0.6091229
3794264000,-0.200424,0.19196722,-0.8257153,0.0,0.0,-0.6149186
3794288000,-0.24166688,0.21302769,-0.8282073,0.0,0.0,-0.61940867
3794304000,-0.13606226,0.14217977,-0.8432109,0.0,0.0,-0.61340547
3794328000,-0.19117713,0.17452823,-0.83571196,0.0,0.0,-0.6185997
3794344000,-0.2412306,0.20135465,-0.8458501,0.0,0.0,-0.62334096
3794364000,-0.13127299,0.13085434,-0.85217035,0.0,0.0,-0.61751854
3794388000,-0.25035942,0.1991286,-0.88760716,0.0,0.0,-0.62742245
3794404000,-0.22946152,0.18245415,-0.8461983,0.0,0.0,-0.62742245
3794424000,-0.2011697,0.16542107,-0.9021057,0.0,0.0,-0.6266726
3794444000,-0.24118987,0.18523149,-0.8955587,0.0,0.0,-0.6315346
3794464000,-0.12974891,0.12543187,-0.9075421,0.0,0.0,-0.6261663
3794484000,-0.18967888,0.15077668,-0.9096127,0.0,0.0,-0.632346
3794508000,-0.22216576,0.16175362,-0.9041589,0.0,0.0,-0.63716626
3794524000,-0.10890603,0.111213356,-0.9138032,0.0,0.0,-0.63194925
3794544000,-0.1774613,0.12658128,-0.9189533,0.0,0.0,-0.63833076
3794568000,-0.21890165,0.13653584,-0.9142618,0.0,0.0,-0.6437648
3794584000,-0.108933315,0.09148275,-0.92274284,0.0,0.0,-0.63805467
3794608000,-0.17081177,0.10942018,-0.9173553,0.0,0.0,-0.6433013
3794624000,-0.21730945,0.123614386,-0.92066073,0.0,0.0,-0.6484616
3794648000,-0.11382904,0.08534311,-0.9182409,0.0,0.0,-0.6426549
3794664000,-0.17837156,0.09849568,-0.922699,0.0,0.0,-0.64765
3794688000,-0.13992776,0.07657778,-0.9708858,0.0,0.0,-0.64629596
3794704000,-0.12941314,0.07012841,-0.93411523,0.0,0.0,-0.64629596
3794724000,-0.19272071,0.082641676,-0.9388395,0.0,0.0,-0.650966
3794744000,-0.15678626,0.07352802,-0.97458136,0.0,0.0,-0.6501316
3794768000,-0.22315305,0.084331736,-0.9802412,0.0,0.0,-0.65617406
3794784000,-0.27311885,0.0873688,-0.9868337,0.0,0.0,-0.6613961
3794804000,-0.17519641,0.06556548,-0.9785768,0.0,0.0,-0.655517
3794820000,-0.24196172,0.06771013,-0.9958838,0.0,0.0,-0.6607563
3794848000,-0.28293908,0.07062735,-0.9915451,0.0,0.0,-0.66532755
3794864000,-0.19283989,0.0550185,-0.99140096,0.0,0.0,-0.6589386
3794884000,-0.24693355,0.061186105,-0.98728144,0.0,0.0,-0.66405284
3794908000,-0.29151592,0.06076902,-0.9937704,0.0,0.0,-0.66945046
3794928000,-0.26087534,0.051623404,-1.0378643,0.0,0.0,-0.6699625
3794948000,-0.24100831,0.04440111,-0.9882719,0.0,0.0,-0.6699625
3794968000,-0.1986862,0.044815063,-1.0284367,0.0,0.0,-0.6679498
3794988000,-0.25880682,0.04275155,-1.0358641,0.0,0.0,-0.6735234
3795004000,-0.29737657,0.039163202,-1.0421762,0.0,0.0,-0.6778125
3795024000,-0.19006446,0.032395095,-1.0259997,0.0,0.0,-0.67126334
3795048000,-0.2402521,0.027345926,-1.0326222,0.0,0.0,-0.6768397
3795064000,-0.2785039,0.028732628,-1.0464381,0.0,0.0,-0.68145305
3795084000,-0.16616413,0.042273223,-1.0129209,0.0,0.0,-0.675347
3795100000,-0.2169379,0.041386306,-1.0277588,0.0,0.0,-0.6808516
3795124000,-0.2532766,0.03790292,-1.0315529,0.0,0.0,-0.6851303
3795148000,-0.149074,0.051217586,-0.99767876,0.0,0.0,-0.6783821
3795168000,-0.19191,0.045631707,-1.0017396,0.0,0.0,-0.68354845
3795180000,-0.22286531,0.04542321,-1.0134047,0.0,0.0,-0.68745345
3795204000,-0.11883956,0.061232597,-0.98822486,0.0,0.0,-0.68091273
3795228000,-0.15593511,0.048785985,-0.9814131,0.0,0.0,-0.6855302
3795244000,-0.18559101,0.035682768,-0.995131,0.0,0.0,-0.6892757
3795264000,-0.11849756,0.044555068,-1.02385,0.0,0.0,-0.6870167
3795284000,-0.110743985,0.034447253,-0.9725268,0.0,0.0,-0.6870167
3795304000,-0.034933962,0.04991895,-0.99833286,0.0,0.0,-0.6836914
3795324000,-0.05922532,0.036155194,-0.999105,0.0,0.0,-0.6876225
3795344000,-0.075903855,0.02257821,-0.9993553,0.0,0.0,-0.69113016
3795364000,0.02891285,0.038936377,-0.97278464,0.0,0.0,-0.68568695
3795388000,0.0018087924,0.021986514,-0.96321344,0.0,0.0,-0.68973863
3795408000,-0.020296343,0.010371923,-0.9622232,0.0,0.0,-0.69220513
3795424000,0.06916203,0.024455309,-0.948177,0.0,0.0,-0.68633693
3795448000,0.039422683,0.0053696036,-0.93875456,0.0,0.0,-0.6892739
3795464000,0.01779107,-0.014313698,-0.93881464,0.0,0.0,-0.69158024
3795488000,0.08565199,0.0029479265,-0.9614192,0.0,0.0,-0.68889517
3795504000,0.06958399,-0.0054917336,-0.9115491,0.0,0.0,-0.68889517
3795528000,0.14021939,0.01074779,-0.93438756,0.0,0.0,-0.6850407
3795548000,0.10399315,-0.012049735,-0.9244015,0.0,0.0,-0.68683785
3795560000,0.0918574,-0.017343879,-0.89485073,0.0,0.0,-0.68683785
3795584000,0.15319386,-0.0055600405,-0.9188168,0.0,0.0,-0.68439996
3795608000,0.11919321,-0.029597819,-0.9086176,0.0,0.0,-0.6864517
3795620000,0.094322145,-0.042018592,-0.9163953,0.0,0.0,-0.68806857
3795644000,0.12988913,-0.02818644,-0.8862809,0.0,0.0,-0.6843668
3795664000,0.09227802,-0.043372035,-0.89491546,0.0,0.0,-0.6863995
3795688000,0.055120546,-0.063587844,-0.8841934,0.0,0.0,-0.6882167
3795704000,0.08180072,-0.047988474,-0.87513936,0.0,0.0,-0.6842623
3795724000,0.03997378,-0.067546606,-0.8747456,0.0,0.0,-0.6853942
3795748000,-0.004288056,-0.08818817,-0.8648046,0.0,0.0,-0.6864953
3795768000,-0.0033480506,-0.09008199,-0.8940797,0.0,0.0,-0.6831813
3795784000,-0.0133259185,-0.0941416,-0.8566328,0.0,0.0,-0.6831813
3795808000,-0.02975423,-0.10039616,-0.8792285,0.0,0.0,-0.68269575
3795824000,-0.04939422,-0.116051674,-0.8874543,0.0,0.0,-0.68401444
3795844000,-0.0669611,-0.13300127,-0.8862945,0.0,0.0,-0.68575376
3795868000,-0.039282158,-0.114293754,-0.85955393,0.0,0.0,-0.6825315
3795888000,-0.05631396,-0.131091,-0.8584181,0.0,0.0,-0.6839538
3795908000,-0.06776708,-0.14575446,-0.8564372,0.0,0.0,-0.6850728
3795924000,-0.04448876,-0.12118006,-0.8482282,0.0,0.0,-0.68224263
3795944000,-0.05575964,-0.1319375,-0.83662,0.0,0.0,-0.6837028
3795968000,-0.068104774,-0.14246589,-0.83417594,0.0,0.0,-0.6850772
3795984000,-0.044088297,-0.11814451,-0.82629097,0.0,0.0,-0.6818264
3796004000,-0.053861707,-0.13044405,-0.82403255,0.0,0.0,-0.6826858
3796028000,-0.031146571,-0.10798377,-0.8393415,0.0,0.0,-0.68087643
3796048000,-0.043128155,-0.1203171,-0.8367437,0.0,0.0,-0.6821485
3796064000,-0.052782632,-0.13598728,-0.83447313,0.0,0.0,-0.6832102
3796088000,-0.024897583,-0.11017531,-0.8088484,0.0,0.0,-0.68086153
3796104000,-0.03653781,-0.12466496,-0.8241588,0.0,0.0,-0.68235576
3796124000,-0.045578465,-0.1400072,-0.8216908,0.0,0.0,-0.6838972
3796144000,-0.017606065,-0.105953515,-0.80447996,0.0,0.0,-0.6812877
3796168000,-0.026679084,-0.120698154,-0.7932755,0.0,0.0,-0.68245167
3796180000,-0.031535357,-0.1360259,-0.7994571,0.0,0.0,-0.6839476
3796208000,-0.007841617,-0.10290527,-0.77476466,0.0,0.0,-0.6815529
3796224000,-0.014844015,-0.11619222,-0.78048027,0.0,0.0,-0.68344605
3796244000,-0.020350903,-0.13311106,-0.7779876,0.0,0.0,-0.6849276
3796268000,-0.008303449,-0.11972988,-0.7948619,0.0,0.0,-0.68391186
3796284000,-0.007094264,-0.12010449,-0.76079535,0.0,0.0,-0.68391186
3796308000,-0.00028301775,-0.10894024,-0.77825975,0.0,0.0,-0.6820713
3796328000,-0.012866065,-0.12761092,-0.7758615,0.0,0.0,-0.6829085
3796344000,-0.021482214,-0.14540827,-0.78181493,0.0,0.0,-0.6835514
3796368000,-0.0020282418,-0.119784415,-0.7600136,0.0,0.0,-0.6800893
3796388000,-0.008292854,-0.13475364,-0.75746477,0.0,0.0,-0.68176603
3796408000,-0.008736715,-0.15407896,-0.75516915,0.0,0.0,-0.6834192
3796428000,0.011172295,-0.123268425,-0.741977,0.0,0.0,-0.68122065
3796448000,0.0085134655,-0.13633186,-0.7396141,0.0,0.0,-0.6827122
3796464000,0.007076919,-0.15255332,-0.7453276,0.0,0.0,-0.68432283
3796484000,0.025241375,-0.115902364,-0.7327008,0.0,0.0,-0.6817388
3796504000,0.021543726,-0.13263363,-0.73054075,0.0,0.0,-0.6834345
3796524000,0.017109096,-0.15052629,-0.72850907,0.0,0.0,-0.68531233
3796544000,0.031080633,-0.111020386,-0.70829594,0.0,0.0,-0.68190646
3796564000,0.027975887,-0.12149602,-0.713665,0.0,0.0,-0.68337375
3796588000,0.039077908,-0.10095817,-0.7318089,0.0,0.0,-0.68115664
3796604000,0.03550002,-0.12012559,-0.7378707,0.0,0.0,-0.68285584
3796628000,0.03536296,-0.14162117,-0.7274673,0.0,0.0,-0.6843797
3796640000,0.035865515,-0.14071566,-0.69540024,0.0,0.0,-0.6843797
3796668000,0.04171139,-0.12223542,-0.71446645,0.0,0.0,-0.6826383
3796688000,0.03794709,-0.13792402,-0.71228135,0.0,0.0,-0.68458265
3796708000,0.04771024,-0.10400838,-0.7022846,0.0,0.0,-0.6818816
3796724000,0.04624182,-0.121317565,-0.70809567,0.0,0.0,-0.6829511
3796748000,0.04748404,-0.1332255,-0.66834426,0.0,0.0,-0.6842025
3796768000,0.056647986,-0.09287149,-0.62931454,0.0,0.0,-0.681334
3796784000,0.054202706,-0.11158222,-0.59052944,0.0,0.0,-0.6829995
3796804000,0.053183913,-0.12944591,-0.5599755,0.0,0.0,-0.6850284
3796824000,0.059019506,-0.08948958,-0.52213633,0.0,0.0,-0.6820769
3796844000,0.0514715,-0.1061908,-0.48571086,0.0,0.0,-0.68293196
3796868000,0.045689017,-0.08777207,-0.44375682,0.0,0.0,-0.68235457
3796884000,0.043140292,-0.08611643,-0.41030824,0.0,0.0,-0.68235457
3796908000,0.03548026,-0.124225795,-0.37845397,0.0,0.0,-0.68644583
3796928000,0.03294173,-0.08048612,-0.34804595,0.0,0.0,-0.6832557
3796948000,0.027077705,-0.10017604,-0.3197615,0.0,0.0,-0.6848037
3796960000,0.025959939,-0.118902504,-0.2984333,0.0,0.0,-0.68652624
3796984000,0.023424536,-0.076805234,-0.27294517,0.0,0.0,-0.68335825
3797004000,0.02195692,-0.0958069,-0.24931669,0.0,0.0,-0.68502694
3797028000,0.023007095,-0.11375785,-0.22308719,0.0,0.0,-0.68606746
3797044000,0.02516511,-0.070344865,-0.20278859,0.0,0.0,-0.6829625
3797064000,0.02555412,-0.09422618,-0.18754864,0.0,0.0,-0.68449503
3797084000,0.02738455,-0.118635714,-0.16949844,0.0,0.0,-0.68608874
3797104000,0.029387355,-0.084444344,-0.15249789,0.0,0.0,-0.68281496
3797124000,0.03591317,-0.106471,-0.13683486,0.0,0.0,-0.68394
3797148000,0.03943196,-0.07971758,-0.11912334,0.0,0.0,-0.6819242
3797168000,0.04394272,-0.09539008,-0.105445504,0.0,0.0,-0.6832419
3797188000,0.050318778,-0.11055118,-0.092602015,0.0,0.0,-0.6851238
3797208000,0.049863696,-0.07015979,-0.08000636,0.0,0.0,-0.6815624
3797228000,0.05539754,-0.087646544,-0.06864488,0.0,0.0,-0.6835347
3797244000,0.058425307,-0.10065311,-0.06005323,0.0,0.0,-0.68562895
3797264000,0.05853018,-0.054871917,-0.04794109,0.0,0.0,-0.6837156
3797288000,0.058552712,-0.07418507,-0.03886807,0.0,0.0,-0.6855718
3797304000,0.06536749,-0.09541744,-0.030198455,0.0,0.0,-0.687026
3797328000,0.06859231,-0.048380256,-0.021538496,0.0,0.0,-0.68465877
3797348000,0.06989229,-0.06824845,-0.013793349,0.0,0.0,-0.68644476
3797364000,0.07282081,-0.088053346,-0.0067237616,0.0,0.0,-0.6877745
3797384000,0.07152602,-0.048188567,-0.0013568401,0.0,0.0,-0.68483466
3797408000,0.06962621,-0.073048174,0.005885124,0.0,0.0,-0.6861064
3797424000,0.07289055,-0.09680718,0.010382652,0.0,0.0,-0.6875538
3797448000,0.07413724,-0.081098914,0.017105699,0.0,0.0,-0.6869
3797468000,0.07088229,-0.10125911,0.02212894,0.0,0.0,-0.688299
3797488000,0.06666237,-0.06364703,0.0268929,0.0,0.0,-0.68489563
3797504000,0.06712666,-0.08594155,0.03020382,0.0,0.0,-0.6860391
3797524000,0.06634542,-0.10703963,0.034112334,0.0,0.0,-0.6876033
3797544000,0.06777817,-0.06597376,0.037994742,0.0,0.0,-0.6840334
3797560000,0.06760615,-0.087839484,0.041110396,0.0,0.0,-0.6855672
3797588000,0.07131046,-0.1093846,0.04503286,0.0,0.0,-0.68651414
3797604000,0.068617076,-0.072636366,0.047314882,0.0,0.0,-0.6837449
3797624000,0.07075542,-0.088134885,0.049805403,0.0,0.0,-0.6846455
3797648000,0.066949904,-0.10198349,0.05287242,0.0,0.0,-0.68665326
3797660000,0.061216414,-0.056044042,0.054889083,0.0,0.0,-0.68465316
3797688000,0.0555169,-0.073458016,0.05730021,0.0,0.0,-0.68660253
3797708000,0.045903683,-0.049747825,0.059467793,0.0,0.0,-0.6862076
3797724000,0.04797256,-0.066054404,0.061144352,0.0,0.0,-0.68779993
3797744000,0.048187852,-0.06289816,0.062450767,0.0,0.0,-0.68779993
3797764000,0.047276974,-0.03424716,0.06399536,0.0,0.0,-0.68599296
3797780000,0.049335033,-0.05066532,0.065098286,0.0,0.0,-0.6875484
3797804000,0.048906058,-0.06664288,0.06598449,0.0,0.0,-0.68911684
3797820000,0.04837963,-0.022301674,0.06722796,0.0,0.0,-0.68566686
3797844000,0.04642126,-0.0378204,0.0680387,0.0,0.0,-0.6876953
3797864000,0.04597959,-0.056440473,0.06874752,0.0,0.0,-0.6891598
3797888000,0.040227592,-0.015347958,0.06998062,0.0,0.0,-0.68603444
3797908000,0.03893432,-0.032946467,0.07061434,0.0,0.0,-0.6879754
3797928000,0.04014927,-0.049708486,0.07086611,0.0,0.0,-0.6898901
3797948000,0.035951346,-0.031223059,0.0713954,0.0,0.0,-0.68770987
3797964000,0.037048817,-0.0313856,0.071748376,0.0,0.0,-0.68770987
3797984000,0.03833449,-0.05296272,0.07194579,0.0,0.0,-0.6892703
3798008000,0.038983673,-0.03766662,0.07242179,0.0,0.0,-0.6882196
3798024000,0.038619965,-0.057412148,0.072355986,0.0,0.0,-0.6896201
3798048000,0.039285958,-0.015247107,0.07270682,0.0,0.0,-0.687274
3798064000,0.03937152,-0.032542706,0.07272577,0.0,0.0,-0.6896779
3798084000,0.039724857,-0.051005423,0.07265389,0.0,0.0,-0.6917046
3798108000,0.035907626,-0.011502564,0.07285881,0.0,0.0,-0.6886455
3798128000,0.03840065,-0.029560268,0.07285488,0.0,0.0,-0.69025844
3798144000,0.044089526,-0.04489982,0.07293928,0.0,0.0,-0.6922741
3798168000,0.045741588,-0.004423499,0.07299793,0.0,0.0,-0.68907386
3798184000,0.04647839,-0.028085053,0.07270074,0.0,0.0,-0.6906199
3798204000,0.048069656,-0.052319527,0.07240713,0.0,0.0,-0.69185245
3798224000,0.04463616,-0.016583562,0.0724318,0.0,0.0,-0.6881079
3798244000,0.04293698,-0.036207676,0.07232845,0.0,0.0,-0.689055
3798264000,0.04178667,-0.055586815,0.07205951,0.0,0.0,-0.6903734
3798284000,0.03466147,-0.031468928,0.0720216,0.0,0.0,-0.6887369
3798304000,0.0331901,-0.030793905,0.071854234,0.0,0.0,-0.6887369
3798324000,0.025259346,-0.016112566,0.07179415,0.0,0.0,-0.68777245
3798344000,0.026390165,-0.032177746,0.071250916,0.0,0.0,-0.68968683
3798368000,0.024876505,-0.052443802,0.070688725,0.0,0.0,-0.6916236
3798384000,0.02407828,-0.01170069,0.07053101,0.0,0.0,-0.6890264
3798404000,0.025877327,-0.033071995,0.069993496,0.0,0.0,-0.69044995
3798428000,0.02979067,-0.051154733,0.069097996,0.0,0.0,-0.6918613
3798448000,0.025767088,-0.011056602,0.0687114,0.0,0.0,-0.68779314
3798464000,0.024314672,-0.030354202,0.06822002,0.0,0.0,-0.68907446
3798484000,0.024346858,-0.048894346,0.06762993,0.0,0.0,-0.6903007
3798504000,0.026493073,-0.015248001,0.06724441,0.0,0.0,-0.68739474
3798524000,0.0271402,-0.032499433,0.06657994,0.0,0.0,-0.6886243
3798544000,0.02701968,-0.05063957,0.06592119,0.0,0.0,-0.6904936
3798564000,0.023772955,-0.006057143,0.06587613,0.0,0.0,-0.6882933
3798584000,0.024026155,-0.039399505,0.065149784,0.0,0.0,-0.6928789
3798604000,0.022723675,0.0050044656,0.064842224,0.0,0.0,-0.69040775
3798628000,0.023923516,-0.010759771,0.0641402,0.0,0.0,-0.69186115
3798644000,0.020281255,-0.027909994,0.06362271,0.0,0.0,-0.69344854
3798664000,0.018428743,0.020050585,0.06341815,0.0,0.0,-0.69006634
3798684000,0.022790998,-0.0038650632,0.06289923,0.0,0.0,-0.6915199
3798708000,0.024819553,-0.024598181,0.06216073,0.0,0.0,-0.69328547
3798728000,0.024339348,0.011353433,0.061812043,0.0,0.0,-0.68989396
3798744000,0.026525438,-0.013486505,0.0614022,0.0,0.0,-0.69161683
3798768000,0.029291242,-0.0339759,0.060529947,0.0,0.0,-0.6931846
3798788000,0.028241336,0.00572294,0.06032288,0.0,0.0,-0.69047225
3798808000,0.028272897,-0.043515086,0.05948639,0.0,0.0,-0.69334894
3798828000,0.031512648,-0.0045257807,0.059378743,0.0,0.0,-0.6901975
3798848000,0.030631274,-0.02661717,0.058741808,0.0,0.0,-0.69157255
3798864000,0.030005693,-0.02643907,0.058343768,0.0,0.0,-0.69157255
3798884000,0.023835003,-0.008647978,0.05807233,0.0,0.0,-0.69006413
3798904000,0.020925969,-0.028534234,0.057581306,0.0,0.0,-0.69156164
3798928000,0.017152727,-0.04327458,0.05688107,0.0,0.0,-0.69279003
3798948000,0.014507711,-0.005800009,0.05669725,0.0,0.0,-0.6894323
3798968000,0.015069902,-0.02776426,0.056139708,0.0,0.0,-0.69106907
3798984000,0.016726613,-0.04586166,0.055448055,0.0,0.0,-0.6926149
3799008000,0.016512126,-0.004385948,0.055119038,0.0,0.0,-0.689909
3799028000,0.014851749,-0.024498403,0.054361224,0.0,0.0,-0.691116
3799044000,0.017898828,-0.041498423,0.0539757,0.0,0.0,-0.6927366
3799068000,0.011828363,-0.0044497848,0.053623796,0.0,0.0,-0.69011366
3799084000,0.010217965,-0.022973478,0.053201795,0.0,0.0,-0.69095355
3799104000,0.0072358847,-0.04281789,0.052378535,0.0,0.0,-0.6921202
3799124000,0.00968349,0.0019327998,0.052419662,0.0,0.0,-0.689255
3799140000,0.016326785,-0.021082342,0.051697254,0.0,0.0,-0.6912693
3799164000,0.019181103,-0.0005952716,0.051214457,0.0,0.0,-0.6901523
3799188000,0.017715722,-0.021496832,0.05044055,0.0,0.0,-0.69177127
3799204000,0.023668796,-0.04403329,0.049910188,0.0,0.0,-0.6929606
3799228000,0.019374937,-0.002481401,0.049665928,0.0,0.0,-0.6903075
3799244000,0.017502308,-0.01592946,0.04903221,0.0,0.0,-0.6917913
3799268000,0.01825717,-0.03286457,0.047943234,0.0,0.0,-0.6934793
3799284000,0.017145038,0.0145840645,0.047890663,0.0,0.0,-0.68996954
3799304000,0.016779006,-0.006257236,0.047492266,0.0,0.0,-0.6914525
3799328000,0.0154826045,-0.03193903,0.04680848,0.0,0.0,-0.69309354
3799344000,0.010019124,0.012311339,0.046868205,0.0,0.0,-0.6901994
3799364000,0.006395817,-0.008582175,0.04630208,0.0,0.0,-0.6919305
3799388000,0.00027751923,0.009241819,0.045942664,0.0,0.0,-0.6901982
3799400000,0.0004506111,0.008857727,0.04526317,0.0,0.0,-0.6901982
3799420000,0.0048763454,-0.0122843385,0.044719934,0.0,0.0,-0.6915386
3799448000,0.0038113296,0.011470199,0.044457078,0.0,0.0,-0.68994725
3799464000,0.0054031312,-0.010619938,0.04373467,0.0,0.0,-0.6916227
3799488000,0.002981633,-0.02858609,0.043170333,0.0,0.0,-0.69344896
3799508000,2.3782253e-05,0.013635635,0.04275942,0.0,0.0,-0.6908366
3799528000,-0.0021318197,-0.0060905814,0.04226482,0.0,0.0,-0.69232404
3799544000,-0.0008496344,-0.029879093,0.041647196,0.0,0.0,-0.6938914
3799564000,0.0050475597,0.009796858,0.04147017,0.0,0.0,-0.6905592
3799588000,0.0062957704,-0.016490757,0.04029572,0.0,0.0,-0.6923548
3799604000,0.0086583495,-0.040027857,0.039711714,0.0,0.0,-0.69286484
3799624000,0.007925481,-0.0018176436,0.039417386,0.0,0.0,-0.6895321
3799644000,0.007625431,-0.023194313,0.03875506,0.0,0.0,-0.69077563
3799668000,0.0118686855,-0.0011057854,0.038565516,0.0,0.0,-0.69025284
3799688000,0.015430301,-0.021027803,0.03805375,0.0,0.0,-0.69161385
3799704000,0.015566647,-0.01931709,0.037847042,0.0,0.0,-0.69161385
3799724000,0.012750238,0.0033783317,0.03780985,0.0,0.0,-0.68942225
3799748000,0.012847334,-0.014063537,0.037331343,0.0,0.0,-0.6907923
3799764000,0.010412335,-0.034296513,0.03700161,0.0,0.0,-0.69282526
3799784000,0.009491086,0.011266351,0.03699732,0.0,0.0,-0.69039345
3799808000,0.00662148,-0.009640753,0.036757708,0.0,0.0,-0.6925648
3799824000,0.00648576,-0.033802092,0.036378264,0.0,0.0,-0.6942464
3799848000,0.0021111667,0.014294028,0.03644693,0.0,0.0,-0.6905814
3799868000,-0.0022348166,-0.0057395697,0.03578782,0.0,0.0,-0.6919177
3799880000,-0.0017520189,-0.02142495,0.035021424,0.0,0.0,-0.69307023
3799904000,-0.00029280782,0.016222,0.034510374,0.0,0.0,-0.6901031
3799928000,-0.0041175485,-0.0054302216,0.033799052,0.0,0.0,-0.6916821
3799940000,-0.00087574124,-0.027407706,0.03335309,0.0,0.0,-0.6930377
