timestamp,q[0],q[1],q[2],q[3],delta_q_reset[0],delta_q_reset[1],delta_q_reset[2],delta_q_reset[3],quat_reset_counter
3782264000,-0.97671264,-0.00018653525,-0.00028802402,-0.21457253,0.0,0.0,0.0,0.0,0
3782276000,-0.9767127,-0.00018643934,-0.00028807382,-0.21457238,0.0,0.0,0.0,0.0,0
3782284000,-0.97671264,-0.00018639123,-0.00028802414,-0.21457246,0.0,0.0,0.0,0.0,0
3782300000,-0.97671264,-0.00018648474,-0.0002880228,-0.21457255,0.0,0.0,0.0,0.0,0
3782312000,-0.97671264,-0.00018630305,-0.00028803392,-0.21457246,0.0,0.0,0.0,0.0,0
3782320000,-0.97671264,-0.0001863453,-0.00028803627,-0.2145725,0.0,0.0,0.0,0.0,0
3782332000,-0.97671264,-0.00018641904,-0.00028805318,-0.21457256,0.0,0.0,0.0,0.0,0
3782348000,-0.97671264,-0.00018620436,-0.0002880289,-0.21457246,0.0,0.0,0.0,0.0,0
3782360000,-0.97671264,-0.00018629317,-0.0002880184,-0.21457253,0.0,0.0,0.0,0.0,0
3782372000,-0.9767127,-0.00018619769,-0.00028807347,-0.21457238,0.0,0.0,0.0,0.0,0
3782380000,-0.97671264,-0.00018615165,-0.00028800667,-0.21457246,0.0,0.0,0.0,0.0,0
3782396000,-0.97671264,-0.00018628826,-0.00028801127,-0.21457255,0.0,0.0,0.0,0.0,0
3782408000,-0.9767127,-0.00018610182,-0.00028801986,-0.21457244,0.0,0.0,0.0,0.0,0
3782416000,-0.97671264,-0.00018614302,-0.0002880153,-0.2145725,0.0,0.0,0.0,0.0,0
3782432000,-0.9767127,-0.00018601149,-0.00028802938,-0.21457243,0.0,0.0,0.0,0.0,0
3782444000,-0.97671264,-0.00018605437,-0.00028799672,-0.2145725,0.0,0.0,0.0,0.0,0
3782452000,-0.97671264,-0.00018612848,-0.00028801893,-0.21457253,0.0,0.0,0.0,0.0,0
3782468000,-0.97671264,-0.00018593442,-0.0002880259,-0.21457246,0.0,0.0,0.0,0.0,0
3782480000,-0.97671264,-0.00018603986,-0.00028803817,-0.21457252,0.0,0.0,0.0,0.0,0
3782492000,-0.9767127,-0.00018585235,-0.000288033,-0.21457244,0.0,0.0,0.0,0.0,0
3782504000,-0.97671264,-0.00018590024,-0.00028803528,-0.21457252,0.0,0.0,0.0,0.0,0
3782512000,-0.9767127,-0.00018580671,-0.00028807853,-0.21457237,0.0,0.0,0.0,0.0,0
3782528000,-0.97671264,-0.00018577896,-0.00028804835,-0.2145725,0.0,0.0,0.0,0.0,0
3782540000,-0.9767127,-0.00018573664,-0.00028816285,-0.21457231,0.0,0.0,0.0,0.0,0
3782548000,-0.9767127,-0.00018566634,-0.00028808945,-0.21457241,0.0,0.0,0.0,0.0,0
3782564000,-0.97671264,-0.00018571934,-0.0002880894,-0.21457252,0.0,0.0,0.0,0.0,0
3782576000,-0.9767127,-0.00018558877,-0.0002881003,-0.21457241,0.0,0.0,0.0,0.0,0
3782588000,-0.97671264,-0.00018559137,-0.00028809754,-0.2145725,0.0,0.0,0.0,0.0,0
3782600000,-0.9767127,-0.00018556995,-0.00028820438,-0.2145723,0.0,0.0,0.0,0.0,0
3782612000,-0.9767127,-0.00018547094,-0.00028807993,-0.21457244,0.0,0.0,0.0,0.0,0
3782624000,-0.97671264,-0.00018556276,-0.0002880929,-0.2145725,0.0,0.0,0.0,0.0,0
3782632000,-0.97671264,-0.00018560856,-0.00028811436,-0.21457253,0.0,0.0,0.0,0.0,0
3782648000,-0.9767127,-0.00018541169,-0.00028809463,-0.21457244,0.0,0.0,0.0,0.0,0
3782660000,-0.97671264,-0.00018550186,-0.000288085,-0.2145725,0.0,0.0,0.0,0.0,0
3782672000,-0.9767127,-0.00018538945,-0.00028813037,-0.21457236,0.0,0.0,0.0,0.0,0
3782684000,-0.97671264,-0.0001853939,-0.00028805825,-0.21457246,0.0,0.0,0.0,0.0,0
3782696000,-0.97671264,-0.00018547247,-0.00028805799,-0.21457252,0.0,0.0,0.0,0.0,0
3782708000,-0.9767127,-0.00018537194,-0.00028812943,-0.21457236,0.0,0.0,0.0,0.0,0
3782720000,-0.97671264,-0.000185329,-0.00028806523,-0.21457246,0.0,0.0,0.0,0.0,0
3782732000,-0.9767127,-0.00018526152,-0.00028810313,-0.21457234,0.0,0.0,0.0,0.0,0
3782744000,-0.9767127,-0.00018519963,-0.00028805085,-0.21457246,0.0,0.0,0.0,0.0,0
3782756000,-0.97671264,-0.00018531455,-0.00028805571,-0.2145725,0.0,0.0,0.0,0.0,0
3782768000,-0.9767127,-0.00018517024,-0.00028805636,-0.21457238,0.0,0.0,0.0,0.0,0
3782780000,-0.97671264,-0.00018517076,-0.00028804378,-0.21457247,0.0,0.0,0.0,0.0,0
3782792000,-0.97671264,-0.00018527293,-0.00028807757,-0.21457252,0.0,0.0,0.0,0.0,0
3782804000,-0.9767127,-0.00018510626,-0.00028808357,-0.21457243,0.0,0.0,0.0,0.0,0
3782816000,-0.97671264,-0.00018515796,-0.00028809672,-0.21457249,0.0,0.0,0.0,0.0,0
3782828000,-0.9767127,-0.00018498808,-0.00028810167,-0.21457241,0.0,0.0,0.0,0.0,0
3782840000,-0.97671264,-0.00018501154,-0.00028810618,-0.21457249,0.0,0.0,0.0,0.0,0
3782852000,-0.9767127,-0.00018491484,-0.00028816066,-0.21457234,0.0,0.0,0.0,0.0,0
3782864000,-0.9767127,-0.00018487987,-0.0002881084,-0.21457244,0.0,0.0,0.0,0.0,0
3782872000,-0.97671264,-0.00018494192,-0.00028812818,-0.21457249,0.0,0.0,0.0,0.0,0
3782888000,-0.9767127,-0.00018484994,-0.00028816183,-0.21457238,0.0,0.0,0.0,0.0,0
3782900000,-0.97671264,-0.00018485289,-0.00028816273,-0.21457247,0.0,0.0,0.0,0.0,0
3782908000,-0.97671264,-0.00018490897,-0.00028817696,-0.2145725,0.0,0.0,0.0,0.0,0
3782924000,-0.9767127,-0.00018471535,-0.00028814154,-0.21457241,0.0,0.0,0.0,0.0,0
3782932000,-0.97671264,-0.00018476284,-0.00028814192,-0.21457246,0.0,0.0,0.0,0.0,0
3782944000,-0.9767127,-0.0001847161,-0.000288233,-0.2145723,0.0,0.0,0.0,0.0,0
3782960000,-0.9767127,-0.00018467597,-0.00028814538,-0.21457244,0.0,0.0,0.0,0.0,0
3782972000,-0.97671264,-0.00018474416,-0.00028815103,-0.2145725,0.0,0.0,0.0,0.0,0
3782980000,-0.9767127,-0.00018460165,-0.000288189,-0.21457233,0.0,0.0,0.0,0.0,0
3782992000,-0.9767127,-0.00018459932,-0.0002881206,-0.21457243,0.0,0.0,0.0,0.0,0
3783004000,-0.97671264,-0.00018467591,-0.0002881228,-0.21457249,0.0,0.0,0.0,0.0,0
3783020000,-0.9767127,-0.00018454909,-0.00028812187,-0.21457237,0.0,0.0,0.0,0.0,0
3783028000,-0.9767127,-0.00018453681,-0.00028809882,-0.21457243,0.0,0.0,0.0,0.0,0
3783044000,-0.9767127,-0.00018450132,-0.0002881649,-0.21457233,0.0,0.0,0.0,0.0,0
3783056000,-0.9767127,-0.0001844421,-0.00028812204,-0.21457243,0.0,0.0,0.0,0.0,0
3783068000,-0.97671264,-0.0001845538,-0.00028812976,-0.21457249,0.0,0.0,0.0,0.0,0
3783080000,-0.9767127,-0.00018440434,-0.00028812955,-0.21457237,0.0,0.0,0.0,0.0,0
3783092000,-0.9767127,-0.00018440477,-0.00028811305,-0.21457244,0.0,0.0,0.0,0.0,0
3783104000,-0.9767127,-0.00018433668,-0.00028816517,-0.21457233,0.0,0.0,0.0,0.0,0
3783116000,-0.9767127,-0.00018430054,-0.00028812574,-0.21457243,0.0,0.0,0.0,0.0,0
3783128000,-0.97671264,-0.00018439598,-0.00028815775,-0.21457247,0.0,0.0,0.0,0.0,0
3783140000,-0.9767127,-0.00018424142,-0.00028817158,-0.21457238,0.0,0.0,0.0,0.0,0
3783152000,-0.97671264,-0.00018426776,-0.0002881816,-0.21457246,0.0,0.0,0.0,0.0,0
3783164000,-0.9767127,-0.0001841557,-0.0002882285,-0.21457231,0.0,0.0,0.0,0.0,0
3783172000,-0.9767127,-0.0001841232,-0.0002881755,-0.2145724,0.0,0.0,0.0,0.0,0
3783184000,-0.97671264,-0.00018418481,-0.0002881921,-0.21457246,0.0,0.0,0.0,0.0,0
3783200000,-0.9767127,-0.00018404816,-0.0002882087,-0.21457238,0.0,0.0,0.0,0.0,0
3783208000,-0.9767127,-0.00018405382,-0.00028820918,-0.21457243,0.0,0.0,0.0,0.0,0
3783220000,-0.97671264,-0.0001841588,-0.00028824314,-0.21457247,0.0,0.0,0.0,0.0,0
3783232000,-0.9767127,-0.00018396607,-0.00028822973,-0.21457236,0.0,0.0,0.0,0.0,0
3783248000,-0.9767127,-0.00018403842,-0.00028821314,-0.21457246,0.0,0.0,0.0,0.0,0
3783260000,-0.9767127,-0.00018390093,-0.00028824812,-0.21457233,0.0,0.0,0.0,0.0,0
3783272000,-0.9767127,-0.00018391253,-0.00028821203,-0.21457241,0.0,0.0,0.0,0.0,0
3783284000,-0.97671264,-0.00018398053,-0.00028822105,-0.21457247,0.0,0.0,0.0,0.0,0
3783296000,-0.9767127,-0.00018380227,-0.00028822164,-0.21457234,0.0,0.0,0.0,0.0,0
3783304000,-0.9767127,-0.00018383395,-0.00028818403,-0.21457241,0.0,0.0,0.0,0.0,0
3783320000,-0.9767127,-0.00018376258,-0.00028812911,-0.21457237,0.0,0.0,0.0,0.0,0
3783332000,-0.9767127,-0.00018374441,-0.0002881133,-0.21457244,0.0,0.0,0.0,0.0,0
3783344000,-0.97671264,-0.0001838205,-0.00028813776,-0.21457247,0.0,0.0,0.0,0.0,0
3783356000,-0.9767127,-0.00018369785,-0.00028813886,-0.2145724,0.0,0.0,0.0,0.0,0
3783368000,-0.9767127,-0.00018368896,-0.0002881311,-0.21457246,0.0,0.0,0.0,0.0,0
3783380000,-0.97671264,-0.00018376608,-0.00028817914,-0.21457249,0.0,0.0,0.0,0.0,0
3783392000,-0.9767127,-0.0001835264,-0.00028791686,-0.21457237,0.0,0.0,0.0,0.0,0
3783404000,-0.9767127,-0.00018348423,-0.00028788263,-0.21457244,0.0,0.0,0.0,0.0,0
3783416000,-0.97671264,-0.00018350381,-0.00028787984,-0.21457247,0.0,0.0,0.0,0.0,0
3783428000,-0.97671264,-0.00018356131,-0.0002879327,-0.21457249,0.0,0.0,0.0,0.0,0
3783440000,-0.97671264,-0.00018361783,-0.00028796794,-0.2145725,0.0,0.0,0.0,0.0,0
3783452000,-0.97671264,-0.00018370074,-0.0002880162,-0.2145725,0.0,0.0,0.0,0.0,0
3783464000,-0.97671264,-0.00018379209,-0.00028807236,-0.21457252,0.0,0.0,0.0,0.0,0
3783472000,-0.97671264,-0.00018384562,-0.0002881039,-0.21457252,0.0,0.0,0.0,0.0,0
3783488000,-0.97671264,-0.00018060188,-0.00028318653,-0.21457247,0.0,0.0,0.0,0.0,0
3783500000,-0.97671264,-0.00018064136,-0.00028321316,-0.21457249,0.0,0.0,0.0,0.0,0
3783512000,-0.97671264,-0.00018067767,-0.00028325373,-0.2145725,0.0,0.0,0.0,0.0,0
3783524000,-0.97671264,-0.00018074225,-0.00028330795,-0.2145725,0.0,0.0,0.0,0.0,0
3783536000,-0.97671264,-0.00018083534,-0.00028336834,-0.2145725,0.0,0.0,0.0,0.0,0
3783548000,-0.97671264,-0.00018089762,-0.00028343798,-0.21457252,0.0,0.0,0.0,0.0,0
3783560000,-0.97671264,-0.00018095874,-0.00028349055,-0.21457252,0.0,0.0,0.0,0.0,0
3783568000,-0.97671264,-0.00018101782,-0.00028352573,-0.21457252,0.0,0.0,0.0,0.0,0
3783584000,-0.97671264,-0.0001811107,-0.00028359238,-0.21457252,0.0,0.0,0.0,0.0,0
3783592000,-0.97671264,-0.00018115023,-0.00028362504,-0.21457252,0.0,0.0,0.0,0.0,0
3783608000,-0.97671264,-0.00018125521,-0.0002836912,-0.21457252,0.0,0.0,0.0,0.0,0
3783620000,-0.97671264,-0.00018132082,-0.00028373933,-0.21457252,0.0,0.0,0.0,0.0,0
3783628000,-0.97671264,-0.00018135154,-0.0002837696,-0.21457252,0.0,0.0,0.0,0.0,0
3783644000,-0.97671264,-0.0001814524,-0.0002838417,-0.21457252,0.0,0.0,0.0,0.0,0
3783656000,-0.97671264,-0.00018152154,-0.00028388685,-0.2145725,0.0,0.0,0.0,0.0,0
3783668000,-0.97671264,-0.00018159141,-0.00028393578,-0.2145725,0.0,0.0,0.0,0.0,0
3783676000,-0.97671264,-0.00018161499,-0.0002839644,-0.2145725,0.0,0.0,0.0,0.0,0
3783692000,-0.97671264,-0.00018171563,-0.00028403956,-0.2145725,0.0,0.0,0.0,0.0,0
3783704000,-0.97671264,-0.00018177906,-0.00028408287,-0.2145725,0.0,0.0,0.0,0.0,0
3783716000,-0.97671264,-0.00018184264,-0.00028412865,-0.2145725,0.0,0.0,0.0,0.0,0
3783724000,-0.97671264,-0.00018187388,-0.00028415243,-0.2145725,0.0,0.0,0.0,0.0,0
3783740000,-0.97671264,-0.00018193926,-0.0002842068,-0.2145725,0.0,0.0,0.0,0.0,0
3783752000,-0.97671264,-0.00018200326,-0.0002842451,-0.2145725,0.0,0.0,0.0,0.0,0
3783764000,-0.97671264,-0.00018205949,-0.0002842953,-0.2145725,0.0,0.0,0.0,0.0,0
3783772000,-0.97671264,-0.00018207586,-0.00028432134,-0.2145725,0.0,0.0,0.0,0.0,0
3783784000,-0.97671264,-0.0001821372,-0.00028436145,-0.2145725,0.0,0.0,0.0,0.0,0
3783796000,-0.97671264,-0.00018220306,-0.00028439713,-0.2145725,0.0,0.0,0.0,0.0,0
3783812000,-0.97671264,-0.00018226558,-0.00028444183,-0.2145725,0.0,0.0,0.0,0.0,0
3783824000,-0.97671264,-0.00018232792,-0.00028447597,-0.2145725,0.0,0.0,0.0,0.0,0
3783836000,-0.97671264,-0.00018229974,-0.0002845005,-0.2145725,0.0,0.0,0.0,0.0,0
3783848000,-0.97671264,-0.00018236271,-0.00028454378,-0.2145725,0.0,0.0,0.0,0.0,0
3783860000,-0.97671264,-0.00018242783,-0.0002845716,-0.2145725,0.0,0.0,0.0,0.0,0
3783872000,-0.97671264,-0.00018249839,-0.00028460723,-0.2145725,0.0,0.0,0.0,0.0,0
3783880000,-0.97671264,-0.00018251078,-0.00028461815,-0.2145725,0.0,0.0,0.0,0.0,0
3783896000,-0.97671264,-0.0001825249,-0.00028464638,-0.2145725,0.0,0.0,0.0,0.0,0
3783908000,-0.97671264,-0.00018258316,-0.00028468037,-0.2145725,0.0,0.0,0.0,0.0,0
3783916000,-0.97671264,-0.00018260114,-0.00028468887,-0.2145725,0.0,0.0,0.0,0.0,0
3783932000,-0.97671264,-0.0001826217,-0.00028470226,-0.2145725,0.0,0.0,0.0,0.0,0
3783944000,-0.97671264,-0.00018266897,-0.00028472443,-0.2145725,0.0,0.0,0.0,0.0,0
3783956000,-0.97671264,-0.00018271347,-0.00028474562,-0.2145725,0.0,0.0,0.0,0.0,0
3783968000,-0.97671264,-0.00018266638,-0.00028474213,-0.2145725,0.0,0.0,0.0,0.0,0
3783980000,-0.97671264,-0.00018270797,-0.00028475584,-0.2145725,0.0,0.0,0.0,0.0,0
3783992000,-0.97671264,-0.0001827478,-0.00028476978,-0.21457249,0.0,0.0,0.0,0.0,0
3784000000,-0.97671264,-0.00018273835,-0.0002847712,-0.21457249,0.0,0.0,0.0,0.0,0
3784016000,-0.97671264,-0.00018273872,-0.000284781,-0.21457249,0.0,0.0,0.0,0.0,0
3784028000,-0.97671264,-0.00018278699,-0.00028480848,-0.2145725,0.0,0.0,0.0,0.0,0
3784040000,-0.9767128,-0.00018441334,-0.0002774822,-0.2145719,0.0,0.0,0.0,0.0,0
3784052000,-0.97671336,-0.00021477394,-0.00023784966,-0.2145695,0.0,0.0,0.0,0.0,0
3784064000,-0.9767146,-0.00031304554,-0.00013178666,-0.2145636,0.0,0.0,0.0,0.0,0
3784076000,-0.9767168,-0.0005187148,7.45554e-05,-0.21455318,0.0,0.0,0.0,0.0,0
3784088000,-0.9767197,-0.00087397796,0.00040404385,-0.2145386,0.0,0.0,0.0,0.0,0
3784096000,-0.9767222,-0.0012086539,0.0006976646,-0.21452504,0.0,0.0,0.0,0.0,0
3784112000,-0.97672796,-0.002150877,0.0014698147,-0.21448734,0.0,0.0,0.0,0.0,0
3784120000,-0.97673017,-0.0027549586,0.0019365231,-0.21446666,0.0,0.0,0.0,0.0,0
3784136000,-0.9767317,-0.004098582,0.0029396995,-0.21442659,0.0,0.0,0.0,0.0,0
3784144000,-0.97673106,-0.0047686505,0.0034422951,-0.21440823,0.0,0.0,0.0,0.0,0
3784156000,-0.97672856,-0.0057221027,0.0041677617,-0.21438357,0.0,0.0,0.0,0.0,0
3784168000,-0.9767248,-0.00657385,0.0048475442,-0.21436194,0.0,0.0,0.0,0.0,0
3784184000,-0.97671926,-0.007522176,0.005652892,-0.21433628,0.0,0.0,0.0,0.0,0
3784196000,-0.9767152,-0.008102505,0.006177121,-0.21431924,0.0,0.0,0.0,0.0,0
3784208000,-0.9767112,-0.008598268,0.006626638,-0.21430464,0.0,0.0,0.0,0.0,0
3784220000,-0.97670764,-0.009004374,0.006989188,-0.21429284,0.0,0.0,0.0,0.0,0
3784232000,-0.97670454,-0.009336869,0.007272235,-0.21428311,0.0,0.0,0.0,0.0,0
3784244000,-0.97670233,-0.009601862,0.007493054,-0.21427393,0.0,0.0,0.0,0.0,0
3784256000,-0.9767014,-0.009789377,0.0076506245,-0.21426421,0.0,0.0,0.0,0.0,0
3784268000,-0.97670203,-0.009886221,0.007748696,-0.21425328,0.0,0.0,0.0,0.0,0
3784276000,-0.9767032,-0.009907582,0.0077804313,-0.21424565,0.0,0.0,0.0,0.0,0
3784292000,-0.97670704,-0.009879854,0.007760656,-0.21423036,0.0,0.0,0.0,0.0,0
3784304000,-0.9767112,-0.009790444,0.0076771798,-0.21421844,0.0,0.0,0.0,0.0,0
3784316000,-0.97671646,-0.009647969,0.0075480966,-0.21420547,0.0,0.0,0.0,0.0,0
3784328000,-0.97672236,-0.009474005,0.007389307,-0.21419181,0.0,0.0,0.0,0.0,0
3784340000,-0.9767287,-0.009285416,0.0071971575,-0.21417792,0.0,0.0,0.0,0.0,0
3784348000,-0.9767331,-0.009151061,0.0070529603,-0.21416825,0.0,0.0,0.0,0.0,0
3784364000,-0.9767423,-0.008848308,0.00673896,-0.21414894,0.0,0.0,0.0,0.0,0
3784372000,-0.9767471,-0.008672655,0.006571503,-0.21413969,0.0,0.0,0.0,0.0,0
3784388000,-0.9767566,-0.008264019,0.0062383707,-0.21412247,0.0,0.0,0.0,0.0,0
3784400000,-0.97676355,-0.007931477,0.005996521,-0.21411029,0.0,0.0,0.0,0.0,0
3784408000,-0.9767681,-0.007707114,0.0058385273,-0.21410224,0.0,0.0,0.0,0.0,0
3784420000,-0.97677463,-0.0073683346,0.005606316,-0.21409032,0.0,0.0,0.0,0.0,0
3784432000,-0.9767812,-0.0070286286,0.005368248,-0.21407802,0.0,0.0,0.0,0.0,0
3784448000,-0.9767894,-0.0066031744,0.0050521046,-0.21406159,0.0,0.0,0.0,0.0,0
3784460000,-0.9767951,-0.0062950533,0.004813364,-0.21405059,0.0,0.0,0.0,0.0,0
3784472000,-0.9768004,-0.0059924563,0.004568582,-0.21404052,0.0,0.0,0.0,0.0,0
3784484000,-0.9768054,-0.005700993,0.0043229545,-0.21403073,0.0,0.0,0.0,0.0,0
3784496000,-0.97681,-0.0054267747,0.0040828926,-0.21402168,0.0,0.0,0.0,0.0,0
3784504000,-0.9768129,-0.005251704,0.003927286,-0.21401547,0.0,0.0,0.0,0.0,0
3784516000,-0.9768173,-0.004997858,0.0037061437,-0.2140055,0.0,0.0,0.0,0.0,0
3784532000,-0.9768229,-0.0046832873,0.0034358406,-0.21399143,0.0,0.0,0.0,0.0,0
3784544000,-0.97682697,-0.004467585,0.0032446387,-0.2139807,0.0,0.0,0.0,0.0,0
3784552000,-0.9768294,-0.0043284004,0.0031234247,-0.21397403,0.0,0.0,0.0,0.0,0
3784564000,-0.97683287,-0.004129288,0.002945811,-0.21396488,0.0,0.0,0.0,0.0,0
3784580000,-0.9768369,-0.0038920094,0.0027127152,-0.21395382,0.0,0.0,0.0,0.0,0
3784592000,-0.97683966,-0.003733911,0.0025432613,-0.21394607,0.0,0.0,0.0,0.0,0
3784604000,-0.97684234,-0.0035818396,0.0023821152,-0.21393836,0.0,0.0,0.0,0.0,0
3784616000,-0.97684515,-0.0034486155,0.002233085,-0.21392949,0.0,0.0,0.0,0.0,0
3784628000,-0.97684807,-0.0033308105,0.0020963552,-0.21391924,0.0,0.0,0.0,0.0,0
3784640000,-0.97685117,-0.0032302875,0.0019732532,-0.21390775,0.0,0.0,0.0,0.0,0
3784652000,-0.97685444,-0.0031393382,0.0018656382,-0.21389519,0.0,0.0,0.0,0.0,0
3784664000,-0.9768577,-0.0030553548,0.0017726715,-0.21388224,0.0,0.0,0.0,0.0,0
3784676000,-0.97686106,-0.0029688948,0.0016905641,-0.21386899,0.0,0.0,0.0,0.0,0
3784688000,-0.9768642,-0.0028822657,0.0016274011,-0.21385616,0.0,0.0,0.0,0.0,0
3784696000,-0.9768662,-0.0028261794,0.0015973583,-0.21384814,0.0,0.0,0.0,0.0,0
3784712000,-0.9768699,-0.002719392,0.0015485001,-0.21383299,0.0,0.0,0.0,0.0,0
3784724000,-0.9768725,-0.0026492204,0.0015119675,-0.21382204,0.0,0.0,0.0,0.0,0
3784736000,-0.976875,-0.002577775,0.0014697798,-0.21381177,0.0,0.0,0.0,0.0,0
3784748000,-0.9768775,-0.0025025008,0.001427153,-0.21380161,0.0,0.0,0.0,0.0,0
3784760000,-0.97687995,-0.002434291,0.001389634,-0.21379161,0.0,0.0,0.0,0.0,0
3784772000,-0.9768824,-0.0023775818,0.001356005,-0.21378112,0.0,0.0,0.0,0.0,0
3784784000,-0.97688514,-0.0023286913,0.0013323332,-0.21376932,0.0,0.0,0.0,0.0,0
3784796000,-0.976888,-0.0022888703,0.0013123327,-0.21375674,0.0,0.0,0.0,0.0,0
3784804000,-0.97688985,-0.0022694827,0.0013020432,-0.21374853,0.0,0.0,0.0,0.0,0
3784820000,-0.9768935,-0.0022468995,0.0012835715,-0.21373238,0.0,0.0,0.0,0.0,0
3784832000,-0.9768963,-0.0022350065,0.0012622958,-0.21371983,0.0,0.0,0.0,0.0,0
3784844000,-0.97689927,-0.0022237264,0.0012289385,-0.2137065,0.0,0.0,0.0,0.0,0
3784856000,-0.9769023,-0.0022138853,0.0011830854,-0.21369308,0.0,0.0,0.0,0.0,0
3784868000,-0.9769052,-0.002213247,0.001130984,-0.21367998,0.0,0.0,0.0,0.0,0
3784880000,-0.97690797,-0.0022261008,0.0010775891,-0.21366756,0.0,0.0,0.0,0.0,0
3784892000,-0.9769107,-0.0022367102,0.0010317793,-0.21365504,0.0,0.0,0.0,0.0,0
3784900000,-0.9769125,-0.0022385416,0.001003076,-0.21364693,0.0,0.0,0.0,0.0,0
3784916000,-0.9769157,-0.0022326163,0.00095487625,-0.21363255,0.0,0.0,0.0,0.0,0
3784924000,-0.9769171,-0.0022266791,0.0009343335,-0.21362638,0.0,0.0,0.0,0.0,0
3784940000,-0.97691983,-0.002206742,0.00089743314,-0.21361437,0.0,0.0,0.0,0.0,0
3784952000,-0.97692174,-0.0021860139,0.0008748027,-0.21360599,0.0,0.0,0.0,0.0,0
3784964000,-0.97692347,-0.002159336,0.0008562852,-0.21359842,0.0,0.0,0.0,0.0,0
3784976000,-0.97692496,-0.0021305957,0.0008342975,-0.21359192,0.0,0.0,0.0,0.0,0
3784988000,-0.9769262,-0.0021021154,0.00081742404,-0.21358645,0.0,0.0,0.0,0.0,0
3785000000,-0.9769273,-0.0020863668,0.00080429803,-0.21358182,0.0,0.0,0.0,0.0,0
3785008000,-0.9769279,-0.0020843653,0.00079492,-0.21357907,0.0,0.0,0.0,0.0,0
3785024000,-0.97692883,-0.0020921552,0.0007637908,-0.21357471,0.0,0.0,0.0,0.0,0
3785036000,-0.97692925,-0.0020968067,0.0007322477,-0.21357284,0.0,0.0,0.0,0.0,0
3785048000,-0.9769296,-0.0021071162,0.0006970873,-0.21357125,0.0,0.0,0.0,0.0,0
3785060000,-0.9769301,-0.0021259207,0.00066269556,-0.21356913,0.0,0.0,0.0,0.0,0
3785072000,-0.97693056,-0.00214882,0.00063163677,-0.21356688,0.0,0.0,0.0,0.0,0
3785084000,-0.9769309,-0.0021717162,0.0006054901,-0.21356507,0.0,0.0,0.0,0.0,0
3785096000,-0.9769312,-0.002190996,0.0005775154,-0.21356347,0.0,0.0,0.0,0.0,0
3785108000,-0.9769316,-0.0022020156,0.0005437751,-0.21356176,0.0,0.0,0.0,0.0,0
3785116000,-0.976932,-0.0022043423,0.0005255447,-0.21356007,0.0,0.0,0.0,0.0,0
3785132000,-0.9769332,-0.0022101013,0.0005035214,-0.2135545,0.0,0.0,0.0,0.0,0
3785140000,-0.976934,-0.0022135393,0.0005003904,-0.21355063,0.0,0.0,0.0,0.0,0
3785156000,-0.97693574,-0.0022093817,0.0005084471,-0.21354273,0.0,0.0,0.0,0.0,0
3785168000,-0.9769368,-0.002201864,0.0005264827,-0.21353789,0.0,0.0,0.0,0.0,0
3785180000,-0.976938,-0.002208166,0.00054157735,-0.21353242,0.0,0.0,0.0,0.0,0
3785192000,-0.97693944,-0.0022302999,0.0005455665,-0.2135255,0.0,0.0,0.0,0.0,0
3785204000,-0.97694105,-0.0022586714,0.00053609436,-0.21351796,0.0,0.0,0.0,0.0,0
3785216000,-0.97694254,-0.0022836972,0.0005190835,-0.21351086,0.0,0.0,0.0,0.0,0
3785228000,-0.97694385,-0.0022961525,0.00049268623,-0.21350479,0.0,0.0,0.0,0.0,0
3785240000,-0.976945,-0.002299073,0.0004638673,-0.21349972,0.0,0.0,0.0,0.0,0
3785252000,-0.976946,-0.002301383,0.0004353439,-0.21349502,0.0,0.0,0.0,0.0,0
3785264000,-0.976947,-0.0023025034,0.00041056363,-0.21349052,0.0,0.0,0.0,0.0,0
3785276000,-0.976948,-0.0022969968,0.00039223762,-0.21348603,0.0,0.0,0.0,0.0,0
3785288000,-0.97694916,-0.0022881685,0.00037515894,-0.2134808,0.0,0.0,0.0,0.0,0
3785300000,-0.9769505,-0.0022823776,0.0003540855,-0.21347457,0.0,0.0,0.0,0.0,0
3785308000,-0.9769516,-0.0022804253,0.00033910255,-0.21346992,0.0,0.0,0.0,0.0,0
3785320000,-0.976953,-0.0022749226,0.0003096861,-0.21346325,0.0,0.0,0.0,0.0,0
3785336000,-0.97695506,-0.0022695588,0.00026370297,-0.21345416,0.0,0.0,0.0,0.0,0
3785344000,-0.976956,-0.0022675486,0.00024611017,-0.21344978,0.0,0.0,0.0,0.0,0
3785360000,-0.97695774,-0.0022655826,0.00022733431,-0.2134421,0.0,0.0,0.0,0.0,0
3785368000,-0.9769584,-0.0022639176,0.00022456225,-0.21343905,0.0,0.0,0.0,0.0,0
3785384000,-0.97695935,-0.0022672806,0.00022052176,-0.21343452,0.0,0.0,0.0,0.0,0
3785396000,-0.97695976,-0.0022716,0.00021673704,-0.21343271,0.0,0.0,0.0,0.0,0
3785408000,-0.97695994,-0.0022713644,0.00020837843,-0.21343182,0.0,0.0,0.0,0.0,0
3785420000,-0.9769602,-0.00226841,0.00019795191,-0.21343091,0.0,0.0,0.0,0.0,0
3785432000,-0.97696054,-0.0022651702,0.00020024001,-0.2134293,0.0,0.0,0.0,0.0,0
3785440000,-0.9769609,-0.0022657497,0.00020389231,-0.21342751,0.0,0.0,0.0,0.0,0
3785456000,-0.9769618,-0.0022868067,0.00018692187,-0.2134233,0.0,0.0,0.0,0.0,0
3785468000,-0.97696227,-0.0023263337,0.00015496319,-0.21342072,0.0,0.0,0.0,0.0,0
3785476000,-0.9769625,-0.0023581018,0.00012599552,-0.21341923,0.0,0.0,0.0,0.0,0
3785492000,-0.97696334,-0.0024333757,5.1958446e-05,-0.21341453,0.0,0.0,0.0,0.0,0
3785504000,-0.97696495,-0.0024865426,2.5635968e-06,-0.21340653,0.0,0.0,0.0,0.0,0
3785516000,-0.9769673,-0.0025373104,-2.8101456e-05,-0.21339543,0.0,0.0,0.0,0.0,0
3785528000,-0.97696984,-0.0025929427,-3.9140723e-05,-0.21338311,0.0,0.0,0.0,0.0,0
3785540000,-0.97697246,-0.0026460008,-3.736913e-05,-0.21337023,0.0,0.0,0.0,0.0,0
3785548000,-0.9769743,-0.0026722683,-3.3253902e-05,-0.21336155,0.0,0.0,0.0,0.0,0
3785564000,-0.9769777,-0.0027104027,-2.388571e-05,-0.2133455,0.0,0.0,0.0,0.0,0
3785576000,-0.97698003,-0.002727179,-1.5470334e-05,-0.21333466,0.0,0.0,0.0,0.0,0
3785588000,-0.9769824,-0.002727658,-8.585561e-06,-0.21332385,0.0,0.0,0.0,0.0,0
3785600000,-0.9769847,-0.0027164896,-1.9534698e-06,-0.21331358,0.0,0.0,0.0,0.0,0
3785612000,-0.9769868,-0.0026993433,7.2956805e-06,-0.213304,0.0,0.0,0.0,0.0,0
3785624000,-0.97698873,-0.0026720522,1.6160682e-05,-0.2132956,0.0,0.0,0.0,0.0,0
3785636000,-0.9769906,-0.0026388972,1.5229253e-05,-0.21328756,0.0,0.0,0.0,0.0,0
3785644000,-0.97699183,-0.002613898,6.1820424e-06,-0.21328203,0.0,0.0,0.0,0.0,0
3785660000,-0.9769944,-0.002550787,-3.5847122e-05,-0.2132712,0.0,0.0,0.0,0.0,0
3785672000,-0.9769963,-0.0024852327,-7.4234216e-05,-0.21326311,0.0,0.0,0.0,0.0,0
3785680000,-0.9769977,-0.0024361946,-0.00010085978,-0.2132574,0.0,0.0,0.0,0.0,0
3785696000,-0.97700036,-0.0023322806,-0.00015107884,-0.21324617,0.0,0.0,0.0,0.0,0
3785708000,-0.9770021,-0.0022435368,-0.00018276615,-0.21323922,0.0,0.0,0.0,0.0,0
3785720000,-0.9770034,-0.0021472576,-0.0002139931,-0.21323404,0.0,0.0,0.0,0.0,0
3785728000,-0.9770041,-0.0020846194,-0.00023465,-0.21323149,0.0,0.0,0.0,0.0,0
3785744000,-0.9770035,-0.00198669,-0.00027079278,-0.21323502,0.0,0.0,0.0,0.0,0
3785756000,-0.976999,-0.0019458227,-0.00029104343,-0.21325634,0.0,0.0,0.0,0.0,0
3785768000,-0.97698975,-0.001927682,-0.00030584185,-0.21329857,0.0,0.0,0.0,0.0,0
3785780000,-0.97697556,-0.001924398,-0.0003272405,-0.21336351,0.0,0.0,0.0,0.0,0
3785792000,-0.9769563,-0.0019101219,-0.00035745223,-0.21345194,0.0,0.0,0.0,0.0,0
3785804000,-0.976932,-0.001879858,-0.00038942485,-0.21356346,0.0,0.0,0.0,0.0,0
3785816000,-0.976903,-0.0018362153,-0.00041903986,-0.21369627,0.0,0.0,0.0,0.0,0
3785824000,-0.97688156,-0.0018004652,-0.00043440342,-0.21379456,0.0,0.0,0.0,0.0,0
3785836000,-0.9768468,-0.0017449477,-0.00044595634,-0.21395364,0.0,0.0,0.0,0.0,0
3785848000,-0.9768094,-0.001703161,-0.00044443685,-0.2141249,0.0,0.0,0.0,0.0,0
3785864000,-0.9767561,-0.0016541205,-0.00041859332,-0.21436812,0.0,0.0,0.0,0.0,0
3785876000,-0.9767144,-0.001619698,-0.00038341578,-0.21455851,0.0,0.0,0.0,0.0,0
3785888000,-0.9766718,-0.0015919217,-0.00034895245,-0.21475233,0.0,0.0,0.0,0.0,0
3785900000,-0.97662914,-0.0015743172,-0.00031419407,-0.21494672,0.0,0.0,0.0,0.0,0
3785912000,-0.9765866,-0.001563783,-0.00027459834,-0.21513997,0.0,0.0,0.0,0.0,0
3785924000,-0.97654456,-0.00155278,-0.00022863591,-0.21533091,0.0,0.0,0.0,0.0,0
3785936000,-0.97650343,-0.0015391529,-0.00018043772,-0.21551734,0.0,0.0,0.0,0.0,0
3785948000,-0.9764635,-0.0015262226,-0.00014002762,-0.21569845,0.0,0.0,0.0,0.0,0
3785960000,-0.97642446,-0.0015117252,-0.00010625238,-0.21587525,0.0,0.0,0.0,0.0,0
3785972000,-0.9763863,-0.0014962121,-8.387723e-05,-0.21604787,0.0,0.0,0.0,0.0,0
3785984000,-0.9763493,-0.0014774126,-7.1317016e-05,-0.21621518,0.0,0.0,0.0,0.0,0
3785996000,-0.9763135,-0.001462687,-6.89658e-05,-0.21637696,0.0,0.0,0.0,0.0,0
3786008000,-0.9762787,-0.0014580179,-7.44494e-05,-0.21653362,0.0,0.0,0.0,0.0,0
3786020000,-0.9762453,-0.001462493,-9.075559e-05,-0.2166844,0.0,0.0,0.0,0.0,0
3786032000,-0.9762131,-0.0014739882,-0.00011042175,-0.21682924,0.0,0.0,0.0,0.0,0
3786040000,-0.9761922,-0.0014835771,-0.00012433314,-0.21692325,0.0,0.0,0.0,0.0,0
3786056000,-0.9761517,-0.0014983675,-0.00015340347,-0.21710518,0.0,0.0,0.0,0.0,0
3786068000,-0.97612274,-0.00151125,-0.00017060147,-0.21723525,0.0,0.0,0.0,0.0,0
3786080000,-0.9760951,-0.001525003,-0.00017983657,-0.21735957,0.0,0.0,0.0,0.0,0
3786092000,-0.9760686,-0.0015369619,-0.00018005582,-0.2174783,0.0,0.0,0.0,0.0,0
3786100000,-0.97605157,-0.001538366,-0.00017692125,-0.21755457,0.0,0.0,0.0,0.0,0
3786116000,-0.9760192,-0.0015151199,-0.0001697699,-0.21769992,0.0,0.0,0.0,0.0,0
3786128000,-0.97599673,-0.001473115,-0.00015989141,-0.21780095,0.0,0.0,0.0,0.0,0
3786140000,-0.9759761,-0.0014174342,-0.00014480531,-0.21789382,0.0,0.0,0.0,0.0,0
3786148000,-0.9759635,-0.0013747519,-0.00013590649,-0.21795063,0.0,0.0,0.0,0.0,0
3786160000,-0.9759459,-0.0013106393,-0.00012653587,-0.21802983,0.0,0.0,0.0,0.0,0
3786176000,-0.9759241,-0.0012218032,-0.00012980023,-0.218128,0.0,0.0,0.0,0.0,0
3786188000,-0.975909,-0.0011537742,-0.0001443646,-0.2181957,0.0,0.0,0.0,0.0,0
3786200000,-0.97589535,-0.0010861324,-0.0001517061,-0.21825717,0.0,0.0,0.0,0.0,0
3786212000,-0.97588295,-0.0010110532,-0.00014326874,-0.21831302,0.0,0.0,0.0,0.0,0
3786224000,-0.97587174,-0.0009332937,-0.00012902262,-0.21836329,0.0,0.0,0.0,0.0,0
3786232000,-0.97586507,-0.000882021,-0.00012059584,-0.21839331,0.0,0.0,0.0,0.0,0
3786248000,-0.9758537,-0.00079411146,-0.00011723126,-0.21844472,0.0,0.0,0.0,0.0,0
3786260000,-0.9758465,-0.00075267034,-0.000120988,-0.21847677,0.0,0.0,0.0,0.0,0
3786268000,-0.9758423,-0.00073695875,-0.00012521849,-0.21849568,0.0,0.0,0.0,0.0,0
3786284000,-0.975835,-0.0007307002,-0.00013526331,-0.21852808,0.0,0.0,0.0,0.0,0
3786296000,-0.97583055,-0.0007362488,-0.00014423141,-0.21854804,0.0,0.0,0.0,0.0,0
3786308000,-0.9758267,-0.00074284326,-0.00015015925,-0.21856534,0.0,0.0,0.0,0.0,0
3786320000,-0.9758232,-0.00073997467,-0.00015128178,-0.2185807,0.0,0.0,0.0,0.0,0
3786332000,-0.9758202,-0.0007290219,-0.00015097162,-0.21859442,0.0,0.0,0.0,0.0,0
3786344000,-0.9758177,-0.00071104587,-0.00015017118,-0.21860576,0.0,0.0,0.0,0.0,0
3786356000,-0.9758157,-0.0006899685,-0.00015171758,-0.21861453,0.0,0.0,0.0,0.0,0
3786368000,-0.9758142,-0.0006728564,-0.0001561265,-0.2186213,0.0,0.0,0.0,0.0,0
3786380000,-0.97581303,-0.0006684149,-0.0001595298,-0.21862644,0.0,0.0,0.0,0.0,0
3786392000,-0.975812,-0.000686312,-0.00016054025,-0.2186311,0.0,0.0,0.0,0.0,0
3786400000,-0.97581136,-0.00070647354,-0.00016065827,-0.21863393,0.0,0.0,0.0,0.0,0
3786412000,-0.9758104,-0.00074014656,-0.00016283616,-0.21863788,0.0,0.0,0.0,0.0,0
3786428000,-0.9758094,-0.0007743859,-0.00016593085,-0.21864243,0.0,0.0,0.0,0.0,0
3786440000,-0.9758086,-0.00078430906,-0.00015575135,-0.21864592,0.0,0.0,0.0,0.0,0
3786452000,-0.9758078,-0.00079067773,-0.00014296299,-0.21864955,0.0,0.0,0.0,0.0,0
3786464000,-0.9758072,-0.00080256985,-0.00012443229,-0.21865217,0.0,0.0,0.0,0.0,0
3786476000,-0.975807,-0.00081095775,-0.00010175946,-0.21865302,0.0,0.0,0.0,0.0,0
3786488000,-0.9758071,-0.0008126837,-7.842786e-05,-0.21865258,0.0,0.0,0.0,0.0,0
3786500000,-0.9758074,-0.00081437075,-5.297397e-05,-0.21865118,0.0,0.0,0.0,0.0,0
3786512000,-0.97580785,-0.0008101337,-2.5497358e-05,-0.21864916,0.0,0.0,0.0,0.0,0
3786524000,-0.9758085,-0.0007979094,7.732766e-06,-0.2186463,0.0,0.0,0.0,0.0,0
3786536000,-0.9758093,-0.00077975256,4.2860156e-05,-0.218643,0.0,0.0,0.0,0.0,0
3786548000,-0.9758101,-0.0007550672,7.493681e-05,-0.21863928,0.0,0.0,0.0,0.0,0
3786560000,-0.97581095,-0.0007321154,0.000101804006,-0.2186356,0.0,0.0,0.0,0.0,0
3786568000,-0.9758114,-0.0007177065,0.000118309494,-0.21863349,0.0,0.0,0.0,0.0,0
3786584000,-0.97581255,-0.0006899768,0.00014322401,-0.21862856,0.0,0.0,0.0,0.0,0
3786592000,-0.9758133,-0.00067586516,0.00014820305,-0.21862526,0.0,0.0,0.0,0.0,0
3786608000,-0.9758151,-0.00065504765,0.00014503405,-0.21861722,0.0,0.0,0.0,0.0,0
3786616000,-0.9758162,-0.00065015815,0.00013821688,-0.21861258,0.0,0.0,0.0,0.0,0
3786632000,-0.97581846,-0.0006413009,0.000121478915,-0.21860236,0.0,0.0,0.0,0.0,0
3786644000,-0.9758203,-0.0006315913,0.0001186188,-0.21859422,0.0,0.0,0.0,0.0,0
3786656000,-0.97582227,-0.00061524956,0.00013246869,-0.21858537,0.0,0.0,0.0,0.0,0
3786668000,-0.9758245,-0.00059398287,0.00016059417,-0.21857554,0.0,0.0,0.0,0.0,0
3786680000,-0.97582704,-0.0005715937,0.00019429729,-0.21856432,0.0,0.0,0.0,0.0,0
3786692000,-0.9758298,-0.0005543934,0.00022167941,-0.21855202,0.0,0.0,0.0,0.0,0
3786704000,-0.9758326,-0.00054451585,0.00023696026,-0.2185394,0.0,0.0,0.0,0.0,0
3786716000,-0.9758354,-0.0005363525,0.00024907582,-0.2185269,0.0,0.0,0.0,0.0,0
3786728000,-0.97583807,-0.00052626233,0.0002617892,-0.21851495,0.0,0.0,0.0,0.0,0
3786740000,-0.9758408,-0.00050892256,0.00027064804,-0.21850297,0.0,0.0,0.0,0.0,0
3786748000,-0.9758426,-0.0004886926,0.00027337307,-0.21849495,0.0,0.0,0.0,0.0,0
3786764000,-0.97584605,-0.00042740902,0.0002697711,-0.21847962,0.0,0.0,0.0,0.0,0
3786772000,-0.9758476,-0.0003893762,0.0002597583,-0.21847272,0.0,0.0,0.0,0.0,0
3786788000,-0.9758505,-0.00030946796,0.00021672841,-0.21845993,0.0,0.0,0.0,0.0,0
3786800000,-0.97585243,-0.0002466555,0.0001733342,-0.21845151,0.0,0.0,0.0,0.0,0
3786812000,-0.97585416,-0.00018808561,0.00013040562,-0.21844396,0.0,0.0,0.0,0.0,0
3786824000,-0.9758557,-0.0001392342,8.68283e-05,-0.21843696,0.0,0.0,0.0,0.0,0
3786836000,-0.9758574,-0.000101597514,3.8793172e-05,-0.21842955,0.0,0.0,0.0,0.0,0
3786848000,-0.9758591,-8.021551e-05,-1.3883589e-05,-0.21842183,0.0,0.0,0.0,0.0,0
3786860000,-0.9758609,-7.774174e-05,-6.396985e-05,-0.21841383,0.0,0.0,0.0,0.0,0
3786868000,-0.9758622,-8.559752e-05,-9.468746e-05,-0.21840811,0.0,0.0,0.0,0.0,0
3786880000,-0.97586405,-0.00010484127,-0.00014123078,-0.2183996,0.0,0.0,0.0,0.0,0
3786896000,-0.9758664,-0.00012681923,-0.00021723588,-0.2183893,0.0,0.0,0.0,0.0,0
3786908000,-0.97586787,-0.00014772433,-0.00028496952,-0.21838245,0.0,0.0,0.0,0.0,0
3786916000,-0.97586876,-0.00016881681,-0.00032800852,-0.2183784,0.0,0.0,0.0,0.0,0
3786932000,-0.9758703,-0.00022665416,-0.00039789116,-0.2183712,0.0,0.0,0.0,0.0,0
3786944000,-0.97587156,-0.000274827,-0.00043122823,-0.2183656,0.0,0.0,0.0,0.0,0
3786956000,-0.9758732,-0.00032656093,-0.00045663657,-0.2183582,0.0,0.0,0.0,0.0,0
3786964000,-0.97587454,-0.00035592637,-0.00046638292,-0.21835211,0.0,0.0,0.0,0.0,0
3786980000,-0.9758777,-0.00039079646,-0.0004784318,-0.21833791,0.0,0.0,0.0,0.0,0
3786992000,-0.9758804,-0.0003985854,-0.0004891111,-0.21832576,0.0,0.0,0.0,0.0,0
3787004000,-0.97588325,-0.00040677,-0.0005039005,-0.21831292,0.0,0.0,0.0,0.0,0
3787016000,-0.97588646,-0.0004185214,-0.00053053204,-0.21829866,0.0,0.0,0.0,0.0,0
3787028000,-0.97589004,-0.00042717127,-0.00056577416,-0.21828257,0.0,0.0,0.0,0.0,0
3787040000,-0.9758937,-0.00042484765,-0.00060733006,-0.21826616,0.0,0.0,0.0,0.0,0
3787052000,-0.97589713,-0.00041226816,-0.0006560032,-0.21825048,0.0,0.0,0.0,0.0,0
3787064000,-0.9759005,-0.00039025096,-0.00070754776,-0.21823536,0.0,0.0,0.0,0.0,0
3787076000,-0.97590387,-0.00036105842,-0.0007568122,-0.21822007,0.0,0.0,0.0,0.0,0
3787088000,-0.97590744,-0.0003250201,-0.0008065693,-0.21820392,0.0,0.0,0.0,0.0,0
3787100000,-0.97591126,-0.0002853941,-0.00085427717,-0.21818675,0.0,0.0,0.0,0.0,0
3787112000,-0.97591525,-0.00024615444,-0.0008970689,-0.218169,0.0,0.0,0.0,0.0,0
3787124000,-0.97591925,-0.00020218128,-0.00093470135,-0.21815097,0.0,0.0,0.0,0.0,0
3787136000,-0.9759231,-0.00015932534,-0.00096538506,-0.21813338,0.0,0.0,0.0,0.0,0
3787148000,-0.9759268,-0.00013251275,-0.0009866612,-0.21811685,0.0,0.0,0.0,0.0,0
3787160000,-0.9759304,-0.000116996845,-0.0009993926,-0.21810085,0.0,0.0,0.0,0.0,0
3787172000,-0.97593385,-0.00010631699,-0.0010076711,-0.21808524,0.0,0.0,0.0,0.0,0
3787180000,-0.9759362,-9.576911e-05,-0.0010127735,-0.2180748,0.0,0.0,0.0,0.0,0
3787196000,-0.9759412,-5.684825e-05,-0.0010203733,-0.21805239,0.0,0.0,0.0,0.0,0
3787208000,-0.9759452,-2.284369e-05,-0.0010228992,-0.21803455,0.0,0.0,0.0,0.0,0
3787220000,-0.9759493,1.1346328e-05,-0.0010174598,-0.21801627,0.0,0.0,0.0,0.0,0
3787232000,-0.9759535,5.044754e-05,-0.0009952256,-0.21799737,0.0,0.0,0.0,0.0,0
3787244000,-0.97595793,9.7721335e-05,-0.00095234474,-0.21797776,0.0,0.0,0.0,0.0,0
3787256000,-0.9759625,0.0001447224,-0.000897164,-0.21795735,0.0,0.0,0.0,0.0,0
3787264000,-0.97596574,0.00017252147,-0.00085588254,-0.21794328,0.0,0.0,0.0,0.0,0
3787280000,-0.9759722,0.0002194158,-0.0007688051,-0.21791473,0.0,0.0,0.0,0.0,0
3787292000,-0.97597694,0.0002457954,-0.00069948204,-0.21789353,0.0,0.0,0.0,0.0,0
3787304000,-0.97598165,0.00025070686,-0.0006212453,-0.2178725,0.0,0.0,0.0,0.0,0
3787312000,-0.9759849,0.00024464523,-0.0005716546,-0.21785827,0.0,0.0,0.0,0.0,0
3787324000,-0.97598976,0.00022981895,-0.0005072025,-0.21783647,0.0,0.0,0.0,0.0,0
3787340000,-0.97599685,0.00020726866,-0.0004241494,-0.2178049,0.0,0.0,0.0,0.0,0
3787352000,-0.97600263,0.00018425539,-0.0003572956,-0.21777919,0.0,0.0,0.0,0.0,0
3787364000,-0.9760084,0.0001599939,-0.0002885496,-0.21775356,0.0,0.0,0.0,0.0,0
3787376000,-0.97601414,0.00013467186,-0.00021925318,-0.21772784,0.0,0.0,0.0,0.0,0
3787388000,-0.9760201,0.00011024658,-0.00016415241,-0.21770126,0.0,0.0,0.0,0.0,0
3787396000,-0.9760242,9.785835e-05,-0.00013753324,-0.21768291,0.0,0.0,0.0,0.0,0
3787412000,-0.9760324,7.7451754e-05,-0.00010866152,-0.2176461,0.0,0.0,0.0,0.0,0
3787424000,-0.97603834,6.497304e-05,-0.0001004743,-0.21761954,0.0,0.0,0.0,0.0,0
3787436000,-0.97604394,4.989699e-05,-9.4391435e-05,-0.21759439,0.0,0.0,0.0,0.0,0
3787448000,-0.9760491,3.2045842e-05,-9.334565e-05,-0.21757104,0.0,0.0,0.0,0.0,0
3787460000,-0.9760541,1.6318265e-05,-9.807105e-05,-0.21754889,0.0,0.0,0.0,0.0,0
3787468000,-0.9760574,7.422968e-06,-0.00010109044,-0.21753404,0.0,0.0,0.0,0.0,0
3787484000,-0.9760643,-1.6024262e-05,-0.00010779156,-0.217503,0.0,0.0,0.0,0.0,0
3787496000,-0.9760697,-2.8395412e-05,-0.00011255845,-0.21747895,0.0,0.0,0.0,0.0,0
3787504000,-0.9760732,-3.2296703e-05,-0.0001169803,-0.21746294,0.0,0.0,0.0,0.0,0
3787520000,-0.97608024,-2.551176e-05,-0.00013555087,-0.21743149,0.0,0.0,0.0,0.0,0
3787532000,-0.9760855,-7.624963e-06,-0.00015364509,-0.21740784,0.0,0.0,0.0,0.0,0
3787544000,-0.9760908,1.2717831e-05,-0.0001785242,-0.2173842,0.0,0.0,0.0,0.0,0
3787552000,-0.97609425,2.6983944e-05,-0.00019905853,-0.21736853,0.0,0.0,0.0,0.0,0
3787568000,-0.9761011,5.6822722e-05,-0.00024485207,-0.21733774,0.0,0.0,0.0,0.0,0
3787580000,-0.97610605,7.149445e-05,-0.00028849105,-0.21731532,0.0,0.0,0.0,0.0,0
3787592000,-0.9761107,8.662989e-05,-0.00034137152,-0.21729445,0.0,0.0,0.0,0.0,0
3787604000,-0.9761151,0.000101241734,-0.00040393762,-0.21727462,0.0,0.0,0.0,0.0,0
3787616000,-0.9761195,0.00011080105,-0.00047476223,-0.21725458,0.0,0.0,0.0,0.0,0
3787628000,-0.976124,0.00011691461,-0.0005464062,-0.21723443,0.0,0.0,0.0,0.0,0
3787640000,-0.97612834,0.00012246628,-0.0006095202,-0.21721457,0.0,0.0,0.0,0.0,0
3787648000,-0.97613114,0.00012497514,-0.00065167993,-0.21720196,0.0,0.0,0.0,0.0,0
3787664000,-0.9761362,0.00012942414,-0.0007353811,-0.21717891,0.0,0.0,0.0,0.0,0
3787676000,-0.9761394,0.0001389753,-0.00080536003,-0.21716414,0.0,0.0,0.0,0.0,0
3787688000,-0.97614217,0.00015724941,-0.0008826529,-0.21715146,0.0,0.0,0.0,0.0,0
3787700000,-0.9761446,0.00018353829,-0.0009572224,-0.21714018,0.0,0.0,0.0,0.0,0
3787712000,-0.976147,0.00021028619,-0.0010262578,-0.21712908,0.0,0.0,0.0,0.0,0
3787724000,-0.9761494,0.00024016383,-0.0010867295,-0.21711795,0.0,0.0,0.0,0.0,0
3787736000,-0.97615176,0.00027473495,-0.0011367941,-0.21710707,0.0,0.0,0.0,0.0,0
3787748000,-0.97615415,0.00031572304,-0.0011691612,-0.21709606,0.0,0.0,0.0,0.0,0
3787760000,-0.9761566,0.00035115468,-0.0011813685,-0.21708485,0.0,0.0,0.0,0.0,0
3787772000,-0.97615904,0.00038609907,-0.0011757357,-0.21707392,0.0,0.0,0.0,0.0,0
3787780000,-0.97616065,0.00041547595,-0.0011637219,-0.2170668,0.0,0.0,0.0,0.0,0
3787796000,-0.97616416,0.0005018488,-0.0011149347,-0.217051,0.0,0.0,0.0,0.0,0
3787808000,-0.97616696,0.0005780531,-0.001058624,-0.21703848,0.0,0.0,0.0,0.0,0
3787820000,-0.97616976,0.0006521302,-0.0009874192,-0.21702607,0.0,0.0,0.0,0.0,0
3787832000,-0.9761725,0.0007100365,-0.00090965594,-0.21701382,0.0,0.0,0.0,0.0,0
3787840000,-0.9761745,0.00073424465,-0.00086139893,-0.21700518,0.0,0.0,0.0,0.0,0
3787856000,-0.9761788,0.00074093614,-0.0007780959,-0.21698582,0.0,0.0,0.0,0.0,0
3787868000,-0.97618234,0.00071706413,-0.0007329245,-0.21697015,0.0,0.0,0.0,0.0,0
3787880000,-0.9761861,0.00068236515,-0.0007061041,-0.21695368,0.0,0.0,0.0,0.0,0
3787892000,-0.97619003,0.0006413473,-0.00069923874,-0.21693605,0.0,0.0,0.0,0.0,0
3787900000,-0.9761927,0.0006122449,-0.0007081629,-0.21692403,0.0,0.0,0.0,0.0,0
3787916000,-0.97619796,0.00055266544,-0.0007466771,-0.2169004,0.0,0.0,0.0,0.0,0
3787928000,-0.97620183,0.00050858053,-0.00078279036,-0.21688302,0.0,0.0,0.0,0.0,0
3787936000,-0.9762044,0.0004805821,-0.0008112872,-0.21687135,0.0,0.0,0.0,0.0,0
3787948000,-0.97620827,0.00044909565,-0.0008567831,-0.21685387,0.0,0.0,0.0,0.0,0
3787964000,-0.9762131,0.00042734575,-0.00091886113,-0.21683179,0.0,0.0,0.0,0.0,0
3787976000,-0.9762164,0.00041916932,-0.00096249935,-0.21681698,0.0,0.0,0.0,0.0,0
3787988000,-0.9762191,0.00041516224,-0.0009975617,-0.21680444,0.0,0.0,0.0,0.0,0
3787996000,-0.97622067,0.00041489553,-0.0010183668,-0.2167974,0.0,0.0,0.0,0.0,0
3788008000,-0.9762226,0.00041983183,-0.0010411087,-0.21678868,0.0,0.0,0.0,0.0,0
3788020000,-0.9762241,0.00042961809,-0.0010485698,-0.21678177,0.0,0.0,0.0,0.0,0
3788036000,-0.97622603,0.0004487734,-0.0010472358,-0.21677311,0.0,0.0,0.0,0.0,0
3788048000,-0.9762278,0.00046714453,-0.0010483576,-0.21676484,0.0,0.0,0.0,0.0,0
3788060000,-0.97623,0.0004919923,-0.0010540705,-0.21675503,0.0,0.0,0.0,0.0,0
3788068000,-0.97623146,0.000511993,-0.0010607933,-0.21674834,0.0,0.0,0.0,0.0,0
3788084000,-0.9762342,0.000559416,-0.0010733136,-0.21673596,0.0,0.0,0.0,0.0,0
3788092000,-0.9762355,0.0005877891,-0.0010721736,-0.21672986,0.0,0.0,0.0,0.0,0
3788108000,-0.9762385,0.0006509104,-0.0010538732,-0.21671644,0.0,0.0,0.0,0.0,0
3788120000,-0.9762408,0.00070106186,-0.0010301408,-0.21670572,0.0,0.0,0.0,0.0,0
3788128000,-0.9762424,0.000739617,-0.0010143304,-0.21669862,0.0,0.0,0.0,0.0,0
3788144000,-0.9762454,0.00084125967,-0.0009810228,-0.21668486,0.0,0.0,0.0,0.0,0
3788156000,-0.9762475,0.00093765726,-0.0009510418,-0.2166753,0.0,0.0,0.0,0.0,0
3788168000,-0.9762494,0.0010435869,-0.000923894,-0.21666627,0.0,0.0,0.0,0.0,0
3788180000,-0.976251,0.0011550788,-0.0008991626,-0.21665847,0.0,0.0,0.0,0.0,0
3788192000,-0.97625244,0.0012610515,-0.0008709592,-0.21665168,0.0,0.0,0.0,0.0,0
3788204000,-0.9762535,0.0013636241,-0.0008474569,-0.21664633,0.0,0.0,0.0,0.0,0
3788216000,-0.9762544,0.0014675546,-0.000833623,-0.21664152,0.0,0.0,0.0,0.0,0
3788228000,-0.97625536,0.0015711721,-0.00082604133,-0.21663667,0.0,0.0,0.0,0.0,0
3788236000,-0.976256,0.0016355818,-0.0008261794,-0.21663329,0.0,0.0,0.0,0.0,0
3788252000,-0.97625756,0.0017531189,-0.00084614207,-0.21662535,0.0,0.0,0.0,0.0,0
3788264000,-0.97625923,0.0018271097,-0.0008832624,-0.21661706,0.0,0.0,0.0,0.0,0
3788276000,-0.9762612,0.0018927165,-0.0009405429,-0.21660714,0.0,0.0,0.0,0.0,0
3788284000,-0.9762626,0.0019325915,-0.0009875356,-0.21660022,0.0,0.0,0.0,0.0,0
3788296000,-0.9762647,0.0019785392,-0.0010677329,-0.21659,0.0,0.0,0.0,0.0,0
3788312000,-0.97626793,0.0020224806,-0.001182719,-0.21657445,0.0,0.0,0.0,0.0,0
3788324000,-0.9762711,0.0020506766,-0.0012732568,-0.21655962,0.0,0.0,0.0,0.0,0
3788336000,-0.9762748,0.0020793485,-0.0013633311,-0.21654199,0.0,0.0,0.0,0.0,0
3788348000,-0.976279,0.0021060072,-0.0014504229,-0.2165221,0.0,0.0,0.0,0.0,0
3788360000,-0.97628355,0.0021329005,-0.0015298327,-0.21650097,0.0,0.0,0.0,0.0,0
3788372000,-0.97628814,0.00216132,-0.0015894857,-0.21647954,0.0,0.0,0.0,0.0,0
3788380000,-0.9762912,0.002178364,-0.0016188597,-0.21646532,0.0,0.0,0.0,0.0,0
3788392000,-0.97629577,0.0022015604,-0.0016536287,-0.21644415,0.0,0.0,0.0,0.0,0
3788408000,-0.97630167,0.0022385458,-0.0016929933,-0.21641682,0.0,0.0,0.0,0.0,0
3788420000,-0.97630596,0.002269921,-0.0017209733,-0.21639694,0.0,0.0,0.0,0.0,0
3788432000,-0.97631025,0.0023007158,-0.0017506175,-0.21637714,0.0,0.0,0.0,0.0,0
3788444000,-0.97631437,0.002329639,-0.0017787107,-0.21635799,0.0,0.0,0.0,0.0,0
3788456000,-0.9763181,0.0023508987,-0.0018070958,-0.2163406,0.0,0.0,0.0,0.0,0
3788468000,-0.97632116,0.0023635086,-0.0018392872,-0.21632656,0.0,0.0,0.0,0.0,0
3788480000,-0.9763235,0.0023748197,-0.001866763,-0.21631546,0.0,0.0,0.0,0.0,0
3788492000,-0.9763255,0.0023838086,-0.001886619,-0.21630616,0.0,0.0,0.0,0.0,0
3788504000,-0.9763274,0.002397119,-0.001895593,-0.2162973,0.0,0.0,0.0,0.0,0
3788516000,-0.9763297,0.0024157313,-0.0018994643,-0.21628697,0.0,0.0,0.0,0.0,0
3788528000,-0.9763323,0.002432534,-0.0019137333,-0.2162748,0.0,0.0,0.0,0.0,0
3788536000,-0.9763342,0.0024439772,-0.0019285848,-0.21626589,0.0,0.0,0.0,0.0,0
3788552000,-0.97633827,0.002471177,-0.0019557613,-0.21624695,0.0,0.0,0.0,0.0,0
3788560000,-0.9763404,0.0024823672,-0.0019618028,-0.21623714,0.0,0.0,0.0,0.0,0
3788576000,-0.9763448,0.0025050049,-0.0019537627,-0.21621707,0.0,0.0,0.0,0.0,0
3788588000,-0.97634804,0.0025273166,-0.0019370973,-0.21620247,0.0,0.0,0.0,0.0,0
3788600000,-0.9763511,0.0025557776,-0.0019139256,-0.21618861,0.0,0.0,0.0,0.0,0
3788612000,-0.9763538,0.002589422,-0.001885523,-0.21617596,0.0,0.0,0.0,0.0,0
3788620000,-0.9763556,0.0026130641,-0.001861505,-0.2161679,0.0,0.0,0.0,0.0,0
3788632000,-0.9763585,0.002644399,-0.001822141,-0.21615487,0.0,0.0,0.0,0.0,0
3788648000,-0.9763629,0.002670681,-0.0017916955,-0.21613494,0.0,0.0,0.0,0.0,0
3788660000,-0.9763662,0.0026789438,-0.00178149,-0.2161197,0.0,0.0,0.0,0.0,0
3788668000,-0.97636837,0.0026727347,-0.0017755504,-0.21611032,0.0,0.0,0.0,0.0,0
3788680000,-0.97637117,0.0026442993,-0.0017690613,-0.21609785,0.0,0.0,0.0,0.0,0
3788692000,-0.9763737,0.0026016815,-0.0017736404,-0.21608712,0.0,0.0,0.0,0.0,0
3788708000,-0.97637683,0.0025298346,-0.0017991214,-0.2160736,0.0,0.0,0.0,0.0,0
3788720000,-0.9763792,0.0024728475,-0.0018198508,-0.21606323,0.0,0.0,0.0,0.0,0
3788732000,-0.9763817,0.0024153609,-0.0018383127,-0.21605238,0.0,0.0,0.0,0.0,0
3788744000,-0.9763845,0.0023609893,-0.0018503176,-0.21604033,0.0,0.0,0.0,0.0,0
3788756000,-0.9763876,0.002316894,-0.0018540473,-0.21602656,0.0,0.0,0.0,0.0,0
3788768000,-0.976391,0.0022869424,-0.0018513314,-0.21601161,0.0,0.0,0.0,0.0,0
3788780000,-0.97639453,0.0022643222,-0.0018454422,-0.21599592,0.0,0.0,0.0,0.0,0
3788792000,-0.9763981,0.002248988,-0.0018414833,-0.21598019,0.0,0.0,0.0,0.0,0
3788804000,-0.97640157,0.0022337213,-0.0018425331,-0.21596469,0.0,0.0,0.0,0.0,0
3788816000,-0.9764051,0.0022159673,-0.0018376287,-0.21594882,0.0,0.0,0.0,0.0,0
3788828000,-0.9764088,0.0022074457,-0.0018231218,-0.21593241,0.0,0.0,0.0,0.0,0
3788840000,-0.97641265,0.002208778,-0.001810765,-0.21591501,0.0,0.0,0.0,0.0,0
3788852000,-0.9764167,0.0022128234,-0.0017963885,-0.21589664,0.0,0.0,0.0,0.0,0
3788864000,-0.976421,0.0022154734,-0.0017742114,-0.21587737,0.0,0.0,0.0,0.0,0
3788876000,-0.9764256,0.0022198346,-0.0017480401,-0.21585676,0.0,0.0,0.0,0.0,0
3788888000,-0.9764303,0.0022304317,-0.0017195154,-0.21583559,0.0,0.0,0.0,0.0,0
3788900000,-0.97643495,0.0022456248,-0.0016925328,-0.21581462,0.0,0.0,0.0,0.0,0
3788912000,-0.9764396,0.002267073,-0.0016691985,-0.21579356,0.0,0.0,0.0,0.0,0
3788924000,-0.9764443,0.0022916908,-0.0016485782,-0.21577221,0.0,0.0,0.0,0.0,0
3788936000,-0.97644883,0.0023171287,-0.0016340935,-0.21575151,0.0,0.0,0.0,0.0,0
3788948000,-0.97645307,0.002345704,-0.0016234417,-0.21573207,0.0,0.0,0.0,0.0,0
3788956000,-0.97645575,0.002368737,-0.0016143837,-0.21571979,0.0,0.0,0.0,0.0,0
3788972000,-0.976461,0.0024294623,-0.0016011929,-0.21569559,0.0,0.0,0.0,0.0,0
3788980000,-0.97646356,0.0024686363,-0.0015969828,-0.21568356,0.0,0.0,0.0,0.0,0
3788996000,-0.9764684,0.00257362,-0.0015805907,-0.21566066,0.0,0.0,0.0,0.0,0
3789008000,-0.9764716,0.0026599022,-0.0015595276,-0.21564497,0.0,0.0,0.0,0.0,0
3789016000,-0.9764737,0.0027160232,-0.0015441099,-0.21563494,0.0,0.0,0.0,0.0,0
3789032000,-0.97647786,0.0028273577,-0.001506075,-0.21561505,0.0,0.0,0.0,0.0,0
3789044000,-0.97648114,0.0028955257,-0.0014783285,-0.21559945,0.0,0.0,0.0,0.0,0
3789056000,-0.97648454,0.0029465372,-0.0014554546,-0.21558338,0.0,0.0,0.0,0.0,0
3789068000,-0.97648776,0.002980385,-0.0014312712,-0.21556859,0.0,0.0,0.0,0.0,0
3789080000,-0.9764906,0.0029963038,-0.0014008613,-0.21555561,0.0,0.0,0.0,0.0,0
3789088000,-0.97649235,0.002999536,-0.0013762895,-0.21554792,0.0,0.0,0.0,0.0,0
3789100000,-0.97649455,0.002995645,-0.0013316311,-0.21553825,0.0,0.0,0.0,0.0,0
3789116000,-0.97649676,0.0029899082,-0.0012862007,-0.21552864,0.0,0.0,0.0,0.0,0
3789128000,-0.97649837,0.002997189,-0.0012673715,-0.21552135,0.0,0.0,0.0,0.0,0
3789140000,-0.9765002,0.0030185033,-0.0012536555,-0.21551277,0.0,0.0,0.0,0.0,0
3789152000,-0.976502,0.003051034,-0.001235464,-0.21550429,0.0,0.0,0.0,0.0,0
3789164000,-0.97650355,0.0030940531,-0.0012052555,-0.21549678,0.0,0.0,0.0,0.0,0
3789176000,-0.97650504,0.0031440624,-0.0011650512,-0.2154895,0.0,0.0,0.0,0.0,0
3789184000,-0.97650623,0.0031785988,-0.0011331736,-0.21548398,0.0,0.0,0.0,0.0,0
3789200000,-0.9765092,0.0032389546,-0.0010652151,-0.21546973,0.0,0.0,0.0,0.0,0
3789212000,-0.97651213,0.0032740436,-0.0010208922,-0.21545638,0.0,0.0,0.0,0.0,0
3789224000,-0.976515,0.0033086434,-0.0009791128,-0.21544291,0.0,0.0,0.0,0.0,0
3789232000,-0.9765169,0.0033347772,-0.0009540507,-0.21543396,0.0,0.0,0.0,0.0,0
3789248000,-0.9765206,0.0033786837,-0.00090841827,-0.21541674,0.0,0.0,0.0,0.0,0
3789260000,-0.97652304,0.0033975597,-0.0008782396,-0.21540558,0.0,0.0,0.0,0.0,0
3789272000,-0.97652525,0.0034140318,-0.0008594925,-0.2153953,0.0,0.0,0.0,0.0,0
3789280000,-0.9765268,0.003421798,-0.0008521535,-0.2153882,0.0,0.0,0.0,0.0,0
3789296000,-0.9765301,0.0034292606,-0.00084961124,-0.2153733,0.0,0.0,0.0,0.0,0
3789304000,-0.9765317,0.003430949,-0.00085261767,-0.21536584,0.0,0.0,0.0,0.0,0
3789316000,-0.9765341,0.003439197,-0.00085773563,-0.21535468,0.0,0.0,0.0,0.0,0
3789332000,-0.97653747,0.0034710784,-0.0008722518,-0.21533896,0.0,0.0,0.0,0.0,0
3789344000,-0.9765402,0.0035070912,-0.0008840703,-0.21532594,0.0,0.0,0.0,0.0,0
3789356000,-0.97654307,0.0035481418,-0.0008968953,-0.21531208,0.0,0.0,0.0,0.0,0
3789368000,-0.9765461,0.0035928264,-0.00091579964,-0.21529773,0.0,0.0,0.0,0.0,0
3789380000,-0.9765492,0.0036334258,-0.0009505098,-0.21528272,0.0,0.0,0.0,0.0,0
3789388000,-0.97655135,0.0036550427,-0.0009802547,-0.2152725,0.0,0.0,0.0,0.0,0
3789404000,-0.9765557,0.0036852057,-0.0010414165,-0.21525195,0.0,0.0,0.0,0.0,0
3789412000,-0.9765579,0.003695134,-0.0010737213,-0.2152417,0.0,0.0,0.0,0.0,0
3789424000,-0.9765612,0.0037060126,-0.0011235143,-0.21522628,0.0,0.0,0.0,0.0,0
3789440000,-0.9765652,0.003709534,-0.0011945438,-0.2152078,0.0,0.0,0.0,0.0,0
3789452000,-0.9765678,0.003711538,-0.0012601946,-0.21519546,0.0,0.0,0.0,0.0,0
3789464000,-0.9765703,0.0037115605,-0.0013274428,-0.21518359,0.0,0.0,0.0,0.0,0
3789476000,-0.9765729,0.0037062995,-0.0013846441,-0.2151718,0.0,0.0,0.0,0.0,0
3789488000,-0.9765755,0.0037044485,-0.0014270223,-0.21515971,0.0,0.0,0.0,0.0,0
3789500000,-0.976578,0.0037014943,-0.0014550958,-0.21514812,0.0,0.0,0.0,0.0,0
3789512000,-0.9765803,0.0036947476,-0.001474315,-0.21513751,0.0,0.0,0.0,0.0,0
3789524000,-0.9765824,0.0036807768,-0.001482947,-0.21512836,0.0,0.0,0.0,0.0,0
3789536000,-0.9765841,0.0036493742,-0.0014859755,-0.21512109,0.0,0.0,0.0,0.0,0
3789548000,-0.9765853,0.0036112594,-0.001484059,-0.21511626,0.0,0.0,0.0,0.0,0
3789556000,-0.9765858,0.0035871905,-0.0014828604,-0.21511441,0.0,0.0,0.0,0.0,0
3789572000,-0.9765863,0.003534953,-0.0014938703,-0.21511292,0.0,0.0,0.0,0.0,0
3789584000,-0.9765863,0.0034951123,-0.0015077092,-0.21511365,0.0,0.0,0.0,0.0,0
3789596000,-0.9765859,0.003460922,-0.0015248144,-0.21511553,0.0,0.0,0.0,0.0,0
3789608000,-0.9765857,0.0034321765,-0.0015451367,-0.21511711,0.0,0.0,0.0,0.0,0
3789620000,-0.97658545,0.0034024608,-0.0015672974,-0.21511836,0.0,0.0,0.0,0.0,0
3789632000,-0.9765852,0.003373355,-0.0015820125,-0.21511982,0.0,0.0,0.0,0.0,0
3789644000,-0.97658515,0.0033538444,-0.0015810754,-0.21512055,0.0,0.0,0.0,0.0,0
3789656000,-0.97658515,0.0033448827,-0.0015681305,-0.21512055,0.0,0.0,0.0,0.0,0
3789668000,-0.9765854,0.0033393023,-0.001537418,-0.21511982,0.0,0.0,0.0,0.0,0
3789680000,-0.97658575,0.0033369302,-0.0014869424,-0.2151188,0.0,0.0,0.0,0.0,0
3789692000,-0.9765859,0.0033382825,-0.0014227768,-0.21511813,0.0,0.0,0.0,0.0,0
3789704000,-0.97658616,0.0033461084,-0.0013562174,-0.21511762,0.0,0.0,0.0,0.0,0
3789716000,-0.97658664,0.0033514248,-0.0012932465,-0.21511559,0.0,0.0,0.0,0.0,0
3789728000,-0.9765876,0.003358144,-0.0012309033,-0.21511154,0.0,0.0,0.0,0.0,0
3789736000,-0.97658837,0.0033667416,-0.0011946276,-0.21510804,0.0,0.0,0.0,0.0,0
3789752000,-0.97659,0.0033951455,-0.0011333001,-0.21510063,0.0,0.0,0.0,0.0,0
3789764000,-0.9765913,0.0034105622,-0.0010960824,-0.21509479,0.0,0.0,0.0,0.0,0
3789776000,-0.9765927,0.0034173839,-0.0010750316,-0.21508822,0.0,0.0,0.0,0.0,0
3789788000,-0.97659445,0.0034156065,-0.0010679485,-0.21508035,0.0,0.0,0.0,0.0,0
3789800000,-0.9765966,0.0034044858,-0.0010741019,-0.2150709,0.0,0.0,0.0,0.0,0
3789812000,-0.976599,0.003387773,-0.0010890627,-0.21506004,0.0,0.0,0.0,0.0,0
3789824000,-0.9766016,0.0033711386,-0.0011110323,-0.2150483,0.0,0.0,0.0,0.0,0
3789836000,-0.97660434,0.0033563932,-0.0011273082,-0.2150361,0.0,0.0,0.0,0.0,0
3789844000,-0.97660613,0.0033479256,-0.0011332728,-0.21502808,0.0,0.0,0.0,0.0,0
3789860000,-0.9766094,0.0033357404,-0.0011281393,-0.21501346,0.0,0.0,0.0,0.0,0
3789868000,-0.9766109,0.0033344908,-0.001115561,-0.21500665,0.0,0.0,0.0,0.0,0
3789884000,-0.97661394,0.0033266733,-0.001088163,-0.21499309,0.0,0.0,0.0,0.0,0
3789896000,-0.9766161,0.0033144641,-0.0010661962,-0.21498364,0.0,0.0,0.0,0.0,0
3789908000,-0.97661793,0.0032926274,-0.0010407654,-0.2149759,0.0,0.0,0.0,0.0,0
3789920000,-0.97661924,0.003257007,-0.0010125914,-0.21497056,0.0,0.0,0.0,0.0,0
3789928000,-0.9766199,0.0032246935,-0.0009921666,-0.21496825,0.0,0.0,0.0,0.0,0
3789944000,-0.97662073,0.0031429124,-0.00095368124,-0.21496566,0.0,0.0,0.0,0.0,0
3789956000,-0.9766213,0.003083411,-0.0009256314,-0.21496412,0.0,0.0,0.0,0.0,0
3789968000,-0.97662175,0.0030360462,-0.00090216653,-0.21496297,0.0,0.0,0.0,0.0,0
3789980000,-0.9766219,0.00299823,-0.00087916316,-0.21496278,0.0,0.0,0.0,0.0,0
3789992000,-0.976622,0.0029540684,-0.0008563075,-0.21496303,0.0,0.0,0.0,0.0,0
3790004000,-0.97662246,0.00289729,-0.00083834166,-0.21496189,0.0,0.0,0.0,0.0,0
3790016000,-0.9766235,0.00282878,-0.00081879745,-0.2149583,0.0,0.0,0.0,0.0,0
3790028000,-0.97662497,0.0027542482,-0.0007949684,-0.21495253,0.0,0.0,0.0,0.0,0
3790040000,-0.9766267,0.0026853092,-0.0007692898,-0.2149455,0.0,0.0,0.0,0.0,0
3790052000,-0.9766286,0.0026338107,-0.00075202907,-0.21493763,0.0,0.0,0.0,0.0,0
3790064000,-0.97663045,0.0026094788,-0.00074622984,-0.21492955,0.0,0.0,0.0,0.0,0
3790072000,-0.97663164,0.0026041323,-0.000746746,-0.21492423,0.0,0.0,0.0,0.0,0
3790088000,-0.9766338,0.0025981811,-0.0007516432,-0.21491443,0.0,0.0,0.0,0.0,0
3790100000,-0.9766352,0.0025855163,-0.0007553156,-0.214908,0.0,0.0,0.0,0.0,0
3790112000,-0.9766365,0.0025745127,-0.000773296,-0.21490234,0.0,0.0,0.0,0.0,0
3790124000,-0.9766378,0.0025703476,-0.0008029208,-0.21489638,0.0,0.0,0.0,0.0,0
3790136000,-0.9766392,0.002575152,-0.0008337702,-0.21488969,0.0,0.0,0.0,0.0,0
3790148000,-0.97664076,0.0025899815,-0.00085954583,-0.21488261,0.0,0.0,0.0,0.0,0
3790160000,-0.97664225,0.0026102785,-0.0008819299,-0.21487527,0.0,0.0,0.0,0.0,0
3790172000,-0.97664386,0.0026272954,-0.00089834747,-0.2148678,0.0,0.0,0.0,0.0,0
3790184000,-0.97664565,0.002641577,-0.00090135116,-0.2148595,0.0,0.0,0.0,0.0,0
3790196000,-0.97664756,0.00265101,-0.000887367,-0.21485081,0.0,0.0,0.0,0.0,0
3790208000,-0.9766495,0.0026536137,-0.0008573746,-0.2148418,0.0,0.0,0.0,0.0,0
3790220000,-0.97665167,0.002655919,-0.0008118842,-0.21483229,0.0,0.0,0.0,0.0,0
3790232000,-0.9766539,0.0026672406,-0.0007591988,-0.21482228,0.0,0.0,0.0,0.0,0
3790244000,-0.97665614,0.002696807,-0.0007001259,-0.21481179,0.0,0.0,0.0,0.0,0
3790252000,-0.9766577,0.0027255786,-0.00065700186,-0.21480452,0.0,0.0,0.0,0.0,0
3790268000,-0.97666097,0.0027772149,-0.0005791315,-0.21478933,0.0,0.0,0.0,0.0,0
3790280000,-0.9766636,0.0027990213,-0.000543589,-0.21477714,0.0,0.0,0.0,0.0,0
3790292000,-0.97666645,0.0027973398,-0.00053446664,-0.21476418,0.0,0.0,0.0,0.0,0
3790304000,-0.97666943,0.00277566,-0.00055337424,-0.21475089,0.0,0.0,0.0,0.0,0
3790316000,-0.9766725,0.0027470668,-0.00059905933,-0.2147373,0.0,0.0,0.0,0.0,0
3790328000,-0.9766755,0.0027243553,-0.00066268625,-0.21472357,0.0,0.0,0.0,0.0,0
3790340000,-0.97667825,0.002705421,-0.00073337153,-0.21471098,0.0,0.0,0.0,0.0,0
3790352000,-0.97668064,0.0026933833,-0.0008048963,-0.21470019,0.0,0.0,0.0,0.0,0
3790364000,-0.97668254,0.0026880112,-0.00087539345,-0.21469124,0.0,0.0,0.0,0.0,0
3790376000,-0.9766842,0.0026934494,-0.00094177615,-0.21468326,0.0,0.0,0.0,0.0,0
3790388000,-0.9766857,0.0027067328,-0.001002299,-0.21467602,0.0,0.0,0.0,0.0,0
3790400000,-0.9766871,0.0027227495,-0.0010630977,-0.21466921,0.0,0.0,0.0,0.0,0
3790412000,-0.97668844,0.0027353023,-0.0011278838,-0.21466254,0.0,0.0,0.0,0.0,0
3790424000,-0.97669,0.0027371242,-0.0011894417,-0.21465525,0.0,0.0,0.0,0.0,0
3790436000,-0.9766921,0.002732769,-0.0012437203,-0.21464539,0.0,0.0,0.0,0.0,0
3790448000,-0.97669464,0.0027338094,-0.0012852693,-0.21463366,0.0,0.0,0.0,0.0,0
3790460000,-0.97669727,0.0027264801,-0.0013082154,-0.21462162,0.0,0.0,0.0,0.0,0
3790472000,-0.97669995,0.0027109715,-0.0013220182,-0.21460932,0.0,0.0,0.0,0.0,0
3790484000,-0.976703,0.0026930524,-0.0013376708,-0.21459568,0.0,0.0,0.0,0.0,0
3790496000,-0.9767064,0.0026691058,-0.0013528474,-0.21458039,0.0,0.0,0.0,0.0,0
3790508000,-0.97670996,0.0026478064,-0.001372405,-0.21456426,0.0,0.0,0.0,0.0,0
3790516000,-0.97671247,0.002635914,-0.0013890958,-0.21455312,0.0,0.0,0.0,0.0,0
3790532000,-0.97671735,0.0026164781,-0.0014354982,-0.21453063,0.0,0.0,0.0,0.0,0
3790540000,-0.9767198,0.0026084431,-0.001466659,-0.2145195,0.0,0.0,0.0,0.0,0
3790556000,-0.9767242,0.0025922214,-0.0015392406,-0.21449898,0.0,0.0,0.0,0.0,0
3790568000,-0.97672725,0.0025749772,-0.0015914768,-0.2144851,0.0,0.0,0.0,0.0,0
3790580000,-0.9767303,0.0025605094,-0.0016328875,-0.21447115,0.0,0.0,0.0,0.0,0
3790592000,-0.97673345,0.0025560409,-0.0016618505,-0.2144564,0.0,0.0,0.0,0.0,0
3790604000,-0.9767368,0.0025654524,-0.0016785063,-0.21444091,0.0,0.0,0.0,0.0,0
3790616000,-0.9767401,0.0025936812,-0.001693166,-0.21442536,0.0,0.0,0.0,0.0,0
3790628000,-0.9767434,0.0026306405,-0.0017098547,-0.21440995,0.0,0.0,0.0,0.0,0
3790640000,-0.9767466,0.002667587,-0.0017223617,-0.21439467,0.0,0.0,0.0,0.0,0
3790652000,-0.97674984,0.002697935,-0.0017392281,-0.21437941,0.0,0.0,0.0,0.0,0
3790664000,-0.976753,0.0027207849,-0.0017643826,-0.21436465,0.0,0.0,0.0,0.0,0
3790676000,-0.97675604,0.002738097,-0.0017903981,-0.21435025,0.0,0.0,0.0,0.0,0
3790688000,-0.976759,0.0027544857,-0.0018161791,-0.21433625,0.0,0.0,0.0,0.0,0
3790700000,-0.9767618,0.0027709156,-0.0018379088,-0.21432307,0.0,0.0,0.0,0.0,0
3790712000,-0.9767644,0.0027862203,-0.0018507739,-0.21431123,0.0,0.0,0.0,0.0,0
3790724000,-0.9767667,0.002799277,-0.0018495556,-0.21430041,0.0,0.0,0.0,0.0,0
3790736000,-0.9767688,0.0028046602,-0.0018308333,-0.21429098,0.0,0.0,0.0,0.0,0
3790748000,-0.97677034,0.0028212955,-0.0018047101,-0.21428393,0.0,0.0,0.0,0.0,0
3790760000,-0.97677135,0.0028518348,-0.0017799728,-0.21427903,0.0,0.0,0.0,0.0,0
3790768000,-0.9767719,0.0028779453,-0.0017602372,-0.21427636,0.0,0.0,0.0,0.0,0
3790784000,-0.9767731,0.0029247173,-0.0017164133,-0.21427076,0.0,0.0,0.0,0.0,0
3790796000,-0.97677404,0.0029463943,-0.0016927727,-0.21426636,0.0,0.0,0.0,0.0,0
3790808000,-0.97677475,0.0029681588,-0.0016836412,-0.21426278,0.0,0.0,0.0,0.0,0
3790820000,-0.97677547,0.0029950277,-0.0016840958,-0.21425916,0.0,0.0,0.0,0.0,0
3790832000,-0.9767766,0.0030293362,-0.0016832077,-0.21425363,0.0,0.0,0.0,0.0,0
3790844000,-0.97677815,0.003074759,-0.0016749926,-0.21424593,0.0,0.0,0.0,0.0,0
3790856000,-0.97678006,0.0031279873,-0.0016610804,-0.21423656,0.0,0.0,0.0,0.0,0
3790868000,-0.97678214,0.0031843763,-0.0016377765,-0.21422647,0.0,0.0,0.0,0.0,0
3790880000,-0.9767842,0.0032332893,-0.0015989897,-0.21421641,0.0,0.0,0.0,0.0,0
3790892000,-0.97678643,0.0032748145,-0.0015468247,-0.21420604,0.0,0.0,0.0,0.0,0
3790900000,-0.976788,0.0033011672,-0.001508746,-0.21419898,0.0,0.0,0.0,0.0,0
3790916000,-0.9767909,0.0033559296,-0.0014255771,-0.21418525,0.0,0.0,0.0,0.0,0
3790928000,-0.976793,0.0033928428,-0.0013577266,-0.2141757,0.0,0.0,0.0,0.0,0
3790940000,-0.97679496,0.0034251509,-0.001296619,-0.2141665,0.0,0.0,0.0,0.0,0
3790952000,-0.97679675,0.0034590375,-0.0012521732,-0.21415816,0.0,0.0,0.0,0.0,0
3790964000,-0.97679824,0.0034979514,-0.0012304573,-0.21415079,0.0,0.0,0.0,0.0,0
3790976000,-0.9767996,0.0035299598,-0.0012262594,-0.21414392,0.0,0.0,0.0,0.0,0
3790988000,-0.9768009,0.0035476764,-0.0012352017,-0.2141378,0.0,0.0,0.0,0.0,0
3790996000,-0.9768016,0.003549201,-0.0012465724,-0.2141345,0.0,0.0,0.0,0.0,0
3791012000,-0.9768026,0.0035366365,-0.0012789109,-0.21412994,0.0,0.0,0.0,0.0,0
3791024000,-0.97680306,0.0035256534,-0.0013133815,-0.21412784,0.0,0.0,0.0,0.0,0
3791036000,-0.9768033,0.0035167173,-0.0013549251,-0.21412657,0.0,0.0,0.0,0.0,0
3791048000,-0.97680336,0.003506378,-0.0013956904,-0.21412636,0.0,0.0,0.0,0.0,0
3791060000,-0.9768031,0.003485652,-0.0014235794,-0.21412756,0.0,0.0,0.0,0.0,0
3791072000,-0.97680265,0.0034567749,-0.0014414502,-0.2141299,0.0,0.0,0.0,0.0,0
3791080000,-0.97680235,0.0034361344,-0.0014523142,-0.21413174,0.0,0.0,0.0,0.0,0
3791096000,-0.97680163,0.0033876533,-0.0014712455,-0.21413562,0.0,0.0,0.0,0.0,0
3791108000,-0.97680116,0.00334106,-0.0014904229,-0.21413843,0.0,0.0,0.0,0.0,0
3791116000,-0.9768009,0.0033049053,-0.0015017282,-0.21413977,0.0,0.0,0.0,0.0,0
3791128000,-0.97680086,0.0032435493,-0.001508743,-0.21414115,0.0,0.0,0.0,0.0,0
3791144000,-0.97680086,0.0031596916,-0.001502285,-0.21414243,0.0,0.0,0.0,0.0,0
3791156000,-0.97680086,0.0031076423,-0.0015033231,-0.21414308,0.0,0.0,0.0,0.0,0
3791168000,-0.9768009,0.0030606631,-0.0015125144,-0.21414341,0.0,0.0,0.0,0.0,0
3791180000,-0.9768012,0.0030106597,-0.0015340329,-0.21414267,0.0,0.0,0.0,0.0,0
3791192000,-0.97680193,0.002959243,-0.0015553648,-0.21413982,0.0,0.0,0.0,0.0,0
3791204000,-0.9768032,0.0029162026,-0.0015621104,-0.2141348,0.0,0.0,0.0,0.0,0
3791216000,-0.9768046,0.0028921824,-0.0015567113,-0.21412873,0.0,0.0,0.0,0.0,0
3791228000,-0.97680616,0.0028865535,-0.0015460879,-0.21412182,0.0,0.0,0.0,0.0,0
