timestamp,ref_timestamp,ref_lat,ref_lon,x,y,z,delta_xy[0],delta_xy[1],delta_z,vx,vy,vz,z_deriv,delta_vxy[0],delta_vxy[1],delta_vz,ax,ay,az,yaw,ref_alt,dist_bottom,dist_bottom_rate,eph,epv,evh,evv,vxy_max,vz_max,hagl_min,hagl_max,xy_valid,z_valid,v_xy_valid,v_z_valid,xy_reset_counter,z_reset_counter,vxy_reset_counter,vz_reset_counter,xy_global,z_global,dist_bottom_valid
3782264000,0,47.3977508,8.5456074,-0.14455341,-0.15053678,0.72598267,0.0,0.0,0.0,0.0,0.0,0.0,0.0,0.0,0.0,0.0,0.0,0.0,0.0,0.43250647,488.83002,0.0,0.0,0.0,0.0,0.0,0.0,inf,inf,inf,inf,1,1,1,1,0,0,0,0,1,1,0
3782364000,0,47.3977508,8.5456074,-0.14455341,-0.15053678,0.72598267,0.0,0.0,0.0,0.0,0.0,0.0,0.0,0.0,0.0,0.0,0.0,0.0,0.0,0.4325065,488.83002,0.0,0.0,0.0,0.0,0.0,0.0,inf,inf,inf,inf,1,1,1,1,0,0,0,0,1,1,0
3782464000,0,47.3977508,8.5456074,-0.14455341,-0.15053678,0.72598267,0.0,0.0,0.0,0.0,0.0,0.0,0.0,0.0,0.0,0.0,0.0,0.0,0.0,0.43250623,488.83002,0.0,0.0,0.0,0.0,0.0,0.0,inf,inf,inf,inf,1,1,1,1,0,0,0,0,1,1,0
3782564000,0,47.3977508,8.5456074,-0.14455341,-0.15053678,0.72598267,0.0,0.0,0.0,0.0,0.0,0.0,0.0,0.0,0.0,0.0,0.0,0.0,0.0,0.4325064,488.83002,0.0,0.0,0.0,0.0,0.0,0.0,inf,inf,inf,inf,1,1,1,1,0,0,0,0,1,1,0
3782660000,0,47.3977508,8.5456074,-0.14455341,-0.15053678,0.72598267,0.0,0.0,0.0,0.0,0.0,0.0,0.0,0.0,0.0,0.0,0.0,0.0,0.0,0.43250638,488.83002,0.0,0.0,0.0,0.0,0.0,0.0,inf,inf,inf,inf,1,1,1,1,0,0,0,0,1,1,0
3782760000,0,47.3977508,8.5456074,-0.14455341,-0.15053678,0.72598267,0.0,0.0,0.0,0.0,0.0,0.0,0.0,0.0,0.0,0.0,0.0,0.0,0.0,0.43250597,488.83002,0.0,0.0,0.0,0.0,0.0,0.0,inf,inf,inf,inf,1,1,1,1,0,0,0,0,1,1,0
3782864000,0,47.3977508,8.5456074,-0.14455341,-0.15053678,0.72598267,0.0,0.0,0.0,0.0,0.0,0.0,0.0,0.0,0.0,0.0,0.0,0.0,0.0,0.43250623,488.83002,0.0,0.0,0.0,0.0,0.0,0.0,inf,inf,inf,inf,1,1,1,1,0,0,0,0,1,1,0
3782964000,0,47.3977508,8.5456074,-0.14455341,-0.15053678,0.72598267,0.0,0.0,0.0,0.0,0.0,0.0,0.0,0.0,0.0,0.0,0.0,0.0,0.0,0.43250632,488.83002,0.0,0.0,0.0,0.0,0.0,0.0,inf,inf,inf,inf,1,1,1,1,0,0,0,0,1,1,0
3783064000,0,47.3977508,8.5456074,-0.14455341,-0.15053678,0.72598267,0.0,0.0,0.0,0.0,0.0,0.0,0.0,0.0,0.0,0.0,0.0,0.0,0.0,0.43250635,488.83002,0.0,0.0,0.0,0.0,0.0,0.0,inf,inf,inf,inf,1,1,1,1,0,0,0,0,1,1,0
3783164000,0,47.3977508,8.5456074,-0.14455341,-0.15053678,0.72598267,0.0,0.0,0.0,0.0,0.0,0.0,0.0,0.0,0.0,0.0,0.0,0.0,0.0,0.43250597,488.83002,0.0,0.0,0.0,0.0,0.0,0.0,inf,inf,inf,inf,1,1,1,1,0,0,0,0,1,1,0
3783264000,0,47.3977508,8.5456074,-0.14455341,-0.15053678,0.72598267,0.0,0.0,0.0,0.0,0.0,0.0,0.0,0.0,0.0,0.0,0.0,0.0,0.0,0.43250608,488.83002,0.0,0.0,0.0,0.0,0.0,0.0,inf,inf,inf,inf,1,1,1,1,0,0,0,0,1,1,0
3783360000,0,47.3977508,8.5456074,-0.14455341,-0.15053678,0.72598267,0.0,0.0,0.0,0.0,0.0,0.0,0.0,0.0,0.0,0.0,0.0,0.0,0.0,0.43250623,488.83002,0.0,0.0,0.0,0.0,0.0,0.0,inf,inf,inf,inf,1,1,1,1,0,0,0,0,1,1,0
3783464000,0,47.3977508,8.5456074,-0.14455341,-0.15053678,0.72598267,0.0,0.0,0.0,0.0,0.0,0.0,0.0,0.0,0.0,0.0,0.0,0.0,0.0,0.4325064,488.83002,0.0,0.0,0.0,0.0,0.0,0.0,inf,inf,inf,inf,1,1,1,1,0,0,0,0,1,1,0
3783564000,0,47.3977508,8.5456074,-0.14455341,-0.15053678,0.72598267,0.0,0.0,0.0,0.0,0.0,0.0,0.0,0.0,0.0,0.0,0.0,0.0,0.0,0.43250638,488.83002,0.0,0.0,0.0,0.0,0.0,0.0,inf,inf,inf,inf,1,1,1,1,0,0,0,0,1,1,0
3783664000,0,47.3977508,8.5456074,-0.14455341,-0.15053678,0.72598267,0.0,0.0,0.0,0.0,0.0,0.0,0.0,0.0,0.0,0.0,0.0,0.0,0.0,0.43250635,488.83002,0.0,0.0,0.0,0.0,0.0,0.0,inf,inf,inf,inf,1,1,1,1,0,0,0,0,1,1,0
3783764000,0,47.3977508,8.5456074,-0.14455341,-0.15053678,0.72598267,0.0,0.0,0.0,0.0,0.0,0.0,0.0,0.0,0.0,0.0,0.0,0.0,0.0,0.43250635,488.83002,0.0,0.0,0.0,0.0,0.0,0.0,inf,inf,inf,inf,1,1,1,1,0,0,0,0,1,1,0
3783864000,0,47.3977508,8.5456074,-0.14455341,-0.15053678,0.72598267,0.0,0.0,0.0,0.0,0.0,0.0,0.0,0.0,0.0,0.0,0.0,0.0,0.0,0.43250635,488.83002,0.0,0.0,0.0,0.0,0.0,0.0,inf,inf,inf,inf,1,1,1,1,0,0,0,0,1,1,0
3783964000,0,47.3977508,8.5456074,-0.14455341,-0.15053678,0.72598267,0.0,0.0,0.0,0.0,0.0,0.0,0.0,0.0,0.0,0.0,0.0,0.0,0.0,0.43250635,488.83002,0.0,0.0,0.0,0.0,0.0,0.0,inf,inf,inf,inf,1,1,1,1,0,0,0,0,1,1,0
3784064000,0,47.3977508,8.5456074,-0.14455341,-0.15053678,0.72598267,0.0,0.0,0.0,0.0,0.0,-0.01,0.0,0.0,0.0,0.0,0.0,0.0,0.0,0.43248805,488.83002,0.0,0.0,0.0,0.0,0.0,0.0,inf,inf,inf,inf,1,1,1,1,0,0,0,0,1,1,0
3784164000,0,47.3977508,8.5456074,-0.14455341,-0.15053678,0.71798706,0.0,0.0,0.0,0.0,0.01,-0.13,0.0,0.0,0.0,0.0,0.0,0.0,0.0,0.43204206,488.83002,0.0,0.0,0.0,0.0,0.0,0.0,inf,inf,inf,inf,1,1,1,1,0,0,0,0,1,1,0
3784264000,0,47.3977508,8.5456074,-0.14455341,-0.14300995,0.69699097,0.0,0.0,0.0,0.01,0.03,-0.26999998,0.0,0.0,0.0,0.0,0.0,0.0,0.0,0.4317406,488.83002,0.0,0.0,0.0,0.0,0.0,0.0,inf,inf,inf,inf,1,1,1,1,0,0,0,0,1,1,0
3784364000,0,47.3977508,8.5456074,-0.14455341,-0.14300995,0.6629944,0.0,0.0,0.0,0.02,0.04,-0.39999998,0.0,0.0,0.0,0.0,0.0,0.0,0.0,0.43154398,488.83002,0.0,0.0,0.0,0.0,0.0,0.0,inf,inf,inf,inf,1,1,1,1,0,0,0,0,1,1,0
3784464000,0,47.3977508,8.5456074,-0.14455341,-0.1354831,0.6159973,0.0,0.0,0.0,0.02,0.06,-0.53,0.0,0.0,0.0,0.0,0.0,0.0,0.0,0.43138403,488.83002,0.0,0.0,0.0,0.0,0.0,0.0,inf,inf,inf,inf,1,1,1,1,0,0,0,0,1,1,0
3784564000,0,47.3977508,8.5456074,-0.14455341,-0.12795626,0.55599976,0.0,0.0,0.0,0.02,0.06,-0.65999997,0.0,0.0,0.0,0.0,0.0,0.0,0.0,0.43124214,488.83002,0.0,0.0,0.0,0.0,0.0,0.0,inf,inf,inf,inf,1,1,1,1,0,0,0,0,1,1,0
3784664000,0,47.3977508,8.5456074,-0.13343391,-0.12042942,0.48199463,0.0,0.0,0.0,0.02,0.06,-0.78999996,0.0,0.0,0.0,0.0,0.0,0.0,0.0,0.43108323,488.83002,0.0,0.0,0.0,0.0,0.0,0.0,inf,inf,inf,inf,1,1,1,1,0,0,0,0,1,1,0
3784764000,0,47.3977508,8.5456074,-0.13343391,-0.12042942,0.394989,0.0,0.0,0.0,0.02,0.049999997,-0.91999996,0.0,0.0,0.0,0.0,0.0,0.0,0.0,0.43089443,488.83002,0.0,0.0,0.0,0.0,0.0,0.0,inf,inf,inf,inf,1,1,1,1,0,0,0,0,1,1,0
3784860000,0,47.3977508,8.5456074,-0.13343391,-0.11290258,0.2999878,0.0,0.0,0.0,0.02,0.049999997,-1.05,0.0,0.0,0.0,0.0,0.0,0.0,0.0,0.43069172,488.83002,0.0,0.0,0.0,0.0,0.0,0.0,inf,inf,inf,inf,1,1,1,1,0,0,0,0,1,1,0
3784964000,0,47.3977508,8.5456074,-0.13343391,-0.105375744,0.18200684,0.0,0.0,0.0,0.02,0.049999997,-1.1899999,0.0,0.0,0.0,0.0,0.0,0.0,0.0,0.43050802,488.83002,0.0,0.0,0.0,0.0,0.0,0.0,inf,inf,inf,inf,1,1,1,1,0,0,0,0,1,1,0
3785064000,0,47.3977508,8.5456074,-0.122314416,-0.09784891,0.055999756,0.0,0.0,0.0,0.01,0.049999997,-1.3199999,0.0,0.0,0.0,0.0,0.0,0.0,0.0,0.43044713,488.83002,0.0,0.0,0.0,0.0,0.0,0.0,inf,inf,inf,inf,1,1,1,1,0,0,0,0,1,1,0
3785164000,0,47.3977508,8.5456074,-0.122314416,-0.09784891,-0.08300781,0.0,0.0,0.0,0.01,0.04,-1.4499999,0.0,0.0,0.0,0.0,0.0,0.0,0.0,0.43038824,488.83002,0.0,0.0,0.0,0.0,0.0,0.0,inf,inf,inf,inf,1,1,1,1,0,0,0,0,1,1,0
3785264000,0,47.3977508,8.5456074,-0.122314416,-0.09032206,-0.23501587,0.0,0.0,0.0,0.01,0.04,-1.5799999,0.0,0.0,0.0,0.0,0.0,0.0,0.0,0.43028826,488.83002,0.0,0.0,0.0,0.0,0.0,0.0,inf,inf,inf,inf,1,1,1,1,0,0,0,0,1,1,0
3785364000,0,47.3977508,8.5456074,-0.122314416,-0.09032206,-0.3999939,0.0,0.0,0.0,0.01,0.04,-1.7099999,0.0,0.0,0.0,0.0,0.0,0.0,0.0,0.43018666,488.83002,0.0,0.0,0.0,0.0,0.0,0.0,inf,inf,inf,inf,1,1,1,1,0,0,0,0,1,1,0
3785464000,0,47.3977508,8.5456074,-0.122314416,-0.082795225,-0.5780029,0.0,0.0,0.0,0.0,0.04,-1.8399999,0.0,0.0,0.0,0.0,0.0,0.0,0.0,0.43014792,488.83002,0.0,0.0,0.0,0.0,0.0,0.0,inf,inf,inf,inf,1,1,1,1,0,0,0,0,1,1,0
3785564000,0,47.3977508,8.5456074,-0.122314416,-0.07526839,-0.76901245,0.0,0.0,0.0,0.0,0.04,-1.9699999,0.0,0.0,0.0,0.0,0.0,0.0,0.0,0.42999274,488.83002,0.0,0.0,0.0,0.0,0.0,0.0,inf,inf,inf,inf,1,1,1,1,0,0,0,0,1,1,0
3785664000,0,47.3977508,8.5456074,-0.122314416,-0.07526839,-0.97299194,0.0,0.0,0.0,0.0,0.04,-2.1,0.0,0.0,0.0,0.0,0.0,0.0,0.0,0.4298355,488.83002,0.0,0.0,0.0,0.0,0.0,0.0,inf,inf,inf,inf,1,1,1,1,0,0,0,0,1,1,0
3785764000,0,47.3977508,8.5456074,-0.122314416,-0.06774155,-1.1809998,0.0,0.0,0.0,0.0,0.03,-2.23,0.0,0.0,0.0,0.0,0.0,0.0,0.0,0.42986456,488.83002,0.0,0.0,0.0,0.0,0.0,0.0,inf,inf,inf,inf,1,1,1,1,0,0,0,0,1,1,0
3785864000,0,47.3977508,8.5456074,-0.122314416,-0.06774155,-1.4200134,0.0,0.0,0.0,0.0,0.03,-2.35,0.0,0.0,0.0,0.0,0.0,0.0,0.0,0.43208855,488.83002,0.0,0.0,0.0,0.0,0.0,0.0,inf,inf,inf,inf,1,1,1,1,0,0,0,0,1,1,0
3785960000,0,47.3977508,8.5456074,-0.122314416,-0.06021471,-1.6530151,0.0,0.0,0.0,0.0,0.03,-2.48,0.0,0.0,0.0,0.0,0.0,0.0,0.0,0.43517408,488.83002,0.0,0.0,0.0,0.0,0.0,0.0,inf,inf,inf,inf,1,1,1,1,0,0,0,0,1,1,0
3786060000,0,47.3977508,8.5456074,-0.122314416,-0.06021471,-1.9030151,0.0,0.0,0.0,0.0,0.03,-2.46,0.0,0.0,0.0,0.0,0.0,0.0,0.0,0.437784,488.83002,0.0,0.0,0.0,0.0,0.0,0.0,inf,inf,inf,inf,1,1,1,1,0,0,0,0,1,1,0
3786160000,0,47.3977508,8.5456074,-0.122314416,-0.052687872,-2.1419983,0.0,0.0,0.0,0.0,0.03,-2.32,0.0,0.0,0.0,0.0,0.0,0.0,0.0,0.4395885,488.83002,0.0,0.0,0.0,0.0,0.0,0.0,inf,inf,inf,inf,1,1,1,1,0,0,0,0,1,1,0
3786260000,0,47.3977508,8.5456074,-0.122314416,-0.052687872,-2.369995,0.0,0.0,0.0,0.0,0.02,-2.25,0.0,0.0,0.0,0.0,0.0,0.0,0.0,0.4405045,488.83002,0.0,0.0,0.0,0.0,0.0,0.0,inf,inf,inf,inf,1,1,1,1,0,0,0,0,1,1,0
3786360000,0,47.3977508,8.5456074,-0.122314416,-0.052687872,-2.5920105,0.0,0.0,0.0,0.0,0.02,-2.18,0.0,0.0,0.0,0.0,0.0,0.0,0.0,0.440792,488.83002,0.0,0.0,0.0,0.0,0.0,0.0,inf,inf,inf,inf,1,1,1,1,0,0,0,0,1,1,0
3786464000,0,47.3977508,8.5456074,-0.122314416,-0.04516103,-2.8139954,0.0,0.0,0.0,0.0,0.02,-2.1,0.0,0.0,0.0,0.0,0.0,0.0,0.0,0.44086403,488.83002,0.0,0.0,0.0,0.0,0.0,0.0,inf,inf,inf,inf,1,1,1,1,0,0,0,0,1,1,0
3786564000,0,47.3977508,8.5456074,-0.122314416,-0.04516103,-3.0220032,0.0,0.0,0.0,0.0,0.02,-2.04,0.0,0.0,0.0,0.0,0.0,0.0,0.0,0.44082758,488.83002,0.0,0.0,0.0,0.0,0.0,0.0,inf,inf,inf,inf,1,1,1,1,0,0,0,0,1,1,0
3786664000,0,47.3977508,8.5456074,-0.122314416,-0.04516103,-3.2149963,0.0,0.0,0.0,0.0,0.02,-1.9799999,0.0,0.0,0.0,0.0,0.0,0.0,0.0,0.44071367,488.83002,0.0,0.0,0.0,0.0,0.0,0.0,inf,inf,inf,inf,1,1,1,1,0,0,0,0,1,1,0
3786764000,0,47.3977508,8.5456074,-0.122314416,-0.04516103,-3.4190063,0.0,0.0,0.0,0.0,0.01,-1.93,0.0,0.0,0.0,0.0,0.0,0.0,0.0,0.44051012,488.83002,0.0,0.0,0.0,0.0,0.0,0.0,inf,inf,inf,inf,1,1,1,1,0,0,0,0,1,1,0
3786860000,0,47.3977508,8.5456074,-0.122314416,-0.037634194,-3.6029968,0.0,0.0,0.0,0.0,0.01,-1.89,0.0,0.0,0.0,0.0,0.0,0.0,0.0,0.44037548,488.83002,0.0,0.0,0.0,0.0,0.0,0.0,inf,inf,inf,inf,1,1,1,1,0,0,0,0,1,1,0
3786964000,0,47.3977508,8.5456074,-0.122314416,-0.037634194,-3.7980042,0.0,0.0,0.0,0.0,0.01,-1.8499999,0.0,0.0,0.0,0.0,0.0,0.0,0.0,0.4402494,488.83002,0.0,0.0,0.0,0.0,0.0,0.0,inf,inf,inf,inf,1,1,1,1,0,0,0,0,1,1,0
3787064000,0,47.3977508,8.5456074,-0.122314416,-0.037634194,-3.9819946,0.0,0.0,0.0,0.0,0.01,-1.8199999,0.0,0.0,0.0,0.0,0.0,0.0,0.0,0.44001055,488.83002,0.0,0.0,0.0,0.0,0.0,0.0,inf,inf,inf,inf,1,1,1,1,0,0,0,0,1,1,0
3787164000,0,47.3977508,8.5456074,-0.122314416,-0.037634194,-4.162018,0.0,0.0,0.0,0.0,0.01,-1.78,0.0,0.0,0.0,0.0,0.0,0.0,0.0,0.4397242,488.83002,0.0,0.0,0.0,0.0,0.0,0.0,inf,inf,inf,inf,1,1,1,1,0,0,0,0,1,1,0
3787260000,0,47.3977508,8.5456074,-0.122314416,-0.037634194,-4.330017,0.0,0.0,0.0,0.0,0.0,-1.7099999,0.0,0.0,0.0,0.0,0.0,0.0,0.0,0.43942592,488.83002,0.0,0.0,0.0,0.0,0.0,0.0,inf,inf,inf,inf,1,1,1,1,0,0,0,0,1,1,0
3787364000,0,47.3977508,8.5456074,-0.122314416,-0.030107355,-4.503998,0.0,0.0,0.0,0.0,0.0,-1.63,0.0,0.0,0.0,0.0,0.0,0.0,0.0,0.43902233,488.83002,0.0,0.0,0.0,0.0,0.0,0.0,inf,inf,inf,inf,1,1,1,1,0,0,0,0,1,1,0
3787464000,0,47.3977508,8.5456074,-0.122314416,-0.030107355,-4.6640015,0.0,0.0,0.0,0.0,0.0,-1.56,0.0,0.0,0.0,0.0,0.0,0.0,0.0,0.43858787,488.83002,0.0,0.0,0.0,0.0,0.0,0.0,inf,inf,inf,inf,1,1,1,1,0,0,0,0,1,1,0
3787564000,0,47.3977508,8.5456074,-0.122314416,-0.030107355,-4.8170166,0.0,0.0,0.0,0.0,0.0,-1.5,0.0,0.0,0.0,0.0,0.0,0.0,0.0,0.4381859,488.83002,0.0,0.0,0.0,0.0,0.0,0.0,inf,inf,inf,inf,1,1,1,1,0,0,0,0,1,1,0
3787660000,0,47.3977508,8.5456074,-0.122314416,-0.030107355,-4.958008,0.0,0.0,0.0,0.0,0.0,-1.4399999,0.0,0.0,0.0,0.0,0.0,0.0,0.0,0.4378562,488.83002,0.0,0.0,0.0,0.0,0.0,0.0,inf,inf,inf,inf,1,1,1,1,0,0,0,0,1,1,0
3787764000,0,47.3977508,8.5456074,-0.122314416,-0.030107355,-5.104004,0.0,0.0,0.0,0.0,0.0,-1.38,0.0,0.0,0.0,0.0,0.0,0.0,0.0,0.4376447,488.83002,0.0,0.0,0.0,0.0,0.0,0.0,inf,inf,inf,inf,1,1,1,1,0,0,0,0,1,1,0
3787864000,0,47.3977508,8.5456074,-0.122314416,-0.030107355,-5.2400208,0.0,0.0,0.0,0.0,0.0,-1.3199999,0.0,0.0,0.0,0.0,0.0,0.0,0.0,0.4374273,488.83002,0.0,0.0,0.0,0.0,0.0,0.0,inf,inf,inf,inf,1,1,1,1,0,0,0,0,1,1,0
3787964000,0,47.3977508,8.5456074,-0.122314416,-0.030107355,-5.3690186,0.0,0.0,0.0,0.0,0.0,-1.26,0.0,0.0,0.0,0.0,0.0,0.0,0.0,0.43713352,488.83002,0.0,0.0,0.0,0.0,0.0,0.0,inf,inf,inf,inf,1,1,1,1,0,0,0,0,1,1,0
3788064000,0,47.3977508,8.5456074,-0.122314416,-0.030107355,-5.4940186,0.0,0.0,0.0,0.0,0.0,-1.2099999,0.0,0.0,0.0,0.0,0.0,0.0,0.0,0.43696925,488.83002,0.0,0.0,0.0,0.0,0.0,0.0,inf,inf,inf,inf,1,1,1,1,0,0,0,0,1,1,0
3788164000,0,47.3977508,8.5456074,-0.122314416,-0.030107355,-5.609009,0.0,0.0,0.0,0.0,0.0,-1.17,0.0,0.0,0.0,0.0,0.0,0.0,0.0,0.4367992,488.83002,0.0,0.0,0.0,0.0,0.0,0.0,inf,inf,inf,inf,1,1,1,1,0,0,0,0,1,1,0
3788264000,0,47.3977508,8.5456074,-0.13343391,-0.030107355,-5.729004,0.0,0.0,0.0,0.0,0.0,-1.13,0.0,0.0,0.0,0.0,0.0,0.0,0.0,0.43669072,488.83002,0.0,0.0,0.0,0.0,0.0,0.0,inf,inf,inf,inf,1,1,1,1,0,0,0,0,1,1,0
3788360000,0,47.3977508,8.5456074,-0.13343391,-0.030107355,-5.8370056,0.0,0.0,0.0,0.0,0.0,-1.09,0.0,0.0,0.0,0.0,0.0,0.0,0.0,0.43645066,488.83002,0.0,0.0,0.0,0.0,0.0,0.0,inf,inf,inf,inf,1,1,1,1,0,0,0,0,1,1,0
3788460000,0,47.3977508,8.5456074,-0.13343391,-0.030107355,-5.9400024,0.0,0.0,0.0,0.0,-0.01,-1.05,0.0,0.0,0.0,0.0,0.0,0.0,0.0,0.4361103,488.83002,0.0,0.0,0.0,0.0,0.0,0.0,inf,inf,inf,inf,1,1,1,1,0,0,0,0,1,1,0
3788560000,0,47.3977508,8.5456074,-0.13343391,-0.037634194,-6.046997,0.0,0.0,0.0,-0.01,-0.01,-1.01,0.0,0.0,0.0,0.0,0.0,0.0,0.0,0.43590796,488.83002,0.0,0.0,0.0,0.0,0.0,0.0,inf,inf,inf,inf,1,1,1,1,0,0,0,0,1,1,0
3788660000,0,47.3977508,8.5456074,-0.13343391,-0.037634194,-6.147003,0.0,0.0,0.0,-0.01,-0.01,-0.96999997,0.0,0.0,0.0,0.0,0.0,0.0,0.0,0.43566695,488.83002,0.0,0.0,0.0,0.0,0.0,0.0,inf,inf,inf,inf,1,1,1,1,0,0,0,0,1,1,0
3788760000,0,47.3977508,8.5456074,-0.13343391,-0.037634194,-6.2390137,0.0,0.0,0.0,-0.01,-0.02,-0.94,0.0,0.0,0.0,0.0,0.0,0.0,0.0,0.43546754,488.83002,0.0,0.0,0.0,0.0,0.0,0.0,inf,inf,inf,inf,1,1,1,1,0,0,0,0,1,1,0
3788864000,0,47.3977508,8.5456074,-0.13343391,-0.037634194,-6.3349915,0.0,0.0,0.0,-0.01,-0.02,-0.9,0.0,0.0,0.0,0.0,0.0,0.0,0.0,0.4351725,488.83002,0.0,0.0,0.0,0.0,0.0,0.0,inf,inf,inf,inf,1,1,1,1,0,0,0,0,1,1,0
3788964000,0,47.3977508,8.5456074,-0.13343391,-0.045161035,-6.428009,0.0,0.0,0.0,-0.01,-0.02,-0.87,0.0,0.0,0.0,0.0,0.0,0.0,0.0,0.43482465,488.83002,0.0,0.0,0.0,0.0,0.0,0.0,inf,inf,inf,inf,1,1,1,1,0,0,0,0,1,1,0
3789064000,0,47.3977508,8.5456074,-0.13343391,-0.045161035,-6.5140076,0.0,0.0,0.0,-0.01,-0.02,-0.84,0.0,0.0,0.0,0.0,0.0,0.0,0.0,0.4345476,488.83002,0.0,0.0,0.0,0.0,0.0,0.0,inf,inf,inf,inf,1,1,1,1,0,0,0,0,1,1,0
3789164000,0,47.3977508,8.5456074,-0.13343391,-0.045161035,-6.5970154,0.0,0.0,0.0,-0.01,-0.02,-0.81,0.0,0.0,0.0,0.0,0.0,0.0,0.0,0.43439132,488.83002,0.0,0.0,0.0,0.0,0.0,0.0,inf,inf,inf,inf,1,1,1,1,0,0,0,0,1,1,0
3789264000,0,47.3977508,8.5456074,-0.14455341,-0.052687872,-6.677002,0.0,0.0,0.0,-0.01,-0.03,-0.78999996,0.0,0.0,0.0,0.0,0.0,0.0,0.0,0.43419808,488.83002,0.0,0.0,0.0,0.0,0.0,0.0,inf,inf,inf,inf,1,1,1,1,0,0,0,0,1,1,0
3789364000,0,47.3977508,8.5456074,-0.14455341,-0.052687872,-6.756012,0.0,0.0,0.0,0.0,-0.03,-0.76,0.0,0.0,0.0,0.0,0.0,0.0,0.0,0.4339934,488.83002,0.0,0.0,0.0,0.0,0.0,0.0,inf,inf,inf,inf,1,1,1,1,0,0,0,0,1,1,0
3789464000,0,47.3977508,8.5456074,-0.14455341,-0.06021471,-6.8309937,0.0,0.0,0.0,0.0,-0.03,-0.72999996,0.0,0.0,0.0,0.0,0.0,0.0,0.0,0.43374708,488.83002,0.0,0.0,0.0,0.0,0.0,0.0,inf,inf,inf,inf,1,1,1,1,0,0,0,0,1,1,0
3789564000,0,47.3977508,8.5456074,-0.14455341,-0.06021471,-6.903015,0.0,0.0,0.0,0.0,-0.03,-0.71,0.0,0.0,0.0,0.0,0.0,0.0,0.0,0.43360293,488.83002,0.0,0.0,0.0,0.0,0.0,0.0,inf,inf,inf,inf,1,1,1,1,0,0,0,0,1,1,0
3789660000,0,47.3977508,8.5456074,-0.14455341,-0.06774155,-6.9710083,0.0,0.0,0.0,0.0,-0.03,-0.69,0.0,0.0,0.0,0.0,0.0,0.0,0.0,0.43361813,488.83002,0.0,0.0,0.0,0.0,0.0,0.0,inf,inf,inf,inf,1,1,1,1,0,0,0,0,1,1,0
3789764000,0,47.3977508,8.5456074,-0.14455341,-0.06774155,-7.0410156,0.0,0.0,0.0,0.0,-0.04,-0.65999997,0.0,0.0,0.0,0.0,0.0,0.0,0.0,0.43356743,488.83002,0.0,0.0,0.0,0.0,0.0,0.0,inf,inf,inf,inf,1,1,1,1,0,0,0,0,1,1,0
3789864000,0,47.3977508,8.5456074,-0.14455341,-0.07526839,-7.1069946,0.0,0.0,0.0,0.0,-0.04,-0.64,0.0,0.0,0.0,0.0,0.0,0.0,0.0,0.433394,488.83002,0.0,0.0,0.0,0.0,0.0,0.0,inf,inf,inf,inf,1,1,1,1,0,0,0,0,1,1,0
3789964000,0,47.3977508,8.5456074,-0.14455341,-0.07526839,-7.1710205,0.0,0.0,0.0,0.0,-0.04,-0.62,0.0,0.0,0.0,0.0,0.0,0.0,0.0,0.43330008,488.83002,0.0,0.0,0.0,0.0,0.0,0.0,inf,inf,inf,inf,1,1,1,1,0,0,0,0,1,1,0
3790064000,0,47.3977508,8.5456074,-0.14455341,-0.082795225,-7.2319946,0.0,0.0,0.0,0.0,-0.04,-0.59999996,0.0,0.0,0.0,0.0,0.0,0.0,0.0,0.4332328,488.83002,0.0,0.0,0.0,0.0,0.0,0.0,inf,inf,inf,inf,1,1,1,1,0,0,0,0,1,1,0
3790164000,0,47.3977508,8.5456074,-0.14455341,-0.09032207,-7.291992,0.0,0.0,0.0,0.0,-0.04,-0.58,0.0,0.0,0.0,0.0,0.0,0.0,0.0,0.43311617,488.83002,0.0,0.0,0.0,0.0,0.0,0.0,inf,inf,inf,inf,1,1,1,1,0,0,0,0,1,1,0
3790264000,0,47.3977508,8.5456074,-0.14455341,-0.09032207,-7.348999,0.0,0.0,0.0,0.0,-0.04,-0.56,0.0,0.0,0.0,0.0,0.0,0.0,0.0,0.43295386,488.83002,0.0,0.0,0.0,0.0,0.0,0.0,inf,inf,inf,inf,1,1,1,1,0,0,0,0,1,1,0
3790364000,0,47.3977508,8.5456074,-0.14455341,-0.09784891,-7.404999,0.0,0.0,0.0,0.0,-0.04,-0.53999996,0.0,0.0,0.0,0.0,0.0,0.0,0.0,0.43274415,488.83002,0.0,0.0,0.0,0.0,0.0,0.0,inf,inf,inf,inf,1,1,1,1,0,0,0,0,1,1,0
3790464000,0,47.3977508,8.5456074,-0.14455341,-0.09784891,-7.4559937,0.0,0.0,0.0,0.0,-0.04,-0.52,0.0,0.0,0.0,0.0,0.0,0.0,0.0,0.43259165,488.83002,0.0,0.0,0.0,0.0,0.0,0.0,inf,inf,inf,inf,1,1,1,1,0,0,0,0,1,1,0
3790564000,0,47.3977508,8.5456074,-0.14455341,-0.105375744,-7.51001,0.0,0.0,0.0,0.0,-0.04,-0.5,0.0,0.0,0.0,0.0,0.0,0.0,0.0,0.4323295,488.83002,0.0,0.0,0.0,0.0,0.0,0.0,inf,inf,inf,inf,1,1,1,1,0,0,0,0,1,1,0
3790664000,0,47.3977508,8.5456074,-0.1556729,-0.105375744,-7.559021,0.0,0.0,0.0,0.0,-0.04,-0.48,0.0,0.0,0.0,0.0,0.0,0.0,0.0,0.4320724,488.83002,0.0,0.0,0.0,0.0,0.0,0.0,inf,inf,inf,inf,1,1,1,1,0,0,0,0,1,1,0
3790764000,0,47.3977508,8.5456074,-0.1556729,-0.11290258,-7.6069946,0.0,0.0,0.0,0.0,-0.04,-0.47,0.0,0.0,0.0,0.0,0.0,0.0,0.0,0.4318937,488.83002,0.0,0.0,0.0,0.0,0.0,0.0,inf,inf,inf,inf,1,1,1,1,0,0,0,0,1,1,0
3790864000,0,47.3977508,8.5456074,-0.1556729,-0.11290258,-7.6539917,0.0,0.0,0.0,0.0,-0.04,-0.45,0.0,0.0,0.0,0.0,0.0,0.0,0.0,0.43179485,488.83002,0.0,0.0,0.0,0.0,0.0,0.0,inf,inf,inf,inf,1,1,1,1,0,0,0,0,1,1,0
3790964000,0,47.3977508,8.5456074,-0.1556729,-0.12042942,-7.697998,0.0,0.0,0.0,0.0,-0.04,-0.44,0.0,0.0,0.0,0.0,0.0,0.0,0.0,0.4316334,488.83002,0.0,0.0,0.0,0.0,0.0,0.0,inf,inf,inf,inf,1,1,1,1,0,0,0,0,1,1,0
3791064000,0,47.3977508,8.5456074,-0.1556729,-0.12042942,-7.7420044,0.0,0.0,0.0,0.0,-0.04,-0.42999998,0.0,0.0,0.0,0.0,0.0,0.0,0.0,0.43158633,488.83002,0.0,0.0,0.0,0.0,0.0,0.0,inf,inf,inf,inf,1,1,1,1,0,0,0,0,1,1,0
3791160000,0,47.3977508,8.5456074,-0.1556729,-0.12795626,-7.78302,0.0,0.0,0.0,0.0,-0.04,-0.42,0.0,0.0,0.0,0.0,0.0,0.0,0.0,0.43161833,488.83002,0.0,0.0,0.0,0.0,0.0,0.0,inf,inf,inf,inf,1,1,1,1,0,0,0,0,1,1,0
3791260000,0,47.3977508,8.5456074,-0.1556729,-0.1354831,-7.825012,0.0,0.0,0.0,0.0,-0.04,-0.41,0.0,0.0,0.0,0.0,0.0,0.0,0.0,0.43153274,488.83002,0.0,0.0,0.0,0.0,0.0,0.0,inf,inf,inf,inf,1,1,1,1,0,0,0,0,1,1,0
3791364000,0,47.3977508,8.5456074,-0.1556729,-0.1354831,-7.8670044,0.0,0.0,0.0,0.0,-0.04,-0.39999998,0.0,0.0,0.0,0.0,0.0,0.0,0.0,0.43140963,488.83002,0.0,0.0,0.0,0.0,0.0,0.0,inf,inf,inf,inf,1,1,1,1,0,0,0,0,1,1,0
3791464000,0,47.3977508,8.5456074,-0.1556729,-0.14300995,-7.907013,0.0,0.0,0.0,0.0,-0.04,-0.38,0.0,0.0,0.0,0.0,0.0,0.0,0.0,0.431433,488.83002,0.0,0.0,0.0,0.0,0.0,0.0,inf,inf,inf,inf,1,1,1,1,0,0,0,0,1,1,0
3791564000,0,47.3977508,8.5456074,-0.1556729,-0.14300995,-7.9450073,0.0,0.0,0.0,0.0,-0.04,-0.38,0.0,0.0,0.0,0.0,0.0,0.0,0.0,0.4314838,488.83002,0.0,0.0,0.0,0.0,0.0,0.0,inf,inf,inf,inf,1,1,1,1,0,0,0,0,1,1,0
3791664000,0,47.3977508,8.5456074,-0.1556729,-0.15053678,-7.9830017,0.0,0.0,0.0,0.0,-0.04,-0.37,0.0,0.0,0.0,0.0,0.0,0.0,0.0,0.43167502,488.83002,0.0,0.0,0.0,0.0,0.0,0.0,inf,inf,inf,inf,1,1,1,1,0,0,0,0,1,1,0
3791764000,0,47.3977508,8.5456074,-0.1556729,-0.15806362,-8.018005,0.0,0.0,0.0,0.0,-0.04,-0.35999998,0.0,0.0,0.0,0.0,0.0,0.0,0.0,0.43179578,488.83002,0.0,0.0,0.0,0.0,0.0,0.0,inf,inf,inf,inf,1,1,1,1,0,0,0,0,1,1,0
3791864000,0,47.3977508,8.5456074,-0.1667924,-0.15806362,-8.054993,0.0,0.0,0.0,0.0,-0.04,-0.35,0.0,0.0,0.0,0.0,0.0,0.0,0.0,0.43167067,488.83002,0.0,0.0,0.0,0.0,0.0,0.0,inf,inf,inf,inf,1,1,1,1,0,0,0,0,1,1,0
3791964000,0,47.3977508,8.5456074,-0.1667924,-0.16559045,-8.089996,0.0,0.0,0.0,0.0,-0.04,-0.34,0.0,0.0,0.0,0.0,0.0,0.0,0.0,0.43142998,488.83002,0.0,0.0,0.0,0.0,0.0,0.0,inf,inf,inf,inf,1,1,1,1,0,0,0,0,1,1,0
3792064000,0,47.3977508,8.5456074,-0.1667924,-0.16559045,-8.123993,0.0,0.0,0.0,-0.01,-0.04,-0.32,0.0,0.0,0.0,0.0,0.0,0.0,0.0,0.4312223,488.83002,0.0,0.0,0.0,0.0,0.0,0.0,inf,inf,inf,inf,1,1,1,1,0,0,0,0,1,1,0
3792164000,0,47.3977508,8.5456074,-0.1667924,-0.1731173,-8.156006,0.0,0.0,0.0,-0.01,-0.04,-0.31,0.0,0.0,0.0,0.0,0.0,0.0,0.0,0.43098578,488.83002,0.0,0.0,0.0,0.0,0.0,0.0,inf,inf,inf,inf,1,1,1,1,0,0,0,0,1,1,0
3792264000,0,47.3977508,8.5456074,-0.1667924,-0.1731173,-8.186005,0.0,0.0,0.0,-0.01,-0.04,-0.29999998,0.0,0.0,0.0,0.0,0.0,0.0,0.0,0.43070966,488.83002,0.0,0.0,0.0,0.0,0.0,0.0,inf,inf,inf,inf,1,1,1,1,0,0,0,0,1,1,0
3792360000,0,47.3977508,8.5456074,-0.1667924,-0.18064414,-8.214996,0.0,0.0,0.0,-0.01,-0.03,-0.29,0.0,0.0,0.0,0.0,0.0,0.0,0.0,0.4305564,488.83002,0.0,0.0,0.0,0.0,0.0,0.0,inf,inf,inf,inf,1,1,1,1,0,0,0,0,1,1,0
3792464000,0,47.3977508,8.5456074,-0.1667924,-0.18064414,-8.244019,0.0,0.0,0.0,-0.01,-0.03,-0.28,0.0,0.0,0.0,0.0,0.0,0.0,0.0,0.4303736,488.83002,0.0,0.0,0.0,0.0,0.0,0.0,inf,inf,inf,inf,1,1,1,1,0,0,0,0,1,1,0
3792560000,0,47.3977508,8.5456074,-0.1667924,-0.18817097,-8.270996,0.0,0.0,0.0,-0.01,-0.03,-0.26999998,0.0,0.0,0.0,0.0,0.0,0.0,0.0,0.430271,488.83002,0.0,0.0,0.0,0.0,0.0,0.0,inf,inf,inf,inf,1,1,1,1,0,0,0,0,1,1,0
3792664000,0,47.3977508,8.5456074,-0.1667924,-0.18817097,-8.299011,0.0,0.0,0.0,-0.01,-0.03,-0.25,0.0,0.0,0.0,0.0,0.0,0.0,0.0,0.43028593,488.83002,0.0,0.0,0.0,0.0,0.0,0.0,inf,inf,inf,inf,1,1,1,1,0,0,0,0,1,1,0
3792764000,0,47.3977508,8.5456074,-0.17791188,-0.19569781,-8.324005,0.0,0.0,0.0,-0.01,-0.03,-0.24,0.0,0.0,0.0,0.0,0.0,0.0,0.0,0.43020463,488.83002,0.0,0.0,0.0,0.0,0.0,0.0,inf,inf,inf,inf,1,1,1,1,0,0,0,0,1,1,0
3792864000,0,47.3977508,8.5456074,-0.17791188,-0.19569781,-8.348999,0.0,0.0,0.0,-0.01,-0.03,-0.24,0.0,0.0,0.0,0.0,0.0,0.0,0.0,0.43002838,488.83002,0.0,0.0,0.0,0.0,0.0,0.0,inf,inf,inf,inf,1,1,1,1,0,0,0,0,1,1,0
3792960000,0,47.3977508,8.5456074,-0.17791188,-0.20322464,-8.372009,0.0,0.0,0.0,-0.01,-0.02,-0.22999999,0.0,0.0,0.0,0.0,0.0,0.0,0.0,0.42990634,488.83002,0.0,0.0,0.0,0.0,0.0,0.0,inf,inf,inf,inf,1,1,1,1,0,0,0,0,1,1,0
3793064000,0,47.3977508,8.5456074,-0.17791188,-0.20322464,-8.395996,0.0,0.0,0.0,-0.01,-0.02,-0.22999999,0.0,0.0,0.0,0.0,0.0,0.0,0.0,0.4298132,488.83002,0.0,0.0,0.0,0.0,0.0,0.0,inf,inf,inf,inf,1,1,1,1,0,0,0,0,1,1,0
3793164000,0,47.3977508,8.5456074,-0.17791188,-0.20322464,-8.419006,0.0,0.0,0.0,-0.01,-0.02,-0.22,0.0,0.0,0.0,0.0,0.0,0.0,0.0,0.42985392,488.83002,0.0,0.0,0.0,0.0,0.0,0.0,inf,inf,inf,inf,1,1,1,1,0,0,0,0,1,1,0
3793260000,0,47.3977508,8.5456074,-0.17791188,-0.21075149,-8.4410095,0.0,0.0,0.0,-0.01,-0.02,-0.21,0.0,0.0,0.0,0.0,0.0,0.0,0.0,0.42988998,488.83002,0.0,0.0,0.0,0.0,0.0,0.0,inf,inf,inf,inf,1,1,1,1,0,0,0,0,1,1,0
3793364000,0,47.3977508,8.5456074,-0.17791188,-0.21075149,-8.463013,0.0,0.0,0.0,-0.01,-0.01,-0.19999999,0.0,0.0,0.0,0.0,0.0,0.0,0.0,0.4298729,488.83002,0.0,0.0,0.0,0.0,0.0,0.0,inf,inf,inf,inf,1,1,1,1,0,0,0,0,1,1,0
3793464000,0,47.3977508,8.5456074,-0.18903138,-0.21075149,-8.484009,0.0,0.0,0.0,0.0,-0.01,-0.19999999,0.0,0.0,0.0,0.0,0.0,0.0,0.0,0.42805055,488.83002,0.0,0.0,0.0,0.0,0.0,0.0,inf,inf,inf,inf,1,1,1,1,0,0,0,0,1,1,0
3793560000,0,47.3977508,8.5456074,-0.18903138,-0.21075149,-8.503021,0.0,0.0,0.0,0.0,-0.01,-0.19,0.0,0.0,0.0,0.0,0.0,0.0,0.0,0.41602704,488.83002,0.0,0.0,0.0,0.0,0.0,0.0,inf,inf,inf,inf,1,1,1,1,0,0,0,0,1,1,0
3793660000,0,47.3977508,8.5456074,-0.18903138,-0.21827833,-8.52301,0.0,0.0,0.0,0.0,-0.02,-0.19,0.0,0.0,0.0,0.0,0.0,0.0,0.0,0.3881624,488.83002,0.0,0.0,0.0,0.0,0.0,0.0,inf,inf,inf,inf,1,1,1,1,0,0,0,0,1,1,0
3793764000,0,47.3977508,8.5456074,-0.18903138,-0.21827833,-8.542999,0.0,0.0,0.0,-0.03,-0.07,-0.19999999,0.0,0.0,0.0,0.0,0.0,0.0,0.0,0.34331578,488.83002,0.0,0.0,0.0,0.0,0.0,0.0,inf,inf,inf,inf,1,1,1,1,0,0,0,0,1,1,0
3793864000,0,47.3977508,8.5456074,-0.18903138,-0.23333201,-8.563995,0.0,0.0,0.0,-0.11,-0.17999999,-0.19999999,0.0,0.0,0.0,0.0,0.0,0.0,0.0,0.28638855,488.83002,0.0,0.0,0.0,0.0,0.0,0.0,inf,inf,inf,inf,1,1,1,1,0,0,0,0,1,1,0
3793964000,0,47.3977508,8.5456074,-0.21127036,-0.2559125,-8.584015,0.0,0.0,0.0,-0.22999999,-0.34,-0.19999999,0.0,0.0,0.0,0.0,0.0,0.0,0.0,0.21901599,488.83002,0.0,0.0,0.0,0.0,0.0,0.0,inf,inf,inf,inf,1,1,1,1,0,0,0,0,1,1,0
3794064000,0,47.3977508,8.5456074,-0.24462883,-0.30107355,-8.604004,0.0,0.0,0.0,-0.38,-0.53999996,-0.19,0.0,0.0,0.0,0.0,0.0,0.0,0.0,0.14640158,488.83002,0.0,0.0,0.0,0.0,0.0,0.0,inf,inf,inf,inf,1,1,1,1,0,0,0,0,1,1,0
3794164000,0,47.3977508,8.5456074,-0.2891068,-0.36881512,-8.623016,0.0,0.0,0.0,-0.55,-0.77,-0.17,0.0,0.0,0.0,0.0,0.0,0.0,0.0,0.07263786,488.83002,0.0,0.0,0.0,0.0,0.0,0.0,inf,inf,inf,inf,1,1,1,1,0,0,0,0,1,1,0
3794264000,0,47.3977508,8.5456074,-0.35582376,-0.4591372,-8.640015,0.0,0.0,0.0,-0.72999996,-1.01,-0.16,0.0,0.0,0.0,0.0,0.0,0.0,0.0,-0.0012346864,488.83002,0.0,0.0,0.0,0.0,0.0,0.0,inf,inf,inf,inf,1,1,1,1,0,0,0,0,1,1,0
3794364000,0,47.3977508,8.5456074,-0.43366018,-0.5720398,-8.656006,0.0,0.0,0.0,-0.9,-1.24,-0.14999999,0.0,0.0,0.0,0.0,0.0,0.0,0.0,-0.07595719,488.83002,0.0,0.0,0.0,0.0,0.0,0.0,inf,inf,inf,inf,1,1,1,1,0,0,0,0,1,1,0
3794460000,0,47.3977508,8.5456074,-0.53373563,-0.7075229,-8.6710205,0.0,0.0,0.0,-1.05,-1.4599999,-0.14,0.0,0.0,0.0,0.0,0.0,0.0,0.0,-0.14899261,488.83002,0.0,0.0,0.0,0.0,0.0,0.0,inf,inf,inf,inf,1,1,1,1,0,0,0,0,1,1,0
3794564000,0,47.3977508,8.5456074,-0.6449305,-0.8731134,-8.684998,0.0,0.0,0.0,-1.2099999,-1.68,-0.12,0.0,0.0,0.0,0.0,0.0,0.0,0.0,-0.2286062,488.83002,0.0,0.0,0.0,0.0,0.0,0.0,inf,inf,inf,inf,1,1,1,1,0,0,0,0,1,1,0
3794664000,0,47.3977508,8.5456074,-0.7783644,-1.0537575,-8.6970215,0.0,0.0,0.0,-1.36,-1.89,-0.12,0.0,0.0,0.0,0.0,0.0,0.0,0.0,-0.30529377,488.83002,0.0,0.0,0.0,0.0,0.0,0.0,inf,inf,inf,inf,1,1,1,1,0,0,0,0,1,1,0
3794764000,0,47.3977508,8.5456074,-0.9229178,-1.2494555,-8.709991,0.0,0.0,0.0,-1.5,-2.08,-0.12,0.0,0.0,0.0,0.0,0.0,0.0,0.0,-0.38218373,488.83002,0.0,0.0,0.0,0.0,0.0,0.0,inf,inf,inf,inf,1,1,1,1,0,0,0,0,1,1,0
3794864000,0,47.3977508,8.5456074,-1.0785906,-1.4677339,-8.722015,0.0,0.0,0.0,-1.63,-2.26,-0.11,0.0,0.0,0.0,0.0,0.0,0.0,0.0,-0.45959228,488.83002,0.0,0.0,0.0,0.0,0.0,0.0,inf,inf,inf,inf,1,1,1,1,0,0,0,0,1,1,0
3794960000,0,47.3977508,8.5456074,-1.2453829,-1.693539,-8.733002,0.0,0.0,0.0,-1.75,-2.4299998,-0.11,0.0,0.0,0.0,0.0,0.0,0.0,0.0,-0.5345583,488.83002,0.0,0.0,0.0,0.0,0.0,0.0,inf,inf,inf,inf,1,1,1,1,0,0,0,0,1,1,0
3795064000,0,47.3977508,8.5456074,-1.4344143,-1.9569786,-8.744995,0.0,0.0,0.0,-1.88,-2.61,-0.11,0.0,0.0,0.0,0.0,0.0,0.0,0.0,-0.6161486,488.83002,0.0,0.0,0.0,0.0,0.0,0.0,inf,inf,inf,inf,1,1,1,1,0,0,0,0,1,1,0
3795160000,0,47.3977508,8.5456074,-1.6234455,-2.220418,-8.756012,0.0,0.0,0.0,-1.99,-2.77,-0.099999994,0.0,0.0,0.0,0.0,0.0,0.0,0.0,-0.6918865,488.83002,0.0,0.0,0.0,0.0,0.0,0.0,inf,inf,inf,inf,1,1,1,1,0,0,0,0,1,1,0
3795260000,0,47.3977508,8.5456074,-1.8235962,-2.506438,-8.766022,0.0,0.0,0.0,-2.11,-2.9199998,-0.089999996,0.0,0.0,0.0,0.0,0.0,0.0,0.0,-0.772298,488.83002,0.0,0.0,0.0,0.0,0.0,0.0,inf,inf,inf,inf,1,1,1,1,0,0,0,0,1,1,0
3795364000,0,47.3977508,8.5456074,-2.045986,-2.8075118,-8.774994,0.0,0.0,0.0,-2.22,-3.05,-0.08,0.0,0.0,0.0,0.0,0.0,0.0,0.0,-0.856283,488.83002,0.0,0.0,0.0,0.0,0.0,0.0,inf,inf,inf,inf,1,1,1,1,0,0,0,0,1,1,0
3795464000,0,47.3977508,8.5456074,-2.2794952,-3.1311662,-8.783997,0.0,0.0,0.0,-2.32,-3.1399999,-0.07,0.0,0.0,0.0,0.0,0.0,0.0,0.0,-0.9367879,488.83002,0.0,0.0,0.0,0.0,0.0,0.0,inf,inf,inf,inf,1,1,1,1,0,0,0,0,1,1,0
3795564000,0,47.3977508,8.5456074,-2.524124,-3.4472935,-8.790009,0.0,0.0,0.0,-2.3999999,-3.21,-0.06,0.0,0.0,0.0,0.0,0.0,0.0,0.0,-1.0172058,488.83002,0.0,0.0,0.0,0.0,0.0,0.0,inf,inf,inf,inf,1,1,1,1,0,0,0,0,1,1,0
3795660000,0,47.3977508,8.5456074,-2.757633,-3.7558942,-8.7960205,0.0,0.0,0.0,-2.45,-3.24,-0.049999997,0.0,0.0,0.0,0.0,0.0,0.0,0.0,-1.0942678,488.83002,0.0,0.0,0.0,0.0,0.0,0.0,inf,inf,inf,inf,1,1,1,1,0,0,0,0,1,1,0
3795764000,0,47.3977508,8.5456074,-3.013381,-4.0946026,-8.802002,0.0,0.0,0.0,-2.48,-3.25,-0.06,0.0,0.0,0.0,0.0,0.0,0.0,0.0,-1.1771387,488.83002,0.0,0.0,0.0,0.0,0.0,0.0,inf,inf,inf,inf,1,1,1,1,0,0,0,0,1,1,0
3795864000,0,47.3977508,8.5456074,-3.2580097,-4.41073,-8.808014,0.0,0.0,0.0,-2.49,-3.25,-0.06,0.0,0.0,0.0,0.0,0.0,0.0,0.0,-1.2558746,488.83002,0.0,0.0,0.0,0.0,0.0,0.0,inf,inf,inf,inf,1,1,1,1,0,0,0,0,1,1,0
3795964000,0,47.3977508,8.5456074,-3.5137577,-4.7494383,-8.8160095,0.0,0.0,0.0,-2.49,-3.25,-0.07,0.0,0.0,0.0,0.0,0.0,0.0,0.0,-1.3344648,488.83002,0.0,0.0,0.0,0.0,0.0,0.0,inf,inf,inf,inf,1,1,1,1,0,0,0,0,1,1,0
3796064000,0,47.3977508,8.5456074,-3.7583864,-5.0655656,-8.822998,0.0,0.0,0.0,-2.49,-3.25,-0.07,0.0,0.0,0.0,0.0,0.0,0.0,0.0,-1.4135073,488.83002,0.0,0.0,0.0,0.0,0.0,0.0,inf,inf,inf,inf,1,1,1,1,0,0,0,0,1,1,0
3796160000,0,47.3977508,8.5456074,-3.9918954,-5.3816934,-8.830017,0.0,0.0,0.0,-2.49,-3.25,-0.07,0.0,0.0,0.0,0.0,0.0,0.0,0.0,-1.4901524,488.83002,0.0,0.0,0.0,0.0,0.0,0.0,inf,inf,inf,inf,1,1,1,1,0,0,0,0,1,1,0
3796260000,0,47.3977508,8.5456074,-4.258763,-5.720402,-8.838013,0.0,0.0,0.0,-2.49,-3.26,-0.07,0.0,0.0,0.0,0.0,0.0,0.0,0.0,-1.5700853,488.83002,0.0,0.0,0.0,0.0,0.0,0.0,inf,inf,inf,inf,1,1,1,1,0,0,0,0,1,1,0
3796364000,0,47.3977508,8.5456074,-4.514511,-6.0591097,-8.846008,0.0,0.0,0.0,-2.49,-3.26,-0.08,0.0,0.0,0.0,0.0,0.0,0.0,0.0,-1.6532608,488.83002,0.0,0.0,0.0,0.0,0.0,0.0,inf,inf,inf,inf,1,1,1,1,0,0,0,0,1,1,0
3796464000,0,47.3977508,8.5456074,-4.770259,-6.3827643,-8.854004,0.0,0.0,0.0,-2.5,-3.26,-0.07,0.0,0.0,0.0,0.0,0.0,0.0,0.0,-1.7328802,488.83002,0.0,0.0,0.0,0.0,0.0,0.0,inf,inf,inf,inf,1,1,1,1,0,0,0,0,1,1,0
3796564000,0,47.3977508,8.5456074,-5.0148873,-6.713946,-8.8619995,0.0,0.0,0.0,-2.5,-3.26,-0.08,0.0,0.0,0.0,0.0,0.0,0.0,0.0,-1.8125803,488.83002,0.0,0.0,0.0,0.0,0.0,0.0,inf,inf,inf,inf,1,1,1,1,0,0,0,0,1,1,0
3796664000,0,47.3977508,8.5456074,-5.259516,-7.0300736,-8.869995,0.0,0.0,0.0,-2.5,-3.27,-0.07,0.0,0.0,0.0,0.0,0.0,0.0,0.0,-1.892465,488.83002,0.0,0.0,0.0,0.0,0.0,0.0,inf,inf,inf,inf,1,1,1,1,0,0,0,0,1,1,0
3796764000,0,47.3977508,8.5456074,-5.5152636,-7.368782,-8.878021,0.0,0.0,0.0,-2.51,-3.27,-0.07,0.0,0.0,0.0,0.0,0.0,0.0,0.0,-1.9719427,488.83002,0.0,0.0,0.0,0.0,0.0,0.0,inf,inf,inf,inf,1,1,1,1,0,0,0,0,1,1,0
3796864000,0,47.3977508,8.5456074,-5.771012,-7.6999636,-8.886017,0.0,0.0,0.0,-2.51,-3.28,-0.07,0.0,0.0,0.0,0.0,0.0,0.0,0.0,-2.0479212,488.83002,0.0,0.0,0.0,0.0,0.0,0.0,inf,inf,inf,inf,1,1,1,1,0,0,0,0,1,1,0
3796964000,0,47.3977508,8.5456074,-6.0267596,-8.031145,-8.893005,0.0,0.0,0.0,-2.51,-3.28,-0.07,0.0,0.0,0.0,0.0,0.0,0.0,0.0,-2.1095936,488.83002,0.0,0.0,0.0,0.0,0.0,0.0,inf,inf,inf,inf,1,1,1,1,0,0,0,0,1,1,0
3797064000,0,47.3977508,8.5456074,-6.271388,-8.3548,-8.901001,0.0,0.0,0.0,-2.51,-3.29,-0.07,0.0,0.0,0.0,0.0,0.0,0.0,0.0,-2.1545606,488.83002,0.0,0.0,0.0,0.0,0.0,0.0,inf,inf,inf,inf,1,1,1,1,0,0,0,0,1,1,0
3797164000,0,47.3977508,8.5456074,-6.5160165,-8.678454,-8.90802,0.0,0.0,0.0,-2.51,-3.3,-0.07,0.0,0.0,0.0,0.0,0.0,0.0,0.0,-2.1870005,488.83002,0.0,0.0,0.0,0.0,0.0,0.0,inf,inf,inf,inf,1,1,1,1,0,0,0,0,1,1,0
3797264000,0,47.3977508,8.5456074,-6.7828836,-9.017163,-8.915009,0.0,0.0,0.0,-2.52,-3.3,-0.06,0.0,0.0,0.0,0.0,0.0,0.0,0.0,-2.210674,488.83002,0.0,0.0,0.0,0.0,0.0,0.0,inf,inf,inf,inf,1,1,1,1,0,0,0,0,1,1,0
3797364000,0,47.3977508,8.5456074,-7.027512,-9.348345,-8.921997,0.0,0.0,0.0,-2.52,-3.3,-0.06,0.0,0.0,0.0,0.0,0.0,0.0,0.0,-2.2277012,488.83002,0.0,0.0,0.0,0.0,0.0,0.0,inf,inf,inf,inf,1,1,1,1,0,0,0,0,1,1,0
3797464000,0,47.3977508,8.5456074,-7.27214,-9.672,-8.929016,0.0,0.0,0.0,-2.53,-3.31,-0.06,0.0,0.0,0.0,0.0,0.0,0.0,0.0,-2.2397637,488.83002,0.0,0.0,0.0,0.0,0.0,0.0,inf,inf,inf,inf,1,1,1,1,0,0,0,0,1,1,0
3797564000,0,47.3977508,8.5456074,-7.5390077,-10.018235,-8.936005,0.0,0.0,0.0,-2.54,-3.31,-0.06,0.0,0.0,0.0,0.0,0.0,0.0,0.0,-2.2480757,488.83002,0.0,0.0,0.0,0.0,0.0,0.0,inf,inf,inf,inf,1,1,1,1,0,0,0,0,1,1,0
3797664000,0,47.3977508,8.5456074,-7.794755,-10.349417,-8.942017,0.0,0.0,0.0,-2.55,-3.32,-0.06,0.0,0.0,0.0,0.0,0.0,0.0,0.0,-2.2538145,488.83002,0.0,0.0,0.0,0.0,0.0,0.0,inf,inf,inf,inf,1,1,1,1,0,0,0,0,1,1,0
3797764000,0,47.3977508,8.5456074,-8.050503,-10.680599,-8.947998,0.0,0.0,0.0,-2.55,-3.33,-0.049999997,0.0,0.0,0.0,0.0,0.0,0.0,0.0,-2.257454,488.83002,0.0,0.0,0.0,0.0,0.0,0.0,inf,inf,inf,inf,1,1,1,1,0,0,0,0,1,1,0
3797864000,0,47.3977508,8.5456074,-8.295131,-11.004253,-8.953003,0.0,0.0,0.0,-2.56,-3.34,-0.049999997,0.0,0.0,0.0,0.0,0.0,0.0,0.0,-2.2594662,488.83002,0.0,0.0,0.0,0.0,0.0,0.0,inf,inf,inf,inf,1,1,1,1,0,0,0,0,1,1,0
3797964000,0,47.3977508,8.5456074,-8.573118,-11.35049,-8.959015,0.0,0.0,0.0,-2.57,-3.35,-0.049999997,0.0,0.0,0.0,0.0,0.0,0.0,0.0,-2.2605677,488.83002,0.0,0.0,0.0,0.0,0.0,0.0,inf,inf,inf,inf,1,1,1,1,0,0,0,0,1,1,0
3798060000,0,47.3977508,8.5456074,-8.817746,-11.674145,-8.96402,0.0,0.0,0.0,-2.58,-3.35,-0.04,0.0,0.0,0.0,0.0,0.0,0.0,0.0,-2.2608576,488.83002,0.0,0.0,0.0,0.0,0.0,0.0,inf,inf,inf,inf,1,1,1,1,0,0,0,0,1,1,0
3798160000,0,47.3977508,8.5456074,-9.073494,-12.012853,-8.968018,0.0,0.0,0.0,-2.59,-3.36,-0.04,0.0,0.0,0.0,0.0,0.0,0.0,0.0,-2.2607996,488.83002,0.0,0.0,0.0,0.0,0.0,0.0,inf,inf,inf,inf,1,1,1,1,0,0,0,0,1,1,0
3798260000,0,47.3977508,8.5456074,-9.329242,-12.336508,-8.972992,0.0,0.0,0.0,-2.59,-3.36,-0.04,0.0,0.0,0.0,0.0,0.0,0.0,0.0,-2.2604494,488.83002,0.0,0.0,0.0,0.0,0.0,0.0,inf,inf,inf,inf,1,1,1,1,0,0,0,0,1,1,0
3798364000,0,47.3977508,8.5456074,-9.607228,-12.697798,-8.977997,0.0,0.0,0.0,-2.6,-3.37,-0.04,0.0,0.0,0.0,0.0,0.0,0.0,0.0,-2.2596107,488.83002,0.0,0.0,0.0,0.0,0.0,0.0,inf,inf,inf,inf,1,1,1,1,0,0,0,0,1,1,0
3798464000,0,47.3977508,8.5456074,-9.874095,-13.036507,-8.983002,0.0,0.0,0.0,-2.6,-3.37,-0.04,0.0,0.0,0.0,0.0,0.0,0.0,0.0,-2.258411,488.83002,0.0,0.0,0.0,0.0,0.0,0.0,inf,inf,inf,inf,1,1,1,1,0,0,0,0,1,1,0
3798564000,0,47.3977508,8.5456074,-10.129843,-13.375216,-8.988007,0.0,0.0,0.0,-2.61,-3.37,-0.04,0.0,0.0,0.0,0.0,0.0,0.0,0.0,-2.2573447,488.83002,0.0,0.0,0.0,0.0,0.0,0.0,inf,inf,inf,inf,1,1,1,1,0,0,0,0,1,1,0
3798664000,0,47.3977508,8.5456074,-10.396709,-13.713924,-8.993011,0.0,0.0,0.0,-2.61,-3.37,-0.04,0.0,0.0,0.0,0.0,0.0,0.0,0.0,-2.2562976,488.83002,0.0,0.0,0.0,0.0,0.0,0.0,inf,inf,inf,inf,1,1,1,1,0,0,0,0,1,1,0
3798760000,0,47.3977508,8.5456074,-10.641337,-14.045107,-8.998016,0.0,0.0,0.0,-2.62,-3.3799999,-0.049999997,0.0,0.0,0.0,0.0,0.0,0.0,0.0,-2.255231,488.83002,0.0,0.0,0.0,0.0,0.0,0.0,inf,inf,inf,inf,1,1,1,1,0,0,0,0,1,1,0
3798864000,0,47.3977508,8.5456074,-10.919324,-14.391342,-9.003021,0.0,0.0,0.0,-2.62,-3.3799999,-0.049999997,0.0,0.0,0.0,0.0,0.0,0.0,0.0,-2.254193,488.83002,0.0,0.0,0.0,0.0,0.0,0.0,inf,inf,inf,inf,1,1,1,1,0,0,0,0,1,1,0
3798964000,0,47.3977508,8.5456074,-11.186192,-14.737578,-9.009003,0.0,0.0,0.0,-2.62,-3.3799999,-0.06,0.0,0.0,0.0,0.0,0.0,0.0,0.0,-2.2532568,488.83002,0.0,0.0,0.0,0.0,0.0,0.0,inf,inf,inf,inf,1,1,1,1,0,0,0,0,1,1,0
3799064000,0,47.3977508,8.5456074,-11.441938,-15.076287,-9.016022,0.0,0.0,0.0,-2.62,-3.3799999,-0.06,0.0,0.0,0.0,0.0,0.0,0.0,0.0,-2.2521043,488.83002,0.0,0.0,0.0,0.0,0.0,0.0,inf,inf,inf,inf,1,1,1,1,0,0,0,0,1,1,0
3799164000,0,47.3977508,8.5456074,-11.708805,-15.414996,-9.022003,0.0,0.0,0.0,-2.62,-3.3799999,-0.06,0.0,0.0,0.0,0.0,0.0,0.0,0.0,-2.2508821,488.83002,0.0,0.0,0.0,0.0,0.0,0.0,inf,inf,inf,inf,1,1,1,1,0,0,0,0,1,1,0
3799264000,0,47.3977508,8.5456074,-11.975673,-15.753706,-9.028015,0.0,0.0,0.0,-2.6299999,-3.3899999,-0.06,0.0,0.0,0.0,0.0,0.0,0.0,0.0,-2.2497725,488.83002,0.0,0.0,0.0,0.0,0.0,0.0,inf,inf,inf,inf,1,1,1,1,0,0,0,0,1,1,0
3799364000,0,47.3977508,8.5456074,-12.242539,-16.092415,-9.035004,0.0,0.0,0.0,-2.6299999,-3.3899999,-0.06,0.0,0.0,0.0,0.0,0.0,0.0,0.0,-2.2488327,488.83002,0.0,0.0,0.0,0.0,0.0,0.0,inf,inf,inf,inf,1,1,1,1,0,0,0,0,1,1,0
3799464000,0,47.3977508,8.5456074,-12.498286,-16.431124,-9.041992,0.0,0.0,0.0,-2.6299999,-3.3899999,-0.06,0.0,0.0,0.0,0.0,0.0,0.0,0.0,-2.2476504,488.83002,0.0,0.0,0.0,0.0,0.0,0.0,inf,inf,inf,inf,1,1,1,1,0,0,0,0,1,1,0
3799564000,0,47.3977508,8.5456074,-12.765154,-16.77736,-9.048004,0.0,0.0,0.0,-2.6299999,-3.3999999,-0.06,0.0,0.0,0.0,0.0,0.0,0.0,0.0,-2.2465396,488.83002,0.0,0.0,0.0,0.0,0.0,0.0,inf,inf,inf,inf,1,1,1,1,0,0,0,0,1,1,0
3799664000,0,47.3977508,8.5456074,-13.032021,-17.11607,-9.054993,0.0,0.0,0.0,-2.6299999,-3.3999999,-0.06,0.0,0.0,0.0,0.0,0.0,0.0,0.0,-2.2456708,488.83002,0.0,0.0,0.0,0.0,0.0,0.0,inf,inf,inf,inf,1,1,1,1,0,0,0,0,1,1,0
3799760000,0,47.3977508,8.5456074,-13.287767,-17.447252,-9.062012,0.0,0.0,0.0,-2.6299999,-3.3999999,-0.06,0.0,0.0,0.0,0.0,0.0,0.0,0.0,-2.2451768,488.83002,0.0,0.0,0.0,0.0,0.0,0.0,inf,inf,inf,inf,1,1,1,1,0,0,0,0,1,1,0
3799864000,0,47.3977508,8.5456074,-13.565754,-17.801014,-9.069,0.0,0.0,0.0,-2.6399999,-3.3999999,-0.06,0.0,0.0,0.0,0.0,0.0,0.0,0.0,-2.2443895,488.83002,0.0,0.0,0.0,0.0,0.0,0.0,inf,inf,inf,inf,1,1,1,1,0,0,0,0,1,1,0
3799960000,0,47.3977508,8.5456074,-13.810382,-18.12467,-9.076019,0.0,0.0,0.0,-2.6399999,-3.3999999,-0.06,0.0,0.0,0.0,0.0,0.0,0.0,0.0,-2.2434843,488.83002,0.0,0.0,0.0,0.0,0.0,0.0,inf,inf,inf,inf,1,1,1,1,0,0,0,0,1,1,0
3800060000,0,47.3977508,8.5456074,-14.077249,-18.470907,-9.083008,0.0,0.0,0.0,-2.6399999,-3.3999999,-0.06,0.0,0.0,0.0,0.0,0.0,0.0,0.0,-2.242842,488.83002,0.0,0.0,0.0,0.0,0.0,0.0,inf,inf,inf,inf,1,1,1,1,0,0,0,0,1,1,0
3800164000,0,47.3977508,8.5456074,-14.355235,-18.824669,-9.089996,0.0,0.0,0.0,-2.6399999,-3.4099998,-0.06,0.0,0.0,0.0,0.0,0.0,0.0,0.0,-2.242296,488.83002,0.0,0.0,0.0,0.0,0.0,0.0,inf,inf,inf,inf,1,1,1,1,0,0,0,0,1,1,0
3800260000,0,47.3977508,8.5456074,-14.610982,-19.155851,-9.096008,0.0,0.0,0.0,-2.6399999,-3.4099998,-0.06,0.0,0.0,0.0,0.0,0.0,0.0,0.0,-2.2416244,488.83002,0.0,0.0,0.0,0.0,0.0,0.0,inf,inf,inf,inf,1,1,1,1,0,0,0,0,1,1,0
3800360000,0,47.3977508,8.5456074,-14.877849,-19.494562,-9.10202,0.0,0.0,0.0,-2.6499999,-3.4099998,-0.049999997,0.0,0.0,0.0,0.0,0.0,0.0,0.0,-2.240941,488.83002,0.0,0.0,0.0,0.0,0.0,0.0,inf,inf,inf,inf,1,1,1,1,0,0,0,0,1,1,0
3800464000,0,47.3977508,8.5456074,-15.155835,-19.848326,-9.108002,0.0,0.0,0.0,-2.6499999,-3.4099998,-0.06,0.0,0.0,0.0,0.0,0.0,0.0,0.0,-2.2403653,488.83002,0.0,0.0,0.0,0.0,0.0,0.0,inf,inf,inf,inf,1,1,1,1,0,0,0,0,1,1,0
3800564000,0,47.3977508,8.5456074,-15.422702,-20.194561,-9.114014,0.0,0.0,0.0,-2.6499999,-3.4099998,-0.06,0.0,0.0,0.0,0.0,0.0,0.0,0.0,-2.2398148,488.83002,0.0,0.0,0.0,0.0,0.0,0.0,inf,inf,inf,inf,1,1,1,1,0,0,0,0,1,1,0
3800664000,0,47.3977508,8.5456074,-15.6895685,-20.540798,-9.121002,0.0,0.0,0.0,-2.6499999,-3.4199998,-0.06,0.0,0.0,0.0,0.0,0.0,0.0,0.0,-2.2392292,488.83002,0.0,0.0,0.0,0.0,0.0,0.0,inf,inf,inf,inf,1,1,1,1,0,0,0,0,1,1,0
3800764000,0,47.3977508,8.5456074,-15.956435,-20.879507,-9.127014,0.0,0.0,0.0,-2.6499999,-3.4199998,-0.06,0.0,0.0,0.0,0.0,0.0,0.0,0.0,-2.2385583,488.83002,0.0,0.0,0.0,0.0,0.0,0.0,inf,inf,inf,inf,1,1,1,1,0,0,0,0,1,1,0
3800864000,0,47.3977508,8.5456074,-16.2233,-21.225744,-9.132996,0.0,0.0,0.0,-2.6599998,-3.4199998,-0.06,0.0,0.0,0.0,0.0,0.0,0.0,0.0,-2.2380426,488.83002,0.0,0.0,0.0,0.0,0.0,0.0,inf,inf,inf,inf,1,1,1,1,0,0,0,0,1,1,0
3800964000,0,47.3977508,8.5456074,-16.490168,-21.564453,-9.140015,0.0,0.0,0.0,-2.6599998,-3.4199998,-0.06,0.0,0.0,0.0,0.0,0.0,0.0,0.0,-2.2380474,488.83002,0.0,0.0,0.0,0.0,0.0,0.0,inf,inf,inf,inf,1,1,1,1,0,0,0,0,1,1,0
3801064000,0,47.3977508,8.5456074,-16.757034,-21.91069,-9.147003,0.0,0.0,0.0,-2.6599998,-3.4199998,-0.06,0.0,0.0,0.0,0.0,0.0,0.0,0.0,-2.237865,488.83002,0.0,0.0,0.0,0.0,0.0,0.0,inf,inf,inf,inf,1,1,1,1,0,0,0,0,1,1,0
3801164000,0,47.3977508,8.5456074,-17.023901,-22.256927,-9.153992,0.0,0.0,0.0,-2.6699998,-3.4199998,-0.06,0.0,0.0,0.0,0.0,0.0,0.0,0.0,-2.2374742,488.83002,0.0,0.0,0.0,0.0,0.0,0.0,inf,inf,inf,inf,1,1,1,1,0,0,0,0,1,1,0
3801264000,0,47.3977508,8.5456074,-17.290768,-22.595636,-9.160004,0.0,0.0,0.0,-2.6699998,-3.4299998,-0.06,0.0,0.0,0.0,0.0,0.0,0.0,0.0,-2.2369986,488.83002,0.0,0.0,0.0,0.0,0.0,0.0,inf,inf,inf,inf,1,1,1,1,0,0,0,0,1,1,0
3801360000,0,47.3977508,8.5456074,-17.546515,-22.926819,-9.166016,0.0,0.0,0.0,-2.6799998,-3.4299998,-0.06,0.0,0.0,0.0,0.0,0.0,0.0,0.0,-2.236701,488.83002,0.0,0.0,0.0,0.0,0.0,0.0,inf,inf,inf,inf,1,1,1,1,0,0,0,0,1,1,0
3801464000,0,47.3977508,8.5456074,-17.824501,-23.288109,-9.173004,0.0,0.0,0.0,-2.6799998,-3.4299998,-0.06,0.0,0.0,0.0,0.0,0.0,0.0,0.0,-2.2363796,488.83002,0.0,0.0,0.0,0.0,0.0,0.0,inf,inf,inf,inf,1,1,1,1,0,0,0,0,1,1,0
3801560000,0,47.3977508,8.5456074,-18.080248,-23.619293,-9.179016,0.0,0.0,0.0,-2.6799998,-3.4299998,-0.06,0.0,0.0,0.0,0.0,0.0,0.0,0.0,-2.236066,488.83002,0.0,0.0,0.0,0.0,0.0,0.0,inf,inf,inf,inf,1,1,1,1,0,0,0,0,1,1,0
3801664000,0,47.3977508,8.5456074,-18.369352,-23.973057,-9.184998,0.0,0.0,0.0,-2.6799998,-3.4299998,-0.06,0.0,0.0,0.0,0.0,0.0,0.0,0.0,-2.2357597,488.83002,0.0,0.0,0.0,0.0,0.0,0.0,inf,inf,inf,inf,1,1,1,1,0,0,0,0,1,1,0
3801764000,0,47.3977508,8.5456074,-18.636219,-24.319294,-9.192017,0.0,0.0,0.0,-2.69,-3.4399998,-0.06,0.0,0.0,0.0,0.0,0.0,0.0,0.0,-2.2353833,488.83002,0.0,0.0,0.0,0.0,0.0,0.0,inf,inf,inf,inf,1,1,1,1,0,0,0,0,1,1,0
3801864000,0,47.3977508,8.5456074,-18.903086,-24.66553,-9.197998,0.0,0.0,0.0,-2.69,-3.4399998,-0.06,0.0,0.0,0.0,0.0,0.0,0.0,0.0,-2.235115,488.83002,0.0,0.0,0.0,0.0,0.0,0.0,inf,inf,inf,inf,1,1,1,1,0,0,0,0,1,1,0
3801964000,0,47.3977508,8.5456074,-19.169952,-24.996714,-9.20401,0.0,0.0,0.0,-2.69,-3.4399998,-0.06,0.0,0.0,0.0,0.0,0.0,0.0,0.0,-2.23496,488.83002,0.0,0.0,0.0,0.0,0.0,0.0,inf,inf,inf,inf,1,1,1,1,0,0,0,0,1,1,0
3802064000,0,47.3977508,8.5456074,-19.447937,-25.358004,-9.210999,0.0,0.0,0.0,-2.69,-3.4399998,-0.06,0.0,0.0,0.0,0.0,0.0,0.0,0.0,-2.2347617,488.83002,0.0,0.0,0.0,0.0,0.0,0.0,inf,inf,inf,inf,1,1,1,1,0,0,0,0,1,1,0
3802164000,0,47.3977508,8.5456074,-19.714804,-25.70424,-9.2170105,0.0,0.0,0.0,-2.69,-3.4399998,-0.049999997,0.0,0.0,0.0,0.0,0.0,0.0,0.0,-2.2345924,488.83002,0.0,0.0,0.0,0.0,0.0,0.0,inf,inf,inf,inf,1,1,1,1,0,0,0,0,1,1,0
3802260000,0,47.3977508,8.5456074,-19.98167,-26.035423,-9.222015,0.0,0.0,0.0,-2.7,-3.4499998,-0.049999997,0.0,0.0,0.0,0.0,0.0,0.0,0.0,-2.2343917,488.83002,0.0,0.0,0.0,0.0,0.0,0.0,inf,inf,inf,inf,1,1,1,1,0,0,0,0,1,1,0
3802364000,0,47.3977508,8.5456074,-20.259657,-26.396715,-9.227997,0.0,0.0,0.0,-2.7,-3.4499998,-0.049999997,0.0,0.0,0.0,0.0,0.0,0.0,0.0,-2.234192,488.83002,0.0,0.0,0.0,0.0,0.0,0.0,inf,inf,inf,inf,1,1,1,1,0,0,0,0,1,1,0
3802460000,0,47.3977508,8.5456074,-20.515404,-26.727898,-9.233002,0.0,0.0,0.0,-2.7,-3.46,-0.049999997,0.0,0.0,0.0,0.0,0.0,0.0,0.0,-2.2341168,488.83002,0.0,0.0,0.0,0.0,0.0,0.0,inf,inf,inf,inf,1,1,1,1,0,0,0,0,1,1,0
3802564000,0,47.3977508,8.5456074,-20.804508,-27.08919,-9.239014,0.0,0.0,0.0,-2.7,-3.46,-0.049999997,0.0,0.0,0.0,0.0,0.0,0.0,0.0,-2.2338827,488.83002,0.0,0.0,0.0,0.0,0.0,0.0,inf,inf,inf,inf,1,1,1,1,0,0,0,0,1,1,0
3802660000,0,47.3977508,8.5456074,-21.060255,-27.420372,-9.244995,0.0,0.0,0.0,-2.7,-3.47,-0.049999997,0.0,0.0,0.0,0.0,0.0,0.0,0.0,-2.2339182,488.83002,0.0,0.0,0.0,0.0,0.0,0.0,inf,inf,inf,inf,1,1,1,1,0,0,0,0,1,1,0
3802764000,0,47.3977508,8.5456074,-21.33824,-27.78919,-9.251007,0.0,0.0,0.0,-2.7,-3.47,-0.049999997,0.0,0.0,0.0,0.0,0.0,0.0,0.0,-2.2339091,488.83002,0.0,0.0,0.0,0.0,0.0,0.0,inf,inf,inf,inf,1,1,1,1,0,0,0,0,1,1,0
3802864000,0,47.3977508,8.5456074,-21.616226,-28.135427,-9.257019,0.0,0.0,0.0,-2.7,-3.48,-0.06,0.0,0.0,0.0,0.0,0.0,0.0,0.0,-2.2337263,488.83002,0.0,0.0,0.0,0.0,0.0,0.0,inf,inf,inf,inf,1,1,1,1,0,0,0,0,1,1,0
3802964000,0,47.3977508,8.5456074,-21.883093,-28.481665,-9.2630005,0.0,0.0,0.0,-2.7,-3.49,-0.06,0.0,0.0,0.0,0.0,0.0,0.0,0.0,-2.233658,488.83002,0.0,0.0,0.0,0.0,0.0,0.0,inf,inf,inf,inf,1,1,1,1,0,0,0,0,1,1,0
3803064000,0,47.3977508,8.5456074,-22.161077,-28.835428,-9.269012,0.0,0.0,0.0,-2.71,-3.5,-0.06,0.0,0.0,0.0,0.0,0.0,0.0,0.0,-2.2335434,488.83002,0.0,0.0,0.0,0.0,0.0,0.0,inf,inf,inf,inf,1,1,1,1,0,0,0,0,1,1,0
3803164000,0,47.3977508,8.5456074,-22.427944,-29.189192,-9.274994,0.0,0.0,0.0,-2.71,-3.52,-0.049999997,0.0,0.0,0.0,0.0,0.0,0.0,0.0,-2.2334359,488.83002,0.0,0.0,0.0,0.0,0.0,0.0,inf,inf,inf,inf,1,1,1,1,0,0,0,0,1,1,0
3803260000,0,47.3977508,8.5456074,-22.69481,-29.527903,-9.279999,0.0,0.0,0.0,-2.72,-3.53,-0.049999997,0.0,0.0,0.0,0.0,0.0,0.0,0.0,-2.23322,488.83002,0.0,0.0,0.0,0.0,0.0,0.0,inf,inf,inf,inf,1,1,1,1,0,0,0,0,1,1,0
3803360000,0,47.3977508,8.5456074,-22.961676,-29.881666,-9.285004,0.0,0.0,0.0,-2.73,-3.55,-0.04,0.0,0.0,0.0,0.0,0.0,0.0,0.0,-2.2329922,488.83002,0.0,0.0,0.0,0.0,0.0,0.0,inf,inf,inf,inf,1,1,1,1,0,0,0,0,1,1,0
3803464000,0,47.3977508,8.5456074,-23.25078,-30.25801,-9.290009,0.0,0.0,0.0,-2.73,-3.56,-0.04,0.0,0.0,0.0,0.0,0.0,0.0,0.0,-2.2329893,488.83002,0.0,0.0,0.0,0.0,0.0,0.0,inf,inf,inf,inf,1,1,1,1,0,0,0,0,1,1,0
3803564000,0,47.3977508,8.5456074,-23.528767,-30.611776,-9.295013,0.0,0.0,0.0,-2.74,-3.57,-0.04,0.0,0.0,0.0,0.0,0.0,0.0,0.0,-2.2331288,488.83002,0.0,0.0,0.0,0.0,0.0,0.0,inf,inf,inf,inf,1,1,1,1,0,0,0,0,1,1,0
3803664000,0,47.3977508,8.5456074,-23.795633,-30.973066,-9.300018,0.0,0.0,0.0,-2.74,-3.57,-0.04,0.0,0.0,0.0,0.0,0.0,0.0,0.0,-2.2333045,488.83002,0.0,0.0,0.0,0.0,0.0,0.0,inf,inf,inf,inf,1,1,1,1,0,0,0,0,1,1,0
3803764000,0,47.3977508,8.5456074,-24.073618,-31.334358,-9.304016,0.0,0.0,0.0,-2.74,-3.58,-0.04,0.0,0.0,0.0,0.0,0.0,0.0,0.0,-2.2334383,488.83002,0.0,0.0,0.0,0.0,0.0,0.0,inf,inf,inf,inf,1,1,1,1,0,0,0,0,1,1,0
3803864000,0,47.3977508,8.5456074,-24.351603,-31.688122,-9.309021,0.0,0.0,0.0,-2.75,-3.59,-0.04,0.0,0.0,0.0,0.0,0.0,0.0,0.0,-2.2334516,488.83002,0.0,0.0,0.0,0.0,0.0,0.0,inf,inf,inf,inf,1,1,1,1,0,0,0,0,1,1,0
3803960000,0,47.3977508,8.5456074,-24.61847,-32.03436,-9.312012,0.0,0.0,0.0,-2.75,-3.59,-0.03,0.0,0.0,0.0,0.0,0.0,0.0,0.0,-2.233374,488.83002,0.0,0.0,0.0,0.0,0.0,0.0,inf,inf,inf,inf,1,1,1,1,0,0,0,0,1,1,0
3804064000,0,47.3977508,8.5456074,-24.907574,-32.410706,-9.3160095,0.0,0.0,0.0,-2.75,-3.6,-0.03,0.0,0.0,0.0,0.0,0.0,0.0,0.0,-2.2332122,488.83002,0.0,0.0,0.0,0.0,0.0,0.0,inf,inf,inf,inf,1,1,1,1,0,0,0,0,1,1,0
3804164000,0,47.3977508,8.5456074,-25.17444,-32.771996,-9.319,0.0,0.0,0.0,-2.75,-3.6,-0.03,0.0,0.0,0.0,0.0,0.0,0.0,0.0,-2.2332027,488.83002,0.0,0.0,0.0,0.0,0.0,0.0,inf,inf,inf,inf,1,1,1,1,0,0,0,0,1,1,0
3804264000,0,47.3977508,8.5456074,-25.452425,-33.13329,-9.3220215,0.0,0.0,0.0,-2.76,-3.61,-0.02,0.0,0.0,0.0,0.0,0.0,0.0,0.0,-2.233181,488.83002,0.0,0.0,0.0,0.0,0.0,0.0,inf,inf,inf,inf,1,1,1,1,0,0,0,0,1,1,0
3804360000,0,47.3977508,8.5456074,-25.719292,-33.487053,-9.325012,0.0,0.0,0.0,-2.76,-3.61,-0.02,0.0,0.0,0.0,0.0,0.0,0.0,0.0,-2.233209,488.83002,0.0,0.0,0.0,0.0,0.0,0.0,inf,inf,inf,inf,1,1,1,1,0,0,0,0,1,1,0
3804464000,0,47.3977508,8.5456074,-26.008396,-33.863396,-9.328003,0.0,0.0,0.0,-2.76,-3.61,-0.02,0.0,0.0,0.0,0.0,0.0,0.0,0.0,-2.2331614,488.83002,0.0,0.0,0.0,0.0,0.0,0.0,inf,inf,inf,inf,1,1,1,1,0,0,0,0,1,1,0
3804560000,0,47.3977508,8.5456074,-26.264141,-34.19458,-9.330017,0.0,0.0,0.0,-2.76,-3.62,-0.02,0.0,0.0,0.0,0.0,0.0,0.0,0.0,-2.2330773,488.83002,0.0,0.0,0.0,0.0,0.0,0.0,inf,inf,inf,inf,1,1,1,1,0,0,0,0,1,1,0
3804660000,0,47.3977508,8.5456074,-26.553246,-34.570927,-9.333008,0.0,0.0,0.0,-2.76,-3.62,-0.02,0.0,0.0,0.0,0.0,0.0,0.0,0.0,-2.2329915,488.83002,0.0,0.0,0.0,0.0,0.0,0.0,inf,inf,inf,inf,1,1,1,1,0,0,0,0,1,1,0
3804764000,0,47.3977508,8.5456074,-26.842352,-34.9548,-9.335999,0.0,0.0,0.0,-2.76,-3.62,-0.02,0.0,0.0,0.0,0.0,0.0,0.0,0.0,-2.2329586,488.83002,0.0,0.0,0.0,0.0,0.0,0.0,inf,inf,inf,inf,1,1,1,1,0,0,0,0,1,1,0
3804864000,0,47.3977508,8.5456074,-27.120337,-35.31609,-9.338013,0.0,0.0,0.0,-2.77,-3.6299999,-0.01,0.0,0.0,0.0,0.0,0.0,0.0,0.0,-2.2330897,488.83002,0.0,0.0,0.0,0.0,0.0,0.0,inf,inf,inf,inf,1,1,1,1,0,0,0,0,1,1,0
3804960000,0,47.3977508,8.5456074,-27.387201,-35.662327,-9.339996,0.0,0.0,0.0,-2.77,-3.6299999,-0.01,0.0,0.0,0.0,0.0,0.0,0.0,0.0,-2.2331278,488.83002,0.0,0.0,0.0,0.0,0.0,0.0,inf,inf,inf,inf,1,1,1,1,0,0,0,0,1,1,0
3805064000,0,47.3977508,8.5456074,-27.676306,-36.0462,-9.3420105,0.0,0.0,0.0,-2.77,-3.6299999,-0.01,0.0,0.0,0.0,0.0,0.0,0.0,0.0,-2.2331703,488.83002,0.0,0.0,0.0,0.0,0.0,0.0,inf,inf,inf,inf,1,1,1,1,0,0,0,0,1,1,0
3805164000,0,47.3977508,8.5456074,-27.954292,-36.407494,-9.343018,0.0,0.0,0.0,-2.77,-3.6399999,-0.01,0.0,0.0,0.0,0.0,0.0,0.0,0.0,-2.2332983,488.83002,0.0,0.0,0.0,0.0,0.0,0.0,inf,inf,inf,inf,1,1,1,1,0,0,0,0,1,1,0
3805260000,0,47.3977508,8.5456074,-28.221157,-36.761257,-9.345001,0.0,0.0,0.0,-2.77,-3.6399999,-0.01,0.0,0.0,0.0,0.0,0.0,0.0,0.0,-2.2332876,488.83002,0.0,0.0,0.0,0.0,0.0,0.0,inf,inf,inf,inf,1,1,1,1,0,0,0,0,1,1,0
3805364000,0,47.3977508,8.5456074,-28.510262,-37.137604,-9.347015,0.0,0.0,0.0,-2.77,-3.6399999,-0.01,0.0,0.0,0.0,0.0,0.0,0.0,0.0,-2.233275,488.83002,0.0,0.0,0.0,0.0,0.0,0.0,inf,inf,inf,inf,1,1,1,1,0,0,0,0,1,1,0
3805460000,0,47.3977508,8.5456074,-28.777126,-37.491367,-9.347992,0.0,0.0,0.0,-2.78,-3.6399999,-0.01,0.0,0.0,0.0,0.0,0.0,0.0,0.0,-2.233396,488.83002,0.0,0.0,0.0,0.0,0.0,0.0,inf,inf,inf,inf,1,1,1,1,0,0,0,0,1,1,0
3805564000,0,47.3977508,8.5456074,-29.06623,-37.87524,-9.348999,0.0,0.0,0.0,-2.78,-3.6499999,-0.01,0.0,0.0,0.0,0.0,0.0,0.0,0.0,-2.2336001,488.83002,0.0,0.0,0.0,0.0,0.0,0.0,inf,inf,inf,inf,1,1,1,1,0,0,0,0,1,1,0
3805664000,0,47.3977508,8.5456074,-29.344217,-38.23653,-9.351013,0.0,0.0,0.0,-2.78,-3.6499999,-0.01,0.0,0.0,0.0,0.0,0.0,0.0,0.0,-2.233633,488.83002,0.0,0.0,0.0,0.0,0.0,0.0,inf,inf,inf,inf,1,1,1,1,0,0,0,0,1,1,0
3805760000,0,47.3977508,8.5456074,-29.611082,-38.590298,-9.35202,0.0,0.0,0.0,-2.78,-3.6499999,-0.01,0.0,0.0,0.0,0.0,0.0,0.0,0.0,-2.2335083,488.83002,0.0,0.0,0.0,0.0,0.0,0.0,inf,inf,inf,inf,1,1,1,1,0,0,0,0,1,1,0
3805864000,0,47.3977508,8.5456074,-29.911306,-38.97417,-9.354004,0.0,0.0,0.0,-2.79,-3.6499999,-0.01,0.0,0.0,0.0,0.0,0.0,0.0,0.0,-2.233621,488.83002,0.0,0.0,0.0,0.0,0.0,0.0,inf,inf,inf,inf,1,1,1,1,0,0,0,0,1,1,0
3805964000,0,47.3977508,8.5456074,-30.189291,-39.33546,-9.355011,0.0,0.0,0.0,-2.79,-3.6499999,-0.01,0.0,0.0,0.0,0.0,0.0,0.0,0.0,-2.233786,488.83002,0.0,0.0,0.0,0.0,0.0,0.0,inf,inf,inf,inf,1,1,1,1,0,0,0,0,1,1,0
3806064000,0,47.3977508,8.5456074,-30.467276,-39.70428,-9.356018,0.0,0.0,0.0,-2.79,-3.6499999,0.0,0.0,0.0,0.0,0.0,0.0,0.0,0.0,-2.2338731,488.83002,0.0,0.0,0.0,0.0,0.0,0.0,inf,inf,inf,inf,1,1,1,1,0,0,0,0,1,1,0
3806164000,0,47.3977508,8.5456074,-30.74526,-40.0731,-9.356995,0.0,0.0,0.0,-2.8,-3.6599998,0.0,0.0,0.0,0.0,0.0,0.0,0.0,0.0,-2.23366,488.83002,0.0,0.0,0.0,0.0,0.0,0.0,inf,inf,inf,inf,1,1,1,1,0,0,0,0,1,1,0
3806264000,0,47.3977508,8.5456074,-31.023245,-40.441917,-9.358002,0.0,0.0,0.0,-2.8,-3.6599998,0.0,0.0,0.0,0.0,0.0,0.0,0.0,0.0,-2.2335339,488.83002,0.0,0.0,0.0,0.0,0.0,0.0,inf,inf,inf,inf,1,1,1,1,0,0,0,0,1,1,0
3806364000,0,47.3977508,8.5456074,-31.31235,-40.80321,-9.359009,0.0,0.0,0.0,-2.8,-3.6599998,-0.01,0.0,0.0,0.0,0.0,0.0,0.0,0.0,-2.233416,488.83002,0.0,0.0,0.0,0.0,0.0,0.0,inf,inf,inf,inf,1,1,1,1,0,0,0,0,1,1,0
3806464000,0,47.3977508,8.5456074,-31.579214,-41.156975,-9.360016,0.0,0.0,0.0,-2.8,-3.6599998,-0.01,0.0,0.0,0.0,0.0,0.0,0.0,0.0,-2.2334948,488.83002,0.0,0.0,0.0,0.0,0.0,0.0,inf,inf,inf,inf,1,1,1,1,0,0,0,0,1,1,0
3806564000,0,47.3977508,8.5456074,-31.868319,-41.540848,-9.3619995,0.0,0.0,0.0,-2.8,-3.6599998,-0.01,0.0,0.0,0.0,0.0,0.0,0.0,0.0,-2.233526,488.83002,0.0,0.0,0.0,0.0,0.0,0.0,inf,inf,inf,inf,1,1,1,1,0,0,0,0,1,1,0
3806664000,0,47.3977508,8.5456074,-32.15742,-41.909668,-9.363007,0.0,0.0,0.0,-2.8,-3.6599998,-0.01,0.0,0.0,0.0,0.0,0.0,0.0,0.0,-2.233437,488.83002,0.0,0.0,0.0,0.0,0.0,0.0,inf,inf,inf,inf,1,1,1,1,0,0,0,0,1,1,0
3806764000,0,47.3977508,8.5456074,-32.435406,-42.27849,-9.364014,0.0,0.0,0.0,-2.8,-3.6599998,-0.01,0.0,0.0,0.0,0.0,0.0,0.0,0.0,-2.233393,488.83002,0.0,0.0,0.0,0.0,0.0,0.0,inf,inf,inf,inf,1,1,1,1,0,0,0,0,1,1,0
3806864000,0,47.3977508,8.5456074,-32.71339,-42.647305,-9.365021,0.0,0.0,0.0,-2.8,-3.6599998,-0.01,0.0,0.0,0.0,0.0,0.0,0.0,0.0,-2.23331,488.83002,0.0,0.0,0.0,0.0,0.0,0.0,inf,inf,inf,inf,1,1,1,1,0,0,0,0,1,1,0
3806964000,0,47.3977508,8.5456074,-33.002495,-43.016125,-9.365997,0.0,0.0,0.0,-2.8,-3.6599998,-0.01,0.0,0.0,0.0,0.0,0.0,0.0,0.0,-2.233286,488.83002,0.0,0.0,0.0,0.0,0.0,0.0,inf,inf,inf,inf,1,1,1,1,0,0,0,0,1,1,0
3807064000,0,47.3977508,8.5456074,-33.28048,-43.37742,-9.367004,0.0,0.0,0.0,-2.8,-3.6599998,0.0,0.0,0.0,0.0,0.0,0.0,0.0,0.0,-2.2331545,488.83002,0.0,0.0,0.0,0.0,0.0,0.0,inf,inf,inf,inf,1,1,1,1,0,0,0,0,1,1,0
3807164000,0,47.3977508,8.5456074,-33.558464,-43.74624,-9.368011,0.0,0.0,0.0,-2.8,-3.6599998,0.0,0.0,0.0,0.0,0.0,0.0,0.0,0.0,-2.2332473,488.83002,0.0,0.0,0.0,0.0,0.0,0.0,inf,inf,inf,inf,1,1,1,1,0,0,0,0,1,1,0
3807260000,0,47.3977508,8.5456074,-33.83645,-44.100002,-9.369019,0.0,0.0,0.0,-2.8,-3.6599998,0.0,0.0,0.0,0.0,0.0,0.0,0.0,0.0,-2.2331758,488.83002,0.0,0.0,0.0,0.0,0.0,0.0,inf,inf,inf,inf,1,1,1,1,0,0,0,0,1,1,0
3807364000,0,47.3977508,8.5456074,-34.125553,-44.483875,-9.369019,0.0,0.0,0.0,-2.8,-3.6699998,0.0,0.0,0.0,0.0,0.0,0.0,0.0,0.0,-2.2332282,488.83002,0.0,0.0,0.0,0.0,0.0,0.0,inf,inf,inf,inf,1,1,1,1,0,0,0,0,1,1,0
3807464000,0,47.3977508,8.5456074,-34.392418,-44.837643,-9.369995,0.0,0.0,0.0,-2.8,-3.6699998,0.0,0.0,0.0,0.0,0.0,0.0,0.0,0.0,-2.2333047,488.83002,0.0,0.0,0.0,0.0,0.0,0.0,inf,inf,inf,inf,1,1,1,1,0,0,0,0,1,1,0
3807560000,0,47.3977508,8.5456074,-34.681522,-45.20646,-9.369995,0.0,0.0,0.0,-2.8,-3.6699998,0.0,0.0,0.0,0.0,0.0,0.0,0.0,0.0,-2.2331536,488.83002,0.0,0.0,0.0,0.0,0.0,0.0,inf,inf,inf,inf,1,1,1,1,0,0,0,0,1,1,0
3807664000,0,47.3977508,8.5456074,-34.970627,-45.590336,-9.369995,0.0,0.0,0.0,-2.8,-3.6699998,0.0,0.0,0.0,0.0,0.0,0.0,0.0,0.0,-2.2330785,488.83002,0.0,0.0,0.0,0.0,0.0,0.0,inf,inf,inf,inf,1,1,1,1,0,0,0,0,1,1,0
3807760000,0,47.3977508,8.5456074,-35.23749,-45.9441,-9.371002,0.0,0.0,0.0,-2.81,-3.6699998,0.0,0.0,0.0,0.0,0.0,0.0,0.0,0.0,-2.233201,488.83002,0.0,0.0,0.0,0.0,0.0,0.0,inf,inf,inf,inf,1,1,1,1,0,0,0,0,1,1,0
3807860000,0,47.3977508,8.5456074,-35.515476,-46.297867,-9.372009,0.0,0.0,0.0,-2.81,-3.6799998,-0.01,0.0,0.0,0.0,0.0,0.0,0.0,0.0,-2.2331927,488.83002,0.0,0.0,0.0,0.0,0.0,0.0,inf,inf,inf,inf,1,1,1,1,0,0,0,0,1,1,0
3807964000,0,47.3977508,8.5456074,-35.8157,-46.696793,-9.373016,0.0,0.0,0.0,-2.81,-3.6899998,-0.01,0.0,0.0,0.0,0.0,0.0,0.0,0.0,-2.233129,488.83002,0.0,0.0,0.0,0.0,0.0,0.0,inf,inf,inf,inf,1,1,1,1,0,0,0,0,1,1,0
3808060000,0,47.3977508,8.5456074,-36.082565,-47.05056,-9.375,0.0,0.0,0.0,-2.82,-3.6899998,-0.01,0.0,0.0,0.0,0.0,0.0,0.0,0.0,-2.2330203,488.83002,0.0,0.0,0.0,0.0,0.0,0.0,inf,inf,inf,inf,1,1,1,1,0,0,0,0,1,1,0
3808164000,0,47.3977508,8.5456074,-36.38279,-47.434433,-9.376007,0.0,0.0,0.0,-2.83,-3.6999998,0.0,0.0,0.0,0.0,0.0,0.0,0.0,0.0,-2.2331183,488.83002,0.0,0.0,0.0,0.0,0.0,0.0,inf,inf,inf,inf,1,1,1,1,0,0,0,0,1,1,0
3808260000,0,47.3977508,8.5456074,-36.649654,-47.795723,-9.376007,0.0,0.0,0.0,-2.83,-3.7099998,0.0,0.0,0.0,0.0,0.0,0.0,0.0,0.0,-2.233354,488.83002,0.0,0.0,0.0,0.0,0.0,0.0,inf,inf,inf,inf,1,1,1,1,0,0,0,0,1,1,0
3808360000,0,47.3977508,8.5456074,-36.92764,-48.157017,-9.376007,0.0,0.0,0.0,-2.84,-3.72,0.0,0.0,0.0,0.0,0.0,0.0,0.0,0.0,-2.2334943,488.83002,0.0,0.0,0.0,0.0,0.0,0.0,inf,inf,inf,inf,1,1,1,1,0,0,0,0,1,1,0
3808464000,0,47.3977508,8.5456074,-37.23898,-48.555946,-9.376007,0.0,0.0,0.0,-2.85,-3.72,0.0,0.0,0.0,0.0,0.0,0.0,0.0,0.0,-2.2334983,488.83002,0.0,0.0,0.0,0.0,0.0,0.0,inf,inf,inf,inf,1,1,1,1,0,0,0,0,1,1,0
3808560000,0,47.3977508,8.5456074,-37.516964,-48.917236,-9.376007,0.0,0.0,0.0,-2.85,-3.73,0.0,0.0,0.0,0.0,0.0,0.0,0.0,0.0,-2.233541,488.83002,0.0,0.0,0.0,0.0,0.0,0.0,inf,inf,inf,inf,1,1,1,1,0,0,0,0,1,1,0
3808664000,0,47.3977508,8.5456074,-37.80607,-49.30864,-9.375,0.0,0.0,0.0,-2.86,-3.73,0.0,0.0,0.0,0.0,0.0,0.0,0.0,0.0,-2.2335465,488.83002,0.0,0.0,0.0,0.0,0.0,0.0,inf,inf,inf,inf,1,1,1,1,0,0,0,0,1,1,0
3808764000,0,47.3977508,8.5456074,-38.095173,-49.67746,-9.375,0.0,0.0,0.0,-2.86,-3.73,0.0,0.0,0.0,0.0,0.0,0.0,0.0,0.0,-2.2338815,488.83002,0.0,0.0,0.0,0.0,0.0,0.0,inf,inf,inf,inf,1,1,1,1,0,0,0,0,1,1,0
3808864000,0,47.3977508,8.5456074,-38.373154,-50.03875,-9.375,0.0,0.0,0.0,-2.86,-3.74,0.0,0.0,0.0,0.0,0.0,0.0,0.0,0.0,-2.234243,488.83002,0.0,0.0,0.0,0.0,0.0,0.0,inf,inf,inf,inf,1,1,1,1,0,0,0,0,1,1,0
3808964000,0,47.3977508,8.5456074,-38.673378,-50.430153,-9.373993,0.0,0.0,0.0,-2.87,-3.74,0.0,0.0,0.0,0.0,0.0,0.0,0.0,0.0,-2.2343802,488.83002,0.0,0.0,0.0,0.0,0.0,0.0,inf,inf,inf,inf,1,1,1,1,0,0,0,0,1,1,0
3809064000,0,47.3977508,8.5456074,-38.951363,-50.791447,-9.373016,0.0,0.0,0.0,-2.87,-3.75,0.01,0.0,0.0,0.0,0.0,0.0,0.0,0.0,-2.2345297,488.83002,0.0,0.0,0.0,0.0,0.0,0.0,inf,inf,inf,inf,1,1,1,1,0,0,0,0,1,1,0
3809164000,0,47.3977508,8.5456074,-39.240467,-51.167793,-9.371002,0.0,0.0,0.0,-2.87,-3.75,0.01,0.0,0.0,0.0,0.0,0.0,0.0,0.0,-2.2344182,488.83002,0.0,0.0,0.0,0.0,0.0,0.0,inf,inf,inf,inf,1,1,1,1,0,0,0,0,1,1,0
3809260000,0,47.3977508,8.5456074,-39.51845,-51.529087,-9.369995,0.0,0.0,0.0,-2.87,-3.75,0.01,0.0,0.0,0.0,0.0,0.0,0.0,0.0,-2.2344012,488.83002,0.0,0.0,0.0,0.0,0.0,0.0,inf,inf,inf,inf,1,1,1,1,0,0,0,0,1,1,0
3809364000,0,47.3977508,8.5456074,-39.829792,-51.93554,-9.368011,0.0,0.0,0.0,-2.87,-3.75,0.01,0.0,0.0,0.0,0.0,0.0,0.0,0.0,-2.2345333,488.83002,0.0,0.0,0.0,0.0,0.0,0.0,inf,inf,inf,inf,1,1,1,1,0,0,0,0,1,1,0
3809464000,0,47.3977508,8.5456074,-40.118896,-52.311886,-9.365997,0.0,0.0,0.0,-2.87,-3.75,0.02,0.0,0.0,0.0,0.0,0.0,0.0,0.0,-2.234503,488.83002,0.0,0.0,0.0,0.0,0.0,0.0,inf,inf,inf,inf,1,1,1,1,0,0,0,0,1,1,0
3809564000,0,47.3977508,8.5456074,-40.39688,-52.67318,-9.364014,0.0,0.0,0.0,-2.87,-3.75,0.02,0.0,0.0,0.0,0.0,0.0,0.0,0.0,-2.2344584,488.83002,0.0,0.0,0.0,0.0,0.0,0.0,inf,inf,inf,inf,1,1,1,1,0,0,0,0,1,1,0
3809660000,0,47.3977508,8.5456074,-40.663746,-53.034473,-9.3619995,0.0,0.0,0.0,-2.87,-3.75,0.02,0.0,0.0,0.0,0.0,0.0,0.0,0.0,-2.2344098,488.83002,0.0,0.0,0.0,0.0,0.0,0.0,inf,inf,inf,inf,1,1,1,1,0,0,0,0,1,1,0
3809760000,0,47.3977508,8.5456074,-40.952847,-53.41082,-9.359009,0.0,0.0,0.0,-2.87,-3.75,0.02,0.0,0.0,0.0,0.0,0.0,0.0,0.0,-2.2342718,488.83002,0.0,0.0,0.0,0.0,0.0,0.0,inf,inf,inf,inf,1,1,1,1,0,0,0,0,1,1,0
3809864000,0,47.3977508,8.5456074,-41.26419,-53.817276,-9.356018,0.0,0.0,0.0,-2.87,-3.75,0.02,0.0,0.0,0.0,0.0,0.0,0.0,0.0,-2.2341392,488.83002,0.0,0.0,0.0,0.0,0.0,0.0,inf,inf,inf,inf,1,1,1,1,0,0,0,0,1,1,0
3809964000,0,47.3977508,8.5456074,-41.553295,-54.193623,-9.352997,0.0,0.0,0.0,-2.87,-3.75,0.02,0.0,0.0,0.0,0.0,0.0,0.0,0.0,-2.2342808,488.83002,0.0,0.0,0.0,0.0,0.0,0.0,inf,inf,inf,inf,1,1,1,1,0,0,0,0,1,1,0
3810064000,0,47.3977508,8.5456074,-41.831276,-54.554916,-9.350006,0.0,0.0,0.0,-2.87,-3.75,0.03,0.0,0.0,0.0,0.0,0.0,0.0,0.0,-2.2343364,488.83002,0.0,0.0,0.0,0.0,0.0,0.0,inf,inf,inf,inf,1,1,1,1,0,0,0,0,1,1,0
3810164000,0,47.3977508,8.5456074,-42.1315,-54.946316,-9.347015,0.0,0.0,0.0,-2.87,-3.75,0.03,0.0,0.0,0.0,0.0,0.0,0.0,0.0,-2.2343993,488.83002,0.0,0.0,0.0,0.0,0.0,0.0,inf,inf,inf,inf,1,1,1,1,0,0,0,0,1,1,0
3810264000,0,47.3977508,8.5456074,-42.420605,-55.322666,-9.343994,0.0,0.0,0.0,-2.87,-3.75,0.03,0.0,0.0,0.0,0.0,0.0,0.0,0.0,-2.234369,488.83002,0.0,0.0,0.0,0.0,0.0,0.0,inf,inf,inf,inf,1,1,1,1,0,0,0,0,1,1,0
3810364000,0,47.3977508,8.5456074,-42.709705,-55.699013,-9.339996,0.0,0.0,0.0,-2.87,-3.75,0.03,0.0,0.0,0.0,0.0,0.0,0.0,0.0,-2.2341402,488.83002,0.0,0.0,0.0,0.0,0.0,0.0,inf,inf,inf,inf,1,1,1,1,0,0,0,0,1,1,0
3810464000,0,47.3977508,8.5456074,-42.99881,-56.07536,-9.337006,0.0,0.0,0.0,-2.87,-3.75,0.03,0.0,0.0,0.0,0.0,0.0,0.0,0.0,-2.2340503,488.83002,0.0,0.0,0.0,0.0,0.0,0.0,inf,inf,inf,inf,1,1,1,1,0,0,0,0,1,1,0
3810564000,0,47.3977508,8.5456074,-43.276794,-56.436653,-9.333008,0.0,0.0,0.0,-2.87,-3.75,0.04,0.0,0.0,0.0,0.0,0.0,0.0,0.0,-2.2340927,488.83002,0.0,0.0,0.0,0.0,0.0,0.0,inf,inf,inf,inf,1,1,1,1,0,0,0,0,1,1,0
