timestamp,timestamp_sample,xyz[0],xyz[1],xyz[2]
3782264000,3782264000,-0.001806556,-0.00240824,-0.0009819537
3782276000,3782276000,0.00439709,-0.004728885,0.0038467806
3782284000,3782284000,0.003491058,-0.0019452553,0.003009105
3782300000,3782300000,-0.001457221,0.0035724824,0.00059862935
3782312000,3782312000,-5.714991e-05,0.004859772,0.002347312
3782324000,3782324000,-0.006374457,0.0009961585,0.003160924
3782336000,3782336000,-0.0021853107,0.0011868584,-0.0011774218
3782348000,3782348000,-0.001178487,0.0017490534,-0.003551464
3782356000,3782356000,0.0027865786,0.000901883,-0.002720919
3782372000,3782372000,0.00054832536,0.0014930938,-2.438936e-05
3782384000,3782384000,-0.00030581927,-0.0015316703,0.0017555668
3782396000,3782396000,0.00123866,-0.0013886048,-0.0019040718
3782408000,3782408000,-0.0046026176,-0.0030443808,0.0028693392
3782416000,3782416000,-0.0034724253,7.6634344e-05,0.0058803693
3782432000,3782432000,-0.00032466947,-0.00045071356,-0.00034232263
3782444000,3782444000,-0.0011647004,-0.0023825327,-0.0011420635
3782452000,3782452000,0.0015129417,-0.0035157725,0.0023427927
3782468000,3782468000,-0.0014218797,-0.00030910317,0.0026914598
3782480000,3782480000,-0.0026925027,0.0020386097,0.00037911613
3782492000,3782492000,-0.0013040989,0.0055749305,0.005377205
3782504000,3782504000,0.0055454453,-0.0011615334,-0.0006715958
3782512000,3782512000,8.613552e-05,-0.0010546837,0.000919107
3782528000,3782528000,-0.0034362855,0.0012431238,0.0014007498
3782540000,3782540000,0.0025326493,0.0019246168,-0.0001408605
3782552000,3782552000,0.00056359253,0.0013542022,0.002533375
3782564000,3782564000,0.0023598345,-0.0002974877,-0.0010267433
3782576000,3782576000,0.00057690556,-0.0013785623,-0.001616234
3782584000,3782584000,-0.006290164,0.0003689332,-0.00042769033
3782600000,3782600000,-0.00080578483,-0.0012609535,-0.0015926894
3782612000,3782612000,0.00026972016,0.00027193548,0.002029507
3782624000,3782624000,0.003384155,-0.0013310551,0.00023565943
3782636000,3782636000,-0.001054741,0.00041749235,0.0026176926
3782648000,3782648000,0.001268789,-0.00050286483,0.000493702
3782660000,3782660000,0.0011884188,-1.1567958e-05,-0.0017665939
3782672000,3782672000,0.0032550178,0.00069101504,0.0018933209
3782684000,3782684000,-0.001331365,0.0023059228,-0.003229136
3782696000,3782696000,-0.0020177893,0.00473858,-0.00046458858
3782708000,3782708000,-0.00087332446,0.0008119717,0.0027866426
3782720000,3782720000,-0.0023507718,0.002019484,0.0005401117
3782732000,3782732000,0.0019833646,-0.0017822222,0.00043991423
3782744000,3782744000,-0.0016731467,-0.0003536567,0.0039846213
3782752000,3782752000,-0.00090354064,-0.00084287254,0.0038868391
3782768000,3782768000,-0.0009702232,0.0006578064,0.0023414737
3782780000,3782780000,0.0011231758,-0.0033917334,0.0039222348
3782792000,3782792000,0.0028145877,-0.0041588517,0.0010583744
3782804000,3782804000,-0.0019794994,-0.0014710487,-0.0006565278
3782816000,3782816000,0.0025154988,-0.0011805478,-0.002430512
3782828000,3782828000,0.0010992254,-0.0030264496,-0.00023004823
3782840000,3782840000,0.00038178105,-0.004265618,-0.00072349736
3782852000,3782852000,8.139922e-05,0.00056724716,-0.0008268009
3782864000,3782864000,-0.0046581067,0.0009960721,-0.0014662696
3782876000,3782876000,0.0008544635,0.0004763431,-0.00095698214
3782888000,3782888000,0.0046656886,0.002467859,0.0035327896
3782900000,3782900000,-0.0003970164,-0.002365972,-0.0007597599
3782908000,3782908000,0.000117821386,0.00021635648,-0.0006502154
3782924000,3782924000,0.0037438239,-0.0037047202,0.0018573925
3782932000,3782932000,0.0043449784,-0.0037666373,0.0024424207
3782948000,3782948000,0.00017759606,0.0017106535,0.0023505571
3782960000,3782960000,0.00010377675,-0.0039728116,-0.0027843409
3782972000,3782972000,0.0014336078,-0.003065765,-2.26243e-05
3782980000,3782980000,0.002679626,0.00049907854,-0.0012281694
3782996000,3782996000,-0.0025634896,0.0009403713,-0.00045601535
3783008000,3783008000,-0.0024811043,0.0031557574,0.0027723238
3783020000,3783020000,0.00012998038,0.0035843179,-0.0025841028
3783032000,3783032000,0.0004692449,-0.0008519464,-0.002083357
3783044000,3783044000,0.0007860336,0.0040754876,0.0048035895
3783056000,3783056000,0.0024498287,0.0014378603,6.6309905e-05
3783068000,3783068000,0.0017246595,-0.0010541533,0.0017094766
3783076000,3783076000,0.004171544,0.0024137227,0.0004992849
3783092000,3783092000,0.0015724485,-0.0011321851,-0.0006312465
3783104000,3783104000,0.002126013,-0.0017853491,3.336018e-05
3783116000,3783116000,-0.0023269665,-0.0007501617,0.0014657717
3783128000,3783128000,0.0023695393,-0.0010181628,0.0034292869
3783140000,3783140000,0.0058070365,-0.001716685,0.0019236791
3783152000,3783152000,-0.0041837334,-0.0055749114,0.0042565675
3783164000,3783164000,-0.000985757,0.0016125217,0.0028629308
3783172000,3783172000,0.0010149896,0.00041763857,-0.0017687404
3783184000,3783184000,-0.003227729,-4.559057e-05,0.0018455052
3783196000,3783196000,0.0055778185,0.00041750073,0.00161343
3783212000,3783212000,-0.0005116191,-0.0031530927,-0.00035349902
3783224000,3783224000,-0.0035462417,0.00033825962,-0.0002142589
3783236000,3783236000,0.0025156382,-0.0031877859,0.004954791
3783248000,3783248000,0.0065446026,-0.003984952,-0.003105783
3783256000,3783256000,0.0049012154,-0.0017142496,0.0007323519
3783268000,3783268000,0.00030833314,0.00016508205,0.0013378413
3783280000,3783280000,0.0008621032,0.001981072,0.0015081279
3783296000,3783296000,0.002200079,0.0026312517,0.000626823
3783304000,3783304000,0.0020960122,0.0002056919,0.0017907916
3783320000,3783320000,-0.0036499454,-0.004842528,0.0018138324
3783328000,3783328000,-0.0044971965,-0.005816282,0.003076798
3783344000,3783344000,-0.0006713735,-0.0013359496,0.0047198245
3783356000,3783356000,-0.0026396897,-0.003005335,4.7623224e-05
3783368000,3783368000,-0.0012767883,-0.0014709258,0.0015792993
3783380000,3783380000,-0.0018944589,-0.00047890237,0.0028071026
3783392000,3783392000,0.0007634052,-3.8487837e-05,-0.0016068827
3783404000,3783404000,-0.0020872084,-0.0008933954,-0.0010967732
3783416000,3783416000,0.0032623466,-0.0011269916,0.0016490585
3783428000,3783428000,0.003032119,-0.00015263399,-0.0033259753
3783440000,3783440000,0.0004896495,0.006560537,-0.0009404172
3783452000,3783452000,0.0075335666,0.005764154,-0.00042392022
3783464000,3783464000,0.00072793994,-0.0026792837,0.0007538445
3783472000,3783472000,0.0014264855,-0.0031342278,0.0044782995
3783488000,3783488000,-0.008621275,-0.0062995157,0.0074341805
3783500000,3783500000,0.0004655929,-0.005844086,0.00075958733
3783512000,3783512000,-0.0036529475,-0.0014873478,-0.0049132
3783524000,3783524000,-0.00047691818,-0.00075506885,-0.00036345416
3783536000,3783536000,-0.004770287,-0.0029581576,0.0031459155
3783548000,3783548000,-0.004322437,-0.0011947094,0.0030728984
3783560000,3783560000,0.0002622205,0.0024572823,0.0013413628
3783568000,3783568000,0.004683008,0.0049372357,0.0041002277
3783584000,3783584000,-0.00033892627,-0.0014654696,0.00025680376
3783596000,3783596000,-0.0010242927,0.0016522233,-0.0022513166
3783608000,3783608000,-0.0030314096,0.0047397646,-0.00013027777
3783620000,3783620000,-0.0010027111,0.0033252565,0.00029004016
3783628000,3783628000,-0.0010388393,0.003343428,-0.0014953587
3783644000,3783644000,-0.0052535944,-0.00090568233,0.003940959
3783656000,3783656000,0.0024542634,0.00010343129,0.0009295681
3783668000,3783668000,0.000240986,0.00021750666,0.0030991691
3783680000,3783680000,0.002007097,0.0027893884,-0.0026761533
3783692000,3783692000,0.0045008725,-0.0029679341,-0.00041318184
3783704000,3783704000,0.0024928618,-0.007179064,0.0039689858
3783716000,3783716000,-0.0027872808,-0.004839044,0.008911607
3783724000,3783724000,0.00036247677,-0.00094529474,0.009999883
3783740000,3783740000,-0.0038118013,-0.0028668013,-0.0022368843
3783752000,3783752000,-0.0031316837,-0.00096087717,-0.006080013
3783764000,3783764000,0.0017769574,-0.0016976064,-0.0053707263
3783776000,3783776000,-0.00056500896,0.00024803588,-0.0042838496
3783784000,3783784000,-0.00091949804,0.0018436532,-0.003138494
3783800000,3783800000,0.0007893871,0.0003983681,0.0015374279
3783812000,3783812000,0.00085340603,-0.0011434583,-0.0062600644
3783824000,3783824000,0.0032472508,-1.823809e-05,-0.00047156244
3783836000,3783836000,0.0040438427,-0.00022174837,-0.0025051574
3783848000,3783848000,0.0014369524,-0.0036957944,0.0021862902
3783856000,3783856000,4.371087e-05,-0.0017625727,0.0031604036
3783872000,3783872000,0.00472172,-0.0049402243,-0.003285227
3783884000,3783884000,0.004705244,-0.0050398386,0.003220959
3783896000,3783896000,-0.00049957976,-0.0012248103,0.0066794865
3783908000,3783908000,-0.0029600393,0.002308757,0.0030707542
3783916000,3783916000,0.0030926415,-0.0013086293,-0.0002559291
3783932000,3783932000,-0.004156735,-0.00016232533,-0.00082019134
3783944000,3783944000,0.00061952043,-0.0023026778,-0.0024873046
3783956000,3783956000,-0.0045810156,-0.002114966,0.0013122029
3783968000,3783968000,-0.00042293704,-0.0023257756,-4.3229666e-06
3783980000,3783980000,0.004235721,-0.0010707979,0.0023850193
3783988000,3783988000,-0.0011988126,-0.0009903437,0.0018076302
3784004000,3784004000,0.0010693882,0.00056966115,0.0026845061
3784016000,3784016000,0.0030726,0.0029162318,-0.0003533279
3784028000,3784028000,-0.004890284,0.00071388157,-0.0019400578
3784040000,3784040000,-0.0034711014,0.0003716182,0.0038686607
3784048000,3784048000,-0.0014775565,3.488874e-05,0.00212509
3784064000,3784064000,0.013772946,-0.017744448,0.0032553046
3784076000,3784076000,0.022589067,-0.032586798,0.00036985785
3784088000,3784088000,0.03953023,-0.05863145,0.00070449966
3784100000,3784100000,0.06284292,-0.09066932,0.00400053
3784112000,3784112000,0.08975601,-0.119046964,0.00012377212
3784120000,3784120000,0.11159427,-0.1379612,-0.002158566
3784136000,3784136000,0.13721153,-0.15941744,-0.0062295734
3784148000,3784148000,0.14173199,-0.15851726,-0.0027205318
3784160000,3784160000,0.12900606,-0.15078858,-0.004455383
3784172000,3784172000,0.115548104,-0.13971418,-0.00736878
3784184000,3784184000,0.09699548,-0.124625534,-0.0048242183
3784192000,3784192000,0.09025158,-0.11883691,-0.0057577295
3784208000,3784208000,0.062764116,-0.09734056,-0.0033356268
3784220000,3784220000,0.056903142,-0.0721507,0.0023964273
3784232000,3784232000,0.047926363,-0.060798533,0.0030679996
3784244000,3784244000,0.042161796,-0.04680903,-0.00032452084
3784256000,3784256000,0.02797456,-0.03813482,-0.0030829227
3784268000,3784268000,0.016678764,-0.02719783,0.0007159242
3784280000,3784280000,0.007582801,-0.009895046,0.00039050213
3784292000,3784292000,0.0008414681,0.00072413357,0.0012697505
3784304000,3784304000,-0.00854503,0.01538348,-0.00095222046
3784316000,3784316000,-0.018149875,0.019952007,-0.00033493084
3784328000,3784328000,-0.024186788,0.030396944,-0.0009675072
3784340000,3784340000,-0.022522526,0.036951955,-0.0034892412
3784348000,3784348000,-0.023254119,0.038918663,-0.0027315188
3784364000,3784364000,-0.02247573,0.04738674,-0.004613881
3784372000,3784372000,-0.028676221,0.04815034,-0.0019210641
3784388000,3784388000,-0.03910537,0.05235497,-0.00080801215
3784400000,3784400000,-0.043663308,0.054964088,-0.00044385745
3784408000,3784408000,-0.04427275,0.049319275,0.00044677278
3784424000,3784424000,-0.04974243,0.052664563,-0.0022360308
3784432000,3784432000,-0.043287057,0.049639408,-0.0039505856
3784448000,3784448000,-0.04727454,0.050302185,0.0015605728
3784460000,3784460000,-0.04624148,0.05107974,-0.0029870106
3784468000,3784468000,-0.044760503,0.05208759,-0.0038113606
3784484000,3784484000,-0.03946022,0.050734375,0.0014110365
3784496000,3784496000,-0.037171308,0.051579632,-0.0010743977
3784504000,3784504000,-0.033762485,0.04988557,-0.0034712204
3784520000,3784520000,-0.033181358,0.044804126,-0.0011809416
3784528000,3784528000,-0.02905208,0.043940224,-0.004280563
3784544000,3784544000,-0.028774282,0.03985114,-0.0015954688
3784556000,3784556000,-0.026918754,0.03853434,-0.00048767336
3784564000,3784564000,-0.024712233,0.037066165,-0.0008296623
3784580000,3784580000,-0.015805457,0.03472175,-8.01001e-05
3784592000,3784592000,-0.022305744,0.034243383,0.0031770766
3784604000,3784604000,-0.018514136,0.029903885,0.0010959383
3784616000,3784616000,-0.021392368,0.030485313,0.0013837997
3784628000,3784628000,-0.01753951,0.025600918,0.00014567652
3784636000,3784636000,-0.014260644,0.023102133,-0.0024921
3784652000,3784652000,-0.008285906,0.018234406,4.507287e-05
3784664000,3784664000,-0.009699839,0.02282723,-0.003751009
3784672000,3784672000,-0.008404833,0.025158053,-0.0042491327
3784688000,3784688000,-0.010019186,0.011312442,0.0007450134
3784700000,3784700000,-0.014170721,0.0073415823,-0.0030605083
3784712000,3784712000,-0.011007892,0.0042363047,0.0007904325
3784724000,3784724000,-0.0075067366,0.0071632606,-0.0001829502
3784736000,3784736000,-0.01110711,0.012580893,-0.0007558663
3784748000,3784748000,-0.013517223,0.009745369,0.0015406844
3784760000,3784760000,-0.009083929,0.011757301,0.0027425897
3784768000,3784768000,-0.008118326,0.007319867,-0.00031619816
3784784000,3784784000,-0.009458752,0.009192173,-0.0029870833
3784796000,3784796000,-0.006479893,0.0050696284,0.00086836825
3784808000,3784808000,-0.001040473,0.0011453705,0.0004665036
3784820000,3784820000,-0.0010361766,8.327002e-05,0.0009859301
3784832000,3784832000,-4.3620938e-05,0.0015491811,-0.0017841554
3784844000,3784844000,-0.0026188411,0.0056315516,-0.0017041496
3784856000,3784856000,-0.003227063,0.006377318,-0.0021046442
3784868000,3784868000,0.0055702613,0.011379068,0.001517286
3784880000,3784880000,0.006143627,0.007098687,-0.0027064225
3784892000,3784892000,0.0021686933,0.006516223,-0.0067267683
3784900000,3784900000,0.0002732994,0.005843666,-0.0038227467
3784916000,3784916000,-0.00020358566,0.002777006,-0.0005247276
3784928000,3784928000,-0.0023927938,0.0040194737,0.0004066671
3784940000,3784940000,-0.00042650604,0.0056756437,-0.004042901
3784952000,3784952000,-0.0048261485,-0.00069792056,-0.0014560221
3784964000,3784964000,-0.002093295,0.006850416,-0.002383703
3784976000,3784976000,-0.008295323,0.0064503257,-0.0005558131
3784988000,3784988000,-0.008011606,0.004150246,-0.00073884794
3785000000,3785000000,-0.0037315981,0.0011010065,-0.002938625
3785012000,3785012000,0.0043698,0.0014486564,-0.0023309796
3785024000,3785024000,-0.0010361087,0.0037786614,0.0030138206
3785036000,3785036000,-0.0017923624,0.006222715,0.00059708755
3785048000,3785048000,0.000104254636,0.006930069,-0.00035987567
3785060000,3785060000,0.0011163699,0.0077719167,-0.0010247349
3785072000,3785072000,0.0020644877,0.003704046,0.0012539204
3785084000,3785084000,0.0030714336,0.0002642572,-0.00019986836
3785096000,3785096000,0.0052376348,0.0073263203,0.003285105
3785108000,3785108000,0.0005358405,0.006500597,0.0051044542
3785120000,3785120000,0.0020532901,0.005375875,0.0005248607
3785132000,3785132000,0.0046432433,0.0042767413,-0.003127885
3785144000,3785144000,0.0021510634,0.0052902456,-0.0023706807
3785156000,3785156000,-0.005904354,-0.00013252907,0.005297745
3785168000,3785168000,-0.0052523864,-0.003057255,0.0013538442
3785180000,3785180000,-0.0011286014,-0.0058232886,-0.0005282281
3785192000,3785192000,0.004021092,-0.0016188463,-0.0029076594
3785204000,3785204000,0.0068632835,-0.0039526047,-0.0014960716
3785216000,3785216000,0.005962671,0.001148476,-0.0011861603
3785228000,3785228000,0.0010223659,0.0027546764,0.002493654
3785240000,3785240000,0.0020214831,0.004511232,-0.00013379694
3785248000,3785248000,0.0015203923,0.0042088805,-0.0013540279
3785264000,3785264000,0.0016588961,0.0045248466,0.0016642672
3785276000,3785276000,-0.0008992821,0.0029517347,0.002809471
3785284000,3785284000,-0.0012681796,0.00625013,0.0030498034
3785300000,3785300000,0.00042536083,0.0009065098,-0.00035571714
3785312000,3785312000,-0.0015611292,0.0038404635,0.001192418
3785320000,3785320000,0.00040386437,0.0070856865,-0.00083868846
3785332000,3785332000,0.00058501563,0.009302922,-0.00064859807
3785344000,3785344000,0.003033238,0.0077395267,-0.0033271415
3785356000,3785356000,0.00012267334,0.00454393,-0.0017288531
3785372000,3785372000,-0.0007644104,0.0016305344,-0.002365217
3785384000,3785384000,-0.0005840146,-0.0030386457,0.00017245927
3785396000,3785396000,0.0007696456,-0.0012146635,0.0028223002
3785408000,3785408000,0.0015955766,0.008528134,0.0021401772
3785416000,3785416000,-0.0013599935,0.0062279534,0.0028503775
3785428000,3785428000,-0.00509113,-0.004637266,-0.00075242587
3785444000,3785444000,-0.0056812884,-0.0019619106,-0.0021749754
3785452000,3785452000,0.0030874833,-0.0017530569,0.0002589481
3785464000,3785464000,0.0038804521,-0.0041714977,0.003614516
3785476000,3785476000,0.0077774785,0.0036338123,0.011591527
3785492000,3785492000,0.008431182,0.008314965,0.00012011857
3785504000,3785504000,0.0052076797,0.007716915,-0.0014381568
3785512000,3785512000,0.0072548427,0.005432581,0.00013895523
3785528000,3785528000,0.012537635,-0.00035645114,0.0016466798
3785536000,3785536000,0.009806102,-0.0016461974,-0.0028088198
3785548000,3785548000,0.004035178,0.0010984996,-0.00040985964
3785564000,3785564000,0.004522408,-0.00010303222,0.0014802443
3785576000,3785576000,0.0015162099,0.0004490693,-0.0021825864
3785588000,3785588000,-0.0022088273,0.0030370932,-2.6010719e-05
3785600000,3785600000,-0.0005312088,0.0015752055,-0.0027654818
3785612000,3785612000,-0.0048137037,-0.0025446955,0.0029068512
3785624000,3785624000,-0.0041721426,-0.0042509283,0.0013473688
3785636000,3785636000,-0.0054646702,-0.0035700225,-0.0015328501
3785648000,3785648000,-0.003675309,0.0045852354,0.0020164452
3785660000,3785660000,-0.009361618,0.0068445634,0.0012138312
3785672000,3785672000,-0.010794988,0.011168059,-0.0028269675
3785680000,3785680000,-0.009543209,0.012325406,-0.005410873
3785696000,3785696000,-0.011353596,0.005721261,-0.0019245152
3785708000,3785708000,-0.013783637,0.005543576,-0.0024164356
3785720000,3785720000,-0.01715204,0.008234648,-0.0016558387
3785732000,3785732000,-0.013586339,0.008509742,0.0013308368
3785740000,3785740000,-0.011462864,0.012452697,0.007580412
3785756000,3785756000,-0.010421915,0.0006738107,0.0062104906
3785768000,3785768000,0.0021859778,-0.00431602,0.00757779
3785776000,3785776000,0.0022186972,-0.0024624784,0.007592249
3785792000,3785792000,-0.00079889916,-0.00043247547,0.012821656
3785804000,3785804000,-6.248517e-05,0.0030758549,0.02213333
3785816000,3785816000,-0.0063691055,0.008111768,0.022913482
3785828000,3785828000,-0.009207934,0.0069699557,0.02300448
3785840000,3785840000,-0.0033287709,0.0057907198,0.02606988
3785852000,3785852000,-0.0030400164,0.004678649,0.02965951
3785864000,3785864000,-0.007035646,-0.003929577,0.032529738
3785876000,3785876000,-0.009545221,-0.002933262,0.033424534
3785888000,3785888000,-0.007495019,-0.0020805378,0.03303422
3785900000,3785900000,-0.0024751767,-0.0018267548,0.03478729
3785912000,3785912000,-0.0009517949,-0.0028322292,0.037346497
3785924000,3785924000,-0.0025733456,-0.0077874684,0.03336701
3785936000,3785936000,-0.0008364928,-0.005200771,0.02735574
3785948000,3785948000,-0.0033379602,-0.009423051,0.029882643
3785960000,3785960000,-1.3509707e-05,-0.008075593,0.033395078
3785972000,3785972000,-0.0056441906,-0.007665686,0.027634166
3785984000,3785984000,-0.0067504155,-0.0026062536,0.02573461
3785996000,3785996000,-0.006260448,-0.006527183,0.031511955
3786008000,3786008000,-0.0013710242,0.0011924389,0.023733586
3786020000,3786020000,0.0027729305,-0.0009162263,0.01808423
3786028000,3786028000,0.007503497,-0.002531739,0.024153873
3786040000,3786040000,0.00065506034,0.003158568,0.026094912
3786056000,3786056000,0.0011308833,0.005386362,0.021659901
3786068000,3786068000,-0.0004383399,0.0067114,0.021845324
3786080000,3786080000,0.0035912478,0.000864672,0.018440468
3786092000,3786092000,0.0039328355,-0.004580974,0.022440668
3786100000,3786100000,0.004366952,-0.0029490115,0.0244391
3786112000,3786112000,0.00054875226,0.0010381113,0.022830538
3786128000,3786128000,-0.0042493483,-0.0015888535,0.025122866
3786136000,3786136000,-0.009673146,-0.00010337494,0.014228079
3786148000,3786148000,-0.009967628,-0.0018389993,0.011539651
3786164000,3786164000,-0.010137223,-0.0036648144,0.015170369
3786176000,3786176000,-0.01204946,0.0043908353,0.017413419
3786188000,3786188000,-0.006147489,0.007358553,0.011451723
3786196000,3786196000,-0.007897304,0.003306487,0.013558163
3786212000,3786212000,-0.009927761,-0.0023973584,0.015210525
3786220000,3786220000,-0.01290285,-0.0068626744,0.015252612
3786232000,3786232000,-0.01672381,-0.00042429706,0.0108676255
3786248000,3786248000,-0.012595052,0.0039303326,0.0072303596
3786256000,3786256000,-0.010727829,0.007003498,0.008964227
3786272000,3786272000,-0.00578341,0.002454954,0.006427359
3786284000,3786284000,-0.0035437676,0.003462082,0.004764596
3786296000,3786296000,0.0053756484,0.002699803,0.0028729956
3786308000,3786308000,0.0028247342,-8.490635e-05,0.0027234228
3786320000,3786320000,0.0028964835,0.00038376963,0.009227686
3786332000,3786332000,0.002094454,-0.0016822801,0.0035473015
3786340000,3786340000,0.00017561004,-0.0020446419,0.002540903
3786356000,3786356000,-0.0033072499,0.00052375696,0.0027339228
3786364000,3786364000,-0.007919928,0.0044918214,-0.0009143307
3786380000,3786380000,-0.004328954,0.001097332,0.0013981764
3786392000,3786392000,0.0001319577,-0.0035912828,0.00069354696
3786404000,3786404000,0.007819187,-0.0037792842,0.001487636
3786416000,3786416000,0.013094298,0.0028398158,-0.0031768943
3786428000,3786428000,0.0057415245,-0.005039519,-2.7069604e-05
3786440000,3786440000,4.2747415e-05,-0.0012586932,0.004305388
3786452000,3786452000,0.0057482896,-0.004760265,0.004049218
3786464000,3786464000,0.005546255,-0.005982254,0.00033311752
3786476000,3786476000,-0.00018296146,-0.0039498364,0.0017564722
3786488000,3786488000,0.001920718,-0.0060347184,0.00026497856
3786500000,3786500000,0.0028564718,-0.0023942497,0.0023589868
3786512000,3786512000,0.0008586498,-0.003753439,-0.0010182403
3786524000,3786524000,0.00053076353,-0.0070596184,0.00048663013
3786532000,3786532000,-0.0050544688,-0.007732444,-0.0009092515
3786548000,3786548000,-0.0046070814,-0.004489016,-0.0021640868
3786560000,3786560000,-0.004248724,-0.0059579555,0.004570824
3786572000,3786572000,-0.0044332924,-0.008362787,0.0029873785
3786580000,3786580000,-0.004446316,-0.0035352535,0.00043896888
3786592000,3786592000,-0.0053825295,-0.0016059699,0.0017718188
3786608000,3786608000,0.0021612376,0.00019706087,0.0008124914
3786616000,3786616000,0.004041315,0.0026323178,-0.000585485
3786632000,3786632000,0.004529712,0.00478482,0.0028886772
3786644000,3786644000,0.001694321,0.0030432765,0.0010132262
3786652000,3786652000,-0.00065419823,0.0015427009,0.0024048337
3786668000,3786668000,-0.004468406,-0.00529624,-0.0007541743
3786676000,3786676000,-0.008868661,-0.010102708,-0.0025951692
3786692000,3786692000,-0.0020682055,-0.0026643178,-0.0025922903
3786704000,3786704000,-0.0027957947,-0.0010970072,-0.0019980886
3786716000,3786716000,-0.0027854652,-0.0034574838,0.000720248
3786728000,3786728000,0.0011405528,-0.0039039697,-0.0011950304
3786740000,3786740000,-0.00207688,-0.001093193,-0.0038655878
3786748000,3786748000,-0.0036450122,-0.0030972045,-0.006075775
3786764000,3786764000,-0.008816206,-0.0037278016,-0.0022337788
3786772000,3786772000,-0.0070012813,-0.0001539099,-0.003711995
3786788000,3786788000,-0.0073598586,0.008895665,-0.0014777449
3786800000,3786800000,-0.006033915,0.007929537,-0.002026517
3786812000,3786812000,-0.003862652,0.007956528,0.0017875799
3786824000,3786824000,-0.005907878,0.008625433,-0.0027411494
3786836000,3786836000,-0.004266687,0.010903518,-0.0005892847
3786848000,3786848000,-0.0029842374,0.011831081,-0.001131069
3786860000,3786860000,0.0015714106,0.00671521,-0.002999316
3786868000,3786868000,0.007219569,0.0026856943,-0.0032568665
3786880000,3786880000,0.0060437797,0.0013196175,-0.002984945
3786892000,3786892000,0.0044407183,0.008987138,-0.0035363927
3786908000,3786908000,0.0063887946,0.012884105,-0.0023994776
3786920000,3786920000,0.013989328,0.012594387,0.0008026253
3786932000,3786932000,0.008810549,0.0043365727,0.002340671
3786944000,3786944000,0.013366098,0.006836319,-0.00079474796
3786956000,3786956000,0.01336425,0.0011953358,-0.0014564974
3786964000,3786964000,0.01235953,-0.0028460552,-0.00039967557
3786980000,3786980000,0.00091818173,0.0017135339,-0.0029906281
3786992000,3786992000,-0.0013111022,-0.0015069689,0.0013851428
3787004000,3787004000,0.0005257195,0.0021752026,0.0005045517
3787016000,3787016000,0.0046732742,0.0027043307,-0.008367511
3787028000,3787028000,0.0028841468,0.0021625434,-0.0061656926
3787036000,3787036000,0.004387507,0.0026403968,-0.0038919589
3787052000,3787052000,0.0010676133,0.008077719,-0.0010185112
3787064000,3787064000,-0.0007667005,0.007163642,-0.00012325012
3787076000,3787076000,-0.0031245016,0.010176023,-0.0017256187
3787088000,3787088000,-0.005850954,0.010176354,-0.0032371345
3787096000,3787096000,-0.0036234038,0.009846571,-0.001935462
3787112000,3787112000,-0.0030153277,0.0068877786,-0.0050368374
3787120000,3787120000,-0.009932871,0.01029025,-0.0056092753
3787136000,3787136000,-0.006951113,0.008538659,-0.0018534634
3787148000,3787148000,-0.0057499227,0.003831961,-0.0045982255
3787160000,3787160000,0.0016069559,-0.00039748847,0.0015826711
3787172000,3787172000,0.0032650607,0.0013942642,0.0009984582
3787184000,3787184000,-0.0044837347,0.0012246035,-0.0037535948
3787196000,3787196000,-0.004584992,0.0018530509,-0.0036931904
3787208000,3787208000,-0.0029427502,0.0051660785,-0.00021333975
3787220000,3787220000,-0.0012039744,0.0052483566,-0.002778788
3787232000,3787232000,-0.008231949,-0.0025444166,-0.0028125441
3787244000,3787244000,-0.010613068,-0.004540525,-0.0022009034
3787252000,3787252000,-0.01045388,-0.005291941,-0.0051010055
3787268000,3787268000,-0.007291474,-0.008384395,-0.0034106828
3787280000,3787280000,-0.012205565,-0.0012856969,-0.0020666467
3787292000,3787292000,-0.007157909,-0.011305606,-0.0010244701
3787304000,3787304000,-0.00082262984,-0.017437223,-0.0013889949
3787316000,3787316000,0.0012079028,-0.009474199,0.0026588307
3787324000,3787324000,-0.0014351949,-0.005253144,0.00027735916
3787340000,3787340000,0.0016331386,-0.0075711403,-0.006861247
3787348000,3787348000,0.0010185225,-0.0037672436,-0.002388153
3787364000,3787364000,-0.0006417487,-0.015932463,-0.001025473
3787376000,3787376000,0.0040547117,-0.01476071,-0.0018698275
3787388000,3787388000,0.0016176179,-0.012783457,-0.0055263736
3787400000,3787400000,0.0024626753,-0.009410222,-0.0069853202
3787412000,3787412000,0.0016663035,-0.0031850375,-0.0051991767
3787424000,3787424000,0.0025010905,-0.005138953,-0.0072980877
3787436000,3787436000,0.0022862568,-0.0055392524,-0.0034193986
3787448000,3787448000,0.002600642,-0.0015396285,0.0012772968
3787460000,3787460000,-0.0010832662,-0.00015061907,-0.001889913
3787468000,3787468000,0.0033581296,0.0023383352,-0.0033706434
3787484000,3787484000,0.002016586,0.0037467643,-0.0061730086
3787492000,3787492000,-0.0003108349,0.0028983564,-0.0048430557
3787508000,3787508000,-0.00030242617,0.005393045,-0.0016170304
3787520000,3787520000,-0.004616411,0.0028347583,-0.0037479254
3787532000,3787532000,-0.0039632814,0.0055245874,-0.0027569663
3787544000,3787544000,-0.001640375,0.008349091,-0.0042816587
3787552000,3787552000,-0.0043400214,0.008967975,-0.0011389891
3787568000,3787568000,0.00081667077,0.007475148,-0.007846423
3787580000,3787580000,-0.0015390485,0.0068538073,0.00022668998
3787592000,3787592000,-0.0038432635,0.009608685,0.0002757589
3787604000,3787604000,-0.00034225715,0.012240514,-0.004623579
3787612000,3787612000,0.0022967588,0.018784354,-0.0019951956
3787628000,3787628000,-0.0010375443,0.009934561,-0.0073144576
3787640000,3787640000,0.0014824322,0.0121010225,-0.004780472
3787652000,3787652000,0.0020172822,0.007191754,-0.006587359
3787660000,3787660000,0.0010030947,0.0048278356,-0.0043353867
3787672000,3787672000,0.003907512,0.009285522,-0.004244811
3787688000,3787688000,-0.0019752963,0.012467193,0.0016582521
3787700000,3787700000,0.0009298138,0.012999949,-0.0033027069
3787708000,3787708000,-0.0008918616,0.012413098,-0.0033814064
3787724000,3787724000,-0.0007675488,0.011577756,-0.00062163494
3787736000,3787736000,-0.0070441384,0.010689963,-0.002712392
3787744000,3787744000,-0.005899481,0.009162551,-0.0020131571
3787760000,3787760000,-0.00069261604,0.00066246046,0.00062141067
3787772000,3787772000,0.0031418402,0.001719275,0.001892487
3787780000,3787780000,-0.0016856971,-0.0002124561,-0.0018159066
3787792000,3787792000,-0.0070204893,0.0034845627,-0.00230063
3787804000,3787804000,-0.012084283,-0.0009033489,-0.0041122143
3787820000,3787820000,-0.0154099865,-0.005663348,0.0036549037
3787832000,3787832000,-0.016164338,-0.0034956248,0.00022588426
3787840000,3787840000,-0.014545767,-0.004951042,-0.0004244239
3787856000,3787856000,-0.0021192834,-0.007834389,-0.00076178985
3787868000,3787868000,0.001259617,-0.00856387,0.0024842646
3787880000,3787880000,0.0027767092,-0.011501836,-0.004522741
3787892000,3787892000,0.0056747072,-0.0051060887,-0.0031197083
3787904000,3787904000,0.008182221,-0.0009275051,-0.0014471959
3787916000,3787916000,0.005590614,-0.0001183413,-0.0011744418
3787928000,3787928000,0.01230817,0.0048311194,-0.0033184874
3787940000,3787940000,0.013251939,0.006010665,-0.0038077107
3787948000,3787948000,0.0090921335,0.006741833,-0.0042851907
3787964000,3787964000,0.007840746,0.010440571,-0.006078219
3787976000,3787976000,0.0044027157,0.0032430296,-0.0060720937
3787988000,3787988000,0.004511426,0.0076721334,-0.0043382985
3787996000,3787996000,0.0018274778,0.009387058,-0.003400325
3788012000,3788012000,-0.00093734683,0.004833872,0.0021735202
3788020000,3788020000,-0.0014893989,0.00276918,0.0054404796
3788036000,3788036000,0.00067397207,-0.0007243715,-5.170361e-05
3788048000,3788048000,-0.0026442143,-0.004032049,-0.0042835297
3788060000,3788060000,-0.004304189,-0.0023317253,-0.0059155305
3788068000,3788068000,-0.004495898,0.0012588457,0.00058928115
3788084000,3788084000,-0.008041202,0.0036423272,0.0009331079
3788096000,3788096000,-0.008483261,0.003210871,-0.0033746695
3788108000,3788108000,-0.0068618353,-0.0015700008,-0.0024260017
3788120000,3788120000,-0.0033422972,-0.0029159398,-0.0049663875
3788132000,3788132000,-0.0054717343,-0.00080340356,-0.0010728443
3788144000,3788144000,-0.012969632,-0.0051910495,-0.005281697
3788156000,3788156000,-0.015361593,-0.0030481843,-0.0050410996
3788168000,3788168000,-0.020375174,0.0034033326,-0.0012851928
3788180000,3788180000,-0.016948693,-0.0034081247,-0.0052164798
3788192000,3788192000,-0.016237188,-0.0045175627,0.0024732964
3788204000,3788204000,-0.015114203,0.0018582894,-0.0029285066
3788216000,3788216000,-0.016876834,0.0026657043,-0.0012160775
3788224000,3788224000,-0.013916811,0.0014395248,0.00042520429
3788236000,3788236000,-0.01434217,0.0040425966,0.003851448
3788248000,3788248000,-0.014937161,0.0056333155,-0.0007128797
3788264000,3788264000,-0.0077121924,0.009887252,-0.003714127
3788276000,3788276000,-0.010925422,0.012995817,-0.000770432
3788284000,3788284000,-0.008481425,0.015978683,0.004060644
3788300000,3788300000,-0.0037847832,0.012986185,0.0060700523
3788312000,3788312000,-0.0011386441,0.01449702,0.0005294552
3788320000,3788320000,-0.0020634197,0.016346492,0.0019932063
3788332000,3788332000,-0.003474907,0.015148617,-0.0017428754
3788348000,3788348000,0.001346549,0.01912544,-0.004256565
3788360000,3788360000,-0.004275986,0.015909681,-0.0018691734
3788372000,3788372000,-0.0040551824,0.010957245,-0.00334161
3788380000,3788380000,-0.0031518724,0.0074860766,-0.0029178783
3788392000,3788392000,-0.0016865523,0.0062370077,-0.0030674825
3788408000,3788408000,-0.0030989514,0.0043929345,0.0008843472
3788420000,3788420000,-0.0033203554,0.005888048,-0.0045312042
3788432000,3788432000,-0.0054262592,0.004153731,-0.006796442
3788444000,3788444000,-0.0043072435,0.0025898207,-0.009856223
3788456000,3788456000,0.0013570634,0.0071403566,-0.0027850594
3788468000,3788468000,-0.0024394284,0.0070682135,-0.0018017893
3788480000,3788480000,0.002021024,0.0062440825,0.0018351922
3788488000,3788488000,0.0020574436,0.007668771,0.0048014633
3788504000,3788504000,-0.0063888757,-0.001206331,0.0005078516
3788516000,3788516000,-0.0050860248,0.00019407598,-0.0014468096
3788528000,3788528000,-0.002185986,0.0041338312,-0.0023251183
3788540000,3788540000,-0.0055975122,0.009846639,0.0005506036
3788548000,3788548000,-0.004046175,0.008761022,-0.00082055375
3788564000,3788564000,-0.0018800638,-0.00038857432,-0.0034270738
3788572000,3788572000,-0.0016187241,-0.0016447608,-0.0033930303
3788588000,3788588000,-0.002530114,-0.004036456,-0.005261974
3788600000,3788600000,-0.0052225064,-0.00057119736,0.00084749924
3788612000,3788612000,-0.009001068,-0.0014234879,0.0037530195
3788620000,3788620000,-0.010259388,-0.00946972,0.0003653347
3788632000,3788632000,-0.0043856716,-0.008307893,-0.0048617558
3788648000,3788648000,-0.005745415,0.0018266356,-0.0063481345
3788656000,3788656000,-0.005729102,0.0020564673,-0.005624149
3788672000,3788672000,0.0008543209,-0.006596951,-0.0012743734
3788680000,3788680000,0.0022122702,-0.0062871436,0.0017225329
3788696000,3788696000,0.009244962,0.0019914184,-0.002367061
3788708000,3788708000,0.008434157,0.0021798443,0.0005004093
3788720000,3788720000,0.010469115,0.003374726,0.0024477858
3788732000,3788732000,0.013565276,0.0037415142,0.00046081253
3788744000,3788744000,0.014386779,0.0026798453,-0.0024662155
3788756000,3788756000,0.00942646,0.0010764953,-0.0007245635
3788768000,3788768000,0.009942071,-0.0019834866,-0.003926625
3788780000,3788780000,0.0055357656,-0.0044542267,-0.0019330586
3788792000,3788792000,0.00046713508,0.0038171667,0.0020911437
3788804000,3788804000,0.005799043,0.0034781802,-0.0024824627
3788816000,3788816000,0.0038995082,-0.0049384236,0.0018895941
3788828000,3788828000,-8.163974e-06,0.0006731497,-0.0024816492
3788836000,3788836000,-0.0024077774,0.005318992,-0.0012275104
3788852000,3788852000,-0.0020171625,-0.0009653801,0.0005728479
3788864000,3788864000,0.0013621324,-0.003190225,-0.003539182
3788872000,3788872000,-0.000743981,-0.0040982296,-0.0049436553
3788888000,3788888000,0.00023770006,-0.004435686,0.00038579412
3788900000,3788900000,-0.0009244347,-0.00223285,-0.0046446277
3788912000,3788912000,-0.005008519,-0.006178229,-0.0056424774
3788924000,3788924000,-0.004177662,-0.0058159875,-0.004878174
3788936000,3788936000,-0.0034380234,0.00013930583,-0.003102644
3788948000,3788948000,-0.0057135457,-0.0027655913,0.000770666
3788956000,3788956000,-0.0068607824,-0.0026753996,-0.0040335637
3788972000,3788972000,-0.00016311964,0.0028804666,-0.0056209895
3788984000,3788984000,-0.008915004,0.0015827755,-0.0033970103
3788996000,3788996000,-0.01268391,-0.0019595916,-0.0020971904
3789008000,3789008000,-0.0109663345,-0.00017444836,-0.0007650819
3789020000,3789020000,-0.01644828,-0.003118298,1.5062338e-05
3789028000,3789028000,-0.017439667,-0.004550947,0.00010560701
3789040000,3789040000,-0.012223159,-0.0028373087,-0.00645955
3789056000,3789056000,-0.010953047,0.0011807645,-0.0036164797
3789068000,3789068000,-0.007175496,0.0005392879,-0.0051860153
3789076000,3789076000,-0.006758564,0.002811564,-0.006631353
3789092000,3789092000,-0.003563828,-0.012294706,-0.0033881802
3789104000,3789104000,5.2983407e-05,-0.009473722,0.0069140806
3789116000,3789116000,-0.00029622187,-0.008015618,0.0008697467
3789128000,3789128000,-0.0011465307,-0.0027586706,-0.0065797837
3789140000,3789140000,0.00018254982,0.001382214,-0.0039539495
3789152000,3789152000,-0.0039294884,9.954674e-05,0.0013376656
3789164000,3789164000,-0.006649673,0.0010398368,0.004467993
3789172000,3789172000,-0.008598588,4.4033397e-05,0.0042750067
3789188000,3789188000,-0.010628611,-0.007263735,-0.00029025445
3789200000,3789200000,-0.005615412,-0.0049970997,-0.0056726807
3789212000,3789212000,-0.002209103,-0.010908155,0.00083667587
3789224000,3789224000,-0.010165848,-0.008081043,-0.004399658
3789232000,3789232000,-0.011507904,-0.0039418717,-0.0044866074
3789248000,3789248000,-0.0047773886,-0.010526326,0.0019656953
3789260000,3789260000,-0.007484344,-0.0064150784,0.0023593553
3789268000,3789268000,-0.005934418,-0.0046173995,-0.0010757635
3789284000,3789284000,-0.0026572857,-0.0019361093,-0.0046216827
3789292000,3789292000,0.00023842114,-2.148468e-05,-0.0013779494
3789308000,3789308000,0.0009683501,-0.002865302,5.289269e-05
3789320000,3789320000,-0.0040659476,0.003578288,0.0037363255
3789332000,3789332000,-0.006482405,0.003197934,-0.0032531028
3789344000,3789344000,-0.0064235604,0.0026202486,-0.0003863967
3789356000,3789356000,-0.008619189,-0.0024102381,3.26078e-05
3789368000,3789368000,-0.0062410193,0.002053199,-0.00084175984
3789380000,3789380000,-0.0064215558,0.009046475,-0.003323161
3789388000,3789388000,-0.0041819736,0.007315219,-0.00089612
3789404000,3789404000,-0.0010535324,0.008910643,-0.004049793
3789412000,3789412000,-0.0028926185,0.009468,-0.0061640036
3789428000,3789428000,0.0006124798,0.0025548935,-0.00035893015
3789436000,3789436000,0.0011460588,0.0044485014,0.0008426396
3789452000,3789452000,-0.0012238872,0.012991376,-7.7504286e-05
3789464000,3789464000,0.005472204,0.012444289,0.0010672621
3789476000,3789476000,0.0027974497,0.011792241,-0.005321458
3789488000,3789488000,0.0025350484,0.006175721,-0.0029994221
3789500000,3789500000,0.0028674451,0.007957902,-0.0047351085
3789508000,3789508000,-0.0014088734,0.0053344923,-0.006415004
3789524000,3789524000,0.0013673538,0.0021204099,-0.0064157993
3789536000,3789536000,0.0051728333,-0.0026067384,-0.00079316413
3789548000,3789548000,-0.0006249109,-0.0076584443,-0.004655089
3789556000,3789556000,0.0021631485,-0.003268124,-0.003606489
3789572000,3789572000,0.006243852,-0.0022412413,-0.0008945715
3789584000,3789584000,0.0057390137,-0.0025696652,0.0035070316
3789596000,3789596000,0.0016524376,-0.0020349366,-0.0009725245
3789608000,3789608000,0.0038705252,0.0030844132,-0.003040342
3789620000,3789620000,0.008875419,0.0027012164,0.0042591663
3789632000,3789632000,0.007917827,-0.0023844559,-0.0011847478
3789644000,3789644000,0.0038562445,0.0022148644,0.003084687
3789656000,3789656000,0.0027573523,0.00035981834,-0.004137476
3789668000,3789668000,-2.2510823e-05,-0.0034812912,-0.0021932642
3789680000,3789680000,0.0017255906,-0.0077447267,7.083687e-05
3789692000,3789692000,-0.0053591956,-0.012224169,0.0052075735
3789700000,3789700000,-0.005338111,-0.010919632,0.0038185131
3789712000,3789712000,-0.001816592,-0.016518481,8.1676524e-05
3789728000,3789728000,0.00044667267,-0.013701187,-0.002198182
3789736000,3789736000,-0.007334154,-0.00789678,0.0014386906
3789752000,3789752000,-0.0077044405,-0.011059532,0.0007886315
3789764000,3789764000,-0.0053098644,-0.0071409973,0.0014618266
3789776000,3789776000,-0.006280709,-0.0056385016,0.004028737
3789788000,3789788000,-0.0036428305,-0.0011552894,0.00023584085
3789800000,3789800000,0.0003205386,-0.0027791625,0.00045021044
3789812000,3789812000,0.00448699,0.004349849,-0.001978128
3789824000,3789824000,0.0031198645,0.0017280872,-0.0044417344
3789836000,3789836000,0.0049011977,0.0038555919,-0.0058171414
3789848000,3789848000,0.008060913,0.0016059317,0.0015365015
3789860000,3789860000,0.0025251284,-0.0054830615,-0.0021935462
3789868000,3789868000,0.0034351556,-0.007754839,-0.0026387011
3789884000,3789884000,0.0015443338,-0.004891012,-0.0064135166
3789896000,3789896000,-6.863632e-05,-0.0048134415,-0.0060372143
3789908000,3789908000,0.0008094821,-0.0041415836,-0.0022047865
3789920000,3789920000,0.0014759805,-0.0045677773,-0.00047532865
3789932000,3789932000,0.009507994,-0.004995341,0.0010546752
3789944000,3789944000,0.013774628,-0.011124898,-0.00057715963
3789956000,3789956000,0.016928522,-0.00853399,-0.0029752997
3789968000,3789968000,0.008652113,-0.005684487,0.0021060158
3789980000,3789980000,0.0070113246,-0.008458001,0.0064555025
3789992000,3789992000,0.0063340296,-0.0048274696,0.004467141
3790004000,3790004000,0.009074109,-0.005717694,0.0016313787
3790016000,3790016000,0.010583276,-0.0074557345,-0.00019908379
3790028000,3790028000,0.012058297,-0.009813901,0.00077789073
3790040000,3790040000,0.016957453,-0.008283489,-0.002325131
3790052000,3790052000,0.010252437,-0.0050660907,-0.0011305548
3790064000,3790064000,0.002773503,0.0005914313,-0.0013940469
3790076000,3790076000,-0.0012371363,0.0046861405,-0.0011132865
3790084000,3790084000,0.0033161421,-0.001226603,-0.0010496182
3790100000,3790100000,0.0044361874,-0.0014622831,0.003250264
3790112000,3790112000,0.003779798,0.002178155,-0.0004311091
3790124000,3790124000,0.0050113844,0.00573003,-0.0003762237
3790136000,3790136000,0.0009880081,0.0033581534,-0.00084369094
3790148000,3790148000,-0.004407358,0.0031563307,-0.0004909736
3790160000,3790160000,-0.003182567,0.0069642523,0.002730309
3790172000,3790172000,-0.0015552589,0.0088493,-0.0023239795
3790184000,3790184000,-0.0027357023,0.0043801474,0.00082347996
3790196000,3790196000,0.0008575255,0.0028736396,0.00083161937
3790208000,3790208000,0.002680662,-0.0043154215,0.00049114274
3790220000,3790220000,0.0051579676,-0.006790984,5.0581497e-05
3790232000,3790232000,0.003189105,-0.005222101,-0.00053408626
3790244000,3790244000,-0.007701655,-0.0073705837,-0.0017262731
3790252000,3790252000,-0.009832978,-0.010236515,-0.0006328003
3790268000,3790268000,-0.01465683,-0.009907102,-0.00038888387
3790276000,3790276000,-0.011510027,-0.0077636978,-0.0016402574
3790292000,3790292000,-0.0027481404,-0.0067472802,0.0007625257
3790304000,3790304000,0.006455886,-0.002616,-0.0026145494
3790316000,3790316000,0.005121094,0.0055013355,-0.005662691
3790328000,3790328000,0.007342818,0.00974757,-0.0048916135
3790340000,3790340000,0.005211348,0.009960658,-0.0034423957
3790348000,3790348000,0.0073249843,0.010852432,0.0004753773
3790364000,3790364000,0.0067404816,0.011923784,-0.0022783577
3790372000,3790372000,0.006363973,0.009634718,-0.00085771154
3790384000,3790384000,-0.0006994948,0.0030756374,-0.0004933402
3790400000,3790400000,-0.0035479374,0.007657914,0.0038615859
3790412000,3790412000,3.186136e-05,0.007677816,0.008636851
3790424000,3790424000,0.008275764,0.007399383,-0.00091166684
3790436000,3790436000,0.0021316768,0.0133797405,-0.0014094631
3790448000,3790448000,0.0035725513,0.007218057,3.1001837e-06
3790460000,3790460000,0.0053624236,-0.001270636,0.005927403
3790472000,3790472000,-7.057085e-05,0.0033331315,0.0011046825
3790484000,3790484000,0.0047725826,-0.0010201046,3.1107615e-05
3790496000,3790496000,0.002960183,0.0013324518,-0.00060877483
3790508000,3790508000,0.0039004765,0.0010505856,-0.0017265818
3790520000,3790520000,0.0036623236,0.001574367,-0.0025678528
3790532000,3790532000,0.0040236847,0.003152449,-0.006462034
3790544000,3790544000,0.0033920777,0.009226312,0.00042206942
3790556000,3790556000,0.004404939,0.010830304,0.0021386067
3790568000,3790568000,0.0042742505,0.0063821003,0.0027151885
3790580000,3790580000,0.0035456342,0.007680402,-0.0009783965
3790592000,3790592000,0.006554908,0.0018414501,-0.0012270765
3790604000,3790604000,-4.3078733e-05,0.0013829065,-0.001334644
3790616000,3790616000,-0.0017059117,0.00691752,-0.0002583618
3790628000,3790628000,-0.006520794,0.0008142991,-0.00092395383
3790640000,3790640000,-0.006875675,-0.0023108167,-0.0014894492
3790652000,3790652000,-0.003422401,0.0030874822,-0.0012592308
3790664000,3790664000,-0.0011304747,0.0012693368,0.00039317078
3790676000,3790676000,0.00054261886,0.002330861,-0.00421902
3790688000,3790688000,3.390573e-05,0.0038493662,-0.0031403548
3790696000,3790696000,0.0007461555,0.004961322,-0.0013805082
3790712000,3790712000,-0.0059426017,0.01061051,-0.0029315723
3790720000,3790720000,0.00067849946,0.0032283205,-0.0039121695
3790732000,3790732000,0.0020323116,-0.0047142594,-0.0035221681
3790748000,3790748000,-0.0014666471,0.0013895191,0.001325448
3790756000,3790756000,-0.0062662577,0.0028121057,0.0025111947
3790772000,3790772000,-0.012263301,-0.0038524037,-0.0023355586
3790784000,3790784000,-0.00694838,-0.009317391,-0.002610593
3790796000,3790796000,-0.0049756966,-0.0073830006,0.003334248
3790808000,3790808000,-0.004556798,-0.0027459627,0.005876879
3790820000,3790820000,-0.0010521131,0.00021814555,0.0021337322
3790832000,3790832000,-0.0050554615,-0.0013187225,0.0016007276
3790844000,3790844000,-0.006674111,0.00014428189,-0.0016271961
3790856000,3790856000,-0.01041357,0.002391534,0.00017304854
3790868000,3790868000,-0.008983206,0.0008664103,0.0013360868
3790880000,3790880000,-0.0065653846,-0.0051056487,-0.00027627306
3790892000,3790892000,-0.0056994497,-0.0065028206,-0.0023007449
3790904000,3790904000,-0.009003248,-0.005893363,-0.0013398353
3790916000,3790916000,-0.010305412,-0.012185244,-0.0008944175
3790924000,3790924000,-0.009124387,-0.013277169,-0.0025134815
3790940000,3790940000,-0.003319205,-0.015794847,-0.0004446457
3790952000,3790952000,-0.006625301,-0.0070223496,0.001548534
3790964000,3790964000,-0.007276668,-0.0031140423,-0.0035179073
3790976000,3790976000,-0.008307839,-0.0011351048,-0.0022867734
3790988000,3790988000,-0.005124655,-0.0005604243,-0.0033752408
3791000000,3791000000,0.0012092874,0.0004514032,0.0016064347
3791012000,3791012000,0.004863087,0.0024482098,-0.003017953
3791024000,3791024000,0.005943409,0.0068698227,-0.0010171206
3791032000,3791032000,0.0027793902,0.008799659,-0.0029650878
3791048000,3791048000,0.0040621557,0.0062745856,-0.0010021984
3791060000,3791060000,0.0064968746,0.0022720874,0.002551795
3791072000,3791072000,0.0052861073,0.004792373,7.7669094e-05
3791084000,3791084000,0.0021424096,-0.00044686813,6.679847e-05
3791096000,3791096000,0.0043193335,0.0030611036,0.0035582148
3791108000,3791108000,0.0077993535,0.0069073653,-0.002292227
3791120000,3791120000,0.012377916,0.004085578,0.0015258568
3791132000,3791132000,0.014832516,-0.006392595,0.00068358483
3791144000,3791144000,0.0123632485,-0.0053035663,0.00079742353
3791156000,3791156000,0.0081952,-0.008515468,0.003274936
3791168000,3791168000,0.0063966555,-0.0005449876,0.0045273597
3791180000,3791180000,0.006901993,0.0047193356,0.0019506763
3791192000,3791192000,0.009524134,0.0003938782,-0.00022181992
3791204000,3791204000,0.008615638,-0.0011730748,0.0010105468
3791216000,3791216000,0.0019262782,0.00013358006,0.0013945207
3791228000,3791228000,-0.002706305,0.0011780343,-0.00069743773
3791240000,3791240000,-6.4766384e-05,-0.0012789192,-0.0030677128
3791252000,3791252000,0.0046922043,0.00039365608,0.00074449927
3791260000,3791260000,0.0010569339,-0.0012147999,0.0023638834
3791276000,3791276000,0.0012403717,-0.003587518,-0.0013157774
3791288000,3791288000,-0.0035364977,-0.007757116,-0.0008732638
3791300000,3791300000,0.0016943321,-0.0070386836,-0.0020514017
3791308000,3791308000,0.005389218,-0.0069679054,0.0010744957
3791324000,3791324000,0.0016388431,-0.0042302883,-0.0029498867
3791336000,3791336000,0.0024924432,-0.002392691,-0.0014173839
3791348000,3791348000,0.0025972421,-0.003451523,-0.00080893474
3791360000,3791360000,0.0035149257,0.0010549629,-0.0065504434
3791368000,3791368000,0.00014001975,0.0006865524,-0.0017025871
3791384000,3791384000,-0.0053999065,-0.0039077615,-0.002438936
3791396000,3791396000,-0.0040730196,-0.0017107781,-0.00085496804
3791408000,3791408000,-0.0015016638,-0.003502225,0.00042045265
3791420000,3791420000,0.00029844604,-0.006353744,0.001601217
3791432000,3791432000,-0.0006869857,-0.0034676003,0.00078722026
3791444000,3791444000,-0.0047521396,0.0014535328,0.00152608
3791452000,3791452000,-0.0049116244,0.0038798698,0.0012349485
3791464000,3791464000,-0.006843498,-0.0011190684,0.0034789727
3791480000,3791480000,-0.0026439512,-0.0021099634,0.00067703624
3791492000,3791492000,-0.00087052595,-0.0022249306,0.0046764277
3791504000,3791504000,0.00094763073,-0.0029218188,-0.005308572
3791516000,3791516000,-0.0010264722,-0.008229012,-0.0038556394
3791528000,3791528000,-0.0044956463,-0.0061867186,8.172944e-05
3791540000,3791540000,-0.0012698543,-0.0068980125,-0.0016593327
3791548000,3791548000,-0.0031759772,-0.0077374843,-0.002789429
3791564000,3791564000,-0.0046799886,0.0002222131,-0.00055832474
3791576000,3791576000,-0.0052318005,0.0004596999,-0.0043103145
3791588000,3791588000,-0.003518387,0.0031216687,-0.0018098857
3791596000,3791596000,-0.003955175,-0.0006901189,0.00031223934
3791612000,3791612000,-0.0019597462,0.00067900773,-0.0033238984
3791624000,3791624000,-0.0036188355,0.005486606,0.00053017866
3791636000,3791636000,-0.005976855,0.008331119,0.0018210204
3791648000,3791648000,-0.0023220412,0.008015143,0.0025710084
3791660000,3791660000,0.004040646,0.006080956,0.004862063
3791672000,3791672000,0.0039896616,0.004093893,0.0016041291
3791684000,3791684000,-0.00777005,-0.0032102722,0.0027600632
3791692000,3791692000,-0.005687241,-0.003268072,0.0033383893
3791708000,3791708000,-0.003726613,-0.00941997,0.0017554489
3791716000,3791716000,0.0031923214,-0.008494212,0.0028286034
3791728000,3791728000,0.004044614,-0.005974001,0.005572924
3791744000,3791744000,0.00414736,-0.007714756,0.0036495232
3791752000,3791752000,0.00043608225,-0.00725316,0.0012983723
3791764000,3791764000,0.00041329663,-0.005076175,0.0011885678
3791780000,3791780000,0.00063197495,-0.0066645774,0.0015068051
3791788000,3791788000,0.0040837172,-0.009346364,0.0026793794
3791804000,3791804000,0.0018539971,-0.0010267086,0.0037310044
3791816000,3791816000,0.0053862855,0.003967033,0.005083297
3791824000,3791824000,0.007652139,0.0014404403,-0.0024073918
3791840000,3791840000,0.008769919,0.0019893872,-0.0010635005
3791852000,3791852000,0.014209876,0.0060421303,0.003746649
3791864000,3791864000,0.0073013874,0.005080523,0.0010270774
3791876000,3791876000,0.012762358,0.010287678,0.00079144846
3791888000,3791888000,0.010806325,0.010557486,-0.00093794405
3791900000,3791900000,0.0075031803,0.011604257,-5.7283716e-05
3791912000,3791912000,0.005122921,0.013018398,0.0008311683
3791924000,3791924000,0.00501503,0.010992041,-0.0007135137
3791932000,3791932000,0.0015488404,0.0036932835,-0.0022776767
3791948000,3791948000,0.00030126132,0.0037483636,-0.0034200174
3791960000,3791960000,0.005744363,0.0038365182,-0.0041243387
3791972000,3791972000,0.004262088,0.00013662549,-0.0038486482
3791984000,3791984000,0.000767727,0.0039875363,0.0003715129
3791996000,3791996000,-0.0021438163,-0.003698065,0.0011754049
3792008000,3792008000,-0.003487162,0.0009558175,0.0039936346
3792020000,3792020000,-0.00057843234,0.002338919,0.0013280606
3792028000,3792028000,-0.0008961394,0.001100814,0.0012029716
3792044000,3792044000,0.002751465,-0.0019754819,-0.00094740075
3792056000,3792056000,0.0016823092,-0.004613832,-0.0019012926
3792068000,3792068000,0.0042960946,-0.0033381195,-0.0023436947
3792080000,3792080000,0.0046811434,-0.0045101186,-0.003169336
3792092000,3792092000,0.004055549,0.0015795743,-0.0017703628
3792104000,3792104000,0.0007527463,-0.0012069792,0.0034072495
3792116000,3792116000,0.0027876024,-0.00061725825,0.0032510234
3792124000,3792124000,0.0023758132,0.0010557538,0.0018362987
3792136000,3792136000,0.0025689136,-0.00492527,0.000509869
3792152000,3792152000,0.005799201,-0.009308854,0.0008241566
3792160000,3792160000,0.00528839,-0.008849602,0.0035225754
3792176000,3792176000,0.013293826,-0.0020416016,-0.0024728246
3792188000,3792188000,0.0106730135,-0.0014738105,-0.0062081227
3792200000,3792200000,0.007832082,0.00022465084,-0.0033113277
3792208000,3792208000,0.013567787,0.0035397355,-0.0052225054
3792220000,3792220000,0.011908404,-0.00039320067,-0.002299843
3792236000,3792236000,0.008647117,-0.00049831625,-0.00025891903
3792248000,3792248000,0.007366604,0.0012685147,-0.0015858039
3792260000,3792260000,0.010196596,-0.002796364,-0.003289055
3792272000,3792272000,0.01256709,-0.0053719073,-0.00029478897
3792280000,3792280000,0.011696836,-0.0025594146,0.00058254495
3792292000,3792292000,0.0039399914,0.0011973409,0.0030494723
3792308000,3792308000,0.0075904313,0.0072782864,0.0013407605
3792316000,3792316000,-0.0008319258,0.009262976,0.0027524093
3792332000,3792332000,-0.0004011679,0.009681997,-0.0009387526
3792344000,3792344000,-0.0061006523,0.004705172,0.00070023304
3792356000,3792356000,0.00011609192,0.011447467,-3.6152996e-05
3792368000,3792368000,0.0025946246,0.013446533,0.00088336936
3792380000,3792380000,-0.00603765,0.018451396,-0.00051994424
3792392000,3792392000,-0.0048506474,0.015600413,-0.001960809
3792404000,3792404000,-0.0024728212,0.017370734,-0.0015628614
3792416000,3792416000,-0.002226011,0.010296898,0.0014775683
3792428000,3792428000,-0.0019627216,0.0015693898,0.00039603503
3792440000,3792440000,0.0019106125,-0.0022217743,-0.0023722812
3792452000,3792452000,0.0033484541,-0.0019161347,0.0031608704
3792464000,3792464000,0.0056094606,-0.0012094276,-0.0018124789
3792476000,3792476000,0.0060101165,-0.0042325356,-0.0022811415
3792488000,3792488000,0.00243471,-0.0033205743,-0.0032572185
3792500000,3792500000,-0.00034740684,-0.007794106,-0.0025929853
3792512000,3792512000,0.0041274284,-0.008745605,-0.0044141817
3792524000,3792524000,0.0013557491,-0.008744853,-0.000295677
3792532000,3792532000,-0.0047025825,-0.006776774,0.0015641369
3792548000,3792548000,-0.0042488743,-0.0058639674,-0.002465809
3792556000,3792556000,-0.0005268471,-0.0067422083,-0.00052649685
3792572000,3792572000,0.0081956405,-0.012272158,-0.002383939
3792580000,3792580000,0.010685958,-0.0129088,-0.0026619122
3792596000,3792596000,0.012186069,-0.006004656,0.00166794
3792604000,3792604000,0.01398587,-0.002734785,0.003094782
3792620000,3792620000,0.01094974,-0.0010396042,0.0074556004
3792632000,3792632000,0.008518268,0.0011807152,0.0015482111
3792644000,3792644000,0.0075689945,0.0019133876,0.004364041
3792656000,3792656000,0.0056581083,-0.0023671119,-0.00064860587
3792668000,3792668000,-0.0030586827,-0.0018593483,0.0012072982
3792680000,3792680000,-0.006282266,0.0051777316,0.0020930856
3792692000,3792692000,-0.0032626295,0.0046539167,-0.00039535342
3792704000,3792704000,-0.0019965696,0.0064430707,-0.004015896
3792716000,3792716000,0.0075197965,0.0072790803,0.0035849272
3792724000,3792724000,0.0067686136,0.005364454,0.0036733006
3792740000,3792740000,0.0044086287,0.0066586547,0.0030122679
3792752000,3792752000,0.002744179,0.0070455386,0.0009893824
3792764000,3792764000,-0.0016292783,0.00540811,0.0006637621
3792776000,3792776000,-0.0018553366,-0.0031234496,0.0008406913
3792788000,3792788000,0.00047557364,-0.005986631,-0.0016350207
3792800000,3792800000,0.0026131636,-0.004527589,3.1210686e-05
3792808000,3792808000,0.0016057118,-0.013809025,0.0061113006
3792824000,3792824000,0.009057541,-0.0078314785,0.0008484189
3792836000,3792836000,0.013163085,-0.007975668,-0.002555243
3792848000,3792848000,0.015079786,-0.0075075575,-0.004409926
3792860000,3792860000,0.016477691,-0.0077480474,-0.003026502
3792872000,3792872000,0.016835837,-0.011085687,-0.0024937093
3792884000,3792884000,0.009220851,-0.010129342,-0.0049096933
3792896000,3792896000,0.005058624,-0.013800151,0.0015965415
3792908000,3792908000,0.0082632955,-0.015957009,0.0021978237
3792920000,3792920000,0.0066017243,-0.015940618,7.7932236e-05
3792932000,3792932000,0.002500149,-0.016610298,-0.0026662603
3792944000,3792944000,-0.0072428947,-0.009013326,0.0021064582
3792956000,3792956000,-0.003036924,-0.005899824,0.0015190546
3792968000,3792968000,-0.004844326,-0.0117859775,0.0064078597
3792976000,3792976000,-0.005004556,-0.011254458,0.0028850217
3792992000,3792992000,-0.0049242675,-0.009159019,-0.00466445
3793004000,3793004000,-0.0056982045,-0.008586601,-0.00069059595
3793016000,3793016000,-0.007402811,-0.0072691673,-0.0027081212
3793024000,3793024000,-0.006005474,-0.0070187114,-0.0026396182
3793040000,3793040000,-0.0050273454,-0.013368348,0.00016139266
3793052000,3793052000,-0.002915077,-0.015612625,-0.0028038905
3793064000,3793064000,0.0011835957,-0.011054317,-0.00065767387
3793076000,3793076000,-0.00016542786,-0.0067833634,-0.0038003153
3793088000,3793088000,0.0071998667,-0.0016112011,-0.003409044
3793100000,3793100000,0.0034145997,-0.0005025659,-0.0011220523
3793112000,3793112000,0.0059241457,-0.0062260805,0.0033809503
3793120000,3793120000,0.00868526,-0.004410634,0.000113253096
3793132000,3793132000,0.008756252,-0.0043406147,-0.0026409086
3793144000,3793144000,0.003667258,-0.010236779,0.002663114
3793160000,3793160000,-0.000618158,0.0022890766,0.0024117709
3793172000,3793172000,-0.0017534383,0.0029172697,0.0028307291
3793180000,3793180000,-0.0022321395,-0.00017684512,0.0034034238
3793196000,3793196000,-0.0006749221,-0.0040639406,-0.00084263366
3793204000,3793204000,0.0035922225,-0.0077094287,0.00262065
3793220000,3793220000,-0.00072031317,-0.0059036366,0.004871073
3793232000,3793232000,-0.0018503419,-0.01254441,-0.0002723742
3793244000,3793244000,-0.0078272885,-0.018545693,-0.00046812056
3793256000,3793256000,-0.00485251,-0.017831929,0.0036671448
3793264000,3793264000,-0.005560891,-0.017329138,0.0037849252
3793280000,3793280000,-0.005644291,-0.016244333,-0.005057433
3793292000,3793292000,-0.011668565,-0.015152842,-0.0037094043
3793304000,3793304000,-0.008589458,-0.016556643,-0.0005413635
3793316000,3793316000,0.0006927076,-0.0155227175,0.002053556
3793328000,3793328000,-0.0044064727,-0.018659597,-0.0002506285
3793340000,3793340000,-0.009188394,-0.011157811,-0.0012563807
3793352000,3793352000,-0.008952553,-0.015654009,-0.0010599623
3793364000,3793364000,-0.0064792633,-0.015078319,-0.00047295386
3793376000,3793376000,-0.005847196,-0.015627233,0.004691616
3793388000,3793388000,-0.007810152,-0.024045618,0.0005727899
3793400000,3793400000,0.0057510403,-0.034254473,-0.0039122663
3793412000,3793412000,0.005438308,-0.0374876,-0.008348943
3793424000,3793424000,0.00054856087,-0.044935863,-0.012748968
3793436000,3793436000,-0.0009718784,-0.04985439,-0.020205976
3793444000,3793444000,0.00084060663,-0.051485434,-0.026722139
3793460000,3793460000,-0.011858555,-0.056852024,-0.044425532
3793472000,3793472000,-0.016839162,-0.053829,-0.056581162
3793480000,3793480000,-0.020184834,-0.05131645,-0.06557379
3793496000,3793496000,-0.025579682,-0.028208055,-0.09007143
3793508000,3793508000,-0.03821121,-0.01398037,-0.108173884
3793520000,3793520000,-0.055116117,0.007931162,-0.12249516
3793532000,3793532000,-0.06401677,0.033495262,-0.1360044
3793540000,3793540000,-0.07090114,0.04724409,-0.1500845
3793556000,3793556000,-0.0921049,0.089022994,-0.17360114
3793568000,3793568000,-0.105371445,0.117802516,-0.19155511
3793580000,3793580000,-0.11986236,0.15604277,-0.21347754
3793592000,3793592000,-0.13478832,0.19138813,-0.23264779
3793604000,3793604000,-0.14874786,0.22904794,-0.25144678
3793612000,3793612000,-0.15878524,0.24663123,-0.26204807
3793628000,3793628000,-0.18252775,0.283374,-0.28448275
3793636000,3793636000,-0.19356553,0.31019628,-0.30009162
3793652000,3793652000,-0.20745558,0.378489,-0.32386914
3793664000,3793664000,-0.21966697,0.41905946,-0.34328768
3793676000,3793676000,-0.23511426,0.45485812,-0.35758826
3793688000,3793688000,-0.2523103,0.48911467,-0.36365947
3793700000,3793700000,-0.2711583,0.5337519,-0.37868783
3793708000,3793708000,-0.28346547,0.5638589,-0.3912596
3793724000,3793724000,-0.31077692,0.6153188,-0.4123065
3793736000,3793736000,-0.33430383,0.64882356,-0.42260784
3793744000,3793744000,-0.34413555,0.6714648,-0.42747834
3793760000,3793760000,-0.36752802,0.71311986,-0.44323277
3793768000,3793768000,-0.37985644,0.7288898,-0.45048866
3793784000,3793784000,-0.40963322,0.7502305,-0.46953517
3793796000,3793796000,-0.4373669,0.7775796,-0.48258162
3793808000,3793808000,-0.46819082,0.8062549,-0.4910841
3793816000,3793816000,-0.4856154,0.8171021,-0.5004974
3793832000,3793832000,-0.5032339,0.80322266,-0.50581115
3793840000,3793840000,-0.5119055,0.79945,-0.50544125
3793856000,3793856000,-0.5304855,0.8076883,-0.524418
3793864000,3793864000,-0.54164493,0.8010583,-0.52568465
3793880000,3793880000,-0.554753,0.7834624,-0.53252023
3793892000,3793892000,-0.5623756,0.7739237,-0.54038787
3793904000,3793904000,-0.5651422,0.77311194,-0.54970753
3793916000,3793916000,-0.55897176,0.7506528,-0.5581665
3793924000,3793924000,-0.556179,0.7300975,-0.56100875
3793940000,3793940000,-0.56862974,0.7139062,-0.56883866
3793948000,3793948000,-0.57021755,0.7072487,-0.5739703
3793964000,3793964000,-0.5461424,0.671467,-0.58282787
