timestamp,ref_timestamp,ref_lat,ref_lon,x,y,z,delta_xy[0],delta_xy[1],delta_z,vx,vy,vz,z_deriv,delta_vxy[0],delta_vxy[1],delta_vz,ax,ay,az,yaw,ref_alt,dist_bottom,dist_bottom_rate,eph,epv,evh,evv,vxy_max,vz_max,hagl_min,hagl_max,xy_valid,z_valid,v_xy_valid,v_z_valid,xy_reset_counter,z_reset_counter,vxy_reset_counter,vz_reset_counter,xy_global,z_global,dist_bottom_valid
3782260000,1684000,47.3977508,8.5456074,-0.1361318,-0.14030954,-0.024148596,-0.022669492,-0.0033747193,0.0,-0.0037722432,0.0011480429,0.003583621,0.026134556,-0.05914641,-0.009015089,0.12613459,-0.03260005,-0.030773748,-0.054011118,0.4281755,0.0,0.1,-0.003583621,0.4384701,0.23591173,0.18022157,0.10495951,inf,inf,inf,inf,1,1,1,1,2,0,2,2,1,1,1
3782364000,1684000,47.3977508,8.5456074,-0.13684568,-0.14101823,-0.022913644,-0.022669492,-0.0033747193,0.0,-0.0047706515,0.0005674463,0.0032632682,0.024167206,-0.05914641,-0.009015089,0.12613459,-0.016012758,-0.054986287,-0.09699351,0.42823914,0.0,0.1,-0.0032632682,0.42474252,0.23478715,0.1750912,0.10432474,inf,inf,inf,inf,1,1,1,1,2,0,2,2,1,1,0
3782460000,1684000,47.3977508,8.5456074,-0.13738641,-0.1416727,-0.022048002,-0.022669492,-0.0033747193,0.0,-0.0028530078,-0.0022692843,0.003930037,0.023292158,-0.05914641,-0.009015089,0.12613459,0.0468924,-0.0065935235,0.06572529,0.42831007,0.0,0.1,-0.003930037,0.4370839,0.23598702,0.17950225,0.10493418,inf,inf,inf,inf,1,1,1,1,2,0,2,2,1,1,0
3782556000,1684000,47.3977508,8.5456074,-0.13784276,-0.1425368,-0.02127807,-0.022669492,-0.0033747193,0.0,-0.0038857092,-0.0034027782,0.0029077178,0.020855164,-0.05914641,-0.009015089,0.12613459,-0.0067848354,-0.010050662,-0.03618933,0.42842072,0.0,0.1,-0.0029077178,0.4225592,0.23421344,0.17412774,0.104104035,inf,inf,inf,inf,1,1,1,1,2,0,2,2,1,1,0
3782660000,1684000,47.3977508,8.5456074,-0.13833266,-0.1435646,-0.020630967,-0.022669492,-0.0033747193,0.0,-0.004954019,-0.0052078003,0.0018649924,0.018415814,-0.05914641,-0.009015089,0.12613459,0.020980768,0.03700116,-0.025897285,0.42836857,0.0,0.1,-0.0018649924,0.43583065,0.23606402,0.17889483,0.10491323,inf,inf,inf,inf,1,1,1,1,2,0,2,2,1,1,0
3782756000,1684000,47.3977508,8.5456074,-0.13894658,-0.14488328,-0.019783689,-0.022669492,-0.0033747193,0.0,-0.0067726644,-0.008568146,0.0021159681,0.0177865,-0.05914641,-0.009015089,0.12613459,-0.035592563,0.028930737,-0.023690982,0.42843422,0.0,0.1,-0.0021159681,0.42149213,0.23428172,0.17361806,0.10408155,inf,inf,inf,inf,1,1,1,1,2,0,2,2,1,1,0
3782860000,1684000,47.3977508,8.5456074,-0.13970809,-0.14649609,-0.018799413,-0.022669492,-0.0033747193,0.0,-0.00651208,-0.011074117,0.001315143,0.016241636,-0.05914641,-0.009015089,0.12613459,-0.0109829195,-0.042198807,-0.041769814,0.42836657,0.0,0.1,-0.001315143,0.4346985,0.2345051,0.1783771,0.10446306,inf,inf,inf,inf,1,1,1,1,2,0,2,2,1,1,1
3782956000,1684000,47.3977508,8.5456074,-0.14014995,-0.14774382,-0.017704159,-0.022669492,-0.0033747193,0.0,-0.007824548,-0.01362677,0.001639967,0.016083008,-0.05914641,-0.009015089,0.12613459,-0.012089325,0.05944977,0.006551854,0.42841214,0.0,0.1,-0.001639967,0.42052668,0.23436919,0.17318124,0.10407101,inf,inf,inf,inf,1,1,1,1,2,0,2,2,1,1,1
3783060000,1684000,47.3977508,8.5456074,-0.14069141,-0.14909421,-0.016686859,-0.022669492,-0.0033747193,0.0,-0.011128361,-0.016267998,-0.00073290645,0.013212696,-0.05914641,-0.009015089,0.12613459,-0.03186838,-0.0031569542,-0.052368265,0.42833906,0.0,0.1,0.00073290645,0.43367657,0.23458375,0.17793143,0.104450166,inf,inf,inf,inf,1,1,1,1,2,0,2,2,1,1,1
3783156000,1684000,47.3977508,8.5456074,-0.14151295,-0.1500149,-0.015683716,-0.022669492,-0.0033747193,0.0,-0.014190993,-0.015427829,0.00051952165,0.014165718,-0.05914641,-0.009015089,0.12613459,-0.11012902,-0.046370182,-0.07626786,0.42846084,0.0,0.1,-0.00051952165,0.41965404,0.23444086,0.17281203,0.10405674,inf,inf,inf,inf,1,1,1,1,2,0,2,2,1,1,1
3783260000,1684000,47.3977508,8.5456074,-0.14270654,-0.15079641,-0.014053926,-0.022669492,-0.0033747193,0.0,-0.014910299,-0.015929447,0.0017435211,0.0154742645,-0.05914641,-0.009015089,0.12613459,0.043733306,0.009041679,-0.0076331194,0.42855284,0.0,0.1,-0.0017435211,0.4327557,0.23466495,0.17756271,0.10444174,inf,inf,inf,inf,1,1,1,1,2,0,2,2,1,1,1
3783356000,1684000,47.3977508,8.5456074,-0.14330387,-0.15181178,-0.012331591,-0.022669492,-0.0033747193,0.0,-0.01575679,-0.017891522,0.0022654105,0.01624375,-0.05914641,-0.009015089,0.12613459,0.0073016495,0.039064668,-0.03410503,0.42872825,0.0,0.1,-0.0022654105,0.41886672,0.23453204,0.1724948,0.104054384,inf,inf,inf,inf,1,1,1,1,2,0,2,2,1,1,1
3783460000,1684000,47.3977508,8.5456074,-0.14381778,-0.15323415,-0.011039379,-0.022669492,-0.0033747193,0.0,-0.017722188,-0.019513644,0.0023648522,0.015912741,-0.05914641,-0.009015089,0.12613459,0.0018111808,-0.018498095,-0.034517605,0.42865756,0.0,0.1,-0.0023648522,0.43192655,0.23474763,0.17723528,0.10443712,inf,inf,inf,inf,1,1,1,1,2,0,2,2,1,1,1
3783556000,1684000,47.3977508,8.5456074,-0.1439422,-0.15461108,-0.011258494,-0.022669492,-0.0033747193,0.0,-0.016550355,-0.02014689,0.0010443158,0.012963847,-0.05914641,-0.009015089,0.12613459,0.051305372,0.059874624,-0.033216547,0.4288202,0.0,0.1,-0.0010443158,0.41815692,0.23461626,0.17222892,0.10405196,inf,inf,inf,inf,1,1,1,1,2,0,2,2,1,1,1
3783660000,1684000,47.3977508,8.5456074,-0.14390592,-0.15624373,-0.011726014,-0.022669492,-0.0033747193,0.0,-0.01702442,-0.022235513,8.097962e-05,0.010318557,-0.05914641,-0.009015089,0.12613459,-0.05174795,-0.00062469183,0.00189431,0.4288521,0.0,0.1,-8.097962e-05,0.43118152,0.23484972,0.1769731,0.104444005,inf,inf,inf,inf,1,1,1,1,2,0,2,2,1,1,1
3783756000,1684000,47.3977508,8.5456074,-0.14368217,-0.15781634,-0.011763644,-0.022669492,-0.0033747193,0.0,-0.017780613,-0.023717158,0.0024996507,0.011652781,-0.05914641,-0.009015089,0.12613459,0.007204862,-0.024766622,-0.03024563,0.4288316,0.0,0.1,-0.0024996507,0.41751844,0.23471056,0.1720138,0.10405662,inf,inf,inf,inf,1,1,1,1,2,0,2,2,1,1,1
3783860000,1684000,47.3977508,8.5456074,-0.14347613,-0.15969105,-0.01179454,-0.022669492,-0.0033747193,0.0,-0.016089767,-0.023765648,0.0010555632,0.009108964,-0.05914641,-0.009015089,0.12613459,0.014908768,-0.030916609,-0.027115455,0.42855328,0.0,0.1,-0.0010555632,0.4305135,0.23493576,0.17674598,0.10444638,inf,inf,inf,inf,1,1,1,1,2,0,2,2,1,1,1
3783956000,1684000,47.3977508,8.5456074,-0.14407073,-0.16136162,-0.012203965,-0.022669492,-0.0033747193,0.0,-0.015591949,-0.025770131,0.00010878735,0.0070065903,-0.05914641,-0.009015089,0.12613459,0.009565663,-0.0173727,-0.030677764,0.42856535,0.0,0.1,-0.00010878735,0.41694552,0.23480716,0.17182079,0.10406498,inf,inf,inf,inf,1,1,1,1,2,0,2,2,1,1,1
3784060000,1684000,47.3977508,8.5456074,-0.14517008,-0.16328587,-0.012953128,-0.022669492,-0.0033747193,0.0,-0.015131244,-0.025773328,-0.0068578,-0.0011880164,-0.05914641,-0.009015089,0.12613459,0.021022763,0.023820626,-0.48570704,0.4286721,0.0,0.100155115,0.0068578,0.4299153,0.23504163,0.17655809,0.104460075,inf,inf,inf,inf,1,1,1,1,2,0,2,2,1,1,1
3784156000,1684000,47.3977508,8.5456074,-0.14599212,-0.16422273,-0.018603576,-0.022669492,-0.0033747193,0.0,-0.0111978995,-0.019139936,-0.117719665,-0.112848096,-0.05914641,-0.009015089,0.12613459,0.057151873,0.06701923,-1.5052016,0.42845687,0.0,0.10580557,0.117719665,0.41643196,0.23490524,0.17168102,0.10407627,inf,inf,inf,inf,1,1,1,1,2,0,2,2,1,1,1
3784260000,1684000,47.3977508,8.5456074,-0.14626835,-0.16384096,-0.038141605,-0.022669492,-0.0033747193,0.0,-0.0019546624,-0.00055802544,-0.26018727,-0.25534064,-0.05914641,-0.009015089,0.12613459,0.15057553,0.19613041,-1.2559266,0.42805272,0.0,0.12534359,0.26018727,0.42938256,0.23514023,0.1765416,0.10447272,inf,inf,inf,inf,1,1,1,1,2,0,2,2,1,1,1
3784356000,1684000,47.3977508,8.5456074,-0.14561886,-0.16147716,-0.068280555,-0.022669492,-0.0033747193,0.0,0.0058431034,0.017284967,-0.38026658,-0.37514913,-0.05914641,-0.009015089,0.12613459,0.032626905,0.11672313,-1.2712971,0.42795074,0.0,0.15548255,0.38026658,0.4159725,0.23340772,0.17219093,0.1036742,inf,inf,inf,inf,1,1,1,1,2,0,2,2,1,1,1
3784460000,1684000,47.3977508,8.5456074,-0.14422248,-0.15737166,-0.11403746,-0.022669492,-0.0033747193,0.0,0.013094934,0.02901669,-0.517265,-0.51169723,-0.05914641,-0.009015089,0.12613459,-0.0068280203,-0.032316092,-1.3618152,0.4278224,0.0,0.20123945,0.517265,0.42895323,0.23524871,0.17748988,0.104490824,inf,inf,inf,inf,1,1,1,1,2,0,2,2,1,1,1
3784556000,1684000,47.3977508,8.5456074,-0.14262667,-0.15279159,-0.16874304,-0.022669492,-0.0033747193,0.0,0.017067706,0.030665725,-0.64192116,-0.6358052,-0.05914641,-0.009015089,0.12613459,0.024143329,-0.03297921,-1.282595,0.42774805,0.0,0.25594503,0.64192116,0.41559923,0.23350634,0.17303497,0.1036889,inf,inf,inf,inf,1,1,1,1,2,0,2,2,1,1,1
3784660000,1684000,47.3977508,8.5456074,-0.14088012,-0.1479555,-0.24179555,-0.022669492,-0.0033747193,0.0,0.015266717,0.029098889,-0.77782786,-0.77153647,-0.05914641,-0.009015089,0.12613459,-0.05493584,0.019732911,-1.3090903,0.42774945,0.0,0.32899755,0.77782786,0.42861885,0.23535904,0.17835623,0.1045118,inf,inf,inf,inf,1,1,1,1,2,0,2,2,1,1,1
3784756000,1684000,47.3977508,8.5456074,-0.13896559,-0.14348567,-0.3218436,-0.022669492,-0.0033747193,0.0,0.013535071,0.026247745,-0.9014281,-0.89507484,-0.05914641,-0.009015089,0.12613459,-0.07620164,-0.028303348,-1.2875692,0.42770123,0.0,0.40904558,0.9014281,0.41530782,0.23362412,0.17384788,0.103714585,inf,inf,inf,inf,1,1,1,1,2,0,2,2,1,1,1
3784860000,1684000,47.3977508,8.5456074,-0.13675964,-0.13926879,-0.42121875,-0.022669492,-0.0033747193,0.0,0.013793761,0.020656157,-1.0382066,-1.031187,-0.05914641,-0.009015089,0.12613459,-0.03289406,-0.006455804,-1.3060057,0.427611,0.0,0.50842077,1.0382066,0.42836812,0.23547071,0.1791763,0.10453537,inf,inf,inf,inf,1,1,1,1,2,0,2,2,1,1,1
3784956000,1684000,47.3977508,8.5456074,-0.13465707,-0.13558485,-0.5253442,-0.022669492,-0.0033747193,0.0,0.01110972,0.017821105,-1.1620585,-1.154195,-0.05914641,-0.009015089,0.12613459,-0.040463522,-0.05484973,-1.2392559,0.42742112,0.0,0.6125462,1.1620585,0.41508833,0.23373435,0.17458771,0.10373854,inf,inf,inf,inf,1,1,1,1,2,0,2,2,1,1,1
3785060000,1684000,47.3977508,8.5456074,-0.13245806,-0.13218373,-0.6512719,-0.022669492,-0.0033747193,0.0,0.010404738,0.013439373,-1.2982994,-1.2893623,-0.05914641,-0.009015089,0.12613459,0.02950855,-0.05101196,-1.3336799,0.42733428,0.0,0.7384739,1.2982994,0.42818916,0.2339746,0.17993434,0.1041396,inf,inf,inf,inf,1,1,1,1,2,0,2,2,1,1,1
3785156000,1684000,47.3977508,8.5456074,-0.13053326,-0.12903772,-0.7805635,-0.022669492,-0.0033747193,0.0,0.007991765,0.008558101,-1.4236974,-1.4143002,-0.05914641,-0.009015089,0.12613459,0.053688873,-0.05924304,-1.2097414,0.42742068,0.0,0.8677655,1.4236974,0.41493088,0.23385376,0.17528102,0.10376763,inf,inf,inf,inf,1,1,1,1,2,0,2,2,1,1,1
3785260000,1684000,47.3977508,8.5456074,-0.12864468,-0.12613147,-0.93522453,-0.022669492,-0.0033747193,0.0,0.0074896947,0.0042914073,-1.5556769,-1.5470327,-0.05914641,-0.009015089,0.12613459,0.016443321,-0.050532956,-1.2539726,0.42737857,0.0,1.0224265,1.5556769,0.42807233,0.23569715,0.1806236,0.10458775,inf,inf,inf,inf,1,1,1,1,2,0,2,2,1,1,1
3785356000,1684000,47.3977508,8.5456074,-0.12716712,-0.12349129,-1.0904044,-0.022669492,-0.0033747193,0.0,0.0045789946,0.0013502487,-1.680769,-1.6728014,-0.05914641,-0.009015089,0.12613459,-0.08519017,-0.00061394344,-1.2228013,0.4273117,0.0,1.1776063,1.680769,0.41482654,0.233941,0.17590986,0.10378395,inf,inf,inf,inf,1,1,1,1,2,0,2,2,1,1,1
3785460000,1684000,47.3977508,8.5456074,-0.12588644,-0.121199906,-1.2715948,-0.022669492,-0.0033747193,0.0,0.0040753474,-0.0040912055,-1.8145288,-1.8069829,-0.05914641,-0.009015089,0.12613459,-0.07569857,-0.04237061,-1.3887621,0.42734617,0.0,1.3587967,1.8145288,0.42800686,0.23415773,0.18123119,0.104176335,inf,inf,inf,inf,1,1,1,1,2,0,2,2,1,1,1
3785556000,1684000,47.3977508,8.5456074,-0.124869406,-0.118561305,-1.4510956,-0.022669492,-0.0033747193,0.0,0.003390747,-0.0054065557,-1.9375854,-1.930131,-0.05914641,-0.009015089,0.12613459,-0.03308334,-0.07105874,-1.3246303,0.427512,0.0,1.5382975,1.9375854,0.41476673,0.23403254,0.17644547,0.10380378,inf,inf,inf,inf,1,1,1,1,2,0,2,2,1,1,1
3785660000,1684000,47.3977508,8.5456074,-0.12394488,-0.115641296,-1.6594633,-0.022669492,-0.0033747193,0.0,0.001885892,-0.0037517888,-2.071163,-2.0644386,-0.05914641,-0.009015089,0.12613459,-0.057827607,-0.061918918,-1.3118925,0.42747313,0.0,1.7466652,2.071163,0.42798382,0.23425958,0.18177633,0.10420151,inf,inf,inf,inf,1,1,1,1,2,0,2,2,1,1,1
3785756000,1684000,47.3977508,8.5456074,-0.12348892,-0.112625435,-1.8640825,-0.022669492,-0.0033747193,0.0,0.00035475896,-0.006228769,-2.194623,-2.188308,-0.05914641,-0.009015089,0.12613459,-0.033667367,-0.069339074,-1.2491512,0.41097778,0.0,1.9512844,2.194623,0.41472274,0.2341275,0.17475922,0.10382575,inf,inf,inf,inf,1,1,1,1,2,0,2,2,1,1,1
3785860000,1684000,47.3977508,8.5456074,-0.12337852,-0.10983473,-2.0995927,-0.022669492,-0.0033747193,0.0,-0.0018833664,-0.009075924,-2.3297093,-2.3243158,-0.05914641,-0.009015089,0.12613459,-0.059791446,-0.0846248,-1.2713214,0.41358796,0.0,2.1867948,2.3297093,0.4277414,0.23434764,0.17566022,0.104221545,inf,inf,inf,inf,1,1,1,1,2,0,2,2,1,1,1
3785956000,1684000,47.3977508,8.5456074,-0.12324425,-0.10705428,-2.3293417,-0.022669492,-0.0033747193,0.0,-0.0023311332,-0.01341639,-2.4505749,-2.4459484,-0.05914641,-0.009015089,0.12613459,0.047003273,-0.070314094,-1.2989016,0.41811213,0.0,2.4165437,2.4505749,0.41457337,0.23422629,0.16795461,0.10385383,inf,inf,inf,inf,1,1,1,1,2,0,2,2,1,1,1
3786060000,1684000,47.3977508,8.5456074,-0.12307888,-0.10470225,-2.5872731,-0.022669492,-0.0033747193,0.0,-0.0031261768,-0.015878592,-2.4558752,-2.451892,-0.05914641,-0.009015089,0.12613459,-0.045600712,0.022893485,1.2275287,0.42208755,0.0,2.6744752,2.4558752,0.42717722,0.23445661,0.1697868,0.10425877,inf,inf,inf,inf,1,1,1,1,2,0,2,2,1,1,1
3786156000,1684000,47.3977508,8.5456074,-0.12309211,-0.10254121,-2.8169732,-0.022669492,-0.0033747193,0.0,-0.0040826513,-0.015589211,-2.3134382,-2.3106596,-0.05914641,-0.009015089,0.12613459,-0.025080733,0.018290011,1.2739831,0.42479688,0.0,2.9041753,2.3134382,0.41410413,0.23432815,0.16350113,0.10389134,inf,inf,inf,inf,1,1,1,1,2,0,2,2,1,1,1
3786260000,1684000,47.3977508,8.5456074,-0.12328152,-0.10076395,-3.0546749,-0.022669492,-0.0033747193,0.0,-0.0047119414,-0.017201662,-2.2309659,-2.230342,-0.05914641,-0.009015089,0.12613459,-0.055784218,-0.010582989,0.6978884,0.42669752,0.0,3.141877,2.2309659,0.42633256,0.2345776,0.1658989,0.10430754,inf,inf,inf,inf,1,1,1,1,2,0,2,2,1,1,1
3786356000,1684000,47.3977508,8.5456074,-0.12324733,-0.0989631,-3.2681344,-0.022669492,-0.0033747193,0.0,-0.0046335426,-0.020317217,-2.1659467,-2.1676018,-0.05914641,-0.009015089,0.12613459,-0.042775113,-0.011818975,0.7276134,0.42750266,0.0,3.3553364,2.1659467,0.41337997,0.23446731,0.16035613,0.103948966,inf,inf,inf,inf,1,1,1,1,2,0,2,2,1,1,1
3786460000,1684000,47.3977508,8.5456074,-0.12329845,-0.09758646,-3.4923177,-0.022669492,-0.0033747193,0.0,-0.0062028477,-0.022610087,-2.0910056,-2.0951807,-0.05914641,-0.009015089,0.12613459,-0.010121002,-0.016763529,0.6640488,0.4277731,0.0,3.5795197,2.0910056,0.4252787,0.23471719,0.16341068,0.10436765,inf,inf,inf,inf,1,1,1,1,2,0,2,2,1,1,1
3786564000,1684000,47.3977508,8.5456074,-0.12352138,-0.096072376,-3.7094436,-0.022669492,-0.0033747193,0.0,-0.005936022,-0.023809448,-2.0263226,-2.0328598,-0.05914641,-0.009015089,0.12613459,-0.00034952062,-0.089655355,0.66435987,0.4278952,0.0,3.7966456,2.0263226,0.41334626,0.2336273,0.1591357,0.10378066,inf,inf,inf,inf,1,1,1,1,2,0,2,2,1,1,1
3786660000,1684000,47.3977508,8.5456074,-0.12386912,-0.09522818,-3.9036255,-0.022669492,-0.0033747193,0.0,-0.007924089,-0.02506231,-1.9710093,-1.9789653,-0.05914641,-0.009015089,0.12613459,0.02449595,0.049037457,0.59677285,0.4281555,0.0,3.9908276,1.9710093,0.42409196,0.23484072,0.16253304,0.10442431,inf,inf,inf,inf,1,1,1,1,2,0,2,2,1,1,1
3786756000,1684000,47.3977508,8.5456074,-0.124203056,-0.093874194,-4.0930915,-0.022669492,-0.0033747193,0.0,-0.006384268,-0.023724647,-1.9247228,-1.9340868,-0.05914641,-0.009015089,0.12613459,0.056546245,-0.07857255,0.5182279,0.42827433,0.0,4.1802936,1.9247228,0.41142926,0.23313135,0.15874918,0.103651255,inf,inf,inf,inf,1,1,1,1,2,0,2,2,1,1,1
3786860000,1684000,47.3977508,8.5456074,-0.1243175,-0.09281888,-4.293187,-0.022669492,-0.0033747193,0.0,-0.0031571263,-0.026875133,-1.8798645,-1.8902091,-0.05914641,-0.009015089,0.12613459,0.030868143,-0.02666073,0.38988513,0.4285568,0.0,4.380389,1.8798645,0.42284724,0.23498318,0.16301768,0.104492225,inf,inf,inf,inf,1,1,1,1,2,0,2,2,1,1,1
3786956000,1684000,47.3977508,8.5456074,-0.12422553,-0.09145151,-4.473731,-0.022669492,-0.0033747193,0.0,-0.0026242645,-0.028756822,-1.8411169,-1.8521122,-0.05914641,-0.009015089,0.12613459,0.09094436,-0.07834498,0.3492143,0.42882594,0.0,4.560933,1.8411169,0.41034082,0.23327133,0.1598335,0.10371898,inf,inf,inf,inf,1,1,1,1,2,0,2,2,1,1,1
3787060000,1684000,47.3977508,8.5456074,-0.12400304,-0.090145074,-4.6661463,-0.022669492,-0.0033747193,0.0,-0.0016150367,-0.027787015,-1.806747,-1.8189114,-0.05914641,-0.009015089,0.12613459,-0.016165754,-0.09769895,0.35695824,0.4289385,0.0,4.7533484,1.806747,0.4216177,0.2351359,0.16464758,0.10456643,inf,inf,inf,inf,1,1,1,1,2,0,2,2,1,1,1
3787164000,1684000,47.3977508,8.5456074,-0.12404111,-0.08868077,-4.8553987,-0.022669492,-0.0033747193,0.0,-0.002488098,-0.028869867,-1.769864,-1.7835382,-0.05914641,-0.009015089,0.12613459,-0.008703137,-0.11056798,0.5509536,0.42907456,0.0,4.9426007,1.769864,0.41011143,0.23405756,0.16229163,0.10398707,inf,inf,inf,inf,1,1,1,1,2,0,2,2,1,1,1
3787260000,1684000,47.3977508,8.5456074,-0.12440929,-0.08792189,-5.025457,-0.022669492,-0.0033747193,0.0,-0.004889561,-0.030241048,-1.7060668,-1.7209594,-0.05914641,-0.009015089,0.12613459,-0.052766398,-0.018220153,0.81486905,0.42913088,0.0,5.112659,1.7060668,0.42047107,0.23528074,0.16717313,0.10463785,inf,inf,inf,inf,1,1,1,1,2,0,2,2,1,1,1
3787356000,1684000,47.3977508,8.5456074,-0.12492312,-0.08838152,-5.188402,-0.022669492,-0.0033747193,0.0,-0.005127729,-0.031728867,-1.6258595,-1.6420366,-0.05914641,-0.009015089,0.12613459,0.0061244187,-0.009465088,0.7399432,0.42918885,0.0,5.2756042,1.6258595,0.43124902,0.23487106,0.17221239,0.1048415,inf,inf,inf,inf,1,1,1,1,2,0,2,2,1,1,1
3787460000,1684000,47.3977508,8.5456074,-0.12535185,-0.08840572,-5.3566227,-0.022669492,-0.0033747193,0.0,-0.004222471,-0.030623704,-1.5570451,-1.5740033,-0.05914641,-0.009015089,0.12613459,0.026559914,0.080138184,0.70670897,0.42898953,0.0,5.443825,1.5570451,0.41841608,0.2337722,0.16937755,0.10422759,inf,inf,inf,inf,1,1,1,1,2,0,2,2,1,1,1
3787556000,1684000,47.3977508,8.5456074,-0.12548721,-0.08826559,-5.5058336,-0.022669492,-0.0033747193,0.0,-0.002178642,-0.030106794,-1.4959388,-1.513549,-0.05914641,-0.009015089,0.12613459,0.008509796,-0.007996105,0.6236657,0.4287425,0.0,5.5930357,1.4959388,0.42914036,0.2349841,0.17453921,0.104859,inf,inf,inf,inf,1,1,1,1,2,0,2,2,1,1,1
3787660000,1684000,47.3977508,8.5456074,-0.12526369,-0.08753503,-5.6609535,-0.022669492,-0.0033747193,0.0,0.00061937683,-0.030213322,-1.4316341,-1.4499446,-0.05914641,-0.009015089,0.12613459,-0.028065229,-0.034941666,0.5845781,0.42839986,0.0,5.7481556,1.4316341,0.4165921,0.23388356,0.17188793,0.10424555,inf,inf,inf,inf,1,1,1,1,2,0,2,2,1,1,1
3787756000,1684000,47.3977508,8.5456074,-0.1250737,-0.08682845,-5.7987475,-0.022669492,-0.0033747193,0.0,-0.002557607,-0.028587095,-1.3766749,-1.3959203,-0.05914641,-0.009015089,0.12613459,-0.002843747,-0.006155054,0.49856487,0.4283642,0.0,5.8859496,1.3766749,0.42732158,0.2351063,0.17731616,0.10488255,inf,inf,inf,inf,1,1,1,1,2,0,2,2,1,1,1
3787860000,1684000,47.3977508,8.5456074,-0.12499228,-0.08526418,-5.9429207,-0.022669492,-0.0033747193,0.0,-0.0005146429,-0.031788316,-1.3216603,-1.342374,-0.05914641,-0.009015089,0.12613459,0.012095734,-0.010179721,0.5456665,0.4285397,0.0,6.0301228,1.3216603,0.4150222,0.23400374,0.17466612,0.10426893,inf,inf,inf,inf,1,1,1,1,2,0,2,2,1,1,0
3787956000,1684000,47.3977508,8.5456074,-0.124790326,-0.08392501,-6.0703697,-0.022669492,-0.0033747193,0.0,-0.00046572415,-0.032592755,-1.2680069,-1.2894665,-0.05914641,-0.009015089,0.12613459,-0.051982515,-0.0022753119,0.66671234,0.42837325,0.0,6.157572,1.2680069,0.42580953,0.23521075,0.18028167,0.1048994,inf,inf,inf,inf,1,1,1,1,2,0,2,2,1,1,0
3788060000,1684000,47.3977508,8.5456074,-0.12464822,-0.08240124,-6.201743,-0.022669492,-0.0033747193,0.0,-0.0015775419,-0.03257062,-1.2156835,-1.2366347,-0.05914641,-0.009015089,0.12613459,0.018701985,-0.032776274,0.5961833,0.42840758,0.0,6.288945,1.2156835,0.41372088,0.23409872,0.17755303,0.10428265,inf,inf,inf,inf,1,1,1,1,2,0,2,2,1,1,0
3788156000,1684000,47.3977508,8.5456074,-0.124737225,-0.081138864,-6.3171196,-0.022669492,-0.0033747193,0.0,-0.0039158016,-0.029591797,-1.1750932,-1.1943578,-0.05914641,-0.009015089,0.12613459,-0.010996625,-0.005681988,0.38530117,0.4284049,0.0,6.4043217,1.1750932,0.4246108,0.2353172,0.18328424,0.10491871,inf,inf,inf,inf,1,1,1,1,2,0,2,2,1,1,0
3788260000,1684000,47.3977508,8.5456074,-0.12467458,-0.079550065,-6.438964,-0.022669492,-0.0033747193,0.0,0.0010185548,-0.028370477,-1.1363004,-1.1548678,-0.05914641,-0.009015089,0.12613459,0.041868184,-0.02831228,0.32629257,0.42841747,0.0,6.526166,1.1363004,0.41269332,0.23419565,0.18038072,0.104298405,inf,inf,inf,inf,1,1,1,1,2,0,2,2,1,1,0
3788356000,1684000,47.3977508,8.5456074,-0.12436518,-0.07837403,-6.548681,-0.022669492,-0.0033747193,0.0,0.0012151989,-0.02741082,-1.0978986,-1.1167399,-0.05914641,-0.009015089,0.12613459,0.007247064,0.03911456,0.4721442,0.42847842,0.0,6.635883,1.0978986,0.42372194,0.23541684,0.18623734,0.10493612,inf,inf,inf,inf,1,1,1,1,2,0,2,2,1,1,0
3788460000,1684000,47.3977508,8.5456074,-0.124443285,-0.07702533,-6.6632876,-0.022669492,-0.0033747193,0.0,0.0017444403,-0.02874309,-1.053175,-1.0725552,-0.05914641,-0.009015089,0.12613459,0.060864776,0.01265847,0.4041269,0.428152,0.0,6.7504897,1.053175,0.4119353,0.23431203,0.18312858,0.10432397,inf,inf,inf,inf,1,1,1,1,2,0,2,2,1,1,0
3788556000,1684000,47.3977508,8.5456074,-0.124745786,-0.07606482,-6.764317,-0.022669492,-0.0033747193,0.0,0.00041697145,-0.028727567,-1.0161797,-1.0351176,-0.05914641,-0.009015089,0.12613459,-0.012147276,0.0057437713,0.38921177,0.42825827,0.0,6.851519,1.0161797,0.42313075,0.23552689,0.18899089,0.10495882,inf,inf,inf,inf,1,1,1,1,2,0,2,2,1,1,0
3788660000,1684000,47.3977508,8.5456074,-0.12494055,-0.07570521,-6.869795,-0.022669492,-0.0033747193,0.0,0.0021237729,-0.030825647,-0.9803197,-0.99863046,-0.05914641,-0.009015089,0.12613459,-0.049790926,0.03368029,0.34553555,0.428206,0.0,6.956997,0.9803197,0.41143465,0.23441249,0.18555433,0.10434277,inf,inf,inf,inf,1,1,1,1,2,0,2,2,1,1,0
3788756000,1684000,47.3977508,8.5456074,-0.12488851,-0.07619857,-6.9638457,-0.022669492,-0.0033747193,0.0,0.0027141783,-0.032964617,-0.94923586,-0.9668972,-0.05914641,-0.009015089,0.12613459,0.0332701,-0.06866246,0.31321773,0.4284365,0.0,7.051048,0.94923586,0.42281267,0.23563927,0.19145109,0.10498322,inf,inf,inf,inf,1,1,1,1,2,0,2,2,1,1,0
3788860000,1684000,47.3977508,8.5456074,-0.12520565,-0.07655857,-7.063203,-0.022669492,-0.0033747193,0.0,0.0022715437,-0.031679012,-0.91691685,-0.9348109,-0.05914641,-0.009015089,0.12613459,0.12975232,0.01868365,0.26428604,0.42861292,0.0,7.150405,0.91691685,0.4111687,0.2345323,0.18772967,0.10437092,inf,inf,inf,inf,1,1,1,1,2,0,2,2,1,1,0
3788956000,1684000,47.3977508,8.5456074,-0.1257159,-0.07693876,-7.151364,-0.022669492,-0.0033747193,0.0,0.00047002616,-0.028844591,-0.8842893,-0.90190834,-0.05914641,-0.009015089,0.12613459,-0.07518861,0.018872024,0.41119844,0.42845362,0.0,7.238566,0.8842893,0.4227393,0.23575284,0.19360496,0.105008386,inf,inf,inf,inf,1,1,1,1,2,0,2,2,1,1,0
3789060000,1684000,47.3977508,8.5456074,-0.12680969,-0.07700201,-7.242099,-0.022669492,-0.0033747193,0.0,-0.0005354037,-0.028809248,-0.85312426,-0.869185,-0.05914641,-0.009015089,0.12613459,-0.05092462,0.034676783,0.23395847,0.42823347,0.0,7.329301,0.85312426,0.41111204,0.23464468,0.18955418,0.10439558,inf,inf,inf,inf,1,1,1,1,2,0,2,2,1,1,0
3789156000,1684000,47.3977508,8.5456074,-0.12802102,-0.07712571,-7.3223777,-0.022669492,-0.0033747193,0.0,-0.0010108908,-0.027956408,-0.8307679,-0.8445306,-0.05914641,-0.009015089,0.12613459,0.059288282,0.025063636,0.25946552,0.4281429,0.0,7.4095798,0.8307679,0.42287582,0.234253,0.19538164,0.10460957,inf,inf,inf,inf,1,1,1,1,2,0,2,2,1,1,0
3789260000,1684000,47.3977508,8.5456074,-0.12910336,-0.077733986,-7.407875,-0.022669492,-0.0033747193,0.0,-0.0011753158,-0.027342046,-0.8065215,-0.8191475,-0.05914641,-0.009015089,0.12613459,-0.04592051,0.008414557,0.2977196,0.42811465,0.0,7.495077,0.8065215,0.411234,0.23476644,0.19103195,0.104424,inf,inf,inf,inf,1,1,1,1,2,0,2,2,1,1,0
3789356000,1684000,47.3977508,8.5456074,-0.12977192,-0.078596026,-7.484951,-0.022669492,-0.0033747193,0.0,0.0010047962,-0.025684081,-0.7813679,-0.793392,-0.05914641,-0.009015089,0.12613459,0.0082002925,0.027949614,0.34751928,0.42808983,0.0,7.572153,0.7813679,0.42318633,0.23436615,0.19683483,0.10463438,inf,inf,inf,inf,1,1,1,1,2,0,2,2,1,1,0
3789460000,1684000,47.3977508,8.5456074,-0.13049757,-0.07952848,-7.565603,-0.022669492,-0.0033747193,0.0,0.0027718823,-0.024839722,-0.75356615,-0.7651513,-0.05914641,-0.009015089,0.12613459,-0.0114031285,0.008356306,0.16716307,0.42800775,0.0,7.652805,0.75356615,0.41150287,0.23488966,0.1921883,0.104452975,inf,inf,inf,inf,1,1,1,1,2,0,2,2,1,1,0
3789556000,1684000,47.3977508,8.5456074,-0.13115755,-0.08064234,-7.6374598,-0.022669492,-0.0033747193,0.0,0.003388664,-0.025222166,-0.73233044,-0.74324244,-0.05914641,-0.009015089,0.12613459,0.0034474244,-0.050949145,0.1679845,0.42768788,0.0,7.724662,0.73233044,0.42363325,0.23449808,0.19789462,0.10466708,inf,inf,inf,inf,1,1,1,1,2,0,2,2,1,1,0
3789660000,1684000,47.3977508,8.5456074,-0.13212316,-0.082019195,-7.712279,-0.022669492,-0.0033747193,0.0,0.0016473655,-0.025149796,-0.7080102,-0.71762896,-0.05914641,-0.009015089,0.12613459,0.010375438,0.05668245,0.27721372,0.42775688,0.0,7.799481,0.7080102,0.4118872,0.23501328,0.19295359,0.10448139,inf,inf,inf,inf,1,1,1,1,2,0,2,2,1,1,0
3789756000,1684000,47.3977508,8.5456074,-0.13314292,-0.083440594,-7.7788,-0.022669492,-0.0033747193,0.0,0.0019887325,-0.02443728,-0.6884245,-0.6966399,-0.05914641,-0.009015089,0.12613459,0.0100597665,0.03925402,0.18013547,0.42793,0.0,7.866002,0.6884245,0.4241794,0.23462157,0.19859482,0.10469541,inf,inf,inf,inf,1,1,1,1,2,0,2,2,1,1,0
3789860000,1684000,47.3977508,8.5456074,-0.13447815,-0.085310645,-7.8491673,-0.022669492,-0.0033747193,0.0,0.0010169842,-0.026274377,-0.6685245,-0.67554826,-0.05914641,-0.009015089,0.12613459,-0.041210003,-0.006045469,0.2662586,0.42784494,0.0,7.9363694,0.6685245,0.4123546,0.23353736,0.19340482,0.10409136,inf,inf,inf,inf,1,1,1,1,2,0,2,2,1,1,0
3789956000,1684000,47.3977508,8.5456074,-0.13572751,-0.08748339,-7.91201,-0.022669492,-0.0033747193,0.0,0.0027156638,-0.028592331,-0.649835,-0.65583056,-0.05914641,-0.009015089,0.12613459,0.04503719,0.02393338,0.19514094,0.42763668,0.0,7.9992123,0.649835,0.4247912,0.23475356,0.19897701,0.104726575,inf,inf,inf,inf,1,1,1,1,2,0,2,2,1,1,0
3790060000,1684000,47.3977508,8.5456074,-0.13711737,-0.09025538,-7.9775786,-0.022669492,-0.0033747193,0.0,0.004842029,-0.026451495,-0.6311406,-0.6356121,-0.05914641,-0.009015089,0.12613459,0.12360338,0.05356478,0.18142629,0.42782125,0.0,8.06478,0.6311406,0.41287708,0.23365843,0.19357076,0.1041175,inf,inf,inf,inf,1,1,1,1,2,0,2,2,1,1,0
3790156000,1684000,47.3977508,8.5456074,-0.1381867,-0.092803165,-8.036837,-0.022669492,-0.0033747193,0.0,0.0048738704,-0.025015248,-0.6143268,-0.6178375,-0.05914641,-0.009015089,0.12613459,-0.063200936,-0.049074687,0.16928557,0.42791235,0.0,8.124039,0.6143268,0.4254387,0.23488593,0.19903801,0.10475731,inf,inf,inf,inf,1,1,1,1,2,0,2,2,1,1,0
3790260000,1684000,47.3977508,8.5456074,-0.1390395,-0.095499195,-8.100029,-0.022669492,-0.0033747193,0.0,0.006521575,-0.022446563,-0.5915351,-0.59520596,-0.05914641,-0.009015089,0.12613459,0.014449051,0.022582825,0.26017424,0.42795143,0.0,8.187231,0.5915351,0.41342947,0.23379725,0.193474,0.104150936,inf,inf,inf,inf,1,1,1,1,2,0,2,2,1,1,0
3790356000,1684000,47.3977508,8.5456074,-0.13924028,-0.0978608,-8.155924,-0.022669492,-0.0033747193,0.0,0.00913234,-0.020506777,-0.57443106,-0.5777536,-0.05914641,-0.009015089,0.12613459,-0.0020857041,0.061279,0.22056977,0.4278036,0.0,8.243126,0.57443106,0.42609608,0.23501794,0.19884425,0.104787044,inf,inf,inf,inf,1,1,1,1,2,0,2,2,1,1,0
3790460000,1684000,47.3977508,8.5456074,-0.13897908,-0.10029992,-8.214766,-0.022669492,-0.0033747193,0.0,0.009911715,-0.019373657,-0.5557738,-0.5589213,-0.05914641,-0.009015089,0.12613459,-0.015849032,0.051034685,0.23267697,0.4279958,0.0,8.301968,0.5557738,0.4139903,0.23392676,0.19310366,0.104179084,inf,inf,inf,inf,1,1,1,1,2,0,2,2,1,1,0
3790556000,1684000,47.3977508,8.5456074,-0.13834299,-0.1023751,-8.268199,-0.022669492,-0.0033747193,0.0,0.010438503,-0.016574873,-0.53981334,-0.5435457,-0.05914641,-0.009015089,0.12613459,0.013839248,0.07635559,0.19697937,0.42790985,0.0,8.355401,0.53981334,0.42673972,0.23513205,0.19837672,0.10480782,inf,inf,inf,inf,1,1,1,1,2,0,2,2,1,1,0
3790660000,1684000,47.3977508,8.5456074,-0.13828832,-0.10445414,-8.323462,-0.022669492,-0.0033747193,0.0,0.010418613,-0.014912242,-0.5205649,-0.524111,-0.05914641,-0.009015089,0.12613459,-0.015540962,0.051147398,0.19451602,0.4278504,0.0,8.410664,0.5205649,0.4145393,0.23401378,0.19254252,0.104188226,inf,inf,inf,inf,1,1,1,1,2,0,2,2,1,1,0
3790756000,1684000,47.3977508,8.5456074,-0.13855241,-0.1061923,-8.37148,-0.022669492,-0.0033747193,0.0,0.010029185,-0.011648996,-0.5049723,-0.5070116,-0.05914641,-0.009015089,0.12613459,-0.0174195,0.03420389,0.16696936,0.42766458,0.0,8.458682,0.5049723,0.42735213,0.2352311,0.19771732,0.10482225,inf,inf,inf,inf,1,1,1,1,2,0,2,2,1,1,0
3790860000,1684000,47.3977508,8.5456074,-0.1394022,-0.10821447,-8.4213295,-0.022669492,-0.0033747193,0.0,0.006953463,-0.009540223,-0.4933103,-0.49317196,-0.05914641,-0.009015089,0.12613459,-0.031015266,0.05078327,0.08829496,0.42774245,0.0,8.508532,0.4933103,0.41506258,0.23412132,0.1918036,0.104206525,inf,inf,inf,inf,1,1,1,1,2,0,2,2,1,1,0
3790956000,1684000,47.3977508,8.5456074,-0.14037356,-0.110099934,-8.466013,-0.022669492,-0.0033747193,0.0,0.008208004,-0.008422195,-0.48077175,-0.47871506,-0.05914641,-0.009015089,0.12613459,-0.045322143,0.044874866,0.12087914,0.4276619,0.0,8.553215,0.48077175,0.4279198,0.23533265,0.19689767,0.10483765,inf,inf,inf,inf,1,1,1,1,2,0,2,2,1,1,0
3791060000,1684000,47.3977508,8.5456074,-0.14102836,-0.112477034,-8.512681,-0.022669492,-0.0033747193,0.0,0.010976874,-0.007950009,-0.46596172,-0.46177685,-0.05914641,-0.009015089,0.12613459,0.030741472,-0.020667259,0.12545286,0.42746305,0.0,8.599883,0.46596172,0.41554788,0.23423108,0.19095145,0.10422582,inf,inf,inf,inf,1,1,1,1,2,0,2,2,1,1,0
3791156000,1684000,47.3977508,8.5456074,-0.1413079,-0.11488018,-8.554401,-0.022669492,-0.0033747193,0.0,0.010301044,-0.0077302502,-0.45679146,-0.45065516,-0.05914641,-0.009015089,0.12613459,-0.085511304,0.038640343,0.1161592,0.427512,0.0,8.641603,0.45679146,0.42843348,0.23545386,0.19596013,0.10486164,inf,inf,inf,inf,1,1,1,1,2,0,2,2,1,1,0
3791260000,1684000,47.3977508,8.5456074,-0.14189051,-0.11740581,-8.597918,-0.022669492,-0.0033747193,0.0,0.011007445,-0.0062832725,-0.4449437,-0.43632048,-0.05914641,-0.009015089,0.12613459,0.051000264,-0.015024062,0.08167046,0.4275324,0.0,8.68512,0.4449437,0.41598824,0.23434202,0.18998377,0.10424517,inf,inf,inf,inf,1,1,1,1,2,0,2,2,1,1,0
3791356000,1684000,47.3977508,8.5456074,-0.14246869,-0.11955729,-8.636851,-0.022669492,-0.0033747193,0.0,0.010118508,-0.00406851,-0.4388557,-0.42790213,-0.05914641,-0.009015089,0.12613459,-0.03811163,-0.012655469,0.05368143,0.42729774,0.0,8.724053,0.4388557,0.42888626,0.2355587,0.19491978,0.10487802,inf,inf,inf,inf,1,1,1,1,2,0,2,2,1,1,0
3791460000,1684000,47.3977508,8.5456074,-0.1430203,-0.12159699,-8.677729,-0.022669492,-0.0033747193,0.0,0.0104612,-0.0025704051,-0.4249135,-0.4113453,-0.05914641,-0.009015089,0.12613459,0.033731952,0.12269484,0.18590222,0.4272991,0.0,8.764931,0.4249135,0.41637686,0.23445468,0.18894525,0.10426528,inf,inf,inf,inf,1,1,1,1,2,0,2,2,1,1,0
3791556000,1684000,47.3977508,8.5456074,-0.14340478,-0.12310206,-8.713887,-0.022669492,-0.0033747193,0.0,0.010574309,4.459336e-06,-0.41624564,-0.4002092,-0.05914641,-0.009015089,0.12613459,0.071757294,-0.031696294,-0.05014613,0.4272042,0.0,8.801089,0.41624564,0.42927396,0.23568273,0.19381422,0.104902856,inf,inf,inf,inf,1,1,1,1,2,0,2,2,1,1,0
3791660000,1684000,47.3977508,8.5456074,-0.14374648,-0.12519363,-8.7521105,-0.022669492,-0.0033747193,0.0,0.010052023,8.348396e-05,-0.40732357,-0.38878563,-0.05914641,-0.009015089,0.12613459,-0.010996883,-0.012501331,-0.00029895452,0.42731124,0.0,8.839313,0.40732357,0.41671097,0.23456822,0.1878383,0.10428538,inf,inf,inf,inf,1,1,1,1,2,0,2,2,1,1,0
3791756000,1684000,47.3977508,8.5456074,-0.14397958,-0.12726739,-8.7868805,-0.022669492,-0.0033747193,0.0,0.01052195,0.00024986334,-0.4001918,-0.37979186,-0.05914641,-0.009015089,0.12613459,0.022421714,0.026953373,0.098065466,0.4276904,0.0,8.874083,0.4001918,0.4295939,0.23417674,0.19263329,0.10449622,inf,inf,inf,inf,1,1,1,1,2,0,2,2,1,1,0
3791860000,1684000,47.3977508,8.5456074,-0.14395756,-0.12990698,-8.823724,-0.022669492,-0.0033747193,0.0,0.013340302,0.0013152485,-0.3878197,-0.3659673,-0.05914641,-0.009015089,0.12613459,-0.0005251113,0.03312189,-0.0038873402,0.42792457,0.0,8.910926,0.3878197,0.41698772,0.23469993,0.18670882,0.10431311,inf,inf,inf,inf,1,1,1,1,2,0,2,2,1,1,0
3791956000,1684000,47.3977508,8.5456074,-0.14376768,-0.13222669,-8.856949,-0.022669492,-0.0033747193,0.0,0.01362852,0.0037726844,-0.38077867,-0.35783845,-0.05914641,-0.009015089,0.12613459,0.03263582,0.031858027,0.10776612,0.4278106,0.0,8.944151,0.38077867,0.4298467,0.23429917,0.19142649,0.10451963,inf,inf,inf,inf,1,1,1,1,2,0,2,2,1,1,0
3792060000,1684000,47.3977508,8.5456074,-0.143717,-0.1348813,-8.893427,-0.022669492,-0.0033747193,0.0,0.013222838,0.0040810383,-0.37023568,-0.34756383,-0.05914641,-0.009015089,0.12613459,-0.0045754802,0.019151498,0.21195783,0.42783687,0.0,8.980629,0.37023568,0.41720763,0.23481433,0.18553612,0.104332566,inf,inf,inf,inf,1,1,1,1,2,0,2,2,1,1,0
3792156000,1684000,47.3977508,8.5456074,-0.14361581,-0.13734618,-8.925929,-0.022669492,-0.0033747193,0.0,0.0138691645,0.0028815127,-0.35692105,-0.33446768,-0.05914641,-0.009015089,0.12613459,0.038691998,-0.008756254,0.099550925,0.4279263,0.0,9.013131,0.35692105,0.43003264,0.23442242,0.19020312,0.1045431,inf,inf,inf,inf,1,1,1,1,2,0,2,2,1,1,0
3792260000,1684000,47.3977508,8.5456074,-0.14297074,-0.13922134,-8.959325,-0.022669492,-0.0033747193,0.0,0.01607449,0.005456105,-0.34448048,-0.32166597,-0.05914641,-0.009015089,0.12613459,0.009409338,0.10612228,0.12855417,0.4276411,0.0,9.046527,0.34448048,0.44458535,0.2362926,0.19529481,0.10535716,inf,inf,inf,inf,1,1,1,1,2,0,2,2,1,1,0
3792356000,1684000,47.3977508,8.5456074,-0.1426681,-0.14141227,-8.988325,-0.022669492,-0.0033747193,0.0,0.017454358,0.008165356,-0.33691177,-0.31301904,-0.05914641,-0.009015089,0.12613459,-0.020638967,0.016737696,0.065828666,0.42770392,0.0,9.075527,0.33691177,0.42877427,0.23450787,0.18812601,0.104512535,inf,inf,inf,inf,1,1,1,1,2,0,2,2,1,1,0
3792460000,1684000,47.3977508,8.5456074,-0.1424889,-0.14371784,-9.019009,-0.022669492,-0.0033747193,0.0,0.014787381,0.008314386,-0.32796314,-0.3031464,-0.05914641,-0.009015089,0.12613459,-0.065744616,0.051342268,-0.02688635,0.42764968,0.0,9.106211,0.32796314,0.44316435,0.23474452,0.19314079,0.104894444,inf,inf,inf,inf,1,1,1,1,2,0,2,2,1,1,0
3792556000,1684000,47.3977508,8.5456074,-0.14280927,-0.1463454,-9.047643,-0.022669492,-0.0033747193,0.0,0.0155886365,0.008239582,-0.32188028,-0.29729357,-0.05914641,-0.009015089,0.12613459,0.011854826,-0.045717675,0.18456112,0.42746603,0.0,9.134845,0.32188028,0.42759693,0.23460966,0.186225,0.104491636,inf,inf,inf,inf,1,1,1,1,2,0,2,2,1,1,0
3792660000,1684000,47.3977508,8.5456074,-0.1430217,-0.14894894,-9.077505,-0.022669492,-0.0033747193,0.0,0.016793402,0.01119831,-0.3085717,-0.28397468,-0.05914641,-0.009015089,0.12613459,0.006690141,0.08022108,0.050880942,0.4275775,0.0,9.164707,0.3085717,0.44183648,0.23483585,0.19118923,0.10486977,inf,inf,inf,inf,1,1,1,1,2,0,2,2,1,1,0
3792756000,1684000,47.3977508,8.5456074,-0.14362852,-0.15177673,-9.102964,-0.022669492,-0.0033747193,0.0,0.01608415,0.010225657,-0.29890364,-0.27334335,-0.05914641,-0.009015089,0.12613459,0.02964339,-0.010985202,0.1148479,0.42768443,0.0,9.190166,0.29890364,0.4264928,0.23469271,0.18449166,0.10446479,inf,inf,inf,inf,1,1,1,1,2,0,2,2,1,1,0
3792860000,1684000,47.3977508,8.5456074,-0.14438061,-0.15483178,-9.12959,-0.022669492,-0.0033747193,0.0,0.014178478,0.009690351,-0.2933623,-0.26676023,-0.05914641,-0.009015089,0.12613459,-0.032543916,0.055090398,0.079517245,0.42758664,0.0,9.216792,0.2933623,0.4405916,0.23492694,0.1893794,0.1048476,inf,inf,inf,inf,1,1,1,1,2,0,2,2,1,1,0
3792956000,1684000,47.3977508,8.5456074,-0.14579533,-0.1579742,-9.153688,-0.022669492,-0.0033747193,0.0,0.012740649,0.012355249,-0.28551418,-0.2581912,-0.05914641,-0.009015089,0.12613459,0.033819564,0.06991335,-0.056980174,0.42750233,0.0,9.2408905,0.28551418,0.42545527,0.23479271,0.18287754,0.10444805,inf,inf,inf,inf,1,1,1,1,2,0,2,2,1,1,0
3793060000,1684000,47.3977508,8.5456074,-0.14732665,-0.16098388,-9.17932,-0.022669492,-0.0033747193,0.0,0.013159848,0.01346859,-0.27908376,-0.25135657,-0.05914641,-0.009015089,0.12613459,0.022401819,0.109674565,0.05691405,0.42738253,0.0,9.266522,0.27908376,0.43942285,0.2350169,0.18774801,0.1048276,inf,inf,inf,inf,1,1,1,1,2,0,2,2,1,1,0
3793156000,1684000,47.3977508,8.5456074,-0.14937067,-0.16403534,-9.202864,-0.022669492,-0.0033747193,0.0,0.012315307,0.0149426125,-0.2708955,-0.24335906,-0.05914641,-0.009015089,0.12613459,0.00034896765,0.017492896,0.07737241,0.4272931,0.0,9.290066,0.2708955,0.42447817,0.2348832,0.18143706,0.10442984,inf,inf,inf,inf,1,1,1,1,2,0,2,2,1,1,0
3793260000,1684000,47.3977508,8.5456074,-0.15184519,-0.16684291,-9.22815,-0.022669492,-0.0033747193,0.0,0.009014887,0.017650073,-0.26457307,-0.23776485,-0.05914641,-0.009015089,0.12613459,-0.03962564,0.08102069,0.036628913,0.42748806,0.0,9.315352,0.26457307,0.43832406,0.23512398,0.18626283,0.10481791,inf,inf,inf,inf,1,1,1,1,2,0,2,2,1,1,0
3793356000,1684000,47.3977508,8.5456074,-0.15391152,-0.1697546,-9.2507305,-0.022669492,-0.0033747193,0.0,0.0105810175,0.020001063,-0.25491855,-0.22871622,-0.05914641,-0.009015089,0.12613459,0.041631393,0.08509409,0.03147125,0.42734227,0.0,9.337933,0.25491855,0.423557,0.23498149,0.18012163,0.104417615,inf,inf,inf,inf,1,1,1,1,2,0,2,2,1,1,0
3793460000,1684000,47.3977508,8.5456074,-0.15532202,-0.17234106,-9.274618,-0.022669492,-0.0033747193,0.0,0.014147388,0.022974279,-0.2535111,-0.22784851,-0.05914641,-0.009015089,0.12613459,-0.013643853,-0.08135847,-0.0024586914,0.42590895,0.0,9.36182,0.2535111,0.43728963,0.23521256,0.18491264,0.10480262,inf,inf,inf,inf,1,1,1,1,2,0,2,2,1,1,0
3793556000,1684000,47.3977508,8.5456074,-0.15636282,-0.17435384,-9.295719,-0.022669492,-0.0033747193,0.0,0.016761946,0.025241436,-0.24554011,-0.21970373,-0.05914641,-0.009015089,0.12613459,0.020960141,0.010667881,0.17592403,0.41477978,0.0,9.382921,0.24554011,0.4226878,0.23507987,0.17893234,0.10440832,inf,inf,inf,inf,1,1,1,1,2,0,2,2,1,1,0
3793660000,1684000,47.3977508,8.5456074,-0.15702377,-0.17629,-9.317553,-0.022669492,-0.0033747193,0.0,0.01543234,0.013190783,-0.23997016,-0.21400037,-0.05914641,-0.009015089,0.12613459,-0.109653465,-0.30223867,-0.08277222,0.3865557,0.0,9.404755,0.23997016,0.43631592,0.235319,0.18372133,0.10479815,inf,inf,inf,inf,1,1,1,1,2,0,2,2,1,1,0
3793756000,1684000,47.3977508,8.5456074,-0.1589048,-0.18079132,-9.338051,-0.022669492,-0.0033747193,0.0,-0.011707801,-0.030299783,-0.24702786,-0.22102165,-0.05914641,-0.009015089,0.12613459,-0.43956628,-0.57588154,-0.1336662,0.34613648,0.0,9.425253,0.24702786,0.4217745,0.2351776,0.17769398,0.10440098,inf,inf,inf,inf,1,1,1,1,2,0,2,2,1,1,0
3793860000,1684000,47.3977508,8.5456074,-0.16595013,-0.19235954,-9.360561,-0.022669492,-0.0033747193,0.0,-0.08843286,-0.1283097,-0.2545028,-0.22801906,-0.05914641,-0.009015089,0.12613459,-0.96296537,-1.2329993,-0.070130445,0.28802437,0.0,9.447763,0.2545028,0.43516013,0.23541595,0.18223025,0.104790725,inf,inf,inf,inf,1,1,1,1,2,0,2,2,1,1,0
3793956000,1684000,47.3977508,8.5456074,-0.18147099,-0.21478404,-9.382063,-0.022669492,-0.0033747193,0.0,-0.20362796,-0.27601022,-0.25020775,-0.22376797,-0.05914641,-0.009015089,0.12613459,-1.4323527,-1.8058771,0.19644293,0.22413363,0.0,9.469265,0.25020775,0.4207862,0.23367222,0.17638744,0.10397021,inf,inf,inf,inf,1,1,1,1,2,0,2,2,1,1,0
3794060000,1684000,47.3977508,8.5456074,-0.21246907,-0.25711706,-9.404753,-0.022669492,-0.0033747193,0.0,-0.3665428,-0.48467723,-0.23913437,-0.212952,-0.05914641,-0.009015089,0.12613459,-1.6006116,-2.1495113,0.09016599,0.14910106,0.0,9.491955,0.23913437,0.43408528,0.23551992,0.18094894,0.10475667,inf,inf,inf,inf,1,1,1,1,2,0,2,2,1,1,0
3794156000,1684000,47.3977508,8.5456074,-0.25442168,-0.31483588,-9.424596,-0.022669492,-0.0033747193,0.0,-0.52984095,-0.69991595,-0.22221622,-0.19651394,-0.05914641,-0.009015089,0.12613459,-1.8399017,-2.3474083,0.22858287,0.078368776,0.0,9.511798,0.22221622,0.4198849,0.23376378,0.17524445,0.10388562,inf,inf,inf,inf,1,1,1,1,2,0,2,2,1,1,0
3794260000,1684000,47.3977508,8.5456074,-0.31668258,-0.4002076,-9.444277,-0.022669492,-0.0033747193,0.0,-0.70944893,-0.94433105,-0.20644192,-0.1811988,-0.05914641,-0.009015089,0.12613459,-1.8131427,-2.3973992,0.09489338,0.0017774283,0.0,9.531479,0.20644192,0.43307364,0.23561455,0.1798013,0.104610555,inf,inf,inf,inf,1,1,1,1,2,0,2,2,1,1,0
3794356000,1684000,47.3977508,8.5456074,-0.38880616,-0.4998481,-9.461457,-0.022669492,-0.0033747193,0.0,-0.8708909,-1.1644096,-0.19629346,-0.17154485,-0.05914641,-0.009015089,0.12613459,-1.6979446,-2.2923675,0.12931971,-0.069674395,0.0,9.548659,0.19629346,0.41903415,0.23385893,0.17431952,0.10369633,inf,inf,inf,inf,1,1,1,1,2,0,2,2,1,1,0
3794460000,1684000,47.3977508,8.5456074,-0.48354447,-0.6306233,-9.479335,-0.022669492,-0.0033747193,0.0,-1.0370026,-1.3956298,-0.18466295,-0.16065913,-0.05914641,-0.009015089,0.12613459,-1.5676712,-2.1970906,0.17473194,-0.14861952,0.0,9.566537,0.18466295,0.43211243,0.23568714,0.17900786,0.10438101,inf,inf,inf,inf,1,1,1,1,2,0,2,2,1,1,0
3794556000,1684000,47.3977508,8.5456074,-0.58547956,-0.7716039,-9.493711,-0.022669492,-0.0033747193,0.0,-1.1843525,-1.6002963,-0.16936491,-0.14523175,-0.05914641,-0.009015089,0.12613459,-1.5568087,-2.173853,0.15146005,-0.22192647,0.0,9.580914,0.16936491,0.4182221,0.23392095,0.17378955,0.1034552,inf,inf,inf,inf,1,1,1,1,2,0,2,2,1,1,0
3794660000,1684000,47.3977508,8.5456074,-0.711937,-0.94578713,-9.506815,-0.022669492,-0.0033747193,0.0,-1.337737,-1.8093277,-0.16213423,-0.13665311,-0.05914641,-0.009015089,0.12613459,-1.5284783,-1.918261,0.067750916,-0.30157936,0.0,9.594017,0.16213423,0.43117926,0.2341206,0.1784967,0.103706606,inf,inf,inf,inf,1,1,1,1,2,0,2,2,1,1,0
3794756000,1684000,47.3977508,8.5456074,-0.84241474,-1.1253393,-9.517796,-0.022669492,-0.0033747193,0.0,-1.4704891,-1.9898492,-0.15812016,-0.13089365,-0.05914641,-0.009015089,0.12613459,-1.3689158,-1.823194,-0.012037343,-0.37529495,0.0,9.604998,0.15812016,0.41744778,0.2339645,0.1734663,0.10320486,inf,inf,inf,inf,1,1,1,1,2,0,2,2,1,1,0
3794860000,1684000,47.3977508,8.5456074,-0.9980031,-1.3390065,-9.52905,-0.022669492,-0.0033747193,0.0,-1.6062025,-2.1727655,-0.15578091,-0.1266777,-0.05914641,-0.009015089,0.12613459,-1.2850617,-1.7794516,-0.033208165,-0.45578647,0.0,9.616252,0.15578091,0.43031353,0.23413846,0.17823051,0.103451386,inf,inf,inf,inf,1,1,1,1,2,0,2,2,1,1,0
3794956000,1684000,47.3977508,8.5456074,-1.1540172,-1.5531955,-9.538985,-0.022669492,-0.0033747193,0.0,-1.724636,-2.3391566,-0.15082121,-0.12002785,-0.05914641,-0.009015089,0.12613459,-1.3188559,-1.7356902,-0.022970138,-0.53062445,0.0,9.626187,0.15082121,0.41670975,0.23398334,0.17331827,0.10296099,inf,inf,inf,inf,1,1,1,1,2,0,2,2,1,1,0
3795060000,1684000,47.3977508,8.5456074,-1.3365586,-1.8034195,-9.5491295,-0.022669492,-0.0033747193,0.0,-1.853398,-2.5143702,-0.14912914,-0.11638074,-0.05914641,-0.009015089,0.12613459,-1.2070836,-1.6889678,0.06879027,-0.6120912,0.0,9.636332,0.14912914,0.42949542,0.23415042,0.17810176,0.10321396,inf,inf,inf,inf,1,1,1,1,2,0,2,2,1,1,0
3795156000,1684000,47.3977508,8.5456074,-1.516972,-2.0508597,-9.558535,-0.022669492,-0.0033747193,0.0,-1.9667021,-2.6678274,-0.14276724,-0.108977735,-0.05914641,-0.009015089,0.12613459,-1.1932384,-1.6128774,-0.0012749805,-0.68766624,0.0,9.645737,0.14276724,0.41601032,0.23397976,0.17329487,0.10272818,inf,inf,inf,inf,1,1,1,1,2,0,2,2,1,1,0
3795260000,1684000,47.3977508,8.5456074,-1.7248286,-2.3351676,-9.568149,-0.022669492,-0.0033747193,0.0,-2.0861015,-2.8174977,-0.13293251,-0.098300904,-0.05914641,-0.009015089,0.12613459,-1.1943809,-1.3717158,0.08974596,-0.7711573,0.0,9.655351,0.13293251,0.4287236,0.2341328,0.17811096,0.10298524,inf,inf,inf,inf,1,1,1,1,2,0,2,2,1,1,0
3795356000,1684000,47.3977508,8.5456074,-1.9277166,-2.6120007,-9.575329,-0.022669492,-0.0033747193,0.0,-2.192367,-2.937696,-0.11920947,-0.08325981,-0.05914641,-0.009015089,0.12613459,-1.1121472,-1.0712497,0.21416692,-0.84862345,0.0,9.662531,0.11920947,0.41534862,0.23396482,0.17337246,0.10251392,inf,inf,inf,inf,1,1,1,1,2,0,2,2,1,1,0
3795460000,1684000,47.3977508,8.5456074,-2.1587963,-2.9240015,-9.582142,-0.022669492,-0.0033747193,0.0,-2.294333,-3.0352492,-0.10708656,-0.07036821,-0.05914641,-0.009015089,0.12613459,-0.8416164,-0.8119116,0.10216515,-0.93231916,0.0,9.669344,0.10708656,0.42799452,0.23410499,0.17819123,0.10278225,inf,inf,inf,inf,1,1,1,1,2,0,2,2,1,1,0
3795556000,1684000,47.3977508,8.5456074,-2.3810449,-3.2214239,-9.587572,-0.022669492,-0.0033747193,0.0,-2.3692212,-3.0968368,-0.09840291,-0.061177257,-0.05914641,-0.009015089,0.12613459,-0.65034324,-0.47545272,0.10424945,-1.0095061,0.0,9.674774,0.09840291,0.4147224,0.23392472,0.17347081,0.102330655,inf,inf,inf,inf,1,1,1,1,2,0,2,2,1,1,0
3795660000,1684000,47.3977508,8.5456074,-2.6288059,-3.5492735,-9.592919,-0.022669492,-0.0033747193,0.0,-2.422611,-3.1324475,-0.09306135,-0.05558713,-0.05914641,-0.009015089,0.12613459,-0.4400315,-0.2515991,0.012378207,-1.0929188,0.0,9.680121,0.09306135,0.42730415,0.23406482,0.17825249,0.10263147,inf,inf,inf,inf,1,1,1,1,2,0,2,2,1,1,0
3795756000,1684000,47.3977508,8.5456074,-2.8618863,-3.8556523,-9.598022,-0.022669492,-0.0033747193,0.0,-2.4466136,-3.1439757,-0.09996602,-0.062393412,-0.05914641,-0.009015089,0.12613459,-0.21532503,0.021246959,-0.03247801,-1.1695288,0.0,9.685225,0.09996602,0.41412857,0.23389257,0.17355298,0.10221601,inf,inf,inf,inf,1,1,1,1,2,0,2,2,1,1,0
3795856000,1684000,47.3977508,8.5456074,-3.096954,-4.162799,-9.6035185,-0.022669492,-0.0033747193,0.0,-2.456004,-3.1441882,-0.10388708,-0.06594489,-0.05914641,-0.009015089,0.12613459,-0.09981472,0.078370094,-0.03296509,-1.245127,0.0,9.690721,0.10388708,0.4256619,0.23339449,0.17795622,0.1023592,inf,inf,inf,inf,1,1,1,1,2,0,2,2,1,1,0
3795960000,1684000,47.3977508,8.5456074,-3.3539011,-4.497034,-9.608407,-0.022669492,-0.0033747193,0.0,-2.4581826,-3.1405206,-0.108892925,-0.06915829,-0.05914641,-0.009015089,0.12613459,0.06892369,0.11180597,-0.065053806,-1.3269603,0.0,9.695609,0.108892925,0.41355088,0.23226951,0.17373158,0.10174774,inf,inf,inf,inf,1,1,1,1,2,0,2,2,1,1,0
3796056000,1684000,47.3977508,8.5456074,-3.5922112,-4.8059707,-9.614016,-0.022669492,-0.0033747193,0.0,-2.4610817,-3.1419268,-0.112380676,-0.07189755,-0.05914641,-0.009015089,0.12613459,-0.023710074,0.0101798205,-0.035327855,-1.4026331,0.0,9.701218,0.112380676,0.42505693,0.23339012,0.17833698,0.102326,inf,inf,inf,inf,1,1,1,1,2,0,2,2,1,1,0
3796160000,1684000,47.3977508,8.5456074,-3.8519046,-5.142855,-9.619784,-0.022669492,-0.0033747193,0.0,-2.4630456,-3.1422746,-0.11250184,-0.07081232,-0.05914641,-0.009015089,0.12613459,-0.016039934,0.052592248,-0.04837196,-1.4855213,0.0,9.706986,0.11250184,0.41302633,0.232277,0.17429405,0.10172872,inf,inf,inf,inf,1,1,1,1,2,0,2,2,1,1,0
3796256000,1684000,47.3977508,8.5456074,-4.0923715,-5.4541826,-9.625912,-0.022669492,-0.0033747193,0.0,-2.465922,-3.1435668,-0.11076953,-0.0689513,-0.05914641,-0.009015089,0.12613459,0.009327195,-0.048293497,0.034341585,-1.5622119,0.0,9.713114,0.11076953,0.42449954,0.23339234,0.17910168,0.102308474,inf,inf,inf,inf,1,1,1,1,2,0,2,2,1,1,0
3796360000,1684000,47.3977508,8.5456074,-4.3538136,-5.7933764,-9.633391,-0.022669492,-0.0033747193,0.0,-2.4660616,-3.1453838,-0.115331426,-0.07410474,-0.05914641,-0.009015089,0.12613459,0.03139488,0.103550725,-0.078608274,-1.645273,0.0,9.720593,0.115331426,0.412543,0.23229167,0.17522903,0.101719916,inf,inf,inf,inf,1,1,1,1,2,0,2,2,1,1,0
3796456000,1684000,47.3977508,8.5456074,-4.595244,-6.1064315,-9.640284,-0.022669492,-0.0033747193,0.0,-2.4685476,-3.1447558,-0.11346286,-0.07252352,-0.05914641,-0.009015089,0.12613459,0.017027369,0.09382725,-0.036144625,-1.721718,0.0,9.727486,0.11346286,0.42399663,0.23341893,0.18022949,0.10230614,inf,inf,inf,inf,1,1,1,1,2,0,2,2,1,1,0
3796560000,1684000,47.3977508,8.5456074,-4.8579283,-6.4463887,-9.648073,-0.022669492,-0.0033747193,0.0,-2.4727416,-3.1479402,-0.112114415,-0.07198292,-0.05914641,-0.009015089,0.12613459,-0.007094582,0.018726567,-0.10963622,-1.8043594,0.0,9.735275,0.112114415,0.412107,0.23231293,0.17650457,0.10171389,inf,inf,inf,inf,1,1,1,1,2,0,2,2,1,1,0
3796656000,1684000,47.3977508,8.5456074,-5.10089,-6.7598157,-9.655318,-0.022669492,-0.0033747193,0.0,-2.478251,-3.1506987,-0.111625254,-0.072231114,-0.05914641,-0.009015089,0.12613459,-0.026160616,-0.062429573,0.008832662,-1.8811622,0.0,9.74252,0.111625254,0.4235583,0.23344435,0.18168014,0.102300815,inf,inf,inf,inf,1,1,1,1,2,0,2,2,1,1,0
3796760000,1684000,47.3977508,8.5456074,-5.3650184,-7.100405,-9.663307,-0.022669492,-0.0033747193,0.0,-2.4843094,-3.1553123,-0.10933952,-0.07090059,-0.05914641,-0.009015089,0.12613459,-0.0110385,0.018976627,0.0004889443,-1.9639028,0.0,9.750509,0.10933952,0.4117278,0.23235765,0.17801283,0.10171409,inf,inf,inf,inf,1,1,1,1,2,0,2,2,1,1,0
3796856000,1684000,47.3977508,8.5456074,-5.6089854,-7.4147105,-9.669985,-0.022669492,-0.0033747193,0.0,-2.4877653,-3.1610734,-0.108035885,-0.06986138,-0.05914641,-0.009015089,0.12613459,0.03931019,-0.04220032,0.056444664,-2.0374413,0.0,9.757187,0.108035885,0.42319414,0.23348425,0.18335359,0.1022944,inf,inf,inf,inf,1,1,1,1,2,0,2,2,1,1,0
3796960000,1684000,47.3977508,8.5456074,-5.873152,-7.757396,-9.6767,-0.022669492,-0.0033747193,0.0,-2.4875221,-3.1698954,-0.10588744,-0.06766189,-0.05914641,-0.009015089,0.12613459,0.045103483,-0.09302724,-0.034153458,-2.1031256,0.0,9.763902,0.10588744,0.41141316,0.23239096,0.17969002,0.10169964,inf,inf,inf,inf,1,1,1,1,2,0,2,2,1,1,0
3797056000,1684000,47.3977508,8.5456074,-6.1164503,-8.074522,-9.6838,-0.022669492,-0.0033747193,0.0,-2.4885747,-3.1800222,-0.105335794,-0.068068095,-0.05914641,-0.009015089,0.12613459,0.06987643,-0.01382362,-0.058474015,-2.1475668,0.0,9.771002,0.105335794,0.42291236,0.23352931,0.18516453,0.10227838,inf,inf,inf,inf,1,1,1,1,2,0,2,2,1,1,0
3797160000,1684000,47.3977508,8.5456074,-6.380736,-8.420079,-9.692004,-0.022669492,-0.0033747193,0.0,-2.4912398,-3.1877732,-0.1052164,-0.06929453,-0.05914641,-0.009015089,0.12613459,-0.028836772,-0.0055779233,-0.024407169,-2.1822095,0.0,9.779206,0.1052164,0.41117066,0.2324444,0.18147019,0.10167997,inf,inf,inf,inf,1,1,1,1,2,0,2,2,1,1,0
3797256000,1684000,47.3977508,8.5456074,-6.6250553,-8.7392845,-9.699836,-0.022669492,-0.0033747193,0.0,-2.4963486,-3.193732,-0.0990196,-0.06468887,-0.05914641,-0.009015089,0.12613459,-0.06481073,0.04215212,0.103254795,-2.2056124,0.0,9.787038,0.0990196,0.4227207,0.23357685,0.18705378,0.1022591,inf,inf,inf,inf,1,1,1,1,2,0,2,2,1,1,0
3797360000,1684000,47.3977508,8.5456074,-6.8890023,-9.081637,-9.707399,-0.022669492,-0.0033747193,0.0,-2.5040045,-3.199562,-0.09554541,-0.062462542,-0.05914641,-0.009015089,0.12613459,-0.015900701,0.0026279592,0.037431713,-2.2238693,0.0,9.794601,0.09554541,0.43585765,0.23374628,0.19317096,0.10260923,inf,inf,inf,inf,1,1,1,1,2,0,2,2,1,1,0
3797456000,1684000,47.3977508,8.5456074,-7.129902,-9.39583,-9.714086,-0.022669492,-0.0033747193,0.0,-2.5088413,-3.204014,-0.095304556,-0.06309178,-0.05914641,-0.009015089,0.12613459,-0.058406264,-0.103319526,-0.08307024,-2.2357063,0.0,9.801288,0.095304556,0.42141423,0.23202392,0.18799448,0.101823814,inf,inf,inf,inf,1,1,1,1,2,0,2,2,1,1,0
3797560000,1684000,47.3977508,8.5456074,-7.38972,-9.734983,-9.722145,-0.022669492,-0.0033747193,0.0,-2.5148606,-3.210271,-0.096400835,-0.0657854,-0.05914641,-0.009015089,0.12613459,-0.06730412,-0.015802447,-0.03031641,-2.2444823,0.0,9.809347,0.096400835,0.4345551,0.23377262,0.19420226,0.10259807,inf,inf,inf,inf,1,1,1,1,2,0,2,2,1,1,0
3797656000,1684000,47.3977508,8.5456074,-7.6286416,-10.047813,-9.729866,-0.022669492,-0.0033747193,0.0,-2.519927,-3.2163997,-0.09270835,-0.06368875,-0.05914641,-0.009015089,0.12613459,-0.04353141,-0.01181173,0.027651897,-2.2500753,0.0,9.817068,0.09270835,0.42029983,0.23204428,0.1890151,0.10182965,inf,inf,inf,inf,1,1,1,1,2,0,2,2,1,1,0
3797760000,1684000,47.3977508,8.5456074,-7.8874016,-10.386539,-9.736662,-0.022669492,-0.0033747193,0.0,-2.52291,-3.2274146,-0.089012556,-0.06053545,-0.05914641,-0.009015089,0.12613459,-0.018451827,-0.11106068,-0.06128754,-2.2541013,0.0,9.823864,0.089012556,0.43345162,0.23380569,0.19526105,0.10262937,inf,inf,inf,inf,1,1,1,1,2,0,2,2,1,1,0
3797856000,1684000,47.3977508,8.5456074,-8.126192,-10.700754,-9.743267,-0.022669492,-0.0033747193,0.0,-2.5300298,-3.2402701,-0.0857409,-0.058307692,-0.05914641,-0.009015089,0.12613459,-0.024322884,-0.015014316,0.07310043,-2.2561316,0.0,9.830469,0.0857409,0.41935298,0.2320891,0.189988,0.10188178,inf,inf,inf,inf,1,1,1,1,2,0,2,2,1,1,0
3797960000,1684000,47.3977508,8.5456074,-8.3857355,-11.042354,-9.750429,-0.022669492,-0.0033747193,0.0,-2.536126,-3.2554739,-0.0830923,-0.05704663,-0.05914641,-0.009015089,0.12613459,-0.051014822,-0.17831334,0.054616477,-2.2574353,0.0,9.837631,0.0830923,0.43253416,0.23384812,0.1962212,0.102698684,inf,inf,inf,inf,1,1,1,1,2,0,2,2,1,1,0
3798056000,1684000,47.3977508,8.5456074,-8.625888,-11.359029,-9.756985,-0.022669492,-0.0033747193,0.0,-2.5411003,-3.2637753,-0.07771114,-0.05297725,-0.05914641,-0.009015089,0.12613459,-0.101212636,-0.032375563,0.08930079,-2.2578468,0.0,9.844187,0.07771114,0.4185637,0.23213628,0.19085035,0.10197049,inf,inf,inf,inf,1,1,1,1,2,0,2,2,1,1,0
3798160000,1684000,47.3977508,8.5456074,-8.887001,-11.702558,-9.762874,-0.022669492,-0.0033747193,0.0,-2.548737,-3.271272,-0.074617185,-0.050507136,-0.05914641,-0.009015089,0.12613459,-0.09282468,-0.017953802,-0.02323184,-2.2579186,0.0,9.850076,0.074617185,0.4317715,0.23232779,0.19702613,0.10240719,inf,inf,inf,inf,1,1,1,1,2,0,2,2,1,1,0
3798256000,1684000,47.3977508,8.5456074,-9.129199,-12.021218,-9.768791,-0.022669492,-0.0033747193,0.0,-2.5558302,-3.2795315,-0.076291315,-0.05315159,-0.05914641,-0.009015089,0.12613459,0.004033325,-0.06643077,0.07960293,-2.2577085,0.0,9.855993,0.076291315,0.41792125,0.23220521,0.19157876,0.102098264,inf,inf,inf,inf,1,1,1,1,2,0,2,2,1,1,0
3798360000,1684000,47.3977508,8.5456074,-9.392518,-12.367108,-9.775536,-0.022669492,-0.0033747193,0.0,-2.5579002,-3.2871268,-0.07211359,-0.050380383,-0.05914641,-0.009015089,0.12613459,0.024289357,-0.050042056,0.081530765,-2.2571564,0.0,9.862738,0.07211359,0.431184,0.23238926,0.19772021,0.10254786,inf,inf,inf,inf,1,1,1,1,2,0,2,2,1,1,0
3798456000,1684000,47.3977508,8.5456074,-9.636918,-12.687684,-9.780684,-0.022669492,-0.0033747193,0.0,-2.5625546,-3.294522,-0.073283434,-0.05188476,-0.05914641,-0.009015089,0.12613459,-0.028073087,-0.11031236,-0.04941411,-2.2561183,0.0,9.867887,0.073283434,0.41741228,0.23225853,0.19216432,0.10224426,inf,inf,inf,inf,1,1,1,1,2,0,2,2,1,1,0
3798560000,1684000,47.3977508,8.5456074,-9.902857,-13.035414,-9.785464,-0.022669492,-0.0033747193,0.0,-2.56627,-3.3007653,-0.0693738,-0.04744783,-0.05914641,-0.009015089,0.12613459,-0.015605706,-0.07391534,0.074558884,-2.2550445,0.0,9.872666,0.0693738,0.43073678,0.23244633,0.1982585,0.102700554,inf,inf,inf,inf,1,1,1,1,2,0,2,2,1,1,0
3798656000,1684000,47.3977508,8.5456074,-10.1496,-13.358322,-9.788263,-0.022669492,-0.0033747193,0.0,-2.5713425,-3.3088462,-0.06784237,-0.044324804,-0.05914641,-0.009015089,0.12613459,-0.07533817,-0.0071218233,0.0186339,-2.2539907,0.0,9.875465,0.06784237,0.41702345,0.23233408,0.19259457,0.10240672,inf,inf,inf,inf,1,1,1,1,2,0,2,2,1,1,0
3798760000,1684000,47.3977508,8.5456074,-10.417976,-13.708734,-9.791276,-0.022669492,-0.0033747193,0.0,-2.5776815,-3.3138402,-0.068910524,-0.04381322,-0.05914641,-0.009015089,0.12613459,-0.06944453,0.0075653656,0.00924617,-2.2529469,0.0,9.878478,0.068910524,0.4304122,0.23254293,0.19862567,0.10287859,inf,inf,inf,inf,1,1,1,1,2,0,2,2,1,1,0
3798856000,1684000,47.3977508,8.5456074,-10.667373,-14.032693,-9.794617,-0.022669492,-0.0033747193,0.0,-2.5819418,-3.3152838,-0.07164148,-0.04567294,-0.05914641,-0.009015089,0.12613459,-0.016851349,0.04432909,0.06911344,-2.251989,0.0,9.881819,0.07164148,0.41673976,0.23243165,0.19283842,0.10258568,inf,inf,inf,inf,1,1,1,1,2,0,2,2,1,1,0
3798960000,1684000,47.3977508,8.5456074,-10.938215,-14.383385,-9.797962,-0.022669492,-0.0033747193,0.0,-2.5846837,-3.3217998,-0.07374652,-0.04648901,-0.05914641,-0.009015089,0.12613459,-0.07275934,-0.026724067,-0.048965212,-2.2510588,0.0,9.885164,0.07374652,0.43019155,0.23264535,0.19882984,0.103062674,inf,inf,inf,inf,1,1,1,1,2,0,2,2,1,1,0
3799056000,1684000,47.3977508,8.5456074,-11.1895,-14.708834,-9.801218,-0.022669492,-0.0033747193,0.0,-2.5864654,-3.3263884,-0.07394085,-0.045693837,-0.05914641,-0.009015089,0.12613459,-0.026522435,-0.012142117,-0.06764009,-2.2499723,0.0,9.88842,0.07394085,0.41654563,0.23255166,0.19294369,0.10277183,inf,inf,inf,inf,1,1,1,1,2,0,2,2,1,1,0
3799160000,1684000,47.3977508,8.5456074,-11.462028,-15.06168,-9.805416,-0.022669492,-0.0033747193,0.0,-2.590128,-3.3311794,-0.07336289,-0.044748295,-0.05914641,-0.009015089,0.12613459,-0.029526882,0.048658576,0.04145689,-2.2488875,0.0,9.892618,0.07336289,0.4300578,0.23278631,0.19886649,0.10325476,inf,inf,inf,inf,1,1,1,1,2,0,2,2,1,1,0
3799256000,1684000,47.3977508,8.5456074,-11.714824,-15.388872,-9.809258,-0.022669492,-0.0033747193,0.0,-2.594544,-3.3356166,-0.07201332,-0.04314113,-0.05914641,-0.009015089,0.12613459,-0.07865694,-0.050440196,0.037378628,-2.247768,0.0,9.896461,0.07201332,0.41642654,0.23269245,0.19288659,0.10295698,inf,inf,inf,inf,1,1,1,1,2,0,2,2,1,1,0
3799360000,1684000,47.3977508,8.5456074,-11.989019,-15.743654,-9.8132715,-0.022669492,-0.0033747193,0.0,-2.597123,-3.3434684,-0.0724621,-0.043301005,-0.05914641,-0.009015089,0.12613459,-0.023263505,0.008586793,-0.004525296,-2.246848,0.0,9.900474,0.0724621,0.42999288,0.2329479,0.19872777,0.10344498,inf,inf,inf,inf,1,1,1,1,2,0,2,2,1,1,0
3799456000,1684000,47.3977508,8.5456074,-12.242136,-16.07215,-9.81694,-0.022669492,-0.0033747193,0.0,-2.5997999,-3.3507876,-0.07209369,-0.04265353,-0.05914641,-0.009015089,0.12613459,0.028651671,-0.0030521767,-0.026165506,-2.245821,0.0,9.904142,0.07209369,0.41636732,0.23286963,0.19265136,0.10314783,inf,inf,inf,inf,1,1,1,1,2,0,2,2,1,1,0
3799560000,1684000,47.3977508,8.5456074,-12.516168,-16.42797,-9.820347,-0.022669492,-0.0033747193,0.0,-2.6018658,-3.357858,-0.07145277,-0.041313063,-0.05914641,-0.009015089,0.12613459,0.041881807,0.018673481,0.03584381,-2.2447495,0.0,9.907549,0.07145277,0.4299795,0.23312737,0.19842008,0.103629604,inf,inf,inf,inf,1,1,1,1,2,0,2,2,1,1,0
3799656000,1684000,47.3977508,8.5456074,-12.770009,-16.757812,-9.825156,-0.022669492,-0.0033747193,0.0,-2.6049974,-3.3608973,-0.07253438,-0.043274745,-0.05914641,-0.009015089,0.12613459,-0.044331882,0.058430012,0.027487053,-2.2435348,0.0,9.912358,0.07253438,0.41635352,0.2330467,0.19228947,0.10332151,inf,inf,inf,inf,1,1,1,1,2,0,2,2,1,1,0
