timestamp,q[0],q[1],q[2],q[3],delta_q_reset[0],delta_q_reset[1],delta_q_reset[2],delta_q_reset[3],quat_reset_counter
3782264000,-0.97716725,0.0019499022,-0.00018249902,-0.21246277,-0.9999999,0.0,-8.1490736e-10,-0.00046835846,6
3782312000,-0.9771561,0.0019459741,-0.00022439225,-0.21251391,-0.9999999,0.0,-8.1490736e-10,-0.00046835846,6
3782368000,-0.97716135,0.0019972618,-0.00025332006,-0.21248941,-0.9999999,0.0,-8.1490736e-10,-0.00046835846,6
3782416000,-0.9771562,0.0020153134,-0.00021577158,-0.21251258,-0.9999999,0.0,-8.1490736e-10,-0.00046835846,6
3782468000,-0.9771525,0.0020216457,-0.0001777801,-0.21252945,-0.9999999,0.0,-8.1490736e-10,-0.00046835846,6
3782520000,-0.9771447,0.0020387035,-0.00019934829,-0.21256523,-0.9999999,0.0,-8.1490736e-10,-0.00046835846,6
3782572000,-0.9771459,0.002016644,-0.00022250897,-0.21256007,-0.9999999,0.0,-8.1490736e-10,-0.00046835846,6
3782624000,-0.97714865,0.0020487008,-0.00020176599,-0.21254735,-0.9999999,0.0,-8.1490736e-10,-0.00046835846,6
3782676000,-0.9771483,0.002028452,-0.00020234844,-0.21254921,-0.9999999,0.0,-8.1490736e-10,-0.00046835846,6
3782728000,-0.9771488,0.0020660602,-0.00024732715,-0.21254672,-0.9999999,0.0,-8.1490736e-10,-0.00046835846,6
3782780000,-0.9771344,0.0020652898,-0.00022630673,-0.21261247,-0.9999999,0.0,-8.1490736e-10,-0.00046835846,6
3782836000,-0.97714204,0.002025986,-0.00015129095,-0.21257775,-0.9999999,0.0,-8.1490736e-10,-0.00046835846,6
3782884000,-0.97714376,0.002027563,-0.00017652244,-0.2125698,-0.9999999,0.0,-8.1490736e-10,-0.00046835846,6
3782936000,-0.9771424,0.0019522083,-0.00015101515,-0.2125768,-0.9999999,0.0,-8.1490736e-10,-0.00046835846,6
3782988000,-0.97714925,0.0019136551,-0.00010389852,-0.21254618,-0.9999999,0.0,-8.1490736e-10,-0.00046835846,6
3783040000,-0.97714794,0.0019533683,-0.00016844772,-0.21255177,-0.9999999,0.0,-8.1490736e-10,-0.00046835846,6
3783096000,-0.97715056,0.001898073,-0.00018948347,-0.21254025,-0.9999999,0.0,-8.1490736e-10,-0.00046835846,6
3783144000,-0.9771409,0.0018507986,-0.0001557751,-0.21258467,-0.9999999,0.0,-8.1490736e-10,-0.00046835846,6
3783196000,-0.977134,0.0018466132,-0.00015263323,-0.21261646,-0.9999999,0.0,-8.1490736e-10,-0.00046835846,6
3783248000,-0.9771321,0.0017950832,-9.734111e-05,-0.21262565,-0.9999999,0.0,-8.1490736e-10,-0.00046835846,6
3783300000,-0.97712374,0.0017514019,-0.00013337017,-0.21266446,-0.9999999,0.0,-8.1490736e-10,-0.00046835846,6
3783352000,-0.9771131,0.0017794648,-4.0534705e-05,-0.21271302,-0.9999999,0.0,-8.1490736e-10,-0.00046835846,6
3783408000,-0.97710896,0.0017988168,-1.0870395e-05,-0.21273193,-0.9999999,0.0,-8.1490736e-10,-0.00046835846,6
3783456000,-0.977119,0.0017226872,-8.4720756e-05,-0.21268637,-0.9999999,0.0,-8.1490736e-10,-0.00046835846,6
3783508000,-0.977106,0.0017616104,3.7382877e-05,-0.21274626,-0.9999999,0.0,-8.1490736e-10,-0.00046835846,6
3783560000,-0.9770996,0.0018085508,6.1482635e-05,-0.21277504,-0.9999999,0.0,-8.1490736e-10,-0.00046835846,6
3783612000,-0.97710013,0.001806873,2.5528168e-05,-0.21277273,-0.9999999,0.0,-8.1490736e-10,-0.00046835846,6
3783668000,-0.9770964,0.0018397851,2.385301e-05,-0.21278928,-0.9999999,0.0,-8.1490736e-10,-0.00046835846,6
3783716000,-0.9770858,0.0017895232,9.293503e-05,-0.21283852,-0.9999999,0.0,-8.1490736e-10,-0.00046835846,6
3783772000,-0.9771063,0.001803138,0.00013233071,-0.21274433,-0.9999999,0.0,-8.1490736e-10,-0.00046835846,6
3783824000,-0.9771203,0.0017765893,0.00012631773,-0.21268031,-0.9999999,0.0,-8.1490736e-10,-0.00046835846,6
3783872000,-0.97713155,0.001701572,0.00018803537,-0.21262851,-0.9999999,0.0,-8.1490736e-10,-0.00046835846,6
3783928000,-0.9771217,0.0016922985,0.00021434193,-0.2126745,-0.9999999,0.0,-8.1490736e-10,-0.00046835846,6
3783976000,-0.9771256,0.0016782436,0.00027807782,-0.21265638,-0.9999999,0.0,-8.1490736e-10,-0.00046835846,6
3784032000,-0.9771251,0.0017004539,0.0002725305,-0.21265823,-0.9999999,0.0,-8.1490736e-10,-0.00046835846,6
3784080000,-0.97711784,0.0013037183,0.0006416595,-0.21269406,-0.9999999,0.0,-8.1490736e-10,-0.00046835846,6
3784132000,-0.9771216,-0.0016996693,0.0031559407,-0.21265176,-0.9999999,0.0,-8.1490736e-10,-0.00046835846,6
3784184000,-0.9771235,-0.0055684987,0.00613202,-0.2125116,-0.9999999,0.0,-8.1490736e-10,-0.00046835846,6
3784240000,-0.9771064,-0.00768163,0.007951641,-0.21246426,-0.9999999,0.0,-8.1490736e-10,-0.00046835846,6
3784288000,-0.9771032,-0.008167291,0.008377174,-0.21244411,-0.9999999,0.0,-8.1490736e-10,-0.00046835846,6
3784340000,-0.97712016,-0.0075960606,0.007845415,-0.21240768,-0.9999999,0.0,-8.1490736e-10,-0.00046835846,6
3784392000,-0.97714657,-0.0065164506,0.0067932447,-0.21235877,-0.9999999,0.0,-8.1490736e-10,-0.00046835846,6
3784444000,-0.97716874,-0.0050903223,0.005780644,-0.21232508,-0.9999999,0.0,-8.1490736e-10,-0.00046835846,6
3784496000,-0.97718763,-0.0037398313,0.0047030896,-0.21229303,-0.9999999,0.0,-8.1490736e-10,-0.00046835846,6
3784548000,-0.9772055,-0.0027339442,0.0037642885,-0.21224445,-0.9999999,0.0,-8.1490736e-10,-0.00046835846,6
3784600000,-0.97720635,-0.0020317691,0.0029874987,-0.21226119,-0.9999999,0.0,-8.1490736e-10,-0.00046835846,6
3784656000,-0.9772095,-0.0014748836,0.002428182,-0.21225846,-0.9999999,0.0,-8.1490736e-10,-0.00046835846,6
3784704000,-0.9772232,-0.0011479006,0.0021571394,-0.21219985,-0.9999999,0.0,-8.1490736e-10,-0.00046835846,6
3784760000,-0.9772168,-0.00082205865,0.001959162,-0.212233,-0.9999999,0.0,-8.1490736e-10,-0.00046835846,6
3784808000,-0.97722316,-0.0006585892,0.001871182,-0.21220498,-0.9999999,0.0,-8.1490736e-10,-0.00046835846,6
3784860000,-0.97722876,-0.00060524495,0.0017731903,-0.21218029,-0.9999999,0.0,-8.1490736e-10,-0.00046835846,6
3784912000,-0.97723955,-0.00064581755,0.001609865,-0.21213189,-0.9999999,0.0,-8.1490736e-10,-0.00046835846,6
3784968000,-0.97725254,-0.0005531194,0.001520472,-0.21207309,-0.9999999,0.0,-8.1490736e-10,-0.00046835846,6
3785016000,-0.97725993,-0.00046832731,0.0014736686,-0.21203962,-0.9999999,0.0,-8.1490736e-10,-0.00046835846,6
3785068000,-0.97725916,-0.0004364413,0.0013180741,-0.2120443,-0.9999999,0.0,-8.1490736e-10,-0.00046835846,6
3785124000,-0.9772506,-0.00048525215,0.0011687608,-0.21208428,-0.9999999,0.0,-8.1490736e-10,-0.00046835846,6
3785172000,-0.97724956,-0.0004453101,0.0011777768,-0.21208914,-0.9999999,0.0,-8.1490736e-10,-0.00046835846,6
3785224000,-0.97725606,-0.00055278343,0.0011874854,-0.21205908,-0.9999999,0.0,-8.1490736e-10,-0.00046835846,6
3785276000,-0.9772499,-0.0005627085,0.0010828164,-0.21208769,-0.9999999,0.0,-8.1490736e-10,-0.00046835846,6
3785328000,-0.97725457,-0.000547456,0.0009595267,-0.21206692,-0.9999999,0.0,-8.1490736e-10,-0.00046835846,6
3785380000,-0.9772674,-0.0005446583,0.000886002,-0.21200824,-0.9999999,0.0,-8.1490736e-10,-0.00046835846,6
3785432000,-0.9772596,-0.00049597025,0.0008651279,-0.21204409,-0.9999999,0.0,-8.1490736e-10,-0.00046835846,6
3785484000,-0.9772387,-0.0006140531,0.00082593854,-0.21214025,-0.9999999,0.0,-8.1490736e-10,-0.00046835846,6
3785536000,-0.97724545,-0.0008037673,0.00069308456,-0.21210925,-0.9999999,0.0,-8.1490736e-10,-0.00046835846,6
3785588000,-0.9772466,-0.0008671521,0.00065436563,-0.21210366,-0.9999999,0.0,-8.1490736e-10,-0.00046835846,6
3785640000,-0.9772481,-0.00078994327,0.000727119,-0.21209681,-0.9999999,0.0,-8.1490736e-10,-0.00046835846,6
3785696000,-0.9772582,-0.0004893241,0.00056686887,-0.21205185,-0.9999999,0.0,-8.1490736e-10,-0.00046835846,6
3785744000,0.9789673,0.00013948992,-0.0004505562,0.20401654,-0.9999661,-7.2759576e-11,7.2759576e-11,0.0082383305,7
3785796000,0.9789121,0.000119448094,-0.00047727136,0.20428135,-0.9999661,-7.2759576e-11,7.2759576e-11,0.0082383305,7
3785848000,0.9787454,-3.1716583e-05,-0.00034312156,0.20507923,-0.9999661,-7.2759576e-11,7.2759576e-11,0.0082383305,7
3785904000,0.9784785,-0.00017774994,-0.00044825836,0.20634808,-0.9999661,-7.2759576e-11,7.2759576e-11,0.0082383305,7
3785956000,0.97822714,-0.00017868435,-0.00063839694,0.20753638,-0.9999661,-7.2759576e-11,7.2759576e-11,0.0082383305,7
3786004000,0.978014,-0.00027314463,-0.00076882035,0.20853764,-0.9999661,-7.2759576e-11,7.2759576e-11,0.0082383305,7
3786056000,0.97782564,-0.00022550857,-0.00070348807,0.20941974,-0.9999661,-7.2759576e-11,7.2759576e-11,0.0082383305,7
3786108000,0.9776574,-0.00016122557,-0.0006810391,0.2102039,-0.9999661,-7.2759576e-11,7.2759576e-11,0.0082383305,7
3786160000,0.97752,-0.0003460447,-0.0007668499,0.21084112,-0.9999661,-7.2759576e-11,7.2759576e-11,0.0082383305,7
3786212000,0.97740597,-0.0005963908,-0.0007583379,0.21136837,-0.9999661,-7.2759576e-11,7.2759576e-11,0.0082383305,7
3786268000,0.9773176,-0.00095257204,-0.0007841392,0.21177582,-0.9999661,-7.2759576e-11,7.2759576e-11,0.0082383305,7
3786320000,0.9772673,-0.00091801625,-0.00072774314,0.2120076,-0.9999661,-7.2759576e-11,7.2759576e-11,0.0082383305,7
3786368000,0.9772361,-0.0009778176,-0.0007444439,0.21215124,-0.9999661,-7.2759576e-11,7.2759576e-11,0.0082383305,7
3786420000,0.9772267,-0.0008646066,-0.0007491415,0.2121952,-0.9999661,-7.2759576e-11,7.2759576e-11,0.0082383305,7
3786476000,0.9772089,-0.0007476436,-0.0008448343,0.21227722,-0.9999661,-7.2759576e-11,7.2759576e-11,0.0082383305,7
3786528000,0.9772052,-0.00069629325,-0.0009783201,0.21229368,-0.9999661,-7.2759576e-11,7.2759576e-11,0.0082383305,7
3786576000,0.97719675,-0.00077648635,-0.0011388228,0.21233143,-0.9999661,-7.2759576e-11,7.2759576e-11,0.0082383305,7
3786628000,0.9771834,-0.00075758685,-0.0011004487,0.21239296,-0.9999661,-7.2759576e-11,7.2759576e-11,0.0082383305,7
3786680000,0.97716904,-0.00080313993,-0.0011929137,0.21245869,-0.9999661,-7.2759576e-11,7.2759576e-11,0.0082383305,7
3786732000,0.9771606,-0.0008260176,-0.001266182,0.21249722,-0.9999661,-7.2759576e-11,7.2759576e-11,0.0082383305,7
3786784000,0.97715735,-0.0009804711,-0.0012975427,0.21251087,-0.9999661,-7.2759576e-11,7.2759576e-11,0.0082383305,7
3786836000,0.9771355,-0.0011543813,-0.0010959909,0.21261188,-0.9999661,-7.2759576e-11,7.2759576e-11,0.0082383305,7
3786888000,0.97712725,-0.0011038737,-0.00092236587,0.21265109,-0.9999661,-7.2759576e-11,7.2759576e-11,0.0082383305,7
3786940000,0.97710556,-0.00090122985,-0.00062278693,0.21275237,-0.9999661,-7.2759576e-11,7.2759576e-11,0.0082383305,7
3786996000,0.97708523,-0.0007559846,-0.0005965341,0.21284637,-0.9999661,-7.2759576e-11,7.2759576e-11,0.0082383305,7
3787044000,0.9770924,-0.00069227547,-0.0004999361,0.21281436,-0.9999661,-7.2759576e-11,7.2759576e-11,0.0082383305,7
3787096000,0.9770852,-0.00079375075,-0.00029248124,0.21284723,-0.9999661,-7.2759576e-11,7.2759576e-11,0.0082383305,7
3787148000,0.9770855,-0.0009918077,-0.00015563525,0.21284498,-0.9999661,-7.2759576e-11,7.2759576e-11,0.0082383305,7
3787200000,0.97707283,-0.0010253739,-0.00013285597,0.21290305,-0.9999661,-7.2759576e-11,7.2759576e-11,0.0082383305,7
3787252000,0.9770699,-0.0011874766,-0.00019284672,0.21291511,-0.9999661,-7.2759576e-11,7.2759576e-11,0.0082383305,7
3787304000,0.9770648,-0.0013000945,-0.00047985255,0.21293819,-0.9999661,-7.2759576e-11,7.2759576e-11,0.0082383305,7
3787356000,0.977062,-0.0012422493,-0.00069023285,0.21295041,-0.9999661,-7.2759576e-11,7.2759576e-11,0.0082383305,7
3787408000,0.9770738,-0.0011254569,-0.00097454595,0.21289624,-0.9999661,-7.2759576e-11,7.2759576e-11,0.0082383305,7
3787464000,0.97708404,-0.0010579727,-0.0010288727,0.21284904,-0.9999661,-7.2759576e-11,7.2759576e-11,0.0082383305,7
3787512000,0.9770953,-0.0010406665,-0.00094998174,0.2127976,-0.9999661,-7.2759576e-11,7.2759576e-11,0.0082383305,7
3787568000,0.9771177,-0.0011508344,-0.0007927227,0.21269453,-0.9999661,-7.2759576e-11,7.2759576e-11,0.0082383305,7
3787616000,0.9771227,-0.001223553,-0.0005316466,0.21267194,-0.9999661,-7.2759576e-11,7.2759576e-11,0.0082383305,7
3787668000,0.9771508,-0.0012313314,-0.00029489634,0.21254373,-0.9999661,-7.2759576e-11,7.2759576e-11,0.0082383305,7
3787720000,0.977148,-0.0013015842,6.583509e-06,0.21255624,-0.9999661,-7.2759576e-11,7.2759576e-11,0.0082383305,7
3787772000,0.9771428,-0.0013676368,0.00012760606,0.21257965,-0.9999661,-7.2759576e-11,7.2759576e-11,0.0082383305,7
3787824000,0.9771361,-0.0016352655,3.8117916e-05,0.21260878,-0.9999661,-7.2759576e-11,7.2759576e-11,0.0082383305,7
3787880000,0.97713363,-0.0016876815,-0.00020654501,0.2126198,-0.9999661,-7.2759576e-11,7.2759576e-11,0.0082383305,7
3787932000,0.9771408,-0.0014607791,-0.00014382257,0.21258818,-0.9999661,-7.2759576e-11,7.2759576e-11,0.0082383305,7
3787980000,0.97715807,-0.0013058265,5.224778e-05,0.21250966,-0.9999661,-7.2759576e-11,7.2759576e-11,0.0082383305,7
3788036000,0.97714007,-0.0012975504,0.00017806572,0.21259247,-0.9999661,-7.2759576e-11,7.2759576e-11,0.0082383305,7
3788084000,0.97713274,-0.0013953425,0.00014645465,0.21262585,-0.9999661,-7.2759576e-11,7.2759576e-11,0.0082383305,7
3788140000,0.9771401,-0.0015683721,4.8889397e-05,0.21259087,-0.9999661,-7.2759576e-11,7.2759576e-11,0.0082383305,7
3788188000,0.97714406,-0.001955352,-8.860429e-05,0.21256924,-0.9999661,-7.2759576e-11,7.2759576e-11,0.0082383305,7
3788244000,0.97713864,-0.0023785746,-0.00010181153,0.21259008,-0.9999661,-7.2759576e-11,7.2759576e-11,0.0082383305,7
3788292000,0.97713387,-0.0026324228,0.00014234893,0.21260895,-0.9999661,-7.2759576e-11,7.2759576e-11,0.0082383305,7
3788348000,0.9771322,-0.002749322,0.0005667941,0.21261448,-0.9999661,-7.2759576e-11,7.2759576e-11,0.0082383305,7
3788400000,0.9771417,-0.002891896,0.0007631404,0.21256812,-0.9999661,-7.2759576e-11,7.2759576e-11,0.0082383305,7
3788448000,0.9771674,-0.0029809743,0.00086074695,0.21244822,-0.9999661,-7.2759576e-11,7.2759576e-11,0.0082383305,7
3788500000,0.9771583,-0.0030204037,0.000990386,0.21248908,-0.9999661,-7.2759576e-11,7.2759576e-11,0.0082383305,7
3788552000,0.9771547,-0.0031407308,0.0010894072,0.21250379,-0.9999661,-7.2759576e-11,7.2759576e-11,0.0082383305,7
3788608000,0.97714883,-0.00322119,0.0010208978,0.21252951,-0.9999661,-7.2759576e-11,7.2759576e-11,0.0082383305,7
3788656000,0.97715956,-0.0033304186,0.0009209999,0.21247908,-0.9999661,-7.2759576e-11,7.2759576e-11,0.0082383305,7
3788708000,0.97715044,-0.0031894487,0.00091034063,0.2125232,-0.9999661,-7.2759576e-11,7.2759576e-11,0.0082383305,7
3788760000,0.9771389,-0.0028982216,0.0010320237,0.2125801,-0.9999661,-7.2759576e-11,7.2759576e-11,0.0082383305,7
3788812000,0.9771279,-0.0027638194,0.0010429359,0.21263188,-0.9999661,-7.2759576e-11,7.2759576e-11,0.0082383305,7
3788864000,0.97712004,-0.0027844654,0.0010369543,0.21266788,-0.9999661,-7.2759576e-11,7.2759576e-11,0.0082383305,7
3788916000,0.9771303,-0.0028072975,0.00089625426,0.2126214,-0.9999661,-7.2759576e-11,7.2759576e-11,0.0082383305,7
3788968000,0.9771399,-0.002886219,0.0008554786,0.21257624,-0.9999661,-7.2759576e-11,7.2759576e-11,0.0082383305,7
3789020000,0.9771419,-0.0031784798,0.0007635221,0.21256329,-0.9999661,-7.2759576e-11,7.2759576e-11,0.0082383305,7
3789072000,0.97716606,-0.0034399,0.00069936836,0.21244836,-0.9999661,-7.2759576e-11,7.2759576e-11,0.0082383305,7
3789124000,0.9771694,-0.003430234,0.00049774424,0.21243389,-0.9999661,-7.2759576e-11,7.2759576e-11,0.0082383305,7
3789176000,0.97715926,-0.0035598578,0.00047833438,0.21247792,-0.9999661,-7.2759576e-11,7.2759576e-11,0.0082383305,7
3789228000,0.9771704,-0.0037018524,0.00025821367,0.21242484,-0.9999661,-7.2759576e-11,7.2759576e-11,0.0082383305,7
3789280000,0.9771759,-0.0038113594,5.4194647e-05,0.21239768,-0.9999661,-7.2759576e-11,7.2759576e-11,0.0082383305,7
3789332000,0.97717303,-0.0038642704,5.7808298e-05,0.21240973,-0.9999661,-7.2759576e-11,7.2759576e-11,0.0082383305,7
3789384000,0.9771743,-0.0040364834,0.000105760446,0.21240102,-0.9999661,-7.2759576e-11,7.2759576e-11,0.0082383305,7
3789440000,0.97718185,-0.0041173995,0.00029817206,0.21236493,-0.9999661,-7.2759576e-11,7.2759576e-11,0.0082383305,7
3789488000,0.97718894,-0.004101874,0.00056124135,0.21233141,-0.9999661,-7.2759576e-11,7.2759576e-11,0.0082383305,7
3789540000,0.97720814,-0.0040975045,0.00060402893,0.21224304,-0.9999661,-7.2759576e-11,7.2759576e-11,0.0082383305,7
3789596000,0.97721034,-0.00397646,0.0005591688,0.21223572,-0.9999661,-7.2759576e-11,7.2759576e-11,0.0082383305,7
3789644000,0.9772014,-0.003842409,0.0006300034,0.21227899,-0.9999661,-7.2759576e-11,7.2759576e-11,0.0082383305,7
3789700000,0.9771949,-0.0038207714,0.00043623315,0.2123095,-0.9999661,-7.2759576e-11,7.2759576e-11,0.0082383305,7
3789748000,0.97719395,-0.003845365,8.855258e-05,0.212314,-0.9999661,-7.2759576e-11,7.2759576e-11,0.0082383305,7
3789800000,0.9771821,-0.0039176648,-4.005856e-05,0.21236728,-0.9999661,-7.2759576e-11,7.2759576e-11,0.0082383305,7
3789852000,0.9771953,-0.0037990438,4.7478232e-05,0.21230866,-0.9999661,-7.2759576e-11,7.2759576e-11,0.0082383305,7
3789904000,0.97721606,-0.0037154702,-7.0433816e-05,0.2122147,-0.9999661,-7.2759576e-11,7.2759576e-11,0.0082383305,7
3789956000,0.97722167,-0.0034262273,-0.00018962308,0.21219337,-0.9999661,-7.2759576e-11,7.2759576e-11,0.0082383305,7
3790008000,0.9772014,-0.0031878846,-0.00031002908,0.21229045,-0.9999661,-7.2759576e-11,7.2759576e-11,0.0082383305,7
3790064000,0.97720265,-0.0028753625,-0.00038835555,0.21228898,-0.9999661,-7.2759576e-11,7.2759576e-11,0.0082383305,7
3790116000,0.9772001,-0.0027978339,-0.00034857416,0.21230231,-0.9999661,-7.2759576e-11,7.2759576e-11,0.0082383305,7
3790164000,0.9771965,-0.0028376235,-0.0002299374,0.21231814,-0.9999661,-7.2759576e-11,7.2759576e-11,0.0082383305,7
3790216000,0.97719204,-0.002821621,-0.00020527426,0.21233867,-0.9999661,-7.2759576e-11,7.2759576e-11,0.0082383305,7
3790268000,0.9771908,-0.002954112,-0.00044786392,0.21234259,-0.9999661,-7.2759576e-11,7.2759576e-11,0.0082383305,7
3790320000,0.97719944,-0.0029277198,-0.00047783143,0.21230312,-0.9999661,-7.2759576e-11,7.2759576e-11,0.0082383305,7
3790372000,0.9772069,-0.002812108,-0.0001841424,0.21227026,-0.9999661,-7.2759576e-11,7.2759576e-11,0.0082383305,7
3790424000,0.97719306,-0.0028245063,-1.3369934e-05,0.21233407,-0.9999661,-7.2759576e-11,7.2759576e-11,0.0082383305,7
3790476000,0.9771846,-0.002789817,0.00012940583,0.21237354,-0.9999661,-7.2759576e-11,7.2759576e-11,0.0082383305,7
3790528000,0.9771961,-0.0026909902,0.00017998464,0.21232218,-0.9999661,-7.2759576e-11,7.2759576e-11,0.0082383305,7
3790580000,0.97719324,-0.0026434541,0.00041282945,0.21233556,-0.9999661,-7.2759576e-11,7.2759576e-11,0.0082383305,7
3790632000,0.9772006,-0.002677194,0.00045417462,0.21230075,-0.9999661,-7.2759576e-11,7.2759576e-11,0.0082383305,7
3790684000,0.9772108,-0.0027433808,0.0005008856,0.2122527,-0.9999661,-7.2759576e-11,7.2759576e-11,0.0082383305,7
3790736000,0.977224,-0.002779802,0.00057076087,0.21219172,-0.9999661,-7.2759576e-11,7.2759576e-11,0.0082383305,7
3790788000,0.9772253,-0.002936232,0.00044642572,0.2121839,-0.9999661,-7.2759576e-11,7.2759576e-11,0.0082383305,7
3790844000,0.97721255,-0.0030591637,0.00039116447,0.21224064,-0.9999661,-7.2759576e-11,7.2759576e-11,0.0082383305,7
3790892000,0.9772145,-0.0032306483,0.00029670296,0.21222982,-0.9999661,-7.2759576e-11,7.2759576e-11,0.0082383305,7
3790944000,0.97722024,-0.003352822,-3.4980432e-05,0.21220142,-0.9999661,-7.2759576e-11,7.2759576e-11,0.0082383305,7
3790996000,0.9772298,-0.0034828836,-0.000106538515,0.21215503,-0.9999661,-7.2759576e-11,7.2759576e-11,0.0082383305,7
3791048000,0.9772428,-0.0033989653,8.2192346e-05,0.21209675,-0.9999661,-7.2759576e-11,7.2759576e-11,0.0082383305,7
3791100000,0.97723913,-0.0033041611,0.00018687459,0.212115,-0.9999661,-7.2759576e-11,7.2759576e-11,0.0082383305,7
3791152000,0.9772377,-0.0029905757,0.00019870742,0.21212597,-0.9999661,-7.2759576e-11,7.2759576e-11,0.0082383305,7
3791208000,0.9772297,-0.0028005955,0.00024564462,0.21216553,-0.9999661,-7.2759576e-11,7.2759576e-11,0.0082383305,7
3791256000,0.9772344,-0.0027899607,0.0002573796,0.21214372,-0.9999661,-7.2759576e-11,7.2759576e-11,0.0082383305,7
3791308000,0.9772417,-0.0027346888,0.00011690826,0.21211137,-0.9999661,-7.2759576e-11,7.2759576e-11,0.0082383305,7
3791364000,0.9772602,-0.0026660073,7.266362e-05,0.21202746,-0.9999661,-7.2759576e-11,7.2759576e-11,0.0082383305,7
3791412000,0.9772665,-0.002713572,-4.8863794e-06,0.21199736,-0.9999661,-7.2759576e-11,7.2759576e-11,0.0082383305,7
3791464000,0.9772575,-0.0028063855,-4.0737687e-05,0.21203758,-0.9999661,-7.2759576e-11,7.2759576e-11,0.0082383305,7
3791516000,0.9772623,-0.0028156165,-0.00014410003,0.21201515,-0.9999661,-7.2759576e-11,7.2759576e-11,0.0082383305,7
3791568000,0.9772713,-0.0028833356,-0.0002669179,0.2119726,-0.9999661,-7.2759576e-11,7.2759576e-11,0.0082383305,7
3791624000,0.9772722,-0.0030036492,-0.00023011856,0.21196693,-0.9999661,-7.2759576e-11,7.2759576e-11,0.0082383305,7
3791672000,0.9772553,-0.0030366753,-7.8941266e-05,0.21204478,-0.9999661,-7.2759576e-11,7.2759576e-11,0.0082383305,7
3791728000,0.9772267,-0.0030441754,-0.00023124815,0.21217626,-0.9999661,-7.2759576e-11,7.2759576e-11,0.0082383305,7
3791780000,0.97721076,-0.0029709789,-0.00039508342,0.21225041,-0.9999661,-7.2759576e-11,7.2759576e-11,0.0082383305,7
3791828000,0.9772013,-0.0028281163,-0.00041133742,0.21229585,-0.9999661,-7.2759576e-11,7.2759576e-11,0.0082383305,7
3791884000,0.9771936,-0.0025749756,-0.00015406053,0.21233504,-0.9999661,-7.2759576e-11,7.2759576e-11,0.0082383305,7
3791932000,0.9771953,-0.0025179014,9.753271e-05,0.21232788,-0.9999661,-7.2759576e-11,7.2759576e-11,0.0082383305,7
3791984000,0.97720915,-0.0024713601,0.00018487452,0.2122645,-0.9999661,-7.2759576e-11,7.2759576e-11,0.0082383305,7
3792036000,0.97719735,-0.002506771,0.00017719144,0.21231864,-0.9999661,-7.2759576e-11,7.2759576e-11,0.0082383305,7
3792088000,0.97720987,-0.0024040078,0.00012929225,0.21226226,-0.9999661,-7.2759576e-11,7.2759576e-11,0.0082383305,7
3792140000,0.97719735,-0.002342251,8.612321e-05,0.21232037,-0.9999661,-7.2759576e-11,7.2759576e-11,0.0082383305,7
3792192000,0.9772069,-0.0020895367,1.5405776e-05,0.21227933,-0.9999661,-7.2759576e-11,7.2759576e-11,0.0082383305,7
3792244000,0.97722024,-0.0018228018,8.1287355e-05,0.21221994,-0.9999661,-7.2759576e-11,7.2759576e-11,0.0082383305,7
3792300000,0.97722167,-0.0015938977,0.00012474395,0.21221498,-0.9999661,-7.2759576e-11,7.2759576e-11,0.0082383305,7
3792348000,0.977219,-0.0017027298,0.00031168753,0.21222647,-0.9999661,-7.2759576e-11,7.2759576e-11,0.0082383305,7
3792400000,0.9772242,-0.0018425618,0.000712788,0.21220046,-0.9999661,-7.2759576e-11,7.2759576e-11,0.0082383305,7
3792452000,0.97722155,-0.0018497832,0.0007814896,0.21221234,-0.9999661,-7.2759576e-11,7.2759576e-11,0.0082383305,7
3792504000,0.97723997,-0.0017224012,0.00068165705,0.21212907,-0.9999661,-7.2759576e-11,7.2759576e-11,0.0082383305,7
3792556000,0.9772441,-0.0017321112,0.00048474965,0.2121104,-0.9999661,-7.2759576e-11,7.2759576e-11,0.0082383305,7
3792608000,0.97724944,-0.001413469,0.0003443293,0.21208796,-0.9999661,-7.2759576e-11,7.2759576e-11,0.0082383305,7
3792660000,0.97723323,-0.0012220874,0.00037763958,0.21216445,-0.9999661,-7.2759576e-11,7.2759576e-11,0.0082383305,7
3792712000,0.97723174,-0.0013087929,0.00049473596,0.21217059,-0.9999661,-7.2759576e-11,7.2759576e-11,0.0082383305,7
3792764000,0.97722214,-0.0012844907,0.00066641613,0.2122142,-0.9999661,-7.2759576e-11,7.2759576e-11,0.0082383305,7
3792816000,0.97722,-0.0011858013,0.000501218,0.212225,-0.9999661,-7.2759576e-11,7.2759576e-11,0.0082383305,7
3792868000,0.9772355,-0.0007739614,0.00037989588,0.2121563,-0.9999661,-7.2759576e-11,7.2759576e-11,0.0082383305,7
3792920000,0.9772433,-0.0005174086,7.761746e-05,0.21212131,-0.9999661,-7.2759576e-11,7.2759576e-11,0.0082383305,7
3792972000,0.97723365,-0.0005572733,-0.00020498146,0.21216549,-0.9999661,-7.2759576e-11,7.2759576e-11,0.0082383305,7
3793024000,0.97724915,-0.00065225846,-0.00044259324,0.2120934,-0.9999661,-7.2759576e-11,7.2759576e-11,0.0082383305,7
3793076000,0.97726184,-0.00063766574,-0.00073138427,0.2120337,-0.9999661,-7.2759576e-11,7.2759576e-11,0.0082383305,7
3793128000,0.97726846,-0.0004571699,-0.000763169,0.21200398,-0.9999661,-7.2759576e-11,7.2759576e-11,0.0082383305,7
3793180000,0.97725695,-0.00044222182,-0.00082140265,0.21205695,-0.9999661,-7.2759576e-11,7.2759576e-11,0.0082383305,7
3793232000,0.97725064,-0.0004189431,-0.0010029157,0.21208479,-0.9999661,-7.2759576e-11,7.2759576e-11,0.0082383305,7
3793284000,0.9772498,-0.0004928025,-0.0014698588,0.21208595,-0.9999661,-7.2759576e-11,7.2759576e-11,0.0082383305,7
3793336000,0.9772536,-0.00056089746,-0.0018831623,0.21206507,-0.9999661,-7.2759576e-11,7.2759576e-11,0.0082383305,7
3793388000,0.97725075,-0.0006548303,-0.002376547,0.21207266,-0.9999661,-7.2759576e-11,7.2759576e-11,0.0082383305,7
3793440000,0.9773204,-0.00035647213,-0.0034440402,0.21173817,-0.9999661,-7.2759576e-11,7.2759576e-11,0.0082383305,7
3793492000,0.97764033,-0.0004976165,-0.0047528115,0.21022986,-0.9999661,-7.2759576e-11,7.2759576e-11,0.0082383305,7
3793544000,0.97834504,-0.0020519684,-0.00452543,0.20692126,-0.9999661,-7.2759576e-11,7.2759576e-11,0.0082383305,7
3793596000,0.97945005,-0.0057958313,-0.001400299,0.20159884,-0.9999661,-7.2759576e-11,7.2759576e-11,0.0082383305,7
3793648000,0.98087746,-0.011976521,0.0051546665,0.19418931,-0.9999661,-7.2759576e-11,7.2759576e-11,0.0082383305,7
3793700000,0.9824182,-0.020619927,0.015849495,0.18487325,-0.9999661,-7.2759576e-11,7.2759576e-11,0.0082383305,7
3793756000,0.98385096,-0.033188682,0.031650215,0.17301537,-0.9999661,-7.2759576e-11,7.2759576e-11,0.0082383305,7
3793804000,0.9846183,-0.0466044,0.047521345,0.16154473,-0.9999661,-7.2759576e-11,7.2759576e-11,0.0082383305,7
3793856000,0.98475796,-0.06364657,0.06542627,0.14805537,-0.9999661,-7.2759576e-11,7.2759576e-11,0.0082383305,7
3793908000,0.984184,-0.08181382,0.08229935,0.13384752,-0.9999661,-7.2759576e-11,7.2759576e-11,0.0082383305,7
3793960000,0.9830741,-0.0998269,0.097270004,0.118905686,-0.9999661,-7.2759576e-11,7.2759576e-11,0.0082383305,7
3794012000,0.98168427,-0.11657333,0.10953116,0.10348723,-0.9999661,-7.2759576e-11,7.2759576e-11,0.0082383305,7
3794064000,0.9803436,-0.1310523,0.11858948,0.087682866,-0.9999661,-7.2759576e-11,7.2759576e-11,0.0082383305,7
3794116000,0.9790448,-0.14394744,0.12514025,0.07134605,-0.9999661,-7.2759576e-11,7.2759576e-11,0.0082383305,7
3794168000,0.9778933,-0.15481701,0.12947924,0.05469508,-0.9999661,-7.2759576e-11,7.2759576e-11,0.0082383305,7
3794220000,0.97678643,-0.1643728,0.13210249,0.03766717,-0.9999661,-7.2759576e-11,7.2759576e-11,0.0082383305,7
3794272000,0.9756347,-0.1727842,0.13370307,0.020151133,-0.9999661,-7.2759576e-11,7.2759576e-11,0.0082383305,7
3794324000,0.97440463,-0.18024588,0.13432144,0.00220162,-0.9999661,-7.2759576e-11,7.2759576e-11,0.0082383305,7
3794376000,0.97290844,-0.1874658,0.13432707,-0.01618549,-0.9999661,-7.2759576e-11,7.2759576e-11,0.0082383305,7
3794432000,0.9708931,-0.19520877,0.13391678,-0.036420483,-0.9999661,-7.2759576e-11,7.2759576e-11,0.0082383305,7
3794484000,0.96872705,-0.20189966,0.13309325,-0.055594478,-0.9999661,-7.2759576e-11,7.2759576e-11,0.0082383305,7
3794532000,0.96646327,-0.20765932,0.1319531,-0.07358479,-0.9999661,-7.2759576e-11,7.2759576e-11,0.0082383305,7
3794584000,0.96373564,-0.21346006,0.13012712,-0.09335621,-0.9999661,-7.2759576e-11,7.2759576e-11,0.0082383305,7
3794636000,0.9606275,-0.2191485,0.12766989,-0.113442294,-0.9999661,-7.2759576e-11,7.2759576e-11,0.0082383305,7
3794688000,0.957059,-0.22468598,0.12508383,-0.13382201,-0.9999661,-7.2759576e-11,7.2759576e-11,0.0082383305,7
3794744000,0.95268893,-0.23071973,0.12177382,-0.15595956,-0.9999661,-7.2759576e-11,7.2759576e-11,0.0082383305,7
3794792000,0.94845587,-0.23599933,0.11858293,-0.17513959,-0.9999661,-7.2759576e-11,7.2759576e-11,0.0082383305,7
3794844000,0.9432664,-0.24191912,0.11505808,-0.19617714,-0.9999661,-7.2759576e-11,7.2759576e-11,0.0082383305,7
3794900000,0.9369234,-0.24883561,0.11102011,-0.21892932,-0.9999661,-7.2759576e-11,7.2759576e-11,0.0082383305,7
3794948000,0.9309167,-0.25468338,0.10753254,-0.2386781,-0.9999661,-7.2759576e-11,7.2759576e-11,0.0082383305,7
3795000000,0.92388093,-0.2609709,0.103364594,-0.26010418,-0.9999661,-7.2759576e-11,7.2759576e-11,0.0082383305,7
3795056000,0.9156006,-0.26763964,0.098695815,-0.28337932,-0.9999661,-7.2759576e-11,7.2759576e-11,0.0082383305,7
3795104000,0.90808535,-0.2728184,0.09442371,-0.3033731,-0.9999661,-7.2759576e-11,7.2759576e-11,0.0082383305,7
3795156000,0.8995212,-0.27776924,0.089744285,-0.32504135,-0.9999661,-7.2759576e-11,7.2759576e-11,0.0082383305,7
3795212000,0.88975394,-0.2823804,0.08493912,-0.3484029,-0.9999661,-7.2759576e-11,7.2759576e-11,0.0082383305,7
3795260000,0.8810693,-0.2853899,0.0809284,-0.36840224,-0.9999661,-7.2759576e-11,7.2759576e-11,0.0082383305,7
3795312000,0.8714748,-0.28759134,0.07631184,-0.38987106,-0.9999661,-7.2759576e-11,7.2759576e-11,0.0082383305,7
3795364000,0.8617767,-0.28854495,0.07107971,-0.41113305,-0.9999661,-7.2759576e-11,7.2759576e-11,0.0082383305,7
3795416000,0.852036,-0.28820953,0.06551186,-0.43206277,-0.9999661,-7.2759576e-11,7.2759576e-11,0.0082383305,7
3795468000,0.84231275,-0.28657115,0.059376612,-0.45261553,-0.9999661,-7.2759576e-11,7.2759576e-11,0.0082383305,7
3795520000,0.83251655,-0.28396946,0.05254262,-0.47277582,-0.9999661,-7.2759576e-11,7.2759576e-11,0.0082383305,7
3795576000,0.8218193,-0.28017348,0.044875257,-0.494067,-0.9999661,-7.2759576e-11,7.2759576e-11,0.0082383305,7
3795624000,0.8125646,-0.27637434,0.038068697,-0.5117682,-0.9999661,-7.2759576e-11,7.2759576e-11,0.0082383305,7
3795676000,0.80230653,-0.27201667,0.03054532,-0.53045094,-0.9999661,-7.2759576e-11,7.2759576e-11,0.0082383305,7
3795728000,0.79165137,-0.26806358,0.023081265,-0.54854095,-0.9999661,-7.2759576e-11,7.2759576e-11,0.0082383305,7
3795780000,0.7804128,-0.26509094,0.016076582,-0.5660602,-0.9999661,-7.2759576e-11,7.2759576e-11,0.0082383305,7
3795832000,0.7695282,-0.26348197,0.010105093,-0.5816371,-0.9999661,-7.2759576e-11,7.2759576e-11,0.0082383305,7
3795888000,0.7560515,-0.26290837,0.0035441313,-0.59937704,-0.9999661,-7.2759576e-11,7.2759576e-11,0.0082383305,7
3795940000,0.74301517,-0.26306704,-0.0024724626,-0.61540073,-0.9999661,-7.2759576e-11,7.2759576e-11,0.0082383305,7
3795988000,0.7307791,-0.26321942,-0.007955508,-0.6297731,-0.9999661,-7.2759576e-11,7.2759576e-11,0.0082383305,7
3796040000,0.71730685,-0.2634059,-0.013773426,-0.644902,-0.9999661,-7.2759576e-11,7.2759576e-11,0.0082383305,7
3796092000,0.7036551,-0.26329324,-0.019310428,-0.6596767,-0.9999661,-7.2759576e-11,7.2759576e-11,0.0082383305,7
3796144000,0.68989897,-0.26291737,-0.024650378,-0.6740225,-0.9999661,-7.2759576e-11,7.2759576e-11,0.0082383305,7
3796196000,0.67601174,-0.2625459,-0.030011242,-0.6878787,-0.9999661,-7.2759576e-11,7.2759576e-11,0.0082383305,7
3796248000,0.6620209,-0.26183417,-0.03522089,-0.70137775,-0.9999661,-7.2759576e-11,7.2759576e-11,0.0082383305,7
3796300000,0.6479936,-0.2609798,-0.04032021,-0.7144006,-0.9999661,-7.2759576e-11,7.2759576e-11,0.0082383305,7
3796352000,0.6337818,-0.26014107,-0.045429096,-0.7270375,-0.9999661,-7.2759576e-11,7.2759576e-11,0.0082383305,7
3796404000,0.61945444,-0.2594879,-0.050320264,-0.73919564,-0.9999661,-7.2759576e-11,7.2759576e-11,0.0082383305,7
3796456000,0.60500133,-0.25895643,-0.055212554,-0.7509106,-0.9999661,-7.2759576e-11,7.2759576e-11,0.0082383305,7
3796508000,0.5905355,-0.25832495,-0.060199104,-0.762176,-0.9999661,-7.2759576e-11,7.2759576e-11,0.0082383305,7
3796564000,0.57485276,-0.25740945,-0.065671526,-0.7739329,-0.9999661,-7.2759576e-11,7.2759576e-11,0.0082383305,7
3796612000,0.56134284,-0.25646684,-0.07025078,-0.7836989,-0.9999661,-7.2759576e-11,7.2759576e-11,0.0082383305,7
3796668000,0.5455831,-0.25511333,-0.07555987,-0.79469943,-0.9999661,-7.2759576e-11,7.2759576e-11,0.0082383305,7
3796716000,0.5320004,-0.25402653,-0.080129124,-0.8037572,-0.9999661,-7.2759576e-11,7.2759576e-11,0.0082383305,7
3796768000,0.51733583,-0.25262183,-0.08490539,-0.81322634,-0.9999661,-7.2759576e-11,7.2759576e-11,0.0082383305,7
3796820000,0.50280774,-0.25122803,-0.08961555,-0.8222153,-0.9999661,-7.2759576e-11,7.2759576e-11,0.0082383305,7
3796872000,0.48937252,-0.24954602,-0.094375625,-0.8302617,-0.9999661,-7.2759576e-11,7.2759576e-11,0.0082383305,7
3796924000,0.47727814,-0.24801032,-0.09863844,-0.8372378,-0.9999661,-7.2759576e-11,7.2759576e-11,0.0082383305,7
3796976000,0.46677053,-0.24682355,-0.10196207,-0.8430938,-0.9999661,-7.2759576e-11,7.2759576e-11,0.0082383305,7
3797028000,0.45776397,-0.246006,-0.104449525,-0.84795254,-0.9999661,-7.2759576e-11,7.2759576e-11,0.0082383305,7
3797080000,0.45007095,-0.24548642,-0.10614063,-0.85200155,-0.9999661,-7.2759576e-11,7.2759576e-11,0.0082383305,7
3797132000,0.44347754,-0.24526607,-0.10729555,-0.85537124,-0.9999661,-7.2759576e-11,7.2759576e-11,0.0082383305,7
3797184000,0.43781477,-0.24543226,-0.108465,-0.8580889,-0.9999661,-7.2759576e-11,7.2759576e-11,0.0082383305,7
3797236000,0.4329556,-0.24555631,-0.109579474,-0.8603743,-0.9999661,-7.2759576e-11,7.2759576e-11,0.0082383305,7
3797292000,0.4286939,-0.2455168,-0.11064207,-0.86238134,-0.9999661,-7.2759576e-11,7.2759576e-11,0.0082383305,7
3797344000,0.42530647,-0.24534504,-0.111461334,-0.86400044,-0.9999661,-7.2759576e-11,7.2759576e-11,0.0082383305,7
3797396000,0.42263785,-0.24507551,-0.112309955,-0.86527556,-0.9999661,-7.2759576e-11,7.2759576e-11,0.0082383305,7
3797444000,0.4205121,-0.24488533,-0.112960406,-0.86627984,-0.9999661,-7.2759576e-11,7.2759576e-11,0.0082383305,7
3797496000,0.41860303,-0.24491009,-0.11381517,-0.86708516,-0.9999661,-7.2759576e-11,7.2759576e-11,0.0082383305,7
3797548000,0.41703326,-0.24513994,-0.11456201,-0.8676781,-0.9999661,-7.2759576e-11,7.2759576e-11,0.0082383305,7
3797600000,0.4157093,-0.24557176,-0.11529905,-0.86809367,-0.9999661,-7.2759576e-11,7.2759576e-11,0.0082383305,7
3797652000,0.4146029,-0.24616833,-0.1161879,-0.8683352,-0.9999661,-7.2759576e-11,7.2759576e-11,0.0082383305,7
3797708000,0.41362724,-0.24683075,-0.11706351,-0.86849487,-0.9999661,-7.2759576e-11,7.2759576e-11,0.0082383305,7
3797760000,0.4128805,-0.24739867,-0.11747525,-0.8686329,-0.9999661,-7.2759576e-11,7.2759576e-11,0.0082383305,7
3797812000,0.41233125,-0.24788146,-0.117645666,-0.86873305,-0.9999661,-7.2759576e-11,7.2759576e-11,0.0082383305,7
3797860000,0.41191962,-0.24809043,-0.11764091,-0.8688694,-0.9999661,-7.2759576e-11,7.2759576e-11,0.0082383305,7
3797912000,0.41158554,-0.24812587,-0.11758202,-0.8690256,-0.9999661,-7.2759576e-11,7.2759576e-11,0.0082383305,7
3797964000,0.41136968,-0.24809463,-0.11741527,-0.8691592,-0.9999661,-7.2759576e-11,7.2759576e-11,0.0082383305,7
3798016000,0.4112065,-0.24802601,-0.11708198,-0.8693011,-0.9999661,-7.2759576e-11,7.2759576e-11,0.0082383305,7
3798068000,0.41112238,-0.2480363,-0.11686439,-0.8693671,-0.9999661,-7.2759576e-11,7.2759576e-11,0.0082383305,7
3798120000,0.41105643,-0.24814098,-0.11674133,-0.869385,-0.9999661,-7.2759576e-11,7.2759576e-11,0.0082383305,7
3798172000,0.4110457,-0.2481248,-0.11664133,-0.869408,-0.9999661,-7.2759576e-11,7.2759576e-11,0.0082383305,7
3798224000,0.41114315,-0.24797426,-0.11658076,-0.869413,-0.9999661,-7.2759576e-11,7.2759576e-11,0.0082383305,7
3798276000,0.41121155,-0.2479099,-0.11671594,-0.8693809,-0.9999661,-7.2759576e-11,7.2759576e-11,0.0082383305,7
3798328000,0.41133794,-0.2479744,-0.11689858,-0.86927813,-0.9999661,-7.2759576e-11,7.2759576e-11,0.0082383305,7
3798384000,0.4114699,-0.24807557,-0.116830945,-0.86919606,-0.9999661,-7.2759576e-11,7.2759576e-11,0.0082383305,7
3798432000,0.41164014,-0.2482876,-0.116665885,-0.8690769,-0.9999661,-7.2759576e-11,7.2759576e-11,0.0082383305,7
3798484000,0.41177467,-0.24853258,-0.11655742,-0.8689578,-0.9999661,-7.2759576e-11,7.2759576e-11,0.0082383305,7
3798536000,0.41194886,-0.24877338,-0.116499,-0.8688142,-0.9999661,-7.2759576e-11,7.2759576e-11,0.0082383305,7
3798592000,0.41209218,-0.24904881,-0.1164262,-0.8686771,-0.9999661,-7.2759576e-11,7.2759576e-11,0.0082383305,7
3798640000,0.41225335,-0.24916562,-0.11636707,-0.8685749,-0.9999661,-7.2759576e-11,7.2759576e-11,0.0082383305,7
3798692000,0.41243857,-0.24903938,-0.11614875,-0.86855245,-0.9999661,-7.2759576e-11,7.2759576e-11,0.0082383305,7
3798744000,0.41265947,-0.24874629,-0.1158006,-0.868578,-0.9999661,-7.2759576e-11,7.2759576e-11,0.0082383305,7
3798796000,0.41296458,-0.248439,-0.1156779,-0.86853737,-0.9999661,-7.2759576e-11,7.2759576e-11,0.0082383305,7
3798852000,0.41318122,-0.24826773,-0.11565149,-0.8684868,-0.9999661,-7.2759576e-11,7.2759576e-11,0.0082383305,7
3798900000,0.4133859,-0.24828985,-0.115903385,-0.8683494,-0.9999661,-7.2759576e-11,7.2759576e-11,0.0082383305,7
3798952000,0.41360196,-0.24839388,-0.11617417,-0.8681805,-0.9999661,-7.2759576e-11,7.2759576e-11,0.0082383305,7
3799008000,0.413814,-0.24868098,-0.116166435,-0.8679983,-0.9999661,-7.2759576e-11,7.2759576e-11,0.0082383305,7
3799056000,0.4139563,-0.2489078,-0.116171196,-0.86786485,-0.9999661,-7.2759576e-11,7.2759576e-11,0.0082383305,7
3799108000,0.41411892,-0.24911389,-0.11629129,-0.8677121,-0.9999661,-7.2759576e-11,7.2759576e-11,0.0082383305,7
3799160000,0.4142791,-0.24940097,-0.11618136,-0.8675678,-0.9999661,-7.2759576e-11,7.2759576e-11,0.0082383305,7
3799216000,0.41445875,-0.24963784,-0.116187304,-0.8674131,-0.9999661,-7.2759576e-11,7.2759576e-11,0.0082383305,7
3799268000,0.41475728,-0.24978198,-0.11636525,-0.867205,-0.9999661,-7.2759576e-11,7.2759576e-11,0.0082383305,7
3799316000,0.41491377,-0.2498414,-0.11651277,-0.86709327,-0.9999661,-7.2759576e-11,7.2759576e-11,0.0082383305,7
3799368000,0.4151078,-0.2497532,-0.116624124,-0.8670107,-0.9999661,-7.2759576e-11,7.2759576e-11,0.0082383305,7
3799420000,0.41532516,-0.2497661,-0.11648677,-0.8669215,-0.9999661,-7.2759576e-11,7.2759576e-11,0.0082383305,7
3799472000,0.41545844,-0.24982297,-0.1161558,-0.8668856,-0.9999661,-7.2759576e-11,7.2759576e-11,0.0082383305,7
3799524000,0.4156502,-0.2498637,-0.116090804,-0.86679065,-0.9999661,-7.2759576e-11,7.2759576e-11,0.0082383305,7
3799580000,0.41584247,-0.249965,-0.11570556,-0.8667207,-0.9999661,-7.2759576e-11,7.2759576e-11,0.0082383305,7
3799628000,0.41601026,-0.250122,-0.1155531,-0.86661524,-0.9999661,-7.2759576e-11,7.2759576e-11,0.0082383305,7
3799680000,0.41610372,-0.25037587,-0.115500845,-0.8665041,-0.9999661,-7.2759576e-11,7.2759576e-11,0.0082383305,7
3799732000,0.41617858,-0.25066814,-0.11574136,-0.8663514,-0.9999661,-7.2759576e-11,7.2759576e-11,0.0082383305,7
3799784000,0.41632038,-0.25080854,-0.11599307,-0.86620903,-0.9999661,-7.2759576e-11,7.2759576e-11,0.0082383305,7
3799836000,0.41638574,-0.25082448,-0.11610738,-0.86615765,-0.9999661,-7.2759576e-11,7.2759576e-11,0.0082383305,7
3799888000,0.4166328,-0.25096497,-0.11612922,-0.8659953,-0.9999661,-7.2759576e-11,7.2759576e-11,0.0082383305,7
3799940000,0.4168052,-0.25106192,-0.11597387,-0.8659049,-0.9999661,-7.2759576e-11,7.2759576e-11,0.0082383305,7
3799992000,0.41692027,-0.25113133,-0.11566358,-0.865871,-0.9999661,-7.2759576e-11,7.2759576e-11,0.0082383305,7
3800048000,0.41705754,-0.2512239,-0.11559344,-0.8657873,-0.9999661,-7.2759576e-11,7.2759576e-11,0.0082383305,7
3800096000,0.4171278,-0.25130785,-0.11553452,-0.86573696,-0.9999661,-7.2759576e-11,7.2759576e-11,0.0082383305,7
3800148000,0.41710564,-0.25158387,-0.11550796,-0.8656711,-0.9999661,-7.2759576e-11,7.2759576e-11,0.0082383305,7
3800200000,0.4171759,-0.25190336,-0.11564078,-0.8655266,-0.9999661,-7.2759576e-11,7.2759576e-11,0.0082383305,7
3800252000,0.41723254,-0.25222573,-0.115656756,-0.86540323,-0.9999661,-7.2759576e-11,7.2759576e-11,0.0082383305,7
3800304000,0.41733766,-0.25236395,-0.11566475,-0.86531115,-0.9999661,-7.2759576e-11,7.2759576e-11,0.0082383305,7
3800360000,0.41748065,-0.2522951,-0.11567539,-0.86526096,-0.9999661,-7.2759576e-11,7.2759576e-11,0.0082383305,7
3800408000,0.4176427,-0.2521081,-0.11557432,-0.8652507,-0.9999661,-7.2759576e-11,7.2759576e-11,0.0082383305,7
3800460000,0.41778097,-0.25196692,-0.115561634,-0.8652268,-0.9999661,-7.2759576e-11,7.2759576e-11,0.0082383305,7
3800512000,0.41786036,-0.25201032,-0.115618065,-0.8651683,-0.9999661,-7.2759576e-11,7.2759576e-11,0.0082383305,7
3800564000,0.41792908,-0.2521673,-0.11562829,-0.8650878,-0.9999661,-7.2759576e-11,7.2759576e-11,0.0082383305,7
3800620000,0.41804123,-0.25221077,-0.11551745,-0.8650358,-0.9999661,-7.2759576e-11,7.2759576e-11,0.0082383305,7
3800672000,0.41806927,-0.25232655,-0.11533809,-0.86501247,-0.9999661,-7.2759576e-11,7.2759576e-11,0.0082383305,7
3800720000,0.41810453,-0.25239933,-0.1151484,-0.86499953,-0.9999661,-7.2759576e-11,7.2759576e-11,0.0082383305,7
3800776000,0.4181497,-0.2525648,-0.11491966,-0.86495984,-0.9999661,-7.2759576e-11,7.2759576e-11,0.0082383305,7
3800828000,0.41827023,-0.25281414,-0.11476181,-0.86484957,-0.9999661,-7.2759576e-11,7.2759576e-11,0.0082383305,7
3800876000,0.41835365,-0.2529958,-0.11466533,-0.86476886,-0.9999661,-7.2759576e-11,7.2759576e-11,0.0082383305,7
3800928000,0.41834885,-0.25320145,-0.114695095,-0.8647071,-0.9999661,-7.2759576e-11,7.2759576e-11,0.0082383305,7
3800984000,0.41833818,-0.2533124,-0.11490883,-0.8646514,-0.9999661,-7.2759576e-11,7.2759576e-11,0.0082383305,7
3801032000,0.41837707,-0.2535357,-0.11506273,-0.86454666,-0.9999661,-7.2759576e-11,7.2759576e-11,0.0082383305,7
3801088000,0.41838807,-0.25381437,-0.11516359,-0.8644461,-0.9999661,-7.2759576e-11,7.2759576e-11,0.0082383305,7
3801140000,0.41844484,-0.25395855,-0.11521523,-0.8643694,-0.9999661,-7.2759576e-11,7.2759576e-11,0.0082383305,7
3801188000,0.41844103,-0.2543503,-0.11521243,-0.8642564,-0.9999661,-7.2759576e-11,7.2759576e-11,0.0082383305,7
3801240000,0.4184842,-0.25458103,-0.114984095,-0.8641979,-0.9999661,-7.2759576e-11,7.2759576e-11,0.0082383305,7
3801296000,0.41845888,-0.25476274,-0.11478566,-0.86418307,-0.9999661,-7.2759576e-11,7.2759576e-11,0.0082383305,7
3801344000,0.4185019,-0.25467935,-0.11467351,-0.8642018,-0.9999661,-7.2759576e-11,7.2759576e-11,0.0082383305,7
3801400000,0.41861072,-0.25446323,-0.11463265,-0.86421806,-0.9999661,-7.2759576e-11,7.2759576e-11,0.0082383305,7
3801452000,0.41870877,-0.2543199,-0.11466492,-0.8642085,-0.9999661,-7.2759576e-11,7.2759576e-11,0.0082383305,7
3801500000,0.4187701,-0.25433826,-0.11469133,-0.8641699,-0.9999661,-7.2759576e-11,7.2759576e-11,0.0082383305,7
3801556000,0.4188603,-0.25454965,-0.11490516,-0.86403555,-0.9999661,-7.2759576e-11,7.2759576e-11,0.0082383305,7
3801604000,0.41892412,-0.25473753,-0.11506669,-0.8639277,-0.9999661,-7.2759576e-11,7.2759576e-11,0.0082383305,7
3801656000,0.41895136,-0.25488505,-0.115077004,-0.86386967,-0.9999661,-7.2759576e-11,7.2759576e-11,0.0082383305,7
3801708000,0.4189979,-0.2548692,-0.11501348,-0.8638602,-0.9999661,-7.2759576e-11,7.2759576e-11,0.0082383305,7
3801764000,0.41907176,-0.2547236,-0.11477404,-0.8638991,-0.9999661,-7.2759576e-11,7.2759576e-11,0.0082383305,7
3801812000,0.41913834,-0.2546435,-0.11462563,-0.8639101,-0.9999661,-7.2759576e-11,7.2759576e-11,0.0082383305,7
3801864000,0.41920933,-0.25452486,-0.11467028,-0.8639048,-0.9999661,-7.2759576e-11,7.2759576e-11,0.0082383305,7
3801920000,0.41932106,-0.25449032,-0.11468997,-0.86385816,-0.9999661,-7.2759576e-11,7.2759576e-11,0.0082383305,7
3801968000,0.4193018,-0.25466302,-0.11477039,-0.86380583,-0.9999661,-7.2759576e-11,7.2759576e-11,0.0082383305,7
3802024000,0.41937244,-0.25484142,-0.11490034,-0.86370164,-0.9999661,-7.2759576e-11,7.2759576e-11,0.0082383305,7
3802072000,0.4193716,-0.25508147,-0.11509136,-0.86360574,-0.9999661,-7.2759576e-11,7.2759576e-11,0.0082383305,7
3802124000,0.41940898,-0.2554587,-0.115396604,-0.8634354,-0.9999661,-7.2759576e-11,7.2759576e-11,0.0082383305,7
3802180000,0.41950616,-0.25555497,-0.115704834,-0.8633184,-0.9999661,-7.2759576e-11,7.2759576e-11,0.0082383305,7
3802232000,0.41951895,-0.25561184,-0.11585869,-0.86327463,-0.9999661,-7.2759576e-11,7.2759576e-11,0.0082383305,7
3802280000,0.4195887,-0.25572163,-0.11592642,-0.86319923,-0.9999661,-7.2759576e-11,7.2759576e-11,0.0082383305,7
3802332000,0.41969588,-0.25571337,-0.115911596,-0.8631515,-0.9999661,-7.2759576e-11,7.2759576e-11,0.0082383305,7
3802388000,0.419865,-0.25541827,-0.11619584,-0.86311847,-0.9999661,-7.2759576e-11,7.2759576e-11,0.0082383305,7
3802436000,0.41993096,-0.2552108,-0.11625057,-0.86314034,-0.9999661,-7.2759576e-11,7.2759576e-11,0.0082383305,7
3802488000,0.41994599,-0.25530767,-0.11628595,-0.86309963,-0.9999661,-7.2759576e-11,7.2759576e-11,0.0082383305,7
3802540000,0.42010114,-0.25540802,-0.116340406,-0.8629871,-0.9999661,-7.2759576e-11,7.2759576e-11,0.0082383305,7
3802592000,0.4201058,-0.25551,-0.116345026,-0.862954,-0.9999661,-7.2759576e-11,7.2759576e-11,0.0082383305,7
3802644000,0.4200657,-0.25581414,-0.11652035,-0.8628598,-0.9999661,-7.2759576e-11,7.2759576e-11,0.0082383305,7
3802696000,0.42009562,-0.25600109,-0.11686943,-0.86274254,-0.9999661,-7.2759576e-11,7.2759576e-11,0.0082383305,7
3802752000,0.42011228,-0.25621217,-0.117138974,-0.8626352,-0.9999661,-7.2759576e-11,7.2759576e-11,0.0082383305,7
3802800000,0.42013437,-0.25632346,-0.11731995,-0.8625669,-0.9999661,-7.2759576e-11,7.2759576e-11,0.0082383305,7
3802852000,0.4202314,-0.25660157,-0.117572285,-0.8624025,-0.9999661,-7.2759576e-11,7.2759576e-11,0.0082383305,7
3802904000,0.42022836,-0.25697654,-0.11794825,-0.86224097,-0.9999661,-7.2759576e-11,7.2759576e-11,0.0082383305,7
3802956000,0.4202036,-0.25766972,-0.118408926,-0.86198294,-0.9999661,-7.2759576e-11,7.2759576e-11,0.0082383305,7
3803012000,0.42019767,-0.25852427,-0.11904872,-0.86164176,-0.9999661,-7.2759576e-11,7.2759576e-11,0.0082383305,7
3803060000,0.42010823,-0.2593264,-0.119512886,-0.86138004,-0.9999661,-7.2759576e-11,7.2759576e-11,0.0082383305,7
3803112000,0.42002186,-0.26020694,-0.11993934,-0.8610972,-0.9999661,-7.2759576e-11,7.2759576e-11,0.0082383305,7
3803164000,0.41996545,-0.2608386,-0.12031417,-0.8608813,-0.9999661,-7.2759576e-11,7.2759576e-11,0.0082383305,7
3803216000,0.4199211,-0.26123837,-0.120455235,-0.86076206,-0.9999661,-7.2759576e-11,7.2759576e-11,0.0082383305,7
3803268000,0.4199474,-0.26150763,-0.12050404,-0.8606607,-0.9999661,-7.2759576e-11,7.2759576e-11,0.0082383305,7
3803324000,0.42002955,-0.2615118,-0.12038168,-0.8606365,-0.9999661,-7.2759576e-11,7.2759576e-11,0.0082383305,7
3803372000,0.4200395,-0.26133186,-0.12013818,-0.86072034,-0.9999661,-7.2759576e-11,7.2759576e-11,0.0082383305,7
3803424000,0.42014104,-0.26097077,-0.119982526,-0.86080205,-0.9999661,-7.2759576e-11,7.2759576e-11,0.0082383305,7
3803476000,0.42027447,-0.26079562,-0.11999607,-0.8607881,-0.9999661,-7.2759576e-11,7.2759576e-11,0.0082383305,7
3803528000,0.4202247,-0.26070812,-0.119892046,-0.8608534,-0.9999661,-7.2759576e-11,7.2759576e-11,0.0082383305,7
3803580000,0.42023718,-0.26057845,-0.11982878,-0.86089534,-0.9999661,-7.2759576e-11,7.2759576e-11,0.0082383305,7
3803632000,0.42035592,-0.26060215,-0.11993969,-0.8608147,-0.9999661,-7.2759576e-11,7.2759576e-11,0.0082383305,7
3803684000,0.42031804,-0.2606666,-0.12009933,-0.8607915,-0.9999661,-7.2759576e-11,7.2759576e-11,0.0082383305,7
3803740000,0.4203043,-0.26074195,-0.12024582,-0.86075497,-0.9999661,-7.2759576e-11,7.2759576e-11,0.0082383305,7
3803788000,0.42034146,-0.26078105,-0.1201963,-0.86073184,-0.9999661,-7.2759576e-11,7.2759576e-11,0.0082383305,7
3803844000,0.4202476,-0.26103306,-0.12028174,-0.86068934,-0.9999661,-7.2759576e-11,7.2759576e-11,0.0082383305,7
3803892000,0.42024425,-0.26117846,-0.12028691,-0.860646,-0.9999661,-7.2759576e-11,7.2759576e-11,0.0082383305,7
3803944000,0.4201914,-0.26140302,-0.12038743,-0.8605897,-0.9999661,-7.2759576e-11,7.2759576e-11,0.0082383305,7
3803996000,0.42022422,-0.2614968,-0.12046382,-0.8605345,-0.9999661,-7.2759576e-11,7.2759576e-11,0.0082383305,7
3804048000,0.42022663,-0.26150733,-0.120381996,-0.86054164,-0.9999661,-7.2759576e-11,7.2759576e-11,0.0082383305,7
3804100000,0.4202692,-0.26145685,-0.12005192,-0.8605822,-0.9999661,-7.2759576e-11,7.2759576e-11,0.0082383305,7
3804152000,0.42023447,-0.2614147,-0.12008266,-0.8606076,-0.9999661,-7.2759576e-11,7.2759576e-11,0.0082383305,7
3804204000,0.42024347,-0.2614447,-0.12003827,-0.86060035,-0.9999661,-7.2759576e-11,7.2759576e-11,0.0082383305,7
3804256000,0.42023262,-0.26141933,-0.11997839,-0.8606217,-0.9999661,-7.2759576e-11,7.2759576e-11,0.0082383305,7
3804308000,0.42024067,-0.2613933,-0.120045625,-0.86061627,-0.9999661,-7.2759576e-11,7.2759576e-11,0.0082383305,7
3804360000,0.42027837,-0.26132083,-0.12010317,-0.8606119,-0.9999661,-7.2759576e-11,7.2759576e-11,0.0082383305,7
3804412000,0.42027277,-0.26137295,-0.12017114,-0.86058927,-0.9999661,-7.2759576e-11,7.2759576e-11,0.0082383305,7
3804464000,0.42026836,-0.26149154,-0.120290406,-0.8605388,-0.9999661,-7.2759576e-11,7.2759576e-11,0.0082383305,7
3804516000,0.420303,-0.2615918,-0.120372586,-0.86047995,-0.9999661,-7.2759576e-11,7.2759576e-11,0.0082383305,7
3804568000,0.42023638,-0.2617665,-0.12038869,-0.86045694,-0.9999661,-7.2759576e-11,7.2759576e-11,0.0082383305,7
3804620000,0.42028597,-0.26183802,-0.12041903,-0.8604068,-0.9999661,-7.2759576e-11,7.2759576e-11,0.0082383305,7
3804672000,0.4203898,-0.26185814,-0.12052994,-0.86033446,-0.9999661,-7.2759576e-11,7.2759576e-11,0.0082383305,7
3804728000,0.42035124,-0.26201937,-0.120573826,-0.860298,-0.9999661,-7.2759576e-11,7.2759576e-11,0.0082383305,7
3804776000,0.42034557,-0.2622017,-0.12049377,-0.8602564,-0.9999661,-7.2759576e-11,7.2759576e-11,0.0082383305,7
3804832000,0.42031655,-0.26217347,-0.120538145,-0.860273,-0.9999661,-7.2759576e-11,7.2759576e-11,0.0082383305,7
3804884000,0.4203585,-0.2620102,-0.12062046,-0.8602907,-0.9999661,-7.2759576e-11,7.2759576e-11,0.0082383305,7
3804932000,0.42048302,-0.26183423,-0.120714344,-0.8602704,-0.9999661,-7.2759576e-11,7.2759576e-11,0.0082383305,7
3804984000,0.42051423,-0.26176938,-0.12081224,-0.86026096,-0.9999661,-7.2759576e-11,7.2759576e-11,0.0082383305,7
3805036000,0.4205154,-0.261965,-0.1208368,-0.8601974,-0.9999661,-7.2759576e-11,7.2759576e-11,0.0082383305,7
3805092000,0.42049158,-0.26214993,-0.120902106,-0.8601436,-0.9999661,-7.2759576e-11,7.2759576e-11,0.0082383305,7
3805140000,0.42044872,-0.26233727,-0.12095053,-0.86010057,-0.9999661,-7.2759576e-11,7.2759576e-11,0.0082383305,7
3805192000,0.42037514,-0.26235667,-0.12106037,-0.8601152,-0.9999661,-7.2759576e-11,7.2759576e-11,0.0082383305,7
3805244000,0.4204025,-0.26241702,-0.12091575,-0.8601038,-0.9999661,-7.2759576e-11,7.2759576e-11,0.0082383305,7
3805296000,0.42039958,-0.26260373,-0.12071798,-0.86007607,-0.9999661,-7.2759576e-11,7.2759576e-11,0.0082383305,7
3805348000,0.4203452,-0.26279476,-0.12046529,-0.8600796,-0.9999661,-7.2759576e-11,7.2759576e-11,0.0082383305,7
3805404000,0.4202391,-0.2629234,-0.12043769,-0.86009604,-0.9999661,-7.2759576e-11,7.2759576e-11,0.0082383305,7
3805456000,0.42018458,-0.26307645,-0.120333984,-0.86009043,-0.9999661,-7.2759576e-11,7.2759576e-11,0.0082383305,7
3805504000,0.42019314,-0.26297915,-0.12034009,-0.8601152,-0.9999661,-7.2759576e-11,7.2759576e-11,0.0082383305,7
3805560000,0.42022148,-0.2627199,-0.12029204,-0.86018723,-0.9999661,-7.2759576e-11,7.2759576e-11,0.0082383305,7
3805612000,0.4201719,-0.26257783,-0.12014075,-0.8602759,-0.9999661,-7.2759576e-11,7.2759576e-11,0.0082383305,7
3805660000,0.42015225,-0.26265252,-0.12022554,-0.86025083,-0.9999661,-7.2759576e-11,7.2759576e-11,0.0082383305,7
3805712000,0.42016974,-0.26295778,-0.120245054,-0.8601464,-0.9999661,-7.2759576e-11,7.2759576e-11,0.0082383305,7
3805764000,0.42017084,-0.26308048,-0.12019683,-0.8601151,-0.9999661,-7.2759576e-11,7.2759576e-11,0.0082383305,7
3805816000,0.42011514,-0.26328963,-0.12014427,-0.86008555,-0.9999661,-7.2759576e-11,7.2759576e-11,0.0082383305,7
3805872000,0.41998008,-0.2637241,-0.120262176,-0.8600019,-0.9999661,-7.2759576e-11,7.2759576e-11,0.0082383305,7
3805920000,0.4199027,-0.26412892,-0.12032969,-0.8599061,-0.9999661,-7.2759576e-11,7.2759576e-11,0.0082383305,7
3805972000,0.41982996,-0.2643529,-0.12065681,-0.8598269,-0.9999661,-7.2759576e-11,7.2759576e-11,0.0082383305,7
3806024000,0.41982743,-0.26431695,-0.12099928,-0.8597911,-0.9999661,-7.2759576e-11,7.2759576e-11,0.0082383305,7
3806076000,0.41987187,-0.2640853,-0.12108086,-0.85982907,-0.9999661,-7.2759576e-11,7.2759576e-11,0.0082383305,7
3806128000,0.41993865,-0.26396552,-0.121077105,-0.85983384,-0.9999661,-7.2759576e-11,7.2759576e-11,0.0082383305,7
3806184000,0.4199697,-0.26390862,-0.12094287,-0.859855,-0.9999661,-7.2759576e-11,7.2759576e-11,0.0082383305,7
3806232000,0.42000046,-0.2637871,-0.12086564,-0.8598881,-0.9999661,-7.2759576e-11,7.2759576e-11,0.0082383305,7
3806284000,0.42005116,-0.2636426,-0.12089462,-0.85990363,-0.9999661,-7.2759576e-11,7.2759576e-11,0.0082383305,7
3806336000,0.42012843,-0.26344863,-0.120751075,-0.8599455,-0.9999661,-7.2759576e-11,7.2759576e-11,0.0082383305,7
3806388000,0.42018646,-0.26337597,-0.12063368,-0.85995585,-0.9999661,-7.2759576e-11,7.2759576e-11,0.0082383305,7
3806440000,0.42016727,-0.26331535,-0.12054359,-0.85999644,-0.9999661,-7.2759576e-11,7.2759576e-11,0.0082383305,7
3806492000,0.42007288,-0.2634792,-0.12058535,-0.8599865,-0.9999661,-7.2759576e-11,7.2759576e-11,0.0082383305,7
3806544000,0.42006907,-0.26364788,-0.1208399,-0.85990083,-0.9999661,-7.2759576e-11,7.2759576e-11,0.0082383305,7
3806596000,0.42006946,-0.2638245,-0.12104057,-0.85981834,-0.9999661,-7.2759576e-11,7.2759576e-11,0.0082383305,7
3806648000,0.42004615,-0.26387903,-0.121152155,-0.85979724,-0.9999661,-7.2759576e-11,7.2759576e-11,0.0082383305,7
3806700000,0.42013606,-0.2639063,-0.12106841,-0.85975665,-0.9999661,-7.2759576e-11,7.2759576e-11,0.0082383305,7
3806752000,0.42009506,-0.263866,-0.12097378,-0.85980254,-0.9999661,-7.2759576e-11,7.2759576e-11,0.0082383305,7
3806808000,0.42011777,-0.263821,-0.12084312,-0.8598236,-0.9999661,-7.2759576e-11,7.2759576e-11,0.0082383305,7
3806860000,0.42011893,-0.26370934,-0.120583706,-0.8598936,-0.9999661,-7.2759576e-11,7.2759576e-11,0.0082383305,7
3806908000,0.4200914,-0.26360366,-0.12036905,-0.8599696,-0.9999661,-7.2759576e-11,7.2759576e-11,0.0082383305,7
3806960000,0.4200214,-0.26373807,-0.12028457,-0.8599743,-0.9999661,-7.2759576e-11,7.2759576e-11,0.0082383305,7
3807016000,0.41998124,-0.26382166,-0.120345145,-0.85995996,-0.9999661,-7.2759576e-11,7.2759576e-11,0.0082383305,7
3807064000,0.41995347,-0.26405331,-0.1203384,-0.8599033,-0.9999661,-7.2759576e-11,7.2759576e-11,0.0082383305,7
3807116000,0.4199852,-0.26424873,-0.12052354,-0.8598018,-0.9999661,-7.2759576e-11,7.2759576e-11,0.0082383305,7
3807168000,0.4199137,-0.26437217,-0.120792,-0.8597612,-0.9999661,-7.2759576e-11,7.2759576e-11,0.0082383305,7
3807220000,0.41990972,-0.26448208,-0.12100805,-0.85969883,-0.9999661,-7.2759576e-11,7.2759576e-11,0.0082383305,7
3807276000,0.42004433,-0.26440075,-0.1209946,-0.85965997,-0.9999661,-7.2759576e-11,7.2759576e-11,0.0082383305,7
3807324000,0.42007864,-0.26428497,-0.121014655,-0.85967606,-0.9999661,-7.2759576e-11,7.2759576e-11,0.0082383305,7
3807376000,0.4200787,-0.2642238,-0.12099239,-0.8596979,-0.9999661,-7.2759576e-11,7.2759576e-11,0.0082383305,7
3807432000,0.42000732,-0.2642097,-0.12100753,-0.85973513,-0.9999661,-7.2759576e-11,7.2759576e-11,0.0082383305,7
3807480000,0.41995957,-0.26412144,-0.121025175,-0.85978305,-0.9999661,-7.2759576e-11,7.2759576e-11,0.0082383305,7
3807532000,0.4200496,-0.2640036,-0.121061966,-0.85977006,-0.9999661,-7.2759576e-11,7.2759576e-11,0.0082383305,7
3807588000,0.42005444,-0.26395798,-0.120939896,-0.85979885,-0.9999661,-7.2759576e-11,7.2759576e-11,0.0082383305,7
3807636000,0.42009524,-0.26393643,-0.12094211,-0.85978526,-0.9999661,-7.2759576e-11,7.2759576e-11,0.0082383305,7
3807688000,0.420102,-0.2640375,-0.121065736,-0.8597334,-0.9999661,-7.2759576e-11,7.2759576e-11,0.0082383305,7
3807740000,0.42004496,-0.26437014,-0.121328406,-0.8596221,-0.9999661,-7.2759576e-11,7.2759576e-11,0.0082383305,7
3807792000,0.42001864,-0.2647298,-0.12167014,-0.85947585,-0.9999661,-7.2759576e-11,7.2759576e-11,0.0082383305,7
3807844000,0.41990817,-0.26538622,-0.12191925,-0.85929215,-0.9999661,-7.2759576e-11,7.2759576e-11,0.0082383305,7
3807896000,0.419787,-0.26601633,-0.12206547,-0.85913575,-0.9999661,-7.2759576e-11,7.2759576e-11,0.0082383305,7
3807948000,0.41968673,-0.2665824,-0.122170724,-0.8589943,-0.9999661,-7.2759576e-11,7.2759576e-11,0.0082383305,7
3808000000,0.41955093,-0.26734093,-0.12223047,-0.8588163,-0.9999661,-7.2759576e-11,7.2759576e-11,0.0082383305,7
3808056000,0.41937652,-0.26815754,-0.12230736,-0.8586361,-0.9999661,-7.2759576e-11,7.2759576e-11,0.0082383305,7
3808108000,0.41921464,-0.2689098,-0.12234384,-0.8584747,-0.9999661,-7.2759576e-11,7.2759576e-11,0.0082383305,7
3808160000,0.41913533,-0.26935866,-0.1225618,-0.8583415,-0.9999661,-7.2759576e-11,7.2759576e-11,0.0082383305,7
3808212000,0.41905826,-0.26963097,-0.12293185,-0.8582407,-0.9999661,-7.2759576e-11,7.2759576e-11,0.0082383305,7
3808260000,0.41910252,-0.26968062,-0.12302638,-0.85818994,-0.9999661,-7.2759576e-11,7.2759576e-11,0.0082383305,7
3808312000,0.419125,-0.26948088,-0.122892916,-0.85826075,-0.9999661,-7.2759576e-11,7.2759576e-11,0.0082383305,7
3808364000,0.41912925,-0.26907572,-0.12258759,-0.85842955,-0.9999661,-7.2759576e-11,7.2759576e-11,0.0082383305,7
3808416000,0.4191124,-0.26871157,-0.12210937,-0.8586199,-0.9999661,-7.2759576e-11,7.2759576e-11,0.0082383305,7
3808468000,0.4191728,-0.2684015,-0.121780455,-0.8587341,-0.9999661,-7.2759576e-11,7.2759576e-11,0.0082383305,7
3808520000,0.41912687,-0.26826265,-0.12172716,-0.85880756,-0.9999661,-7.2759576e-11,7.2759576e-11,0.0082383305,7
3808572000,0.41905698,-0.268495,-0.12171389,-0.85877085,-0.9999661,-7.2759576e-11,7.2759576e-11,0.0082383305,7
3808624000,0.41908976,-0.26853767,-0.12169951,-0.85874367,-0.9999661,-7.2759576e-11,7.2759576e-11,0.0082383305,7
3808676000,0.41909763,-0.26864457,-0.121702164,-0.85870594,-0.9999661,-7.2759576e-11,7.2759576e-11,0.0082383305,7
3808732000,0.4190736,-0.26883644,-0.12191352,-0.85862774,-0.9999661,-7.2759576e-11,7.2759576e-11,0.0082383305,7
3808780000,0.4190862,-0.26907206,-0.12232785,-0.8584888,-0.9999661,-7.2759576e-11,7.2759576e-11,0.0082383305,7
3808832000,0.41900027,-0.26923966,-0.122699656,-0.858425,-0.9999661,-7.2759576e-11,7.2759576e-11,0.0082383305,7
3808884000,0.41908216,-0.2692007,-0.12300279,-0.85835385,-0.9999661,-7.2759576e-11,7.2759576e-11,0.0082383305,7
3808936000,0.41918042,-0.2691907,-0.1231772,-0.85828406,-0.9999661,-7.2759576e-11,7.2759576e-11,0.0082383305,7
3808988000,0.41921315,-0.26902694,-0.12318242,-0.8583187,-0.9999661,-7.2759576e-11,7.2759576e-11,0.0082383305,7
3809040000,0.41920677,-0.26879317,-0.12302337,-0.85841775,-0.9999661,-7.2759576e-11,7.2759576e-11,0.0082383305,7
3809096000,0.41917562,-0.26855347,-0.12294641,-0.8585192,-0.9999661,-7.2759576e-11,7.2759576e-11,0.0082383305,7
3809144000,0.41925865,-0.2683982,-0.122812465,-0.85854626,-0.9999661,-7.2759576e-11,7.2759576e-11,0.0082383305,7
3809196000,0.41925004,-0.2683501,-0.12252469,-0.8586067,-0.9999661,-7.2759576e-11,7.2759576e-11,0.0082383305,7
3809248000,0.4191404,-0.2685037,-0.122467704,-0.8586203,-0.9999661,-7.2759576e-11,7.2759576e-11,0.0082383305,7
3809300000,0.41912258,-0.26862627,-0.12254711,-0.8585793,-0.9999661,-7.2759576e-11,7.2759576e-11,0.0082383305,7
3809352000,0.41906255,-0.2687322,-0.12274269,-0.85854745,-0.9999661,-7.2759576e-11,7.2759576e-11,0.0082383305,7
3809408000,0.41910478,-0.26868564,-0.12279735,-0.85853374,-0.9999661,-7.2759576e-11,7.2759576e-11,0.0082383305,7
3809456000,0.4190969,-0.2685821,-0.122755945,-0.8585758,-0.9999661,-7.2759576e-11,7.2759576e-11,0.0082383305,7
3809508000,0.41910887,-0.26847106,-0.122733966,-0.85860795,-0.9999661,-7.2759576e-11,7.2759576e-11,0.0082383305,7
3809560000,0.41915914,-0.2683007,-0.12267801,-0.85864455,-0.9999661,-7.2759576e-11,7.2759576e-11,0.0082383305,7
3809612000,0.41913745,-0.26820582,-0.12262604,-0.8586923,-0.9999661,-7.2759576e-11,7.2759576e-11,0.0082383305,7
3809664000,0.4191506,-0.2681981,-0.12273468,-0.8586726,-0.9999661,-7.2759576e-11,7.2759576e-11,0.0082383305,7
3809716000,0.41913915,-0.2682445,-0.12286083,-0.8586457,-0.9999661,-7.2759576e-11,7.2759576e-11,0.0082383305,7
3809768000,0.4191738,-0.26820418,-0.12281543,-0.8586479,-0.9999661,-7.2759576e-11,7.2759576e-11,0.0082383305,7
3809820000,0.4192177,-0.26818112,-0.12268298,-0.85865265,-0.9999661,-7.2759576e-11,7.2759576e-11,0.0082383305,7
3809876000,0.41924325,-0.2680823,-0.122713186,-0.85866666,-0.9999661,-7.2759576e-11,7.2759576e-11,0.0082383305,7
