timestamp,noutputs,output[0],output[1],output[2],output[3],output[4],output[5],output[6],output[7],output[8],output[9],output[10],output[11],output[12],output[13],output[14],output[15]
8959832000,6,900.0,900.0,900.0,900.0,900.0,900.0,nan,nan,nan,nan,nan,nan,nan,nan,nan,nan
8959932000,6,1000.0,1000.0,1000.0,1000.0,1500.0,1500.0,nan,nan,nan,nan,nan,nan,nan,nan,nan,nan
8960028000,6,1000.0,1000.0,1000.0,1000.0,1500.0,1500.0,nan,nan,nan,nan,nan,nan,nan,nan,nan,nan
8960128000,6,1000.0,1000.0,1000.0,1000.0,1500.0,1500.0,nan,nan,nan,nan,nan,nan,nan,nan,nan,nan
8960228000,6,1000.0,1000.0,1000.0,1000.0,1500.0,1500.0,nan,nan,nan,nan,nan,nan,nan,nan,nan,nan
8960328000,6,1000.0,1000.0,1000.0,1000.0,1500.0,1500.0,nan,nan,nan,nan,nan,nan,nan,nan,nan,nan
8960428000,6,1000.0,1000.0,1000.0,1000.0,1500.0,1500.0,nan,nan,nan,nan,nan,nan,nan,nan,nan,nan
8960532000,6,1000.0,1000.0,1000.0,1000.0,1500.0,1500.0,nan,nan,nan,nan,nan,nan,nan,nan,nan,nan
8960628000,6,1000.0,1000.0,1000.0,1000.0,1500.0,1500.0,nan,nan,nan,nan,nan,nan,nan,nan,nan,nan
8960732000,6,1000.0,1000.0,1000.0,1000.0,1500.0,1500.0,nan,nan,nan,nan,nan,nan,nan,nan,nan,nan
8960832000,6,1000.0,1000.0,1000.0,1000.0,1500.0,1500.0,nan,nan,nan,nan,nan,nan,nan,nan,nan,nan
8960928000,6,1119.5812,1119.6921,1134.4983,1106.2588,1500.0,1500.0,nan,nan,nan,nan,nan,nan,nan,nan,nan,nan
8961032000,6,1174.1709,1064.9722,1199.2427,1042.9618,1500.0,1500.0,nan,nan,nan,nan,nan,nan,nan,nan,nan,nan
8961132000,6,1211.7991,1143.625,1231.0913,1127.461,1500.0,1500.0,nan,nan,nan,nan,nan,nan,nan,nan,nan,nan
8961232000,6,1296.5625,1254.2981,1314.2084,1237.6765,1500.0,1500.0,nan,nan,nan,nan,nan,nan,nan,nan,nan,nan
8961328000,6,1375.5863,1325.5767,1384.5465,1316.5042,1500.0,1500.0,nan,nan,nan,nan,nan,nan,nan,nan,nan,nan
8961428000,6,1445.2081,1394.845,1451.0288,1387.6327,1500.0,1500.0,nan,nan,nan,nan,nan,nan,nan,nan,nan,nan
8961528000,6,1513.6135,1467.4026,1521.8574,1461.4626,1500.0,1500.0,nan,nan,nan,nan,nan,nan,nan,nan,nan,nan
8961632000,6,1598.5398,1560.5023,1607.0557,1554.4789,1500.0,1500.0,nan,nan,nan,nan,nan,nan,nan,nan,nan,nan
8961728000,6,1615.3392,1624.207,1614.4976,1628.227,1500.0,1500.0,nan,nan,nan,nan,nan,nan,nan,nan,nan,nan
8961832000,6,1607.1439,1610.8267,1602.7028,1614.5818,1500.0,1500.0,nan,nan,nan,nan,nan,nan,nan,nan,nan,nan
8961928000,6,1609.8978,1613.1892,1613.0698,1614.414,1500.0,1500.0,nan,nan,nan,nan,nan,nan,nan,nan,nan,nan
8962032000,6,1612.6237,1609.4292,1612.2502,1610.5919,1500.0,1500.0,nan,nan,nan,nan,nan,nan,nan,nan,nan,nan
8962128000,6,1616.9122,1610.0056,1615.1956,1612.1593,1500.0,1500.0,nan,nan,nan,nan,nan,nan,nan,nan,nan,nan
8962232000,6,1621.7373,1619.5013,1620.9048,1618.2413,1500.0,1500.0,nan,nan,nan,nan,nan,nan,nan,nan,nan,nan
8962328000,6,1619.6917,1619.0034,1619.7837,1617.9644,1500.0,1500.0,nan,nan,nan,nan,nan,nan,nan,nan,nan,nan
8962428000,6,1620.2589,1623.1971,1620.0063,1622.5853,1500.0,1500.0,nan,nan,nan,nan,nan,nan,nan,nan,nan,nan
8962528000,6,1619.643,1620.2031,1620.4434,1618.8379,1500.0,1500.0,nan,nan,nan,nan,nan,nan,nan,nan,nan,nan
8962628000,6,1627.1936,1626.3418,1624.9689,1629.3392,1500.0,1500.0,nan,nan,nan,nan,nan,nan,nan,nan,nan,nan
8962728000,6,1624.5525,1622.4757,1626.8329,1623.1619,1500.0,1500.0,nan,nan,nan,nan,nan,nan,nan,nan,nan,nan
8962828000,6,1633.6844,1630.5347,1633.4297,1632.8931,1500.0,1500.0,nan,nan,nan,nan,nan,nan,nan,nan,nan,nan
8962932000,6,1636.3856,1631.9937,1634.3593,1635.405,1500.0,1500.0,nan,nan,nan,nan,nan,nan,nan,nan,nan,nan
8963028000,6,1632.5044,1631.9272,1632.9713,1632.7325,1500.0,1500.0,nan,nan,nan,nan,nan,nan,nan,nan,nan,nan
8963128000,6,1632.5288,1632.7725,1631.8202,1632.417,1500.0,1500.0,nan,nan,nan,nan,nan,nan,nan,nan,nan,nan
8963232000,6,1634.0424,1634.1575,1635.386,1631.1011,1500.0,1500.0,nan,nan,nan,nan,nan,nan,nan,nan,nan,nan
8963328000,6,1644.0559,1642.0532,1642.3177,1641.9657,1500.0,1500.0,nan,nan,nan,nan,nan,nan,nan,nan,nan,nan
8963428000,6,1636.4357,1639.0327,1640.4834,1641.1794,1500.0,1500.0,nan,nan,nan,nan,nan,nan,nan,nan,nan,nan
8963528000,6,1628.7769,1631.5804,1630.6128,1632.7915,1500.0,1500.0,nan,nan,nan,nan,nan,nan,nan,nan,nan,nan
8963632000,6,1502.9124,1506.783,1501.898,1507.9045,1500.0,1500.0,nan,nan,nan,nan,nan,nan,nan,nan,nan,nan
8963732000,6,1543.2551,1541.565,1540.5986,1540.5736,1500.0,1500.0,nan,nan,nan,nan,nan,nan,nan,nan,nan,nan
8963832000,6,1550.932,1553.0072,1549.3916,1551.3595,1500.0,1500.0,nan,nan,nan,nan,nan,nan,nan,nan,nan,nan
8963928000,6,1549.6724,1548.4669,1546.8452,1545.9897,1500.0,1500.0,nan,nan,nan,nan,nan,nan,nan,nan,nan,nan
8964032000,6,1548.4554,1549.4154,1547.5752,1547.8112,1500.0,1500.0,nan,nan,nan,nan,nan,nan,nan,nan,nan,nan
8964128000,6,1549.4988,1548.3148,1551.2141,1549.7838,1500.0,1500.0,nan,nan,nan,nan,nan,nan,nan,nan,nan,nan
8964228000,6,1549.6643,1548.8462,1549.7021,1549.1635,1500.0,1500.0,nan,nan,nan,nan,nan,nan,nan,nan,nan,nan
8964328000,6,1555.8317,1552.1002,1552.5747,1552.8165,1500.0,1500.0,nan,nan,nan,nan,nan,nan,nan,nan,nan,nan
8964432000,6,1556.2058,1556.313,1555.6993,1556.4845,1500.0,1500.0,nan,nan,nan,nan,nan,nan,nan,nan,nan,nan
8964528000,6,1556.6077,1553.343,1556.6339,1556.5112,1500.0,1500.0,nan,nan,nan,nan,nan,nan,nan,nan,nan,nan
8964628000,6,1552.6622,1556.5153,1553.0919,1556.1007,1500.0,1500.0,nan,nan,nan,nan,nan,nan,nan,nan,nan,nan
8964732000,6,1554.4974,1554.892,1554.1074,1555.7744,1500.0,1500.0,nan,nan,nan,nan,nan,nan,nan,nan,nan,nan
8964828000,6,1557.0474,1563.7336,1561.4669,1561.2073,1500.0,1500.0,nan,nan,nan,nan,nan,nan,nan,nan,nan,nan
8964932000,6,1559.5774,1560.952,1563.3556,1559.0505,1500.0,1500.0,nan,nan,nan,nan,nan,nan,nan,nan,nan,nan
8965028000,6,1558.5804,1557.867,1562.5808,1555.8513,1500.0,1500.0,nan,nan,nan,nan,nan,nan,nan,nan,nan,nan
8965128000,6,1558.3735,1560.9208,1561.1449,1561.1223,1500.0,1500.0,nan,nan,nan,nan,nan,nan,nan,nan,nan,nan
8965232000,6,1559.7168,1557.185,1560.8514,1556.9467,1500.0,1500.0,nan,nan,nan,nan,nan,nan,nan,nan,nan,nan
8965328000,6,1561.5656,1561.1273,1562.2631,1562.2518,1500.0,1500.0,nan,nan,nan,nan,nan,nan,nan,nan,nan,nan
8965432000,6,1564.5981,1562.643,1566.5922,1564.7156,1500.0,1500.0,nan,nan,nan,nan,nan,nan,nan,nan,nan,nan
8965528000,6,1562.4297,1561.6758,1560.3418,1564.5966,1500.0,1500.0,nan,nan,nan,nan,nan,nan,nan,nan,nan,nan
8965628000,6,1562.8883,1559.797,1562.6556,1560.1034,1500.0,1500.0,nan,nan,nan,nan,nan,nan,nan,nan,nan,nan
8965732000,6,1563.3748,1561.1158,1562.7603,1563.7832,1500.0,1500.0,nan,nan,nan,nan,nan,nan,nan,nan,nan,nan
8965828000,6,1565.4146,1565.6906,1563.2491,1566.1401,1500.0,1500.0,nan,nan,nan,nan,nan,nan,nan,nan,nan,nan
8965928000,6,1559.7689,1562.7047,1564.0765,1563.699,1500.0,1500.0,nan,nan,nan,nan,nan,nan,nan,nan,nan,nan
8966032000,6,1564.2391,1562.7834,1566.3102,1562.2024,1500.0,1500.0,nan,nan,nan,nan,nan,nan,nan,nan,nan,nan
8966128000,6,1562.1309,1561.9398,1564.3617,1560.632,1500.0,1500.0,nan,nan,nan,nan,nan,nan,nan,nan,nan,nan
8966232000,6,1563.0018,1565.7764,1563.9648,1564.4167,1500.0,1500.0,nan,nan,nan,nan,nan,nan,nan,nan,nan,nan
8966328000,6,1562.0005,1564.7091,1565.5769,1562.0833,1500.0,1500.0,nan,nan,nan,nan,nan,nan,nan,nan,nan,nan
8966428000,6,1561.9905,1565.0118,1564.5177,1563.6854,1500.0,1500.0,nan,nan,nan,nan,nan,nan,nan,nan,nan,nan
8966532000,6,1565.751,1562.2162,1568.2366,1561.2466,1500.0,1500.0,nan,nan,nan,nan,nan,nan,nan,nan,nan,nan
8966628000,6,1564.9988,1566.0791,1564.2709,1564.8398,1500.0,1500.0,nan,nan,nan,nan,nan,nan,nan,nan,nan,nan
8966732000,6,1563.8889,1563.9645,1565.0717,1561.9059,1500.0,1500.0,nan,nan,nan,nan,nan,nan,nan,nan,nan,nan
8966828000,6,1563.9729,1566.6686,1567.1647,1564.0398,1500.0,1500.0,nan,nan,nan,nan,nan,nan,nan,nan,nan,nan
8966932000,6,1562.89,1564.4475,1561.6493,1565.2158,1500.0,1500.0,nan,nan,nan,nan,nan,nan,nan,nan,nan,nan
8967028000,6,1562.663,1565.3467,1564.622,1566.0298,1500.0,1500.0,nan,nan,nan,nan,nan,nan,nan,nan,nan,nan
8967128000,6,1564.7981,1567.4753,1565.2269,1563.6393,1500.0,1500.0,nan,nan,nan,nan,nan,nan,nan,nan,nan,nan
8967228000,6,1565.9467,1564.2936,1562.8131,1565.2947,1500.0,1500.0,nan,nan,nan,nan,nan,nan,nan,nan,nan,nan
8967332000,6,1563.9119,1561.917,1565.453,1562.6072,1500.0,1500.0,nan,nan,nan,nan,nan,nan,nan,nan,nan,nan
8967428000,6,1563.9032,1566.4474,1564.0537,1564.2659,1500.0,1500.0,nan,nan,nan,nan,nan,nan,nan,nan,nan,nan
8967532000,6,1567.4185,1560.0221,1564.8479,1560.4225,1500.0,1500.0,nan,nan,nan,nan,nan,nan,nan,nan,nan,nan
8967628000,6,1563.6809,1567.3678,1566.0042,1566.1385,1500.0,1500.0,nan,nan,nan,nan,nan,nan,nan,nan,nan,nan
8967728000,6,1562.9819,1565.5437,1563.2937,1563.4486,1500.0,1500.0,nan,nan,nan,nan,nan,nan,nan,nan,nan,nan
8967828000,6,1563.4518,1564.1952,1563.4269,1564.1123,1500.0,1500.0,nan,nan,nan,nan,nan,nan,nan,nan,nan,nan
8967932000,6,1566.252,1565.1989,1566.0161,1563.4332,1500.0,1500.0,nan,nan,nan,nan,nan,nan,nan,nan,nan,nan
8968028000,6,1565.8552,1561.7957,1563.9008,1564.0585,1500.0,1500.0,nan,nan,nan,nan,nan,nan,nan,nan,nan,nan
8968128000,6,1564.503,1564.223,1565.6393,1565.3729,1500.0,1500.0,nan,nan,nan,nan,nan,nan,nan,nan,nan,nan
8968228000,6,1565.8007,1562.7848,1563.3011,1564.3757,1500.0,1500.0,nan,nan,nan,nan,nan,nan,nan,nan,nan,nan
8968332000,6,1564.193,1564.1495,1565.9532,1563.2026,1500.0,1500.0,nan,nan,nan,nan,nan,nan,nan,nan,nan,nan
8968428000,6,1562.5623,1563.0696,1562.7902,1562.7225,1500.0,1500.0,nan,nan,nan,nan,nan,nan,nan,nan,nan,nan
8968532000,6,1562.8434,1565.1787,1564.7882,1564.0199,1500.0,1500.0,nan,nan,nan,nan,nan,nan,nan,nan,nan,nan
8968632000,6,1564.9908,1564.0808,1564.8173,1565.8237,1500.0,1500.0,nan,nan,nan,nan,nan,nan,nan,nan,nan,nan
8968732000,6,1562.1383,1564.3254,1562.7715,1566.6185,1500.0,1500.0,nan,nan,nan,nan,nan,nan,nan,nan,nan,nan
8968828000,6,1564.8369,1563.441,1566.7778,1565.3423,1500.0,1500.0,nan,nan,nan,nan,nan,nan,nan,nan,nan,nan
8968928000,6,1561.0784,1567.0696,1563.043,1566.3557,1500.0,1500.0,nan,nan,nan,nan,nan,nan,nan,nan,nan,nan
8969028000,6,1564.4196,1566.7909,1565.8264,1565.2119,1500.0,1500.0,nan,nan,nan,nan,nan,nan,nan,nan,nan,nan
8969128000,6,1562.7983,1564.4122,1563.9761,1564.4517,1500.0,1500.0,nan,nan,nan,nan,nan,nan,nan,nan,nan,nan
8969232000,6,1566.1604,1564.1232,1565.386,1564.6604,1500.0,1500.0,nan,nan,nan,nan,nan,nan,nan,nan,nan,nan
8969332000,6,1564.1996,1562.5496,1563.2114,1564.9058,1500.0,1500.0,nan,nan,nan,nan,nan,nan,nan,nan,nan,nan
8969428000,6,1563.8887,1565.9434,1559.3739,1567.3933,1500.0,1500.0,nan,nan,nan,nan,nan,nan,nan,nan,nan,nan
8969528000,6,1566.8824,1562.8723,1568.5383,1563.1685,1500.0,1500.0,nan,nan,nan,nan,nan,nan,nan,nan,nan,nan
8969632000,6,1564.4846,1563.8752,1565.763,1562.2961,1500.0,1500.0,nan,nan,nan,nan,nan,nan,nan,nan,nan,nan
8969728000,6,1566.7516,1564.2704,1567.323,1564.1719,1500.0,1500.0,nan,nan,nan,nan,nan,nan,nan,nan,nan,nan
8969828000,6,1564.8273,1565.3633,1564.7894,1562.734,1500.0,1500.0,nan,nan,nan,nan,nan,nan,nan,nan,nan,nan
8969932000,6,1567.4846,1561.3822,1566.0958,1561.7539,1500.0,1500.0,nan,nan,nan,nan,nan,nan,nan,nan,nan,nan
8970032000,6,1563.7399,1563.9996,1566.8667,1565.1913,1500.0,1500.0,nan,nan,nan,nan,nan,nan,nan,nan,nan,nan
8970132000,6,1565.9104,1562.0332,1564.1311,1565.3557,1500.0,1500.0,nan,nan,nan,nan,nan,nan,nan,nan,nan,nan
8970228000,6,1566.0039,1565.0176,1565.0806,1565.1318,1500.0,1500.0,nan,nan,nan,nan,nan,nan,nan,nan,nan,nan
8970328000,6,1562.7284,1562.984,1561.26,1565.1095,1500.0,1500.0,nan,nan,nan,nan,nan,nan,nan,nan,nan,nan
8970432000,6,1566.9706,1561.1813,1566.0995,1561.3293,1500.0,1500.0,nan,nan,nan,nan,nan,nan,nan,nan,nan,nan
8970532000,6,1565.1781,1561.3942,1565.4487,1562.0067,1500.0,1500.0,nan,nan,nan,nan,nan,nan,nan,nan,nan,nan
8970628000,6,1563.3032,1563.7114,1563.0939,1563.6661,1500.0,1500.0,nan,nan,nan,nan,nan,nan,nan,nan,nan,nan
8970732000,6,1562.2845,1564.7676,1561.7023,1562.2384,1500.0,1500.0,nan,nan,nan,nan,nan,nan,nan,nan,nan,nan
8970828000,6,1563.809,1565.221,1560.9747,1564.8323,1500.0,1500.0,nan,nan,nan,nan,nan,nan,nan,nan,nan,nan
8970928000,6,1562.7057,1563.4493,1561.4766,1565.9309,1500.0,1500.0,nan,nan,nan,nan,nan,nan,nan,nan,nan,nan
8971032000,6,1562.3628,1562.7203,1560.9808,1565.5055,1500.0,1500.0,nan,nan,nan,nan,nan,nan,nan,nan,nan,nan
8971128000,6,1563.8658,1564.5697,1564.5946,1562.777,1500.0,1500.0,nan,nan,nan,nan,nan,nan,nan,nan,nan,nan
8971232000,6,1566.0586,1564.6836,1562.8357,1564.7418,1500.0,1500.0,nan,nan,nan,nan,nan,nan,nan,nan,nan,nan
8971328000,6,1567.0474,1561.7908,1562.6547,1566.3341,1500.0,1500.0,nan,nan,nan,nan,nan,nan,nan,nan,nan,nan
8971432000,6,1562.7069,1563.596,1564.6198,1559.6725,1500.0,1500.0,nan,nan,nan,nan,nan,nan,nan,nan,nan,nan
8971532000,6,1564.1423,1566.516,1565.8148,1562.0802,1500.0,1500.0,nan,nan,nan,nan,nan,nan,nan,nan,nan,nan
8971628000,6,1563.1968,1565.2896,1561.8043,1565.1188,1500.0,1500.0,nan,nan,nan,nan,nan,nan,nan,nan,nan,nan
8971728000,6,1564.2598,1565.7888,1563.7671,1563.0049,1500.0,1500.0,nan,nan,nan,nan,nan,nan,nan,nan,nan,nan
8971832000,6,1566.4246,1563.931,1564.7208,1561.2915,1500.0,1500.0,nan,nan,nan,nan,nan,nan,nan,nan,nan,nan
8971928000,6,1562.4166,1562.2148,1565.0251,1564.3058,1500.0,1500.0,nan,nan,nan,nan,nan,nan,nan,nan,nan,nan
8972028000,6,1564.3179,1564.3694,1566.2609,1560.4081,1500.0,1500.0,nan,nan,nan,nan,nan,nan,nan,nan,nan,nan
8972132000,6,1566.3279,1564.8079,1562.9194,1564.7959,1500.0,1500.0,nan,nan,nan,nan,nan,nan,nan,nan,nan,nan
8972228000,6,1559.7819,1565.0017,1561.7836,1565.433,1500.0,1500.0,nan,nan,nan,nan,nan,nan,nan,nan,nan,nan
8972328000,6,1566.3917,1565.5364,1563.895,1564.8365,1500.0,1500.0,nan,nan,nan,nan,nan,nan,nan,nan,nan,nan
8972428000,6,1564.6233,1564.8168,1564.8776,1565.591,1500.0,1500.0,nan,nan,nan,nan,nan,nan,nan,nan,nan,nan
8972532000,6,1563.8174,1560.8049,1565.7213,1561.4305,1500.0,1500.0,nan,nan,nan,nan,nan,nan,nan,nan,nan,nan
8972632000,6,1567.4503,1564.1982,1565.928,1563.6143,1500.0,1500.0,nan,nan,nan,nan,nan,nan,nan,nan,nan,nan
8972732000,6,1566.2905,1561.2645,1562.9309,1564.1506,1500.0,1500.0,nan,nan,nan,nan,nan,nan,nan,nan,nan,nan
8972828000,6,1562.9602,1566.5762,1562.7194,1563.3352,1500.0,1500.0,nan,nan,nan,nan,nan,nan,nan,nan,nan,nan
8972928000,6,1565.1344,1562.7709,1563.5172,1560.9796,1500.0,1500.0,nan,nan,nan,nan,nan,nan,nan,nan,nan,nan
8973032000,6,1564.616,1562.6367,1564.5604,1563.1805,1500.0,1500.0,nan,nan,nan,nan,nan,nan,nan,nan,nan,nan
8973132000,6,1561.8102,1564.4082,1560.347,1565.3021,1500.0,1500.0,nan,nan,nan,nan,nan,nan,nan,nan,nan,nan
8973232000,6,1561.7023,1561.69,1562.872,1562.2047,1500.0,1500.0,nan,nan,nan,nan,nan,nan,nan,nan,nan,nan
8973332000,6,1565.5072,1560.125,1564.7031,1562.7377,1500.0,1500.0,nan,nan,nan,nan,nan,nan,nan,nan,nan,nan
8973428000,6,1560.6979,1562.791,1561.0334,1564.3738,1500.0,1500.0,nan,nan,nan,nan,nan,nan,nan,nan,nan,nan
8973532000,6,1565.7454,1561.4011,1565.0667,1564.6444,1500.0,1500.0,nan,nan,nan,nan,nan,nan,nan,nan,nan,nan
8973628000,6,1562.7777,1562.4706,1562.4104,1563.1117,1500.0,1500.0,nan,nan,nan,nan,nan,nan,nan,nan,nan,nan
8973732000,6,1564.9404,1563.1517,1561.627,1564.8718,1500.0,1500.0,nan,nan,nan,nan,nan,nan,nan,nan,nan,nan
8973828000,6,1562.0991,1561.61,1560.8226,1563.7819,1500.0,1500.0,nan,nan,nan,nan,nan,nan,nan,nan,nan,nan
8973928000,6,1565.214,1561.859,1563.1388,1563.8345,1500.0,1500.0,nan,nan,nan,nan,nan,nan,nan,nan,nan,nan
8974028000,6,1562.9177,1563.6521,1562.9392,1566.9661,1500.0,1500.0,nan,nan,nan,nan,nan,nan,nan,nan,nan,nan
8974128000,6,1565.3397,1561.7185,1562.4281,1565.3314,1500.0,1500.0,nan,nan,nan,nan,nan,nan,nan,nan,nan,nan
8974232000,6,1565.5404,1564.2651,1565.1027,1562.7606,1500.0,1500.0,nan,nan,nan,nan,nan,nan,nan,nan,nan,nan
8974328000,6,1565.833,1563.2488,1563.485,1565.242,1500.0,1500.0,nan,nan,nan,nan,nan,nan,nan,nan,nan,nan
8974432000,6,1567.0334,1559.8458,1566.0902,1562.0039,1500.0,1500.0,nan,nan,nan,nan,nan,nan,nan,nan,nan,nan
8974528000,6,1944.8234,1854.5435,1166.5204,1015.2129,1500.0,1500.0,nan,nan,nan,nan,nan,nan,nan,nan,nan,nan
8974628000,6,1588.7876,1492.3693,1334.3353,1233.1055,1500.0,1500.0,nan,nan,nan,nan,nan,nan,nan,nan,nan,nan
8974728000,6,1579.7496,1582.3875,1547.3723,1539.5233,1500.0,1500.0,nan,nan,nan,nan,nan,nan,nan,nan,nan,nan
8974828000,6,1555.1442,1598.8239,1592.8131,1593.2875,1500.0,1500.0,nan,nan,nan,nan,nan,nan,nan,nan,nan,nan
8974928000,6,1522.2494,1571.6117,1568.5095,1578.7133,1500.0,1500.0,nan,nan,nan,nan,nan,nan,nan,nan,nan,nan
8975028000,6,1547.4032,1567.793,1579.5813,1585.0323,1500.0,1500.0,nan,nan,nan,nan,nan,nan,nan,nan,nan,nan
8975128000,6,1556.3762,1565.8091,1583.1356,1576.3956,1500.0,1500.0,nan,nan,nan,nan,nan,nan,nan,nan,nan,nan
8975232000,6,1557.8535,1562.0327,1575.6917,1577.0883,1500.0,1500.0,nan,nan,nan,nan,nan,nan,nan,nan,nan,nan
8975328000,6,1556.9702,1570.0579,1569.7166,1577.3751,1500.0,1500.0,nan,nan,nan,nan,nan,nan,nan,nan,nan,nan
8975432000,6,1563.6969,1565.7765,1570.523,1573.4312,1500.0,1500.0,nan,nan,nan,nan,nan,nan,nan,nan,nan,nan
8975528000,6,1560.1101,1568.6411,1573.4447,1573.2242,1500.0,1500.0,nan,nan,nan,nan,nan,nan,nan,nan,nan,nan
8975632000,6,1562.9033,1571.007,1569.6027,1572.8823,1500.0,1500.0,nan,nan,nan,nan,nan,nan,nan,nan,nan,nan
8975732000,6,1562.7417,1571.8757,1566.0758,1575.553,1500.0,1500.0,nan,nan,nan,nan,nan,nan,nan,nan,nan,nan
8975828000,6,1564.6604,1570.5353,1570.7504,1572.3247,1500.0,1500.0,nan,nan,nan,nan,nan,nan,nan,nan,nan,nan
8975928000,6,1565.1874,1575.9156,1569.9608,1575.8999,1500.0,1500.0,nan,nan,nan,nan,nan,nan,nan,nan,nan,nan
8976032000,6,1564.8937,1571.9822,1566.671,1575.522,1500.0,1500.0,nan,nan,nan,nan,nan,nan,nan,nan,nan,nan
8976128000,6,1563.1599,1575.2086,1568.6003,1572.4491,1500.0,1500.0,nan,nan,nan,nan,nan,nan,nan,nan,nan,nan
8976228000,6,1567.1881,1573.7491,1567.7794,1575.3043,1500.0,1500.0,nan,nan,nan,nan,nan,nan,nan,nan,nan,nan
8976328000,6,1566.3765,1575.4889,1570.8302,1573.9258,1500.0,1500.0,nan,nan,nan,nan,nan,nan,nan,nan,nan,nan
8976428000,6,1564.9696,1575.6758,1567.9366,1575.9286,1500.0,1500.0,nan,nan,nan,nan,nan,nan,nan,nan,nan,nan
8976532000,6,1567.7104,1578.7623,1566.9761,1579.689,1500.0,1500.0,nan,nan,nan,nan,nan,nan,nan,nan,nan,nan
8976628000,6,1567.6184,1579.2552,1570.1855,1578.1495,1500.0,1500.0,nan,nan,nan,nan,nan,nan,nan,nan,nan,nan
8976732000,6,1564.6837,1581.1384,1565.175,1582.6456,1500.0,1500.0,nan,nan,nan,nan,nan,nan,nan,nan,nan,nan
8976832000,6,1566.624,1580.141,1569.4086,1580.3339,1500.0,1500.0,nan,nan,nan,nan,nan,nan,nan,nan,nan,nan
8976932000,6,1569.1068,1578.923,1570.478,1578.3032,1500.0,1500.0,nan,nan,nan,nan,nan,nan,nan,nan,nan,nan
8977028000,6,1566.654,1580.0247,1571.9397,1577.452,1500.0,1500.0,nan,nan,nan,nan,nan,nan,nan,nan,nan,nan
8977128000,6,1570.0989,1580.4501,1569.7853,1582.1202,1500.0,1500.0,nan,nan,nan,nan,nan,nan,nan,nan,nan,nan
8977228000,6,1567.6907,1579.5714,1571.4008,1580.6772,1500.0,1500.0,nan,nan,nan,nan,nan,nan,nan,nan,nan,nan
8977328000,6,1570.8881,1581.3528,1568.5757,1582.818,1500.0,1500.0,nan,nan,nan,nan,nan,nan,nan,nan,nan,nan
8977428000,6,1572.8052,1581.3091,1573.8005,1580.3297,1500.0,1500.0,nan,nan,nan,nan,nan,nan,nan,nan,nan,nan
8977528000,6,1570.1478,1585.5786,1572.1061,1583.7433,1500.0,1500.0,nan,nan,nan,nan,nan,nan,nan,nan,nan,nan
8977632000,6,1570.914,1587.5969,1573.1206,1586.489,1500.0,1500.0,nan,nan,nan,nan,nan,nan,nan,nan,nan,nan
8977728000,6,1571.5641,1585.7212,1573.3594,1586.9902,1500.0,1500.0,nan,nan,nan,nan,nan,nan,nan,nan,nan,nan
8977828000,6,1571.3068,1587.8451,1573.5096,1585.3802,1500.0,1500.0,nan,nan,nan,nan,nan,nan,nan,nan,nan,nan
8977932000,6,1571.4282,1588.7872,1574.2812,1588.1931,1500.0,1500.0,nan,nan,nan,nan,nan,nan,nan,nan,nan,nan
8978032000,6,1571.6985,1590.5098,1576.5132,1588.3403,1500.0,1500.0,nan,nan,nan,nan,nan,nan,nan,nan,nan,nan
8978128000,6,1569.7238,1593.2109,1574.2704,1590.5375,1500.0,1500.0,nan,nan,nan,nan,nan,nan,nan,nan,nan,nan
8978228000,6,1577.4276,1578.478,1579.6711,1579.786,1500.0,1500.0,nan,nan,nan,nan,nan,nan,nan,nan,nan,nan
8978328000,6,1573.4937,1592.9232,1577.6852,1587.4951,1500.0,1500.0,nan,nan,nan,nan,nan,nan,nan,nan,nan,nan
8978428000,6,1563.83,1596.751,1568.1296,1593.5459,1500.0,1500.0,nan,nan,nan,nan,nan,nan,nan,nan,nan,nan
8978528000,6,1565.0232,1593.3499,1568.626,1593.7415,1500.0,1500.0,nan,nan,nan,nan,nan,nan,nan,nan,nan,nan
8978632000,6,1572.1947,1585.2727,1571.2388,1586.9196,1500.0,1500.0,nan,nan,nan,nan,nan,nan,nan,nan,nan,nan
8978732000,6,1569.581,1586.3546,1571.6494,1588.4797,1500.0,1500.0,nan,nan,nan,nan,nan,nan,nan,nan,nan,nan
8978832000,6,1566.1296,1587.1687,1567.3157,1585.8367,1500.0,1500.0,nan,nan,nan,nan,nan,nan,nan,nan,nan,nan
8978928000,6,1568.3156,1583.1107,1569.9711,1581.9348,1500.0,1500.0,nan,nan,nan,nan,nan,nan,nan,nan,nan,nan
8979032000,6,1568.8202,1583.746,1569.9517,1581.8212,1500.0,1500.0,nan,nan,nan,nan,nan,nan,nan,nan,nan,nan
8979128000,6,1566.7533,1583.3289,1567.5585,1582.664,1500.0,1500.0,nan,nan,nan,nan,nan,nan,nan,nan,nan,nan
8979228000,6,1565.9309,1582.6864,1567.1581,1583.2396,1500.0,1500.0,nan,nan,nan,nan,nan,nan,nan,nan,nan,nan
8979332000,6,1565.8539,1582.7175,1567.3611,1582.0579,1500.0,1500.0,nan,nan,nan,nan,nan,nan,nan,nan,nan,nan
8979428000,6,1565.3588,1581.5001,1566.8604,1582.4774,1500.0,1500.0,nan,nan,nan,nan,nan,nan,nan,nan,nan,nan
8979528000,6,1565.9796,1579.8551,1568.4366,1578.7123,1500.0,1500.0,nan,nan,nan,nan,nan,nan,nan,nan,nan,nan
8979632000,6,1567.9705,1578.92,1568.9181,1579.1372,1500.0,1500.0,nan,nan,nan,nan,nan,nan,nan,nan,nan,nan
8979732000,6,1563.6205,1582.0393,1568.2484,1577.4021,1500.0,1500.0,nan,nan,nan,nan,nan,nan,nan,nan,nan,nan
8979832000,6,1570.7947,1578.8389,1567.7932,1581.4672,1500.0,1500.0,nan,nan,nan,nan,nan,nan,nan,nan,nan,nan
8979928000,6,1567.4327,1577.0161,1568.9485,1580.3988,1500.0,1500.0,nan,nan,nan,nan,nan,nan,nan,nan,nan,nan
8980032000,6,1569.5411,1572.2472,1565.6414,1577.5444,1500.0,1500.0,nan,nan,nan,nan,nan,nan,nan,nan,nan,nan
8980128000,6,1572.603,1575.4329,1571.4427,1576.0867,1500.0,1500.0,nan,nan,nan,nan,nan,nan,nan,nan,nan,nan
8980232000,6,1571.5509,1573.1892,1565.6989,1575.2329,1500.0,1500.0,nan,nan,nan,nan,nan,nan,nan,nan,nan,nan
8980328000,6,1571.0845,1573.0585,1567.739,1573.9138,1500.0,1500.0,nan,nan,nan,nan,nan,nan,nan,nan,nan,nan
8980432000,6,1580.9642,1559.5892,1571.6973,1561.2697,1500.0,1500.0,nan,nan,nan,nan,nan,nan,nan,nan,nan,nan
8980528000,6,1668.3069,1489.4531,1456.8566,1650.0328,1500.0,1500.0,nan,nan,nan,nan,nan,nan,nan,nan,nan,nan
8980632000,6,1480.2056,1630.1772,1560.5452,1543.7081,1500.0,1500.0,nan,nan,nan,nan,nan,nan,nan,nan,nan,nan
8980732000,6,1534.1681,1603.2865,1574.3508,1567.9938,1500.0,1500.0,nan,nan,nan,nan,nan,nan,nan,nan,nan,nan
8980832000,6,1588.7197,1565.183,1576.1724,1580.1632,1500.0,1500.0,nan,nan,nan,nan,nan,nan,nan,nan,nan,nan
8980928000,6,1589.4744,1559.456,1572.5798,1580.5308,1500.0,1500.0,nan,nan,nan,nan,nan,nan,nan,nan,nan,nan
8981032000,6,1580.6696,1567.4476,1565.595,1581.1017,1500.0,1500.0,nan,nan,nan,nan,nan,nan,nan,nan,nan,nan
8981132000,6,1581.0432,1572.1962,1571.6166,1576.966,1500.0,1500.0,nan,nan,nan,nan,nan,nan,nan,nan,nan,nan
8981232000,6,1576.8105,1572.6157,1567.9915,1578.0835,1500.0,1500.0,nan,nan,nan,nan,nan,nan,nan,nan,nan,nan
8981328000,6,1581.5808,1570.4116,1573.7072,1574.4711,1500.0,1500.0,nan,nan,nan,nan,nan,nan,nan,nan,nan,nan
8981428000,6,1579.3816,1573.163,1571.176,1576.38,1500.0,1500.0,nan,nan,nan,nan,nan,nan,nan,nan,nan,nan
8981528000,6,1580.0082,1569.2911,1569.8079,1579.5646,1500.0,1500.0,nan,nan,nan,nan,nan,nan,nan,nan,nan,nan
8981632000,6,1578.0728,1577.6494,1570.8555,1579.6772,1500.0,1500.0,nan,nan,nan,nan,nan,nan,nan,nan,nan,nan
8981728000,6,1580.3497,1575.7079,1569.8185,1579.5828,1500.0,1500.0,nan,nan,nan,nan,nan,nan,nan,nan,nan,nan
8981832000,6,1583.8622,1568.4207,1571.3508,1575.0286,1500.0,1500.0,nan,nan,nan,nan,nan,nan,nan,nan,nan,nan
8981928000,6,1579.9183,1574.703,1567.8866,1581.6512,1500.0,1500.0,nan,nan,nan,nan,nan,nan,nan,nan,nan,nan
8982028000,6,1580.3082,1572.4567,1571.2927,1576.3855,1500.0,1500.0,nan,nan,nan,nan,nan,nan,nan,nan,nan,nan
8982128000,6,1578.599,1573.8586,1570.04,1578.9807,1500.0,1500.0,nan,nan,nan,nan,nan,nan,nan,nan,nan,nan
8982232000,6,1578.7357,1576.0507,1570.3363,1580.1882,1500.0,1500.0,nan,nan,nan,nan,nan,nan,nan,nan,nan,nan
8982332000,6,1578.8761,1574.5132,1569.0844,1577.5758,1500.0,1500.0,nan,nan,nan,nan,nan,nan,nan,nan,nan,nan
8982432000,6,1578.9825,1572.7032,1569.3625,1579.7233,1500.0,1500.0,nan,nan,nan,nan,nan,nan,nan,nan,nan,nan
8982528000,6,1580.1501,1574.839,1569.832,1579.183,1500.0,1500.0,nan,nan,nan,nan,nan,nan,nan,nan,nan,nan
8982628000,6,1580.1068,1573.5557,1570.9299,1578.3541,1500.0,1500.0,nan,nan,nan,nan,nan,nan,nan,nan,nan,nan
8982732000,6,1579.7855,1573.4258,1568.7144,1580.1028,1500.0,1500.0,nan,nan,nan,nan,nan,nan,nan,nan,nan,nan
8982832000,6,1578.4861,1576.646,1567.3602,1582.7031,1500.0,1500.0,nan,nan,nan,nan,nan,nan,nan,nan,nan,nan
8982932000,6,1579.9628,1572.4196,1569.4888,1581.3434,1500.0,1500.0,nan,nan,nan,nan,nan,nan,nan,nan,nan,nan
8983028000,6,1582.6348,1570.5144,1569.6566,1579.6375,1500.0,1500.0,nan,nan,nan,nan,nan,nan,nan,nan,nan,nan
8983132000,6,1581.6842,1575.318,1569.7694,1580.762,1500.0,1500.0,nan,nan,nan,nan,nan,nan,nan,nan,nan,nan
8983228000,6,1583.496,1572.8434,1571.6764,1575.5352,1500.0,1500.0,nan,nan,nan,nan,nan,nan,nan,nan,nan,nan
8983332000,6,1579.8011,1574.0319,1569.3647,1580.6243,1500.0,1500.0,nan,nan,nan,nan,nan,nan,nan,nan,nan,nan
8983432000,6,1578.6569,1573.737,1570.2976,1577.4006,1500.0,1500.0,nan,nan,nan,nan,nan,nan,nan,nan,nan,nan
8983532000,6,1578.6016,1573.6947,1569.4553,1580.841,1500.0,1500.0,nan,nan,nan,nan,nan,nan,nan,nan,nan,nan
8983628000,6,1578.9865,1573.9099,1570.7693,1578.8054,1500.0,1500.0,nan,nan,nan,nan,nan,nan,nan,nan,nan,nan
8983728000,6,1579.8134,1573.6643,1570.2189,1579.2242,1500.0,1500.0,nan,nan,nan,nan,nan,nan,nan,nan,nan,nan
8983828000,6,1581.9353,1575.6844,1572.5653,1578.9448,1500.0,1500.0,nan,nan,nan,nan,nan,nan,nan,nan,nan,nan
8983932000,6,1578.7648,1576.2074,1572.4299,1579.3861,1500.0,1500.0,nan,nan,nan,nan,nan,nan,nan,nan,nan,nan
8984032000,6,1581.1595,1573.7571,1570.5485,1578.6735,1500.0,1500.0,nan,nan,nan,nan,nan,nan,nan,nan,nan,nan
8984132000,6,1581.9775,1572.4618,1572.1676,1578.3965,1500.0,1500.0,nan,nan,nan,nan,nan,nan,nan,nan,nan,nan
8984232000,6,1583.5472,1571.4922,1574.0187,1577.4092,1500.0,1500.0,nan,nan,nan,nan,nan,nan,nan,nan,nan,nan
8984328000,6,1583.2886,1573.0482,1572.7152,1573.3922,1500.0,1500.0,nan,nan,nan,nan,nan,nan,nan,nan,nan,nan
8984428000,6,1583.5643,1576.1981,1572.7585,1579.554,1500.0,1500.0,nan,nan,nan,nan,nan,nan,nan,nan,nan,nan
8984528000,6,1579.8767,1574.667,1570.433,1581.8237,1500.0,1500.0,nan,nan,nan,nan,nan,nan,nan,nan,nan,nan
8984628000,6,1582.3276,1573.4305,1571.8737,1578.8312,1500.0,1500.0,nan,nan,nan,nan,nan,nan,nan,nan,nan,nan
8984728000,6,1581.2683,1574.6268,1570.4548,1579.1095,1500.0,1500.0,nan,nan,nan,nan,nan,nan,nan,nan,nan,nan
8984828000,6,1583.0927,1575.5989,1572.3556,1578.6298,1500.0,1500.0,nan,nan,nan,nan,nan,nan,nan,nan,nan,nan
8984928000,6,1585.4712,1574.2916,1574.4144,1578.1294,1500.0,1500.0,nan,nan,nan,nan,nan,nan,nan,nan,nan,nan
8985032000,6,1583.5967,1572.8021,1569.5801,1580.5592,1500.0,1500.0,nan,nan,nan,nan,nan,nan,nan,nan,nan,nan
8985128000,6,1580.0507,1574.0735,1570.3293,1582.9303,1500.0,1500.0,nan,nan,nan,nan,nan,nan,nan,nan,nan,nan
8985228000,6,1581.7534,1575.5011,1570.5367,1580.3083,1500.0,1500.0,nan,nan,nan,nan,nan,nan,nan,nan,nan,nan
8985332000,6,1582.8909,1573.7495,1573.2537,1581.1409,1500.0,1500.0,nan,nan,nan,nan,nan,nan,nan,nan,nan,nan
8985428000,6,1581.084,1575.5071,1569.1543,1583.4313,1500.0,1500.0,nan,nan,nan,nan,nan,nan,nan,nan,nan,nan
8985528000,6,1582.1338,1571.1567,1571.4115,1578.6957,1500.0,1500.0,nan,nan,nan,nan,nan,nan,nan,nan,nan,nan
8985632000,6,1581.557,1573.4811,1571.5581,1580.7976,1500.0,1500.0,nan,nan,nan,nan,nan,nan,nan,nan,nan,nan
8985728000,6,1580.607,1572.25,1571.3445,1579.8912,1500.0,1500.0,nan,nan,nan,nan,nan,nan,nan,nan,nan,nan
8985832000,6,1580.7343,1574.0431,1573.1553,1580.6987,1500.0,1500.0,nan,nan,nan,nan,nan,nan,nan,nan,nan,nan
8985928000,6,1583.3241,1572.7172,1567.6265,1580.8655,1500.0,1500.0,nan,nan,nan,nan,nan,nan,nan,nan,nan,nan
8986028000,6,1585.0529,1572.1543,1570.4746,1582.9551,1500.0,1500.0,nan,nan,nan,nan,nan,nan,nan,nan,nan,nan
8986132000,6,1579.6946,1575.2328,1572.2864,1581.5288,1500.0,1500.0,nan,nan,nan,nan,nan,nan,nan,nan,nan,nan
8986228000,6,1583.9772,1575.3848,1571.621,1578.6652,1500.0,1500.0,nan,nan,nan,nan,nan,nan,nan,nan,nan,nan
8986328000,6,1583.5605,1574.0748,1572.3774,1580.6125,1500.0,1500.0,nan,nan,nan,nan,nan,nan,nan,nan,nan,nan
8986432000,6,1581.236,1578.6948,1572.2329,1580.1808,1500.0,1500.0,nan,nan,nan,nan,nan,nan,nan,nan,nan,nan
8986528000,6,1583.9633,1574.4409,1572.6183,1583.2537,1500.0,1500.0,nan,nan,nan,nan,nan,nan,nan,nan,nan,nan
8986628000,6,1583.0054,1577.7357,1573.192,1581.1719,1500.0,1500.0,nan,nan,nan,nan,nan,nan,nan,nan,nan,nan
8986732000,6,1585.2356,1575.0175,1572.3029,1582.0729,1500.0,1500.0,nan,nan,nan,nan,nan,nan,nan,nan,nan,nan
8986828000,6,1584.4541,1572.5723,1573.5941,1577.732,1500.0,1500.0,nan,nan,nan,nan,nan,nan,nan,nan,nan,nan
8986928000,6,1582.9132,1573.8137,1566.3634,1583.764,1500.0,1500.0,nan,nan,nan,nan,nan,nan,nan,nan,nan,nan
8987028000,6,1582.9384,1575.5933,1572.1797,1582.0198,1500.0,1500.0,nan,nan,nan,nan,nan,nan,nan,nan,nan,nan
8987132000,6,1585.2074,1573.4312,1571.2582,1579.4973,1500.0,1500.0,nan,nan,nan,nan,nan,nan,nan,nan,nan,nan
8987228000,6,1583.6655,1573.5968,1573.9779,1577.1987,1500.0,1500.0,nan,nan,nan,nan,nan,nan,nan,nan,nan,nan
8987332000,6,1582.4062,1573.5189,1571.2917,1579.1266,1500.0,1500.0,nan,nan,nan,nan,nan,nan,nan,nan,nan,nan
8987428000,6,1583.2534,1577.026,1570.9084,1580.614,1500.0,1500.0,nan,nan,nan,nan,nan,nan,nan,nan,nan,nan
8987532000,6,1582.9314,1574.224,1572.1418,1581.9896,1500.0,1500.0,nan,nan,nan,nan,nan,nan,nan,nan,nan,nan
8987628000,6,1584.0522,1574.4114,1573.0293,1578.407,1500.0,1500.0,nan,nan,nan,nan,nan,nan,nan,nan,nan,nan
8987728000,6,1580.1349,1576.7582,1571.1766,1582.3804,1500.0,1500.0,nan,nan,nan,nan,nan,nan,nan,nan,nan,nan
8987828000,6,1584.0831,1576.904,1571.0089,1581.6174,1500.0,1500.0,nan,nan,nan,nan,nan,nan,nan,nan,nan,nan
8987932000,6,1584.069,1574.2754,1572.4423,1582.2019,1500.0,1500.0,nan,nan,nan,nan,nan,nan,nan,nan,nan,nan
8988028000,6,1579.5172,1574.8043,1569.9819,1580.7614,1500.0,1500.0,nan,nan,nan,nan,nan,nan,nan,nan,nan,nan
8988132000,6,1580.8922,1572.8333,1569.4259,1581.4828,1500.0,1500.0,nan,nan,nan,nan,nan,nan,nan,nan,nan,nan
8988228000,6,1584.7909,1573.4897,1569.8782,1580.0907,1500.0,1500.0,nan,nan,nan,nan,nan,nan,nan,nan,nan,nan
8988328000,6,1582.2557,1572.1862,1571.8279,1579.3707,1500.0,1500.0,nan,nan,nan,nan,nan,nan,nan,nan,nan,nan
8988432000,6,1582.8385,1575.4069,1573.566,1580.6512,1500.0,1500.0,nan,nan,nan,nan,nan,nan,nan,nan,nan,nan
8988532000,6,1582.8755,1575.094,1569.0249,1583.3582,1500.0,1500.0,nan,nan,nan,nan,nan,nan,nan,nan,nan,nan
8988632000,6,1579.8174,1574.8527,1569.2089,1580.6996,1500.0,1500.0,nan,nan,nan,nan,nan,nan,nan,nan,nan,nan
8988728000,6,1582.9186,1575.8577,1571.422,1583.1417,1500.0,1500.0,nan,nan,nan,nan,nan,nan,nan,nan,nan,nan
8988828000,6,1584.5392,1576.3171,1572.9734,1581.9397,1500.0,1500.0,nan,nan,nan,nan,nan,nan,nan,nan,nan,nan
8988928000,6,1581.1327,1576.6179,1568.1625,1582.5165,1500.0,1500.0,nan,nan,nan,nan,nan,nan,nan,nan,nan,nan
8989032000,6,1580.5298,1578.4761,1570.4624,1581.1646,1500.0,1500.0,nan,nan,nan,nan,nan,nan,nan,nan,nan,nan
8989128000,6,1582.4617,1575.6243,1573.8489,1581.2994,1500.0,1500.0,nan,nan,nan,nan,nan,nan,nan,nan,nan,nan
8989232000,6,1583.951,1574.3701,1573.0043,1580.7876,1500.0,1500.0,nan,nan,nan,nan,nan,nan,nan,nan,nan,nan
8989328000,6,1584.316,1576.31,1573.06,1581.9612,1500.0,1500.0,nan,nan,nan,nan,nan,nan,nan,nan,nan,nan
8989432000,6,1584.1958,1572.9478,1569.7571,1582.3068,1500.0,1500.0,nan,nan,nan,nan,nan,nan,nan,nan,nan,nan
8989532000,6,1580.959,1578.6201,1571.0503,1583.9272,1500.0,1500.0,nan,nan,nan,nan,nan,nan,nan,nan,nan,nan
8989632000,6,1585.1979,1576.3193,1575.761,1581.3849,1500.0,1500.0,nan,nan,nan,nan,nan,nan,nan,nan,nan,nan
8989732000,6,1585.0853,1574.4381,1573.8512,1578.7635,1500.0,1500.0,nan,nan,nan,nan,nan,nan,nan,nan,nan,nan
8989828000,6,1583.3558,1574.4934,1573.9893,1580.2595,1500.0,1500.0,nan,nan,nan,nan,nan,nan,nan,nan,nan,nan
8989932000,6,1580.9988,1578.7141,1571.0903,1584.1655,1500.0,1500.0,nan,nan,nan,nan,nan,nan,nan,nan,nan,nan
8990028000,6,1584.2777,1574.2584,1572.3057,1579.351,1500.0,1500.0,nan,nan,nan,nan,nan,nan,nan,nan,nan,nan
8990128000,6,1583.4385,1575.8611,1569.891,1586.163,1500.0,1500.0,nan,nan,nan,nan,nan,nan,nan,nan,nan,nan
8990228000,6,1582.5514,1576.4657,1570.9742,1580.8423,1500.0,1500.0,nan,nan,nan,nan,nan,nan,nan,nan,nan,nan
8990328000,6,1580.2546,1576.2494,1571.1377,1581.138,1500.0,1500.0,nan,nan,nan,nan,nan,nan,nan,nan,nan,nan
8990428000,6,1583.128,1574.9596,1570.7513,1582.1617,1500.0,1500.0,nan,nan,nan,nan,nan,nan,nan,nan,nan,nan
8990532000,6,1582.7911,1577.4506,1570.1433,1584.3186,1500.0,1500.0,nan,nan,nan,nan,nan,nan,nan,nan,nan,nan
8990628000,6,1582.2676,1575.0986,1570.8903,1578.8181,1500.0,1500.0,nan,nan,nan,nan,nan,nan,nan,nan,nan,nan
8990732000,6,1586.4478,1571.3828,1571.1202,1579.9324,1500.0,1500.0,nan,nan,nan,nan,nan,nan,nan,nan,nan,nan
8990832000,6,1583.032,1576.6705,1571.0846,1583.8556,1500.0,1500.0,nan,nan,nan,nan,nan,nan,nan,nan,nan,nan
8990928000,6,1583.4968,1575.2406,1570.6062,1581.3834,1500.0,1500.0,nan,nan,nan,nan,nan,nan,nan,nan,nan,nan
8991028000,6,1584.9655,1571.9603,1570.9214,1581.4581,1500.0,1500.0,nan,nan,nan,nan,nan,nan,nan,nan,nan,nan
8991128000,6,1584.6841,1574.6113,1573.416,1580.1495,1500.0,1500.0,nan,nan,nan,nan,nan,nan,nan,nan,nan,nan
8991232000,6,1584.8433,1574.4689,1571.3951,1582.6111,1500.0,1500.0,nan,nan,nan,nan,nan,nan,nan,nan,nan,nan
8991332000,6,1583.2104,1575.5402,1569.9768,1584.4952,1500.0,1500.0,nan,nan,nan,nan,nan,nan,nan,nan,nan,nan
8991432000,6,1582.8032,1574.0016,1571.2028,1581.5049,1500.0,1500.0,nan,nan,nan,nan,nan,nan,nan,nan,nan,nan
8991528000,6,1583.1644,1572.7391,1571.8042,1581.9111,1500.0,1500.0,nan,nan,nan,nan,nan,nan,nan,nan,nan,nan
8991628000,6,1580.9071,1576.341,1569.6575,1583.3615,1500.0,1500.0,nan,nan,nan,nan,nan,nan,nan,nan,nan,nan
8991728000,6,1582.9316,1575.0255,1569.7516,1581.7803,1500.0,1500.0,nan,nan,nan,nan,nan,nan,nan,nan,nan,nan
8991832000,6,1583.211,1576.8093,1572.5625,1582.7804,1500.0,1500.0,nan,nan,nan,nan,nan,nan,nan,nan,nan,nan
8991928000,6,1585.1516,1576.5353,1571.7164,1583.44,1500.0,1500.0,nan,nan,nan,nan,nan,nan,nan,nan,nan,nan
8992028000,6,1586.8153,1576.1484,1571.4786,1583.3981,1500.0,1500.0,nan,nan,nan,nan,nan,nan,nan,nan,nan,nan
8992132000,6,1585.5619,1573.628,1571.3617,1581.9218,1500.0,1500.0,nan,nan,nan,nan,nan,nan,nan,nan,nan,nan
8992232000,6,1581.3813,1577.4366,1571.3748,1582.1711,1500.0,1500.0,nan,nan,nan,nan,nan,nan,nan,nan,nan,nan
8992328000,6,1584.7067,1576.5784,1574.6365,1580.9485,1500.0,1500.0,nan,nan,nan,nan,nan,nan,nan,nan,nan,nan
8992428000,6,1586.3329,1576.3204,1572.5913,1583.2272,1500.0,1500.0,nan,nan,nan,nan,nan,nan,nan,nan,nan,nan
8992528000,6,1587.2,1574.6942,1573.333,1583.2352,1500.0,1500.0,nan,nan,nan,nan,nan,nan,nan,nan,nan,nan
8992628000,6,1582.6969,1576.8168,1570.0847,1582.5782,1500.0,1500.0,nan,nan,nan,nan,nan,nan,nan,nan,nan,nan
8992732000,6,1581.8793,1578.3492,1570.9691,1581.6912,1500.0,1500.0,nan,nan,nan,nan,nan,nan,nan,nan,nan,nan
8992832000,6,1584.0931,1577.5149,1571.6802,1582.7351,1500.0,1500.0,nan,nan,nan,nan,nan,nan,nan,nan,nan,nan
8992932000,6,1584.9418,1574.8033,1570.2322,1583.0079,1500.0,1500.0,nan,nan,nan,nan,nan,nan,nan,nan,nan,nan
8993032000,6,1582.8933,1577.5775,1570.5824,1580.5519,1500.0,1500.0,nan,nan,nan,nan,nan,nan,nan,nan,nan,nan
8993128000,6,1586.8158,1573.1047,1572.4137,1582.8683,1500.0,1500.0,nan,nan,nan,nan,nan,nan,nan,nan,nan,nan
8993232000,6,1581.7695,1577.2715,1568.6975,1583.277,1500.0,1500.0,nan,nan,nan,nan,nan,nan,nan,nan,nan,nan
8993328000,6,1583.351,1574.9172,1569.3156,1580.1746,1500.0,1500.0,nan,nan,nan,nan,nan,nan,nan,nan,nan,nan
8993432000,6,1584.0802,1574.5775,1570.8824,1584.5746,1500.0,1500.0,nan,nan,nan,nan,nan,nan,nan,nan,nan,nan
8993532000,6,1585.8328,1574.11,1573.2617,1579.8291,1500.0,1500.0,nan,nan,nan,nan,nan,nan,nan,nan,nan,nan
8993628000,6,1583.2568,1575.2235,1569.8474,1582.2654,1500.0,1500.0,nan,nan,nan,nan,nan,nan,nan,nan,nan,nan
8993728000,6,1584.1694,1573.2203,1571.1715,1582.8828,1500.0,1500.0,nan,nan,nan,nan,nan,nan,nan,nan,nan,nan
8993828000,6,1585.3105,1574.1174,1571.0253,1582.3469,1500.0,1500.0,nan,nan,nan,nan,nan,nan,nan,nan,nan,nan
8993928000,6,1584.3273,1576.3561,1570.8107,1583.3333,1500.0,1500.0,nan,nan,nan,nan,nan,nan,nan,nan,nan,nan
8994032000,6,1584.645,1576.279,1573.8698,1582.6566,1500.0,1500.0,nan,nan,nan,nan,nan,nan,nan,nan,nan,nan
8994132000,6,1583.5967,1576.0767,1570.3551,1583.1707,1500.0,1500.0,nan,nan,nan,nan,nan,nan,nan,nan,nan,nan
8994232000,6,1584.4751,1574.6384,1575.2023,1579.5204,1500.0,1500.0,nan,nan,nan,nan,nan,nan,nan,nan,nan,nan
8994332000,6,1582.9954,1573.3235,1571.9357,1578.6543,1500.0,1500.0,nan,nan,nan,nan,nan,nan,nan,nan,nan,nan
8994428000,6,1584.5562,1577.9656,1571.3658,1583.7164,1500.0,1500.0,nan,nan,nan,nan,nan,nan,nan,nan,nan,nan
8994532000,6,1585.4943,1573.3346,1572.6288,1579.0565,1500.0,1500.0,nan,nan,nan,nan,nan,nan,nan,nan,nan,nan
8994632000,6,1586.4209,1573.6552,1571.0275,1582.4504,1500.0,1500.0,nan,nan,nan,nan,nan,nan,nan,nan,nan,nan
8994732000,6,1584.1804,1577.6212,1568.9186,1587.9596,1500.0,1500.0,nan,nan,nan,nan,nan,nan,nan,nan,nan,nan
8994828000,6,1585.8981,1571.4445,1572.4795,1578.5399,1500.0,1500.0,nan,nan,nan,nan,nan,nan,nan,nan,nan,nan
8994928000,6,1581.5837,1572.9683,1572.19,1582.2173,1500.0,1500.0,nan,nan,nan,nan,nan,nan,nan,nan,nan,nan
8995028000,6,1586.1227,1574.529,1573.8491,1583.0844,1500.0,1500.0,nan,nan,nan,nan,nan,nan,nan,nan,nan,nan
8995132000,6,1584.246,1573.0615,1574.2992,1578.7301,1500.0,1500.0,nan,nan,nan,nan,nan,nan,nan,nan,nan,nan
8995228000,6,1582.7329,1575.9276,1570.2407,1582.7002,1500.0,1500.0,nan,nan,nan,nan,nan,nan,nan,nan,nan,nan
8995328000,6,1583.1647,1576.3691,1569.7872,1582.135,1500.0,1500.0,nan,nan,nan,nan,nan,nan,nan,nan,nan,nan
8995428000,6,1586.11,1574.2452,1571.5504,1581.5,1500.0,1500.0,nan,nan,nan,nan,nan,nan,nan,nan,nan,nan
8995528000,6,1582.5781,1578.7742,1574.2673,1584.9253,1500.0,1500.0,nan,nan,nan,nan,nan,nan,nan,nan,nan,nan
8995632000,6,1585.954,1574.0165,1572.378,1582.5161,1500.0,1500.0,nan,nan,nan,nan,nan,nan,nan,nan,nan,nan
8995732000,6,1584.2096,1576.358,1571.3644,1583.1097,1500.0,1500.0,nan,nan,nan,nan,nan,nan,nan,nan,nan,nan
8995828000,6,1586.9465,1576.2969,1573.7827,1581.8741,1500.0,1500.0,nan,nan,nan,nan,nan,nan,nan,nan,nan,nan
8995932000,6,1588.9928,1575.1697,1574.2134,1584.2994,1500.0,1500.0,nan,nan,nan,nan,nan,nan,nan,nan,nan,nan
8996032000,6,1585.8615,1573.8135,1571.7153,1583.8223,1500.0,1500.0,nan,nan,nan,nan,nan,nan,nan,nan,nan,nan
8996132000,6,1585.5365,1575.2568,1572.347,1582.9883,1500.0,1500.0,nan,nan,nan,nan,nan,nan,nan,nan,nan,nan
8996232000,6,1586.1285,1576.6283,1572.7194,1584.537,1500.0,1500.0,nan,nan,nan,nan,nan,nan,nan,nan,nan,nan
8996332000,6,1583.1836,1578.6061,1572.8291,1586.906,1500.0,1500.0,nan,nan,nan,nan,nan,nan,nan,nan,nan,nan
8996432000,6,1584.1635,1578.874,1573.6345,1582.6779,1500.0,1500.0,nan,nan,nan,nan,nan,nan,nan,nan,nan,nan
8996532000,6,1586.9957,1574.9863,1574.1019,1579.1979,1500.0,1500.0,nan,nan,nan,nan,nan,nan,nan,nan,nan,nan
8996628000,6,1583.6036,1572.9307,1570.0991,1582.9233,1500.0,1500.0,nan,nan,nan,nan,nan,nan,nan,nan,nan,nan
8996728000,6,1586.1597,1577.532,1574.0673,1581.9675,1500.0,1500.0,nan,nan,nan,nan,nan,nan,nan,nan,nan,nan
8996832000,6,1584.7062,1576.5367,1570.1425,1584.487,1500.0,1500.0,nan,nan,nan,nan,nan,nan,nan,nan,nan,nan
8996928000,6,1583.0212,1573.9457,1569.9247,1580.28,1500.0,1500.0,nan,nan,nan,nan,nan,nan,nan,nan,nan,nan
8997028000,6,1584.0076,1576.46,1573.1277,1582.8268,1500.0,1500.0,nan,nan,nan,nan,nan,nan,nan,nan,nan,nan
8997132000,6,1583.5969,1577.6853,1572.1575,1579.9735,1500.0,1500.0,nan,nan,nan,nan,nan,nan,nan,nan,nan,nan
8997232000,6,1578.8533,1578.9692,1569.5438,1584.1326,1500.0,1500.0,nan,nan,nan,nan,nan,nan,nan,nan,nan,nan
8997328000,6,1585.4939,1577.8441,1572.1462,1584.6606,1500.0,1500.0,nan,nan,nan,nan,nan,nan,nan,nan,nan,nan
8997432000,6,1584.3988,1576.0856,1574.7843,1582.342,1500.0,1500.0,nan,nan,nan,nan,nan,nan,nan,nan,nan,nan
8997528000,6,1584.8167,1576.2621,1573.0538,1581.8187,1500.0,1500.0,nan,nan,nan,nan,nan,nan,nan,nan,nan,nan
8997628000,6,1586.3992,1576.1053,1573.816,1583.7328,1500.0,1500.0,nan,nan,nan,nan,nan,nan,nan,nan,nan,nan
8997728000,6,1583.7312,1575.5056,1572.8136,1582.2192,1500.0,1500.0,nan,nan,nan,nan,nan,nan,nan,nan,nan,nan
8997828000,6,1584.8169,1576.6305,1572.423,1581.1329,1500.0,1500.0,nan,nan,nan,nan,nan,nan,nan,nan,nan,nan
8997932000,6,1583.4271,1578.3029,1571.9456,1583.3257,1500.0,1500.0,nan,nan,nan,nan,nan,nan,nan,nan,nan,nan
8998032000,6,1584.9484,1575.1112,1572.5162,1582.4376,1500.0,1500.0,nan,nan,nan,nan,nan,nan,nan,nan,nan,nan
8998128000,6,1581.5377,1576.92,1570.9384,1582.4486,1500.0,1500.0,nan,nan,nan,nan,nan,nan,nan,nan,nan,nan
8998228000,6,1585.6124,1573.4618,1570.3704,1582.3207,1500.0,1500.0,nan,nan,nan,nan,nan,nan,nan,nan,nan,nan
8998328000,6,1581.6733,1579.1237,1573.4261,1584.5769,1500.0,1500.0,nan,nan,nan,nan,nan,nan,nan,nan,nan,nan
8998432000,6,1585.4591,1575.4906,1572.3264,1584.713,1500.0,1500.0,nan,nan,nan,nan,nan,nan,nan,nan,nan,nan
8998532000,6,1587.0388,1574.756,1574.6926,1579.498,1500.0,1500.0,nan,nan,nan,nan,nan,nan,nan,nan,nan,nan
8998628000,6,1585.2671,1576.3568,1573.4105,1580.7736,1500.0,1500.0,nan,nan,nan,nan,nan,nan,nan,nan,nan,nan
8998728000,6,1587.8402,1575.4142,1573.4315,1583.692,1500.0,1500.0,nan,nan,nan,nan,nan,nan,nan,nan,nan,nan
8998828000,6,1586.6316,1577.3917,1573.0327,1582.9597,1500.0,1500.0,nan,nan,nan,nan,nan,nan,nan,nan,nan,nan
8998928000,6,1581.963,1577.3035,1570.4734,1581.8328,1500.0,1500.0,nan,nan,nan,nan,nan,nan,nan,nan,nan,nan
8999028000,6,1583.1715,1578.7548,1572.4076,1583.0049,1500.0,1500.0,nan,nan,nan,nan,nan,nan,nan,nan,nan,nan
8999132000,6,1583.7985,1573.5917,1574.6257,1578.6859,1500.0,1500.0,nan,nan,nan,nan,nan,nan,nan,nan,nan,nan
8999228000,6,1586.6621,1576.2693,1570.5618,1583.8052,1500.0,1500.0,nan,nan,nan,nan,nan,nan,nan,nan,nan,nan
8999328000,6,1583.4166,1575.3307,1571.4701,1580.1884,1500.0,1500.0,nan,nan,nan,nan,nan,nan,nan,nan,nan,nan
8999428000,6,1583.4716,1573.7723,1570.813,1580.6489,1500.0,1500.0,nan,nan,nan,nan,nan,nan,nan,nan,nan,nan
8999532000,6,1581.0221,1576.9396,1569.2443,1584.4152,1500.0,1500.0,nan,nan,nan,nan,nan,nan,nan,nan,nan,nan
8999628000,6,1583.6622,1575.7812,1571.488,1584.5938,1500.0,1500.0,nan,nan,nan,nan,nan,nan,nan,nan,nan,nan
8999732000,6,1582.1841,1576.3374,1572.3594,1582.1897,1500.0,1500.0,nan,nan,nan,nan,nan,nan,nan,nan,nan,nan
8999828000,6,1585.3484,1577.2988,1571.674,1584.0918,1500.0,1500.0,nan,nan,nan,nan,nan,nan,nan,nan,nan,nan
8999928000,6,1589.0577,1573.4377,1572.1696,1583.9323,1500.0,1500.0,nan,nan,nan,nan,nan,nan,nan,nan,nan,nan
9000032000,6,1584.3281,1573.6982,1574.1578,1581.807,1500.0,1500.0,nan,nan,nan,nan,nan,nan,nan,nan,nan,nan
9000128000,6,1582.2496,1577.3057,1567.7361,1585.9033,1500.0,1500.0,nan,nan,nan,nan,nan,nan,nan,nan,nan,nan
9000232000,6,1582.7412,1574.6393,1571.0238,1583.0474,1500.0,1500.0,nan,nan,nan,nan,nan,nan,nan,nan,nan,nan
9000332000,6,1585.2695,1577.4874,1574.5319,1582.449,1500.0,1500.0,nan,nan,nan,nan,nan,nan,nan,nan,nan,nan
9000432000,6,1584.9385,1577.764,1572.0687,1583.0679,1500.0,1500.0,nan,nan,nan,nan,nan,nan,nan,nan,nan,nan
9000532000,6,1581.447,1576.7561,1568.9567,1584.2466,1500.0,1500.0,nan,nan,nan,nan,nan,nan,nan,nan,nan,nan
9000628000,6,1586.0038,1571.7328,1570.1969,1583.065,1500.0,1500.0,nan,nan,nan,nan,nan,nan,nan,nan,nan,nan
9000728000,6,1583.3535,1575.9221,1572.116,1583.4403,1500.0,1500.0,nan,nan,nan,nan,nan,nan,nan,nan,nan,nan
9000828000,6,1583.9471,1577.0063,1573.4843,1582.7211,1500.0,1500.0,nan,nan,nan,nan,nan,nan,nan,nan,nan,nan
9000928000,6,1585.0576,1577.3618,1573.3289,1580.5831,1500.0,1500.0,nan,nan,nan,nan,nan,nan,nan,nan,nan,nan
9001032000,6,1583.7327,1577.6141,1575.5731,1580.5449,1500.0,1500.0,nan,nan,nan,nan,nan,nan,nan,nan,nan,nan
9001128000,6,1586.9829,1573.6611,1571.6536,1584.1626,1500.0,1500.0,nan,nan,nan,nan,nan,nan,nan,nan,nan,nan
9001232000,6,1585.936,1575.3722,1572.3667,1582.1913,1500.0,1500.0,nan,nan,nan,nan,nan,nan,nan,nan,nan,nan
9001332000,6,1582.5911,1577.6991,1572.1268,1579.5851,1500.0,1500.0,nan,nan,nan,nan,nan,nan,nan,nan,nan,nan
9001432000,6,1582.8304,1575.5457,1569.7474,1583.8014,1500.0,1500.0,nan,nan,nan,nan,nan,nan,nan,nan,nan,nan
9001528000,6,1588.3794,1573.5134,1572.1268,1580.8983,1500.0,1500.0,nan,nan,nan,nan,nan,nan,nan,nan,nan,nan
9001632000,6,1583.5737,1577.37,1568.0714,1585.5107,1500.0,1500.0,nan,nan,nan,nan,nan,nan,nan,nan,nan,nan
9001732000,6,1583.9329,1573.3663,1574.2148,1579.9716,1500.0,1500.0,nan,nan,nan,nan,nan,nan,nan,nan,nan,nan
9001828000,6,1582.953,1577.7734,1571.2424,1580.859,1500.0,1500.0,nan,nan,nan,nan,nan,nan,nan,nan,nan,nan
9001928000,6,1583.7516,1571.4917,1573.8755,1582.1602,1500.0,1500.0,nan,nan,nan,nan,nan,nan,nan,nan,nan,nan
9002028000,6,1584.6511,1575.6758,1571.0266,1583.6257,1500.0,1500.0,nan,nan,nan,nan,nan,nan,nan,nan,nan,nan
9002128000,6,1582.4141,1572.6807,1569.8507,1580.098,1500.0,1500.0,nan,nan,nan,nan,nan,nan,nan,nan,nan,nan
9002232000,6,1581.6157,1575.2216,1568.4072,1583.5632,1500.0,1500.0,nan,nan,nan,nan,nan,nan,nan,nan,nan,nan
9002328000,6,1587.0339,1571.6536,1573.0564,1577.7308,1500.0,1500.0,nan,nan,nan,nan,nan,nan,nan,nan,nan,nan
9002428000,6,1583.3301,1573.2219,1571.0319,1581.2102,1500.0,1500.0,nan,nan,nan,nan,nan,nan,nan,nan,nan,nan
9002528000,6,1582.0337,1576.2395,1572.8688,1579.4916,1500.0,1500.0,nan,nan,nan,nan,nan,nan,nan,nan,nan,nan
9002632000,6,1584.6311,1576.1848,1569.8025,1583.4413,1500.0,1500.0,nan,nan,nan,nan,nan,nan,nan,nan,nan,nan
9002732000,6,1583.6901,1574.8177,1572.7294,1581.8077,1500.0,1500.0,nan,nan,nan,nan,nan,nan,nan,nan,nan,nan
9002832000,6,1579.737,1578.7845,1570.3634,1584.894,1500.0,1500.0,nan,nan,nan,nan,nan,nan,nan,nan,nan,nan
9002932000,6,1585.8298,1573.16,1571.1842,1584.3319,1500.0,1500.0,nan,nan,nan,nan,nan,nan,nan,nan,nan,nan
9003032000,6,1585.7589,1575.3318,1571.3263,1581.1241,1500.0,1500.0,nan,nan,nan,nan,nan,nan,nan,nan,nan,nan
9003132000,6,1586.5804,1572.618,1570.5477,1582.3651,1500.0,1500.0,nan,nan,nan,nan,nan,nan,nan,nan,nan,nan
9003232000,6,1581.2443,1578.7253,1568.7483,1585.0309,1500.0,1500.0,nan,nan,nan,nan,nan,nan,nan,nan,nan,nan
9003328000,6,1585.2839,1573.6229,1569.5077,1583.7675,1500.0,1500.0,nan,nan,nan,nan,nan,nan,nan,nan,nan,nan
9003428000,6,1584.577,1576.9841,1574.08,1582.4739,1500.0,1500.0,nan,nan,nan,nan,nan,nan,nan,nan,nan,nan
9003528000,6,1585.255,1575.3754,1571.5184,1579.9956,1500.0,1500.0,nan,nan,nan,nan,nan,nan,nan,nan,nan,nan
9003628000,6,1583.9397,1577.8242,1574.3113,1582.4423,1500.0,1500.0,nan,nan,nan,nan,nan,nan,nan,nan,nan,nan
9003728000,6,1582.3022,1574.3892,1570.4989,1580.1276,1500.0,1500.0,nan,nan,nan,nan,nan,nan,nan,nan,nan,nan
9003828000,6,1580.5807,1578.198,1571.6041,1581.6969,1500.0,1500.0,nan,nan,nan,nan,nan,nan,nan,nan,nan,nan
9003928000,6,1583.3999,1576.5853,1572.3865,1583.0442,1500.0,1500.0,nan,nan,nan,nan,nan,nan,nan,nan,nan,nan
9004028000,6,1584.3108,1575.2893,1570.3401,1582.6982,1500.0,1500.0,nan,nan,nan,nan,nan,nan,nan,nan,nan,nan
9004132000,6,1583.5203,1576.5217,1573.3198,1582.6643,1500.0,1500.0,nan,nan,nan,nan,nan,nan,nan,nan,nan,nan
9004232000,6,1585.02,1572.6218,1570.044,1578.7097,1500.0,1500.0,nan,nan,nan,nan,nan,nan,nan,nan,nan,nan
9004328000,6,1582.4945,1577.2993,1572.3619,1580.7146,1500.0,1500.0,nan,nan,nan,nan,nan,nan,nan,nan,nan,nan
9004428000,6,1586.8966,1572.2035,1572.261,1579.6838,1500.0,1500.0,nan,nan,nan,nan,nan,nan,nan,nan,nan,nan
9004532000,6,1585.824,1574.7639,1573.4253,1580.9655,1500.0,1500.0,nan,nan,nan,nan,nan,nan,nan,nan,nan,nan
9004632000,6,1581.5275,1576.8141,1568.8123,1583.5221,1500.0,1500.0,nan,nan,nan,nan,nan,nan,nan,nan,nan,nan
9004732000,6,1585.1129,1575.1831,1567.9105,1582.7031,1500.0,1500.0,nan,nan,nan,nan,nan,nan,nan,nan,nan,nan
9004832000,6,1585.1168,1574.7124,1571.3477,1583.464,1500.0,1500.0,nan,nan,nan,nan,nan,nan,nan,nan,nan,nan
9004928000,6,1585.7101,1574.628,1571.5342,1582.0444,1500.0,1500.0,nan,nan,nan,nan,nan,nan,nan,nan,nan,nan
9005032000,6,1583.5913,1574.2509,1570.9647,1580.4402,1500.0,1500.0,nan,nan,nan,nan,nan,nan,nan,nan,nan,nan
9005128000,6,1579.8489,1576.2377,1570.9979,1582.2594,1500.0,1500.0,nan,nan,nan,nan,nan,nan,nan,nan,nan,nan
9005228000,6,1583.4121,1578.3,1570.8942,1584.5935,1500.0,1500.0,nan,nan,nan,nan,nan,nan,nan,nan,nan,nan
9005328000,6,1583.0734,1577.0916,1569.8152,1582.6748,1500.0,1500.0,nan,nan,nan,nan,nan,nan,nan,nan,nan,nan
9005432000,6,1584.256,1577.0092,1571.8295,1582.9727,1500.0,1500.0,nan,nan,nan,nan,nan,nan,nan,nan,nan,nan
9005532000,6,1584.8932,1576.8383,1571.8558,1583.7002,1500.0,1500.0,nan,nan,nan,nan,nan,nan,nan,nan,nan,nan
9005632000,6,1585.8922,1575.0527,1574.2064,1582.7478,1500.0,1500.0,nan,nan,nan,nan,nan,nan,nan,nan,nan,nan
9005728000,6,1586.4633,1575.5251,1572.837,1583.0271,1500.0,1500.0,nan,nan,nan,nan,nan,nan,nan,nan,nan,nan
9005832000,6,1584.2529,1577.5872,1572.3392,1585.6891,1500.0,1500.0,nan,nan,nan,nan,nan,nan,nan,nan,nan,nan
9005932000,6,1583.0751,1578.4434,1570.7241,1581.0038,1500.0,1500.0,nan,nan,nan,nan,nan,nan,nan,nan,nan,nan
9006028000,6,1585.5397,1576.8556,1574.9468,1582.7607,1500.0,1500.0,nan,nan,nan,nan,nan,nan,nan,nan,nan,nan
9006128000,6,1583.2437,1578.5889,1574.388,1582.9369,1500.0,1500.0,nan,nan,nan,nan,nan,nan,nan,nan,nan,nan
9006232000,6,1582.83,1577.4161,1570.5096,1586.6342,1500.0,1500.0,nan,nan,nan,nan,nan,nan,nan,nan,nan,nan
9006332000,6,1584.3911,1575.6832,1572.5024,1582.1522,1500.0,1500.0,nan,nan,nan,nan,nan,nan,nan,nan,nan,nan
9006428000,6,1584.6963,1575.0004,1574.0944,1581.1257,1500.0,1500.0,nan,nan,nan,nan,nan,nan,nan,nan,nan,nan
9006532000,6,1586.2651,1575.6088,1572.4719,1586.2821,1500.0,1500.0,nan,nan,nan,nan,nan,nan,nan,nan,nan,nan
9006628000,6,1582.7959,1580.3682,1569.7872,1585.8673,1500.0,1500.0,nan,nan,nan,nan,nan,nan,nan,nan,nan,nan
9006732000,6,1584.9747,1577.7913,1572.1876,1581.6023,1500.0,1500.0,nan,nan,nan,nan,nan,nan,nan,nan,nan,nan
9006828000,6,1585.1604,1574.9569,1575.0647,1581.3398,1500.0,1500.0,nan,nan,nan,nan,nan,nan,nan,nan,nan,nan
9006932000,6,1586.9869,1576.7885,1576.1238,1583.6503,1500.0,1500.0,nan,nan,nan,nan,nan,nan,nan,nan,nan,nan
9007028000,6,1584.596,1578.9342,1572.3269,1585.307,1500.0,1500.0,nan,nan,nan,nan,nan,nan,nan,nan,nan,nan
9007128000,6,1584.4343,1579.0817,1572.4065,1584.6008,1500.0,1500.0,nan,nan,nan,nan,nan,nan,nan,nan,nan,nan
9007232000,6,1584.8439,1579.676,1573.0626,1583.5907,1500.0,1500.0,nan,nan,nan,nan,nan,nan,nan,nan,nan,nan
9007328000,6,1585.1056,1576.6659,1576.4421,1582.0001,1500.0,1500.0,nan,nan,nan,nan,nan,nan,nan,nan,nan,nan
9007432000,6,1586.5063,1575.5192,1574.2378,1584.5585,1500.0,1500.0,nan,nan,nan,nan,nan,nan,nan,nan,nan,nan
9007532000,6,1586.6484,1573.4521,1574.4122,1582.5468,1500.0,1500.0,nan,nan,nan,nan,nan,nan,nan,nan,nan,nan
9007632000,6,1586.6283,1577.1823,1573.4403,1580.8623,1500.0,1500.0,nan,nan,nan,nan,nan,nan,nan,nan,nan,nan
9007728000,6,1587.0913,1579.9291,1572.6506,1587.91,1500.0,1500.0,nan,nan,nan,nan,nan,nan,nan,nan,nan,nan
9007828000,6,1584.1829,1576.847,1569.8591,1583.8842,1500.0,1500.0,nan,nan,nan,nan,nan,nan,nan,nan,nan,nan
9007932000,6,1586.2385,1574.4904,1570.3857,1583.4105,1500.0,1500.0,nan,nan,nan,nan,nan,nan,nan,nan,nan,nan
9008028000,6,1587.235,1576.1046,1571.7493,1583.5396,1500.0,1500.0,nan,nan,nan,nan,nan,nan,nan,nan,nan,nan
9008128000,6,1585.0486,1577.4062,1571.8936,1584.745,1500.0,1500.0,nan,nan,nan,nan,nan,nan,nan,nan,nan,nan
9008232000,6,1584.9651,1574.7402,1572.1345,1581.1917,1500.0,1500.0,nan,nan,nan,nan,nan,nan,nan,nan,nan,nan
9008328000,6,1583.5353,1578.1604,1569.6602,1584.5173,1500.0,1500.0,nan,nan,nan,nan,nan,nan,nan,nan,nan,nan
9008432000,6,1585.5448,1574.6676,1571.978,1581.066,1500.0,1500.0,nan,nan,nan,nan,nan,nan,nan,nan,nan,nan
9008528000,6,1582.333,1577.9445,1571.7188,1583.2937,1500.0,1500.0,nan,nan,nan,nan,nan,nan,nan,nan,nan,nan
9008632000,6,1588.3593,1574.6119,1572.6243,1583.3834,1500.0,1500.0,nan,nan,nan,nan,nan,nan,nan,nan,nan,nan
9008728000,6,1585.286,1576.8906,1572.3771,1584.2129,1500.0,1500.0,nan,nan,nan,nan,nan,nan,nan,nan,nan,nan
9008828000,6,1588.6606,1575.926,1573.1681,1585.1794,1500.0,1500.0,nan,nan,nan,nan,nan,nan,nan,nan,nan,nan
9008928000,6,1587.9524,1578.5516,1573.3325,1586.9081,1500.0,1500.0,nan,nan,nan,nan,nan,nan,nan,nan,nan,nan
9009028000,6,1586.0504,1576.4504,1572.1782,1583.2173,1500.0,1500.0,nan,nan,nan,nan,nan,nan,nan,nan,nan,nan
9009132000,6,1587.6722,1576.2021,1576.0864,1582.2386,1500.0,1500.0,nan,nan,nan,nan,nan,nan,nan,nan,nan,nan
9009228000,6,1584.675,1577.8987,1570.3689,1585.7175,1500.0,1500.0,nan,nan,nan,nan,nan,nan,nan,nan,nan,nan
9009332000,6,1588.2046,1576.2128,1574.0381,1586.5659,1500.0,1500.0,nan,nan,nan,nan,nan,nan,nan,nan,nan,nan
9009428000,6,1588.9333,1573.801,1572.1682,1581.675,1500.0,1500.0,nan,nan,nan,nan,nan,nan,nan,nan,nan,nan
9009532000,6,1585.6974,1575.5306,1572.7393,1582.5121,1500.0,1500.0,nan,nan,nan,nan,nan,nan,nan,nan,nan,nan
9009632000,6,1583.1416,1580.0076,1573.3568,1585.2131,1500.0,1500.0,nan,nan,nan,nan,nan,nan,nan,nan,nan,nan
9009732000,6,1585.4354,1578.467,1572.9868,1584.6115,1500.0,1500.0,nan,nan,nan,nan,nan,nan,nan,nan,nan,nan
9009828000,6,1585.3087,1578.6227,1572.5287,1585.8048,1500.0,1500.0,nan,nan,nan,nan,nan,nan,nan,nan,nan,nan
9009932000,6,1585.9785,1577.738,1571.7488,1586.9095,1500.0,1500.0,nan,nan,nan,nan,nan,nan,nan,nan,nan,nan
9010028000,6,1586.75,1577.1123,1572.5685,1584.6047,1500.0,1500.0,nan,nan,nan,nan,nan,nan,nan,nan,nan,nan
9010132000,6,1584.5803,1579.866,1573.763,1583.9415,1500.0,1500.0,nan,nan,nan,nan,nan,nan,nan,nan,nan,nan
9010228000,6,1586.6086,1576.9572,1571.6697,1584.7236,1500.0,1500.0,nan,nan,nan,nan,nan,nan,nan,nan,nan,nan
9010332000,6,1585.3109,1575.4758,1571.1572,1583.8536,1500.0,1500.0,nan,nan,nan,nan,nan,nan,nan,nan,nan,nan
9010428000,6,1585.4027,1578.5099,1576.4935,1581.28,1500.0,1500.0,nan,nan,nan,nan,nan,nan,nan,nan,nan,nan
9010528000,6,1588.8901,1577.0111,1574.7533,1585.4191,1500.0,1500.0,nan,nan,nan,nan,nan,nan,nan,nan,nan,nan
9010628000,6,1587.0197,1579.44,1573.367,1582.2319,1500.0,1500.0,nan,nan,nan,nan,nan,nan,nan,nan,nan,nan
9010732000,6,1586.2887,1579.3682,1573.4304,1584.9742,1500.0,1500.0,nan,nan,nan,nan,nan,nan,nan,nan,nan,nan
9010828000,6,1589.1226,1578.7823,1574.8347,1587.2982,1500.0,1500.0,nan,nan,nan,nan,nan,nan,nan,nan,nan,nan
9010932000,6,1588.7734,1574.1604,1575.8104,1584.718,1500.0,1500.0,nan,nan,nan,nan,nan,nan,nan,nan,nan,nan
9011032000,6,1588.2871,1573.2357,1575.693,1584.0607,1500.0,1500.0,nan,nan,nan,nan,nan,nan,nan,nan,nan,nan
9011128000,6,1586.564,1575.401,1573.2435,1582.2468,1500.0,1500.0,nan,nan,nan,nan,nan,nan,nan,nan,nan,nan
9011232000,6,1588.2373,1576.4148,1573.4486,1583.0535,1500.0,1500.0,nan,nan,nan,nan,nan,nan,nan,nan,nan,nan
9011328000,6,1584.2743,1578.4436,1572.4175,1585.0386,1500.0,1500.0,nan,nan,nan,nan,nan,nan,nan,nan,nan,nan
9011428000,6,1581.3165,1579.2881,1572.0774,1585.1243,1500.0,1500.0,nan,nan,nan,nan,nan,nan,nan,nan,nan,nan
9011528000,6,1586.0918,1578.8843,1572.1113,1585.8622,1500.0,1500.0,nan,nan,nan,nan,nan,nan,nan,nan,nan,nan
9011628000,6,1585.8236,1575.9595,1572.6069,1582.1779,1500.0,1500.0,nan,nan,nan,nan,nan,nan,nan,nan,nan,nan
9011732000,6,1584.2557,1579.4321,1571.1124,1589.0415,1500.0,1500.0,nan,nan,nan,nan,nan,nan,nan,nan,nan,nan
9011828000,6,1589.0914,1574.7554,1573.7688,1583.6372,1500.0,1500.0,nan,nan,nan,nan,nan,nan,nan,nan,nan,nan
9011932000,6,1586.0277,1574.448,1571.9604,1582.2206,1500.0,1500.0,nan,nan,nan,nan,nan,nan,nan,nan,nan,nan
9012028000,6,1586.6143,1576.1821,1572.0951,1586.3674,1500.0,1500.0,nan,nan,nan,nan,nan,nan,nan,nan,nan,nan
9012128000,6,1586.9705,1576.4675,1572.9755,1582.52,1500.0,1500.0,nan,nan,nan,nan,nan,nan,nan,nan,nan,nan
9012228000,6,1587.9801,1575.5659,1575.2257,1581.2767,1500.0,1500.0,nan,nan,nan,nan,nan,nan,nan,nan,nan,nan
9012332000,6,1588.2882,1575.7997,1572.6755,1585.0817,1500.0,1500.0,nan,nan,nan,nan,nan,nan,nan,nan,nan,nan
9012428000,6,1586.3226,1575.5603,1574.194,1583.1885,1500.0,1500.0,nan,nan,nan,nan,nan,nan,nan,nan,nan,nan
9012532000,6,1584.7362,1579.1509,1571.3925,1583.3289,1500.0,1500.0,nan,nan,nan,nan,nan,nan,nan,nan,nan,nan
9012628000,6,1586.2662,1577.6525,1575.3674,1581.3936,1500.0,1500.0,nan,nan,nan,nan,nan,nan,nan,nan,nan,nan
9012732000,6,1587.9502,1577.1633,1574.9155,1581.243,1500.0,1500.0,nan,nan,nan,nan,nan,nan,nan,nan,nan,nan
9012832000,6,1583.6816,1576.1953,1572.9851,1585.712,1500.0,1500.0,nan,nan,nan,nan,nan,nan,nan,nan,nan,nan
9012932000,6,1585.0609,1575.9006,1573.8727,1583.3154,1500.0,1500.0,nan,nan,nan,nan,nan,nan,nan,nan,nan,nan
9013028000,6,1586.3301,1578.3729,1574.221,1584.3383,1500.0,1500.0,nan,nan,nan,nan,nan,nan,nan,nan,nan,nan
9013128000,6,1583.33,1579.7063,1571.6487,1583.9546,1500.0,1500.0,nan,nan,nan,nan,nan,nan,nan,nan,nan,nan
9013232000,6,1586.959,1577.7784,1570.2955,1582.6063,1500.0,1500.0,nan,nan,nan,nan,nan,nan,nan,nan,nan,nan
9013332000,6,1586.5763,1577.6123,1573.4567,1585.5159,1500.0,1500.0,nan,nan,nan,nan,nan,nan,nan,nan,nan,nan
9013428000,6,1587.8812,1575.2194,1572.7305,1585.6509,1500.0,1500.0,nan,nan,nan,nan,nan,nan,nan,nan,nan,nan
9013532000,6,1587.492,1578.1807,1573.2097,1582.4741,1500.0,1500.0,nan,nan,nan,nan,nan,nan,nan,nan,nan,nan
9013628000,6,1585.9272,1578.2524,1571.614,1585.1492,1500.0,1500.0,nan,nan,nan,nan,nan,nan,nan,nan,nan,nan
9013732000,6,1587.4222,1574.3496,1572.6223,1583.2043,1500.0,1500.0,nan,nan,nan,nan,nan,nan,nan,nan,nan,nan
9013832000,6,1590.7654,1577.5205,1576.1057,1583.4855,1500.0,1500.0,nan,nan,nan,nan,nan,nan,nan,nan,nan,nan
9013932000,6,1583.662,1575.7366,1573.4543,1583.8573,1500.0,1500.0,nan,nan,nan,nan,nan,nan,nan,nan,nan,nan
9014028000,6,1585.1769,1580.6693,1573.3823,1581.988,1500.0,1500.0,nan,nan,nan,nan,nan,nan,nan,nan,nan,nan
9014128000,6,1586.3506,1576.1111,1571.7966,1581.3329,1500.0,1500.0,nan,nan,nan,nan,nan,nan,nan,nan,nan,nan
9014232000,6,1586.4404,1577.6052,1571.0927,1586.9116,1500.0,1500.0,nan,nan,nan,nan,nan,nan,nan,nan,nan,nan
9014328000,6,1585.5972,1574.7363,1573.074,1582.8058,1500.0,1500.0,nan,nan,nan,nan,nan,nan,nan,nan,nan,nan
9014428000,6,1588.4673,1577.7175,1574.4728,1584.2987,1500.0,1500.0,nan,nan,nan,nan,nan,nan,nan,nan,nan,nan
9014532000,6,1588.3003,1577.4366,1571.8289,1584.3408,1500.0,1500.0,nan,nan,nan,nan,nan,nan,nan,nan,nan,nan
9014632000,6,1586.8695,1578.2775,1573.6495,1583.405,1500.0,1500.0,nan,nan,nan,nan,nan,nan,nan,nan,nan,nan
9014732000,6,1588.31,1574.4698,1574.3992,1584.3823,1500.0,1500.0,nan,nan,nan,nan,nan,nan,nan,nan,nan,nan
9014832000,6,1584.1595,1576.8616,1571.5361,1583.5182,1500.0,1500.0,nan,nan,nan,nan,nan,nan,nan,nan,nan,nan
9014928000,6,1588.783,1573.7915,1570.569,1586.1104,1500.0,1500.0,nan,nan,nan,nan,nan,nan,nan,nan,nan,nan
9015032000,6,1586.4197,1577.2443,1572.798,1586.1763,1500.0,1500.0,nan,nan,nan,nan,nan,nan,nan,nan,nan,nan
9015132000,6,1588.217,1577.6598,1573.446,1584.4912,1500.0,1500.0,nan,nan,nan,nan,nan,nan,nan,nan,nan,nan
9015228000,6,1588.4272,1574.726,1572.8872,1582.0674,1500.0,1500.0,nan,nan,nan,nan,nan,nan,nan,nan,nan,nan
9015328000,6,1587.2605,1574.2389,1574.9231,1581.8175,1500.0,1500.0,nan,nan,nan,nan,nan,nan,nan,nan,nan,nan
9015432000,6,1587.3739,1575.4097,1572.2546,1580.1624,1500.0,1500.0,nan,nan,nan,nan,nan,nan,nan,nan,nan,nan
9015528000,6,1585.5151,1574.923,1572.8894,1583.4553,1500.0,1500.0,nan,nan,nan,nan,nan,nan,nan,nan,nan,nan
9015628000,6,1585.9929,1578.1768,1571.4423,1580.4551,1500.0,1500.0,nan,nan,nan,nan,nan,nan,nan,nan,nan,nan
9015728000,6,1586.2196,1577.4243,1573.2223,1583.5002,1500.0,1500.0,nan,nan,nan,nan,nan,nan,nan,nan,nan,nan
9015832000,6,1585.6295,1575.3829,1570.2749,1582.0585,1500.0,1500.0,nan,nan,nan,nan,nan,nan,nan,nan,nan,nan
9015928000,6,1587.0509,1577.1807,1574.8082,1582.515,1500.0,1500.0,nan,nan,nan,nan,nan,nan,nan,nan,nan,nan
9016032000,6,1586.6833,1577.2358,1573.113,1582.262,1500.0,1500.0,nan,nan,nan,nan,nan,nan,nan,nan,nan,nan
