timestamp,timestamp_sample,control[0],control[1],control[2],control[3],control[4],control[5],control[6],control[7]
8959832000,8959832000,1.5322876e-05,0.008779903,-0.22707789,-0.0,0.0,0.0,0.0,-1.0
8959932000,8959932000,0.00077386847,0.009602658,-0.22879294,-0.0,0.0,0.0,0.0,-1.0
8960032000,8960032000,-0.002417041,0.0072258543,-0.2268608,-0.0,0.0,0.0,0.0,-1.0
8960132000,8960132000,-0.0011192366,0.008293992,-0.22806227,-0.0,0.0,0.0,0.0,-1.0
8960228000,8960228000,-0.00036637764,0.008049101,-0.2276702,-0.0,0.0,0.0,0.0,-1.0
8960332000,8960332000,-0.0028914658,0.0058777174,-0.22694841,-0.0,0.0,0.0,0.0,-1.0
8960432000,8960432000,-0.0029159493,0.00794364,-0.22716789,-0.0,0.0,0.0,0.0,-1.0
8960532000,8960532000,-0.003673234,0.007988061,-0.22714312,-0.0,0.0,0.0,0.0,-1.0
8960628000,8960628000,-0.00057080365,0.007695391,-0.22759722,-0.0,0.0,0.0,0.0,-1.0
8960732000,8960732000,-0.0018334292,0.00621395,-0.22720543,-0.0,0.0,0.0,0.0,-1.0
8960832000,8960832000,-0.0029323585,0.0076254182,-0.22766738,-0.0,0.0,0.0,0.0,-1.0
8960932000,8960932000,0.008524816,0.033516105,-0.00062282867,0.12003376,0.0,0.0,0.0,-1.0
8961032000,8961032000,0.02396586,0.09386119,-0.000867129,0.12033689,0.0,0.0,0.0,-1.0
8961132000,8961132000,0.018103192,0.060742013,-0.0008860739,0.17849414,0.0,0.0,0.0,-1.0
8961232000,8961232000,0.017362118,0.04200083,-0.0002901164,0.27568638,0.0,0.0,0.0,-1.0
8961332000,8961332000,0.0101925135,0.041359097,0.00011104915,0.3505534,0.0,0.0,0.0,-1.0
8961432000,8961432000,0.009316326,0.039006896,0.00030033203,0.41967863,0.0,0.0,0.0,-1.0
8961532000,8961532000,0.009203048,0.037575837,-0.00014343753,0.5069713,0.0,0.0,0.0,-1.0
8961632000,8961632000,0.0075046266,0.03203696,-0.0007059452,0.58014417,0.0,0.0,0.0,-1.0
8961732000,8961732000,-0.0009168077,-0.0059880856,-0.0008495969,0.62056774,0.0,0.0,0.0,-1.0
8961832000,8961832000,-0.0041823196,-0.005501914,0.00019433876,0.60881376,0.0,0.0,0.0,-1.0
8961932000,8961932000,0.002511942,0.0007208362,-0.0012079631,0.6126427,0.0,0.0,0.0,-1.0
8962032000,8962032000,-0.0007223219,0.0017157244,-0.00022359843,0.61122376,0.0,0.0,0.0,-1.0
8962132000,8962132000,-0.0004895532,0.0027231378,-0.00014558385,0.6135681,0.0,0.0,0.0,-1.0
8962232000,8962232000,7.5373566e-05,0.0017322027,0.00059266866,0.6200962,0.0,0.0,0.0,-1.0
8962332000,8962332000,0.00028223696,0.0009942381,-1.8007653e-05,0.62214696,0.0,0.0,0.0,-1.0
8962428000,8962428000,0.00012334413,-0.0019506617,0.00024476982,0.62151194,0.0,0.0,0.0,-1.0
8962532000,8962532000,0.0020963096,-0.0006724894,0.0003435682,0.61978185,0.0,0.0,0.0,-1.0
8962628000,8962628000,-0.0025836364,-0.0012439718,-0.00021884617,0.6269609,0.0,0.0,0.0,-1.0
8962728000,8962728000,0.0010035776,0.0020321365,-0.0008402436,0.6242557,0.0,0.0,0.0,-1.0
8962832000,8962832000,-0.0016529851,0.00076674577,-0.00026404503,0.6326355,0.0,0.0,0.0,-1.0
8962932000,8962932000,-0.0026512914,0.0011830432,-0.00039232057,0.6345359,0.0,0.0,0.0,-1.0
8963028000,8963028000,-8.5413805e-05,0.0002884753,-0.00036032885,0.6325339,0.0,0.0,0.0,-1.0
8963128000,8963128000,-0.00024960126,-0.0002971543,0.00030140654,0.6323846,0.0,0.0,0.0,-1.0
8963232000,8963232000,0.0021055837,0.0014742743,0.00048513815,0.6336717,0.0,0.0,0.0,-1.0
8963332000,8963332000,-0.0010475949,0.00016843015,0.00049528666,0.64259815,0.0,0.0,0.0,-1.0
8963432000,8963432000,0.00038112915,-0.00074034464,-0.0016951514,0.6392828,0.0,0.0,0.0,-1.0
8963532000,8963532000,-0.00020659564,-0.0024928465,-0.00082752324,0.6309404,0.0,0.0,0.0,1.0
8963632000,8963632000,-0.0010707483,-0.003492075,-3.0346811e-05,0.50487447,0.0,0.0,0.0,1.0
8963732000,8963732000,-0.001085049,0.00060641766,0.0010331785,0.54149806,0.0,0.0,0.0,1.0
8963832000,8963832000,-0.0001598038,-0.0014294414,0.00090300996,0.5511726,0.0,0.0,0.0,1.0
8963932000,8963932000,-0.0014209663,0.0015460916,0.0019496386,0.54774356,0.0,0.0,0.0,1.0
8964032000,8964032000,0.00019863603,-0.0004228492,0.00070366816,0.54831433,0.0,0.0,0.0,1.0
8964128000,8964128000,0.00033796515,0.0009243,-0.0009019565,0.5497029,0.0,0.0,0.0,1.0
8964232000,8964232000,-0.0010938742,0.00069721433,5.1208885e-05,0.549344,0.0,0.0,0.0,1.0
8964328000,8964328000,-0.002175572,0.0012337997,0.00071960676,0.5533308,0.0,0.0,0.0,1.0
8964432000,8964432000,-0.00036458788,-0.00031551055,9.488432e-05,0.55617565,0.0,0.0,0.0,1.0
8964528000,8964528000,-0.0013713181,0.0011976035,-0.00090475945,0.555774,0.0,0.0,0.0,1.0
8964632000,8964632000,0.0009653106,-0.0023012832,0.00048670018,0.55459255,0.0,0.0,0.0,1.0
8964732000,8964732000,-0.0006091372,-0.000728857,-0.00013945409,0.5548178,0.0,0.0,0.0,1.0
8964832000,8964832000,0.0050419415,-0.00108779,-0.00057991984,0.5608638,0.0,0.0,0.0,1.0
8964932000,8964932000,0.0029922377,0.0010360171,-0.0005315311,0.5607339,0.0,0.0,0.0,1.0
8965028000,8965028000,0.003169176,0.0026314408,-0.00056212605,0.5587199,0.0,0.0,0.0,1.0
8965128000,8965128000,0.0014963212,-0.0008925915,-0.0008420555,0.5603904,0.0,0.0,0.0,1.0
8965232000,8965232000,0.0007530275,0.002275615,-0.00025387324,0.558675,0.0,0.0,0.0,1.0
8965328000,8965328000,-9.3284965e-05,0.00015889041,-0.0005160616,0.56180197,0.0,0.0,0.0,1.0
8965432000,8965432000,0.00023323993,0.0013546993,-0.0011518435,0.56463724,0.0,0.0,0.0,1.0
8965528000,8965528000,-0.0024717597,-0.0012377293,-0.00023593407,0.562261,0.0,0.0,0.0,1.0
8965628000,8965628000,-0.00026705005,0.001995235,-2.0857195e-05,0.5613611,0.0,0.0,0.0,1.0
8965732000,8965732000,-0.0015184458,0.0004369596,-0.0005814999,0.5627585,0.0,0.0,0.0,1.0
8965832000,8965832000,-0.0014337812,-0.0009971998,-0.00014978419,0.5651236,0.0,0.0,0.0,1.0
8965928000,8965928000,0.0020277963,-0.0009045315,-0.001501702,0.5625623,0.0,0.0,0.0,1.0
8966032000,8966032000,0.0014383188,0.0019669647,-0.0004220164,0.5638838,0.0,0.0,0.0,1.0
8966132000,8966132000,0.00054991717,-0.00037562128,-6.759582e-05,0.5622661,0.0,0.0,0.0,1.0
8966232000,8966232000,0.0011455247,-0.0011407109,0.00011235593,0.5642899,0.0,0.0,0.0,1.0
8966332000,8966332000,0.0022174872,-0.0005879161,-0.0003757249,0.5643377,0.0,0.0,0.0,1.0
8966428000,8966428000,0.0020253244,-0.00077393086,-0.000340109,0.56380135,0.0,0.0,0.0,1.0
8966532000,8966532000,0.0018454068,0.0037210095,-0.00042936672,0.5643626,0.0,0.0,0.0,1.0
8966628000,8966628000,0.00012604336,-0.0005831362,0.0005571886,0.56504714,0.0,0.0,0.0,1.0
8966732000,8966732000,0.0015769346,0.001092583,0.00024809237,0.56370777,0.0,0.0,0.0,1.0
8966832000,8966832000,0.0025655504,-0.0011140803,-0.00017088176,0.5654615,0.0,0.0,0.0,1.0
8966932000,8966932000,-0.0010455383,-0.0018116026,0.00013382496,0.56355065,0.0,0.0,0.0,1.0
8967032000,8967032000,0.0015481263,-0.000274145,-0.0004540485,0.5646654,0.0,0.0,0.0,1.0
8967128000,8967128000,0.0019237178,-0.00038515456,0.0009650832,0.5652849,0.0,0.0,0.0,1.0
8967228000,8967228000,-0.00222967,-0.00029292007,0.00060394977,0.56458706,0.0,0.0,0.0,1.0
8967332000,8967332000,0.0005791546,0.0017114525,-0.000632002,0.5634723,0.0,0.0,0.0,1.0
8967432000,8967432000,-0.00041510718,-0.0026579883,0.0004538325,0.5646676,0.0,0.0,0.0,1.0
8967532000,8967532000,-0.0016449373,0.004179624,0.0006146192,0.5631777,0.0,0.0,0.0,1.0
8967632000,8967632000,0.002135545,0.0004068255,-0.0009083748,0.56579787,0.0,0.0,0.0,1.0
8967732000,8967732000,-5.614743e-05,-0.0024510035,0.00045118964,0.56478876,0.0,0.0,0.0,1.0
8967832000,8967832000,0.0012594842,-0.00091143476,0.0003989668,0.5637966,0.0,0.0,0.0,1.0
8967932000,8967932000,0.0006378015,0.0012855274,0.0005669201,0.56522506,0.0,0.0,0.0,1.0
8968032000,8968032000,-0.0024638288,0.0016168987,-0.00031109914,0.5639025,0.0,0.0,0.0,1.0
8968132000,8968132000,-0.00018633601,-0.0011270163,-0.00058236584,0.56493455,0.0,0.0,0.0,1.0
8968232000,8968232000,-0.0012166954,0.0008486382,0.00029268258,0.5640656,0.0,0.0,0.0,1.0
8968332000,8968332000,0.001420784,0.0009878629,-0.00023040175,0.56437457,0.0,0.0,0.0,1.0
8968428000,8968428000,0.00028216187,-0.00015541179,3.3724347e-05,0.56278616,0.0,0.0,0.0,1.0
8968532000,8968532000,0.0016190492,-0.0005540647,-0.00022261737,0.56420755,0.0,0.0,0.0,1.0
8968632000,8968632000,-0.0008619399,-3.4116907e-05,-0.00044451447,0.5649282,0.0,0.0,0.0,1.0
8968732000,8968732000,-0.00064147706,-0.0021333909,-0.00082879857,0.5639634,0.0,0.0,0.0,1.0
8968832000,8968832000,-0.0015693468,0.0021962696,-0.0006330286,0.56509954,0.0,0.0,0.0,1.0
8968928000,8968928000,0.0014355837,-0.0032894362,-0.00035423506,0.56438667,0.0,0.0,0.0,1.0
8969032000,8969032000,0.00047462812,4.5276138e-05,-0.00019827635,0.5655622,0.0,0.0,0.0,1.0
8969132000,8969132000,0.00057627,0.00049537787,-0.00069575384,0.5649586,0.0,0.0,0.0,1.0
8969232000,8969232000,-0.0006777273,0.0009767944,6.7181696e-05,0.5650825,0.0,0.0,0.0,1.0
8969332000,8969332000,-0.0015959394,-1.567087e-05,-0.00038749646,0.5637166,0.0,0.0,0.0,1.0
8969428000,8969428000,-0.0032158894,-0.0035617182,0.00086806976,0.5641498,0.0,0.0,0.0,1.0
8969528000,8969528000,0.0008171837,0.0033163533,-0.0005529135,0.5653654,0.0,0.0,0.0,1.0
8969632000,8969632000,0.0014218756,0.001441211,8.519167e-05,0.56410474,0.0,0.0,0.0,1.0
8969728000,8969728000,0.00036979222,0.0019913393,-0.00013394197,0.5656292,0.0,0.0,0.0,1.0
8969828000,8969828000,0.0011287169,0.0005371841,0.00075540494,0.5644285,0.0,0.0,0.0,1.0
8969932000,8969932000,-0.0009567549,0.0036926023,0.00028810577,0.5641791,0.0,0.0,0.0,1.0
8970032000,8970032000,0.0012663028,0.0005004838,-0.0012231385,0.5649494,0.0,0.0,0.0,1.0
8970132000,8970132000,-0.0024710712,0.00093778403,-0.0004370748,0.5643576,0.0,0.0,0.0,1.0
8970232000,8970232000,-0.001526594,0.0015984925,-0.00013011732,0.5648027,0.0,0.0,0.0,1.0
8970332000,8970332000,-0.0032257414,-0.000631796,-0.00022306721,0.56302047,0.0,0.0,0.0,1.0
8970432000,8970432000,-0.0005629149,0.003733293,0.00020477694,0.56389517,0.0,0.0,0.0,1.0
8970532000,8970532000,-0.000113281814,0.0025547312,-0.00025015665,0.56350696,0.0,0.0,0.0,1.0
8970632000,8970632000,-0.0018213185,-0.00077618466,0.0003787657,0.56344366,0.0,0.0,0.0,1.0
8970732000,8970732000,0.000773791,-0.0010674191,0.0008812817,0.5627482,0.0,0.0,0.0,1.0
8970828000,8970828000,-0.0014504013,-0.0018630297,0.0009128726,0.5637092,0.0,0.0,0.0,1.0
8970928000,8970928000,-0.0017886026,-0.0018377695,-0.00035479225,0.5633906,0.0,0.0,0.0,1.0
8971032000,8971032000,-0.0020088162,-0.0017261335,-0.00039747238,0.5628924,0.0,0.0,0.0,1.0
8971132000,8971132000,1.9217521e-05,-0.00016329445,0.00022922883,0.5640736,0.0,0.0,0.0,1.0
8971232000,8971232000,-0.0018681798,-0.00018775383,0.00089635985,0.5645799,0.0,0.0,0.0,1.0
8971328000,8971328000,-0.0044996473,0.000557609,-4.264336e-05,0.5644567,0.0,0.0,0.0,1.0
8971432000,8971432000,0.0028104787,0.0014347655,0.00056950224,0.5626488,0.0,0.0,0.0,1.0
8971532000,8971532000,0.0028972756,0.0004811483,0.0007826917,0.5646383,0.0,0.0,0.0,1.0
8971632000,8971632000,0.0007932919,-0.0006515912,4.3422522e-05,0.56385237,0.0,0.0,0.0,1.0
8971728000,8971728000,0.00093652634,-0.0002711201,0.0009280227,0.5642051,0.0,0.0,0.0,1.0
8971832000,8971832000,0.00018090176,0.002094027,0.0012301883,0.564092,0.0,0.0,0.0,1.0
8971932000,8971932000,-0.0006544963,0.0002195127,-0.0012498568,0.56363845,0.0,0.0,0.0,1.0
8972028000,8972028000,0.0028442868,0.0020510312,0.0005716638,0.5638391,0.0,0.0,0.0,1.0
8972132000,8972132000,-0.001943544,-0.00012602861,0.0009688351,0.56471276,0.0,0.0,0.0,1.0
8972228000,8972228000,0.00095576583,-0.003135738,-0.00068909023,0.563,0.0,0.0,0.0,1.0
8972328000,8972328000,-0.0011211658,-3.0472002e-05,0.0009053619,0.5651649,0.0,0.0,0.0,1.0
8972428000,8972428000,-0.00019330894,-0.00032065998,-0.00029130257,0.5649771,0.0,0.0,0.0,1.0
8972532000,8972532000,0.00081485725,0.0025820793,-0.00071645575,0.5629436,0.0,0.0,0.0,1.0
8972632000,8972632000,-0.000614896,0.0019677614,0.0005965973,0.56529766,0.0,0.0,0.0,1.0
8972732000,8972732000,-0.0031837146,0.001345683,0.00013413657,0.56365913,0.0,0.0,0.0,1.0
8972828000,8972828000,0.0012804182,-0.0014961833,0.0009861352,0.5638977,0.0,0.0,0.0,1.0
8972928000,8972928000,-0.00014085759,0.0017328243,0.0009654038,0.5631005,0.0,0.0,0.0,1.0
8973032000,8973032000,-0.00026973346,0.0011876628,-0.00013828222,0.5637484,0.0,0.0,0.0,1.0
8973132000,8973132000,-0.0012275886,-0.0026704322,0.00016118713,0.5629669,0.0,0.0,0.0,1.0
8973232000,8973232000,0.00044354482,0.00024025257,-0.0004770774,0.5621172,0.0,0.0,0.0,1.0
8973332000,8973332000,-0.0016029681,0.0025978365,-0.0005122233,0.56326824,0.0,0.0,0.0,1.0
8973432000,8973432000,-0.00017173061,-0.0006265941,-0.00033409309,0.56222403,0.0,0.0,0.0,1.0
8973532000,8973532000,-0.0018071732,0.0016851942,-0.000726425,0.5642144,0.0,0.0,0.0,1.0
8973632000,8973632000,0.0015606617,-0.00031297246,-5.8833793e-06,0.5624974,0.0,0.0,0.0,1.0
8973732000,8973732000,-0.002647172,-0.0005148734,0.0004513251,0.56364775,0.0,0.0,0.0,1.0
8973828000,8973828000,-0.0016800825,-0.0008733342,-0.0002536159,0.5620784,0.0,0.0,0.0,1.0
8973932000,8973932000,-0.0002345053,-0.00034901415,0.0002825879,0.5638689,0.0,0.0,0.0,1.0
8974032000,8974032000,-0.0023853728,-0.0019326543,-0.0011043354,0.5641188,0.0,0.0,0.0,1.0
8974128000,8974128000,-0.0032456352,0.00025381203,-0.00019864121,0.56370443,0.0,0.0,0.0,1.0
8974232000,8974232000,0.00040810244,0.0012789365,0.0005501193,0.5644172,0.0,0.0,0.0,1.0
8974328000,8974328000,-0.002214617,0.00029247307,0.00010048508,0.5644522,0.0,0.0,0.0,1.0
8974432000,8974432000,-0.0014836664,0.0039859503,-0.00034411493,0.56374335,0.0,0.0,0.0,1.0
8974532000,8974532000,-0.06854159,0.08810691,0.44213223,0.49527502,0.0,0.0,0.0,1.0
8974632000,8974632000,-0.029708907,0.0656013,0.13738783,0.41214943,0.0,0.0,0.0,1.0
8974732000,8974732000,-0.009500212,0.015227637,0.018912433,0.5868232,0.0,0.0,0.0,1.0
8974832000,8974832000,0.025100987,-0.014252942,-0.009104991,0.58501714,0.0,0.0,0.0,1.0
8974928000,8974928000,0.023341963,-0.021059804,-0.015114,0.56027097,0.0,0.0,0.0,1.0
8975028000,8975028000,0.010854521,-0.009136129,-0.013996863,0.5699524,0.0,0.0,0.0,1.0
8975128000,8975128000,0.010667427,-0.00095208024,-0.010577735,0.57042915,0.0,0.0,0.0,1.0
8975232000,8975232000,0.0036112221,-0.001971358,-0.00931674,0.56816655,0.0,0.0,0.0,1.0
8975332000,8975332000,0.005001203,-0.0050569503,-0.0057169218,0.5689745,0.0,0.0,0.0,1.0
8975432000,8975432000,0.0005534546,-0.0017634779,-0.004101458,0.5683569,0.0,0.0,0.0,1.0
8975532000,8975532000,0.0063720928,-0.0019232094,-0.005131757,0.5690699,0.0,0.0,0.0,1.0
8975632000,8975632000,0.003009722,-0.00402463,-0.002428635,0.56909883,0.0,0.0,0.0,1.0
8975732000,8975732000,0.0002971521,-0.006580049,-0.0019858433,0.5690616,0.0,0.0,0.0,1.0
8975832000,8975832000,0.0014336482,-0.0040206965,-0.0023150817,0.5695677,0.0,0.0,0.0,1.0
8975932000,8975932000,0.0016907806,-0.005775835,-0.0014100149,0.5717409,0.0,0.0,0.0,1.0
8976032000,8976032000,-0.0005326932,-0.0056354213,-0.0015060259,0.56976724,0.0,0.0,0.0,1.0
8976132000,8976132000,0.003799802,-0.005670013,-0.00050013186,0.5697591,0.0,0.0,0.0,1.0
8976232000,8976232000,0.00047134556,-0.003523202,-0.00019601965,0.5710052,0.0,0.0,0.0,1.0
8976328000,8976328000,0.0032304185,-0.0043161144,-0.00081871124,0.57165533,0.0,0.0,0.0,1.0
8976432000,8976432000,0.00038393436,-0.006083672,-0.0012848051,0.57112765,0.0,0.0,0.0,1.0
8976532000,8976532000,-0.00082538207,-0.008402122,-5.4427423e-05,0.57328445,0.0,0.0,0.0,1.0
8976632000,8976632000,0.0024230443,-0.0072958916,-0.0006414079,0.5738022,0.0,0.0,0.0,1.0
8976732000,8976732000,-0.00037864922,-0.011994378,-0.0005660495,0.5734107,0.0,0.0,0.0,1.0
8976832000,8976832000,0.001507608,-0.008641638,-0.00084328465,0.57412684,0.0,0.0,0.0,1.0
8976932000,8976932000,0.0010551652,-0.0062371404,-0.00021284865,0.5742027,0.0,0.0,0.0,1.0
8977032000,8977032000,0.003588299,-0.0070443116,-0.00044346182,0.57401764,0.0,0.0,0.0,1.0
8977128000,8977128000,-0.00091008644,-0.008020794,-0.00038422854,0.5756136,0.0,0.0,0.0,1.0
8977228000,8977228000,0.0016374073,-0.0074802195,-0.0013640372,0.574835,0.0,0.0,0.0,1.0
8977328000,8977328000,-0.0019632555,-0.008735238,0.00023999298,0.5759086,0.0,0.0,0.0,1.0
8977428000,8977428000,0.0009975953,-0.005314985,-4.5306515e-06,0.5770611,0.0,0.0,0.0,1.0
8977528000,8977528000,0.001922633,-0.009569974,-3.480236e-05,0.577894,0.0,0.0,0.0,1.0
8977632000,8977632000,0.0017464372,-0.0106247915,-0.00031119538,0.5795301,0.0,0.0,0.0,1.0
8977728000,8977728000,0.00047119847,-0.009824528,-0.0008678967,0.57940876,0.0,0.0,0.0,1.0
8977832000,8977832000,0.0023630853,-0.010150248,-9.8743476e-05,0.57951045,0.0,0.0,0.0,1.0
8977932000,8977932000,0.0018912256,-0.011055877,-0.0006398065,0.58067244,0.0,0.0,0.0,1.0
8978032000,8978032000,0.0037021243,-0.010832336,-0.0007492299,0.5817654,0.0,0.0,0.0,1.0
8978132000,8978132000,0.00052492565,-0.012440234,6.5882225e-05,0.5822444,0.0,0.0,0.0,1.0
8978232000,8978232000,0.0012136342,-0.00092188874,-0.00086906226,0.5788407,0.0,0.0,0.0,1.0
8978328000,8978328000,0.0047716796,-0.01033772,0.00035025843,0.5828993,0.0,0.0,0.0,1.0
8978428000,8978428000,0.0038606678,-0.02062531,-0.00031002075,0.5805641,0.0,0.0,0.0,1.0
8978532000,8978532000,0.0010244823,-0.01962424,-0.0009852173,0.5801851,0.0,0.0,0.0,1.0
8978632000,8978632000,-0.0012672049,-0.010167778,-0.00019568496,0.5789064,0.0,0.0,0.0,1.0
8978732000,8978732000,0.00025266525,-0.011880772,-0.001187729,0.5790162,0.0,0.0,0.0,1.0
8978832000,8978832000,0.0012609478,-0.0139866015,4.138425e-05,0.57661265,0.0,0.0,0.0,1.0
8978932000,8978932000,0.0015804567,-0.008875165,8.083647e-05,0.575833,0.0,0.0,0.0,1.0
8979032000,8979032000,0.0014891638,-0.009473535,0.00022472511,0.5760848,0.0,0.0,0.0,1.0
8979128000,8979128000,0.00075132155,-0.011200933,-3.9714505e-05,0.57507616,0.0,0.0,0.0,1.0
8979228000,8979228000,0.0004595857,-0.011609639,-0.00050424633,0.57475376,0.0,0.0,0.0,1.0
8979332000,8979332000,0.0011503671,-0.011158267,-0.000240064,0.5744976,0.0,0.0,0.0,1.0
8979432000,8979432000,-0.00088818907,-0.0101302285,-0.00026211288,0.5740492,0.0,0.0,0.0,1.0
8979528000,8979528000,0.0019049093,-0.0085387295,-0.0003722161,0.57324594,0.0,0.0,0.0,1.0
8979632000,8979632000,0.00044672447,-0.007484276,-0.00032991607,0.5737365,0.0,0.0,0.0,1.0
8979732000,8979732000,0.0046750763,-0.009748355,2.6357593e-06,0.5728276,0.0,0.0,0.0,1.0
8979832000,8979832000,-0.0028662537,-0.0076785167,0.000105681305,0.5747235,0.0,0.0,0.0,1.0
8979928000,8979928000,-0.0006135155,-0.007436539,-0.0013874242,0.573449,0.0,0.0,0.0,1.0
8980032000,8980032000,-0.0045475946,-0.0051650614,-0.0003958203,0.5712435,0.0,0.0,0.0,1.0
8980128000,8980128000,-0.00094952196,-0.0026423954,0.00014346943,0.57389134,0.0,0.0,0.0,1.0
8980232000,8980232000,-0.0042401105,-0.003950028,0.0010786866,0.571418,0.0,0.0,0.0,1.0
8980332000,8980332000,-0.0059724967,0.0020851623,0.00019693552,0.5711671,0.0,0.0,0.0,1.0
8980432000,8980432000,-0.0060337875,0.011243867,0.0021488052,0.5683801,0.0,0.0,0.0,1.0
8980528000,8980528000,-0.19116184,-0.005063778,0.014408453,0.56616235,0.0,0.0,0.0,1.0
8980632000,8980632000,0.0837704,-0.047070175,0.0017361336,0.553659,0.0,0.0,0.0,1.0
8980732000,8980732000,0.038417555,-0.02218948,-0.0013851015,0.5699498,0.0,0.0,0.0,1.0
8980832000,8980832000,-0.013728886,0.006910531,-0.0006890836,0.5775596,0.0,0.0,0.0,1.0
8980932000,8980932000,-0.021386798,0.006341829,-0.001357223,0.57551026,0.0,0.0,0.0,1.0
8981032000,8981032000,-0.014593373,-0.0008078017,0.0004023596,0.57370347,0.0,0.0,0.0,1.0
8981132000,8981132000,-0.0074768206,0.0012366236,0.0013190203,0.5754555,0.0,0.0,0.0,1.0
8981232000,8981232000,-0.0074348655,-0.0020849486,0.0009491778,0.5738753,0.0,0.0,0.0,1.0
8981328000,8981328000,-0.006277989,0.0036787782,0.0010803296,0.57504267,0.0,0.0,0.0,1.0
8981432000,8981432000,-0.0058403453,0.00018679025,0.0015721626,0.57502514,0.0,0.0,0.0,1.0
8981532000,8981532000,-0.008090467,0.00040017115,-0.00018988881,0.57466793,0.0,0.0,0.0,1.0
8981632000,8981632000,-0.0050137937,-0.0029693202,0.001469862,0.5765637,0.0,0.0,0.0,1.0
8981732000,8981732000,-0.0081538595,-0.0015419483,0.0022395607,0.57527643,0.0,0.0,0.0,1.0
8981832000,8981832000,-0.010044815,0.0041590906,0.0016720558,0.57466555,0.0,0.0,0.0,1.0
8981932000,8981932000,-0.008614683,-0.0022247056,0.0017341854,0.5760398,0.0,0.0,0.0,1.0
8982032000,8982032000,-0.008477383,0.0010209978,0.001600102,0.5749838,0.0,0.0,0.0,1.0
8982132000,8982132000,-0.0077332594,-0.0005003272,0.0012223071,0.5753696,0.0,0.0,0.0,1.0
8982232000,8982232000,-0.006612827,-0.0025339127,0.0012071133,0.57632774,0.0,0.0,0.0,1.0
8982332000,8982332000,-0.006938528,-0.0014596259,0.0019059277,0.5750124,0.0,0.0,0.0,1.0
8982432000,8982432000,-0.00857199,-0.0014429952,0.00073639496,0.5751929,0.0,0.0,0.0,1.0
8982532000,8982532000,-0.007164203,-0.0013174742,0.0020291735,0.5758455,0.0,0.0,0.0,1.0
8982632000,8982632000,-0.0065795216,-0.0016934804,0.0012448924,0.57573664,0.0,0.0,0.0,1.0
8982732000,8982732000,-0.009251584,-0.001777861,0.0012445829,0.5755071,0.0,0.0,0.0,1.0
8982832000,8982832000,-0.009011647,-0.0047739972,0.0014356307,0.57629883,0.0,0.0,0.0,1.0
8982932000,8982932000,-0.009893251,-0.001524302,0.00043902616,0.57580364,0.0,0.0,0.0,1.0
8983032000,8983032000,-0.0097527,7.682538e-05,0.00096899935,0.5756108,0.0,0.0,0.0,1.0
8983128000,8983128000,-0.0066670263,0.00017848273,0.0017687731,0.5779662,0.0,0.0,0.0,1.0
8983228000,8983228000,-0.007935688,0.0024019596,0.0025853757,0.57588774,0.0,0.0,0.0,1.0
8983332000,8983332000,-0.008851742,-0.0019410824,0.0010887712,0.5759555,0.0,0.0,0.0,1.0
8983432000,8983432000,-0.0063825017,-0.0007719186,0.0013299765,0.57502306,0.0,0.0,0.0,1.0
8983532000,8983532000,-0.008356358,-0.0022905623,0.000566463,0.5756481,0.0,0.0,0.0,1.0
8983628000,8983628000,-0.0068402523,-0.0010463663,0.0009408151,0.5756178,0.0,0.0,0.0,1.0
8983732000,8983732000,-0.009809589,-0.00024190516,0.00094907836,0.5757302,0.0,0.0,0.0,1.0
8983828000,8983828000,-0.0067838766,-4.5498484e-05,0.0017304593,0.5772825,0.0,0.0,0.0,1.0
8983928000,8983928000,-0.0059860386,-0.0019060065,0.0015889957,0.57669705,0.0,0.0,0.0,1.0
8984032000,8984032000,-0.008218169,-0.0002554673,0.001612947,0.5760346,0.0,0.0,0.0,1.0
8984132000,8984132000,-0.008205706,0.0011621092,0.0010976426,0.57625085,0.0,0.0,0.0,1.0
8984232000,8984232000,-0.008037125,0.0030633947,0.0010229101,0.5766168,0.0,0.0,0.0,1.0
8984328000,8984328000,-0.006195864,0.0033811997,0.0028973364,0.57561105,0.0,0.0,0.0,1.0
8984432000,8984432000,-0.007517499,4.7652517e-05,0.0023320673,0.5780187,0.0,0.0,0.0,1.0
8984532000,8984532000,-0.007643856,2.8923037e-05,0.0005753906,0.5766704,0.0,0.0,0.0,1.0
8984628000,8984628000,-0.008340199,0.00068572414,0.0014312579,0.57661575,0.0,0.0,0.0,1.0
8984732000,8984732000,-0.007650728,-0.0014608849,0.0014217894,0.5763649,0.0,0.0,0.0,1.0
8984832000,8984832000,-0.0072599654,-7.3285366e-05,0.0022235056,0.5774192,0.0,0.0,0.0,1.0
8984932000,8984932000,-0.008117812,0.0018466364,0.0014632375,0.57807666,0.0,0.0,0.0,1.0
8985028000,8985028000,-0.012379549,0.0010168222,0.0015539282,0.5766345,0.0,0.0,0.0,1.0
8985128000,8985128000,-0.009433728,-0.0023418495,0.00024489313,0.57684594,0.0,0.0,0.0,1.0
8985232000,8985232000,-0.008016286,0.00017902697,0.0017479328,0.57702494,0.0,0.0,0.0,1.0
8985332000,8985332000,-0.0087443,0.00044340914,0.0006360921,0.5777587,0.0,0.0,0.0,1.0
8985428000,8985428000,-0.010288166,-0.0030759063,0.0011345281,0.5772942,0.0,0.0,0.0,1.0
8985532000,8985532000,-0.009265973,0.00063533534,0.0010257964,0.5758494,0.0,0.0,0.0,1.0
8985632000,8985632000,-0.008918435,-0.0004114022,0.00075978826,0.57684845,0.0,0.0,0.0,1.0
8985728000,8985728000,-0.008639526,-6.7080546e-05,0.00045923417,0.57602316,0.0,0.0,0.0,1.0
8985832000,8985832000,-0.0072456114,-0.00030135334,0.0002615105,0.57715786,0.0,0.0,0.0,1.0
8985932000,8985932000,-0.010643449,9.831204e-05,0.0023617358,0.57647914,0.0,0.0,0.0,1.0
8986032000,8986032000,-0.011845198,-0.000109699555,0.0010541279,0.57765925,0.0,0.0,0.0,1.0
8986132000,8986132000,-0.006990512,-0.0016902207,0.00031502394,0.57718563,0.0,0.0,0.0,1.0
8986228000,8986228000,-0.008500113,0.000547376,0.0025706152,0.577412,0.0,0.0,0.0,1.0
8986332000,8986332000,-0.009066445,0.0020770836,0.0015896197,0.5776563,0.0,0.0,0.0,1.0
8986432000,8986432000,-0.005797723,-0.0019116227,0.0021291354,0.57808614,0.0,0.0,0.0,1.0
8986532000,8986532000,-0.009343715,0.00013076788,0.0008552644,0.5791986,0.0,0.0,0.0,1.0
8986628000,8986628000,-0.007114367,-0.0009582404,0.0018062267,0.57877624,0.0,0.0,0.0,1.0
8986732000,8986732000,-0.010481542,0.00015843206,0.0016647092,0.5786572,0.0,0.0,0.0,1.0
8986832000,8986832000,-0.008925085,0.0017751821,0.0014621678,0.5770881,0.0,0.0,0.0,1.0
8986932000,8986932000,-0.011233311,-0.0024983562,0.0017369036,0.57671356,0.0,0.0,0.0,1.0
8987028000,8987028000,-0.008963291,-0.0008821519,0.0012270365,0.57818276,0.0,0.0,0.0,1.0
8987132000,8987132000,-0.0106299175,0.0012505491,0.0022327683,0.5773485,0.0,0.0,0.0,1.0
8987232000,8987232000,-0.009423238,0.0033366638,0.0018059944,0.57710975,0.0,0.0,0.0,1.0
8987332000,8987332000,-0.008808482,0.00037213688,0.0015597579,0.5765858,0.0,0.0,0.0,1.0
8987432000,8987432000,-0.008073922,-0.0009372843,0.002565968,0.5779505,0.0,0.0,0.0,1.0
8987532000,8987532000,-0.009566946,-0.00040316128,0.000856527,0.57782173,0.0,0.0,0.0,1.0
8987632000,8987632000,-0.009776881,-0.00045439135,0.0021572453,0.57756805,0.0,0.0,0.0,1.0
8987732000,8987732000,-0.00689808,-0.0011684331,0.00090700533,0.5776125,0.0,0.0,0.0,1.0
8987832000,8987832000,-0.010299272,0.00038691418,0.0021988694,0.57840335,0.0,0.0,0.0,1.0
8987932000,8987932000,-0.010116056,1.1976983e-05,0.0010480364,0.57824713,0.0,0.0,0.0,1.0
8988032000,8988032000,-0.0067029437,-0.0018161193,0.0005295407,0.5762662,0.0,0.0,0.0,1.0
8988132000,8988132000,-0.010340651,-0.0014134804,0.00079783675,0.5761586,0.0,0.0,0.0,1.0
8988232000,8988232000,-0.012236427,-0.0020945775,0.0018429016,0.57706237,0.0,0.0,0.0,1.0
8988332000,8988332000,-0.0082676,-0.00050321553,0.0012648139,0.5764101,0.0,0.0,0.0,1.0
8988432000,8988432000,-0.007596271,0.0001224706,0.0011408878,0.5781157,0.0,0.0,0.0,1.0
8988532000,8988532000,-0.011535313,-0.0023163473,0.0015823136,0.57758814,0.0,0.0,0.0,1.0
8988632000,8988632000,-0.008623859,-0.002307313,0.001348703,0.57614464,0.0,0.0,0.0,1.0
8988728000,8988728000,-0.009760425,-0.0016471139,0.0011931234,0.578335,0.0,0.0,0.0,1.0
8988828000,8988828000,-0.009072993,-0.0002631174,0.001683354,0.57894236,0.0,0.0,0.0,1.0
8988928000,8988928000,-0.009996826,-0.0034786982,0.0020029268,0.57710737,0.0,0.0,0.0,1.0
8989032000,8989032000,-0.0069324393,-0.0030577057,0.0020900015,0.57765824,0.0,0.0,0.0,1.0
8989128000,8989128000,-0.00740771,-0.00021675049,0.0008320589,0.5783086,0.0,0.0,0.0,1.0
8989232000,8989232000,-0.009066983,0.0006354511,0.0012828547,0.57802826,0.0,0.0,0.0,1.0
8989332000,8989332000,-0.008020891,-0.0007842162,0.0022415374,0.57891184,0.0,0.0,0.0,1.0
8989432000,8989432000,-0.012350639,-0.0004601998,0.0014387193,0.57730186,0.0,0.0,0.0,1.0
8989532000,8989532000,-0.007987615,-0.0037257746,0.0013033216,0.57863915,0.0,0.0,0.0,1.0
8989632000,8989632000,-0.007612074,0.0011507048,0.0012381887,0.5796658,0.0,0.0,0.0,1.0
8989732000,8989732000,-0.008315782,0.0020275344,0.00195679,0.5780345,0.0,0.0,0.0,1.0
8989828000,8989828000,-0.007878428,0.000916428,0.0010197969,0.5780245,0.0,0.0,0.0,1.0
8989932000,8989932000,-0.008050589,-0.0038149902,0.0012623782,0.5787422,0.0,0.0,0.0,1.0
8990028000,8990028000,-0.009073466,0.0010514894,0.0019485204,0.5775482,0.0,0.0,0.0,1.0
8990132000,8990132000,-0.012122034,-0.0027710274,0.001383796,0.5788384,0.0,0.0,0.0,1.0
8990228000,8990228000,-0.008534379,-0.0013372747,0.0020394889,0.5777084,0.0,0.0,0.0,1.0
8990332000,8990332000,-0.008975243,-0.0025557494,0.0017995,0.5771949,0.0,0.0,0.0,1.0
8990432000,8990432000,-0.009781267,-0.0015746639,0.001033561,0.5782833,0.0,0.0,0.0,1.0
8990532000,8990532000,-0.010236656,-0.0031235556,0.0016370256,0.57867587,0.0,0.0,0.0,1.0
8990628000,8990628000,-0.0081325,-0.0002683421,0.002168969,0.57676864,0.0,0.0,0.0,1.0
8990732000,8990732000,-0.012504612,0.002210694,0.001919783,0.5772208,0.0,0.0,0.0,1.0
8990832000,8990832000,-0.009974874,-0.0022661616,0.0013488461,0.57866067,0.0,0.0,0.0,1.0
8990928000,8990928000,-0.010058208,-0.0008913045,0.0019112234,0.5776818,0.0,0.0,0.0,1.0
8991028000,8991028000,-0.012185641,0.00087275216,0.0012876462,0.5773263,0.0,0.0,0.0,1.0
8991128000,8991128000,-0.008865874,0.001180614,0.0016229226,0.57821524,0.0,0.0,0.0,1.0
8991232000,8991232000,-0.011251772,-0.00029756903,0.0015028347,0.5783296,0.0,0.0,0.0,1.0
8991332000,8991332000,-0.011484871,-0.0024212343,0.0012118819,0.57830566,0.0,0.0,0.0,1.0
8991432000,8991432000,-0.009915792,-0.0005304883,0.0011604447,0.57737815,0.0,0.0,0.0,1.0
8991532000,8991532000,-0.010566613,0.0005196278,0.0014434465,0.57850933,0.0,0.0,0.0,1.0
8991632000,8991632000,-0.010723523,-0.0033588307,0.0007827479,0.57756674,0.0,0.0,0.0,1.0
8991732000,8991732000,-0.010106695,-0.0014162245,0.002069093,0.57737225,0.0,0.0,0.0,1.0
8991832000,8991832000,-0.008701061,-0.0013492159,0.0013248466,0.5788408,0.0,0.0,0.0,1.0
8991928000,8991928000,-0.0107027525,-0.0010985452,0.0018496576,0.5792108,0.0,0.0,0.0,1.0
8992032000,8992032000,-0.0121485405,-0.0004322718,0.0018926677,0.5794601,0.0,0.0,0.0,1.0
8992132000,8992132000,-0.011748133,0.00048573775,0.001672957,0.5781183,0.0,0.0,0.0,1.0
8992232000,8992232000,-0.00779297,-0.00242243,0.0014932577,0.57809097,0.0,0.0,0.0,1.0
8992328000,8992328000,-0.007669865,0.00064218015,0.0016144668,0.5792175,0.0,0.0,0.0,1.0
8992432000,8992432000,-0.008518195,-0.0005136253,0.0022551646,0.57918775,0.0,0.0,0.0,1.0
8992532000,8992532000,-0.012991388,0.0016589796,0.0013103432,0.5796156,0.0,0.0,0.0,1.0
8992632000,8992632000,-0.0115798535,-0.0019104225,0.0012227517,0.5780442,0.0,0.0,0.0,1.0
8992732000,8992732000,-0.0077002738,-0.002542809,0.0021436154,0.5782222,0.0,0.0,0.0,1.0
8992832000,8992832000,-0.009381222,-0.0015827899,0.0020372372,0.57900584,0.0,0.0,0.0,1.0
8992932000,8992932000,-0.012000417,-0.00093245064,0.0018424179,0.5782463,0.0,0.0,0.0,1.0
8993032000,8993032000,-0.008340253,-0.0016453582,0.0026444444,0.57790124,0.0,0.0,0.0,1.0
8993128000,8993128000,-0.0125066545,0.001151338,0.0013138225,0.5788007,0.0,0.0,0.0,1.0
8993232000,8993232000,-0.010101795,-0.003564301,0.002001502,0.5777539,0.0,0.0,0.0,1.0
8993328000,8993328000,-0.010325216,-0.000857473,0.0024862722,0.5769396,0.0,0.0,0.0,1.0
8993432000,8993432000,-0.011920271,-0.0014812329,0.0009065818,0.5785287,0.0,0.0,0.0,1.0
8993532000,8993532000,-0.009689951,0.0018226821,0.0019407115,0.5782584,0.0,0.0,0.0,1.0
8993628000,8993628000,-0.01074817,-0.0015501687,0.0018035613,0.5776483,0.0,0.0,0.0,1.0
8993732000,8993732000,-0.01059235,0.0013185481,0.00095200073,0.577861,0.0,0.0,0.0,1.0
8993828000,8993828000,-0.0117686195,-4.5457564e-05,0.00171523,0.57820004,0.0,0.0,0.0,1.0
8993928000,8993928000,-0.010781059,-0.0016091336,0.0018521963,0.5787068,0.0,0.0,0.0,1.0
8994032000,8994032000,-0.008951372,-0.00014881164,0.0012456045,0.57936263,0.0,0.0,0.0,1.0
8994132000,8994132000,-0.010674952,-0.0018722372,0.0017412321,0.57829976,0.0,0.0,0.0,1.0
8994232000,8994232000,-0.0074379547,0.0019510789,0.0012436484,0.578459,0.0,0.0,0.0,1.0
8994332000,8994332000,-0.00865602,0.0010440829,0.0016226191,0.5767272,0.0,0.0,0.0,1.0
8994432000,8994432000,-0.009700824,-0.000785984,0.0015203183,0.579401,0.0,0.0,0.0,1.0
8994532000,8994532000,-0.009859589,0.002026527,0.0020233542,0.57762855,0.0,0.0,0.0,1.0
8994632000,8994632000,-0.012649775,0.00047477297,0.0018688492,0.5783885,0.0,0.0,0.0,1.0
8994732000,8994732000,-0.013249642,-0.0044130166,0.0013944794,0.57966995,0.0,0.0,0.0,1.0
8994832000,8994832000,-0.011129089,0.0014656902,0.0016220197,0.5770905,0.0,0.0,0.0,1.0
8994928000,8994928000,-0.009417968,-0.00049921894,4.0939893e-05,0.5772398,0.0,0.0,0.0,1.0
8995032000,8995032000,-0.008786417,0.0008829658,0.0011301059,0.5793963,0.0,0.0,0.0,1.0
8995128000,8995128000,-0.008794839,0.0020405927,0.0011117156,0.5775842,0.0,0.0,0.0,1.0
8995228000,8995228000,-0.01010591,-0.001999023,0.0016199999,0.57790035,0.0,0.0,0.0,1.0
8995332000,8995332000,-0.011073414,-0.0026140893,0.0017527848,0.577864,0.0,0.0,0.0,1.0
8995428000,8995428000,-0.011498955,0.0006771266,0.002068979,0.57835144,0.0,0.0,0.0,1.0
8995532000,8995532000,-0.008994018,-0.0022417856,0.0009883102,0.58013624,0.0,0.0,0.0,1.0
8995632000,8995632000,-0.011481255,0.000636203,0.0014377609,0.57871616,0.0,0.0,0.0,1.0
8995732000,8995732000,-0.010298658,-0.001376712,0.001725901,0.57876045,0.0,0.0,0.0,1.0
8995828000,8995828000,-0.009966858,0.0009044421,0.0021487905,0.5797251,0.0,0.0,0.0,1.0
8995932000,8995932000,-0.01244515,0.001321269,0.0016002014,0.5806688,0.0,0.0,0.0,1.0
8996032000,8996032000,-0.012467668,-2.08524e-05,0.0011718437,0.5788031,0.0,0.0,0.0,1.0
8996132000,8996132000,-0.010924123,-0.00012789416,0.0015458977,0.5790322,0.0,0.0,0.0,1.0
8996232000,8996232000,-0.011127263,-0.00081929937,0.0015579534,0.5800033,0.0,0.0,0.0,1.0
8996332000,8996332000,-0.009552031,-0.00335857,0.00058196776,0.5803812,0.0,0.0,0.0,1.0
8996432000,8996432000,-0.0076843854,-0.0013272348,0.0019048133,0.57983744,0.0,0.0,0.0,1.0
8996532000,8996532000,-0.009214926,0.0024443148,0.0024591284,0.57882047,0.0,0.0,0.0,1.0
8996632000,8996632000,-0.012066064,1.3614277e-05,0.001336421,0.5772779,0.0,0.0,0.0,1.0
8996732000,8996732000,-0.0076338258,-0.0002724414,0.0022473997,0.5799316,0.0,0.0,0.0,1.0
8996832000,8996832000,-0.011805544,-0.002183255,0.0018731611,0.5789681,0.0,0.0,0.0,1.0
8996932000,8996932000,-0.009625388,-6.8998197e-06,0.0014370836,0.5767929,0.0,0.0,0.0,1.0
8997032000,8997032000,-0.00943537,-0.0006492094,0.0010892897,0.5791055,0.0,0.0,0.0,1.0
8997132000,8997132000,-0.0075417696,-0.0006733397,0.002591992,0.5783533,0.0,0.0,0.0,1.0
8997232000,8997232000,-0.007582103,-0.005198868,0.0011743186,0.5778747,0.0,0.0,0.0,1.0
8997332000,8997332000,-0.010095902,-0.00246807,0.0019882615,0.5800362,0.0,0.0,0.0,1.0
8997432000,8997432000,-0.008234804,0.00026706682,0.0009511279,0.5794027,0.0,0.0,0.0,1.0
8997528000,8997528000,-0.009156851,-7.436937e-05,0.0017578527,0.57898784,0.0,0.0,0.0,1.0
8997628000,8997628000,-0.0105319405,0.0001332963,0.001403596,0.58001333,0.0,0.0,0.0,1.0
8997732000,8997732000,-0.010300969,-0.0006246477,0.0017973399,0.57825387,0.0,0.0,0.0,1.0
8997828000,8997828000,-0.009056397,-0.00018510586,0.0022351986,0.57875085,0.0,0.0,0.0,1.0
8997932000,8997932000,-0.00876244,-0.002211739,0.0018293221,0.5792503,0.0,0.0,0.0,1.0
8998032000,8998032000,-0.010313854,-2.9766466e-05,0.001446114,0.57875335,0.0,0.0,0.0,1.0
8998128000,8998128000,-0.008479277,-0.0024369084,0.0014362144,0.5779612,0.0,0.0,0.0,1.0
8998228000,8998228000,-0.012591013,7.080787e-05,0.001807996,0.5779413,0.0,0.0,0.0,1.0
8998332000,8998332000,-0.009023529,-0.003932452,0.0006844145,0.57970005,0.0,0.0,0.0,1.0
8998432000,8998432000,-0.011544028,-0.0008549441,0.0011074845,0.5794973,0.0,0.0,0.0,1.0
8998532000,8998532000,-0.009134028,0.0026437072,0.0021538208,0.57899636,0.0,0.0,0.0,1.0
8998628000,8998628000,-0.008711662,0.0005470478,0.0021071834,0.578952,0.0,0.0,0.0,1.0
8998732000,8998732000,-0.011929908,-0.0013817877,0.002050134,0.5800945,0.0,0.0,0.0,1.0
8998828000,8998828000,-0.01021158,-0.00024293634,0.0022746315,0.5800039,0.0,0.0,0.0,1.0
8998932000,8998932000,-0.0073213694,-0.0030698595,0.001408847,0.5778932,0.0,0.0,0.0,1.0
8999032000,8999032000,-0.0074644797,-0.0015017525,0.001533938,0.5793347,0.0,0.0,0.0,1.0
8999132000,8999132000,-0.007473613,0.002173181,0.0011551697,0.57767546,0.0,0.0,0.0,1.0
8999228000,8999228000,-0.012502829,-0.0010078293,0.0024257477,0.5793246,0.0,0.0,0.0,1.0
8999328000,8999328000,-0.008955992,-0.00022360387,0.0020078348,0.57760143,0.0,0.0,0.0,1.0
8999432000,8999432000,-0.010042513,2.636906e-05,0.0014176823,0.57717645,0.0,0.0,0.0,1.0
8999532000,8999532000,-0.010005135,-0.0039203116,0.0012185475,0.5779053,0.0,0.0,0.0,1.0
8999628000,8999628000,-0.010816691,-0.0018472051,0.0009521536,0.5788813,0.0,0.0,0.0,1.0
8999732000,8999732000,-0.008178171,-0.0014083532,0.0011251396,0.57826763,0.0,0.0,0.0,1.0
8999828000,8999828000,-0.0107907895,-0.0015444539,0.0019491365,0.57960325,0.0,0.0,0.0,1.0
8999928000,8999928000,-0.014247961,0.0013638187,0.0018108974,0.5796493,0.0,0.0,0.0,1.0
9000032000,9000032000,-0.009363029,0.0010538844,0.00058391946,0.5784978,0.0,0.0,0.0,1.0
9000132000,9000132000,-0.011217791,-0.0042039584,0.0014669279,0.5782986,0.0,0.0,0.0,1.0
9000232000,9000232000,-0.010378633,-0.0013865558,0.00093732955,0.5778629,0.0,0.0,0.0,1.0
9000332000,9000332000,-0.008310281,-4.7675683e-05,0.001636022,0.5799345,0.0,0.0,0.0,1.0
9000428000,9000428000,-0.009762204,-0.0026945912,0.0017240985,0.5794598,0.0,0.0,0.0,1.0
9000532000,9000532000,-0.010419023,-0.0037472658,0.0014161364,0.5778516,0.0,0.0,0.0,1.0
9000632000,9000632000,-0.01327606,-0.0007396803,0.0013172821,0.5777496,0.0,0.0,0.0,1.0
9000728000,9000728000,-0.009714803,-0.0013763951,0.0010534242,0.578708,0.0,0.0,0.0,1.0
9000832000,9000832000,-0.010364011,-0.0019083513,0.0015754274,0.5791865,0.0,0.0,0.0,1.0
9000928000,9000928000,-0.008115543,0.00015615043,0.0024096286,0.57908285,0.0,0.0,0.0,1.0
9001032000,9001032000,-0.0059476946,0.00040541415,0.0014809683,0.5793662,0.0,0.0,0.0,1.0
9001132000,9001132000,-0.011226406,0.0007846517,0.0010913264,0.57938445,0.0,0.0,0.0,1.0
9001232000,9001232000,-0.010742096,0.00026135804,0.0019119623,0.57896656,0.0,0.0,0.0,1.0
9001332000,9001332000,-0.0068082474,-0.0009072676,0.002429683,0.57800055,0.0,0.0,0.0,1.0
9001432000,9001432000,-0.0110928025,-0.002393298,0.0013672576,0.57798123,0.0,0.0,0.0,1.0
9001532000,9001532000,-0.01097263,0.0009775755,0.0024726503,0.5787295,0.0,0.0,0.0,1.0
9001632000,9001632000,-0.012425651,-0.0039724037,0.0020850732,0.57863146,0.0,0.0,0.0,1.0
9001732000,9001732000,-0.008446662,0.0017005382,0.00088166614,0.5778714,0.0,0.0,0.0,1.0
9001832000,9001832000,-0.006914567,-0.0009688876,0.0026041684,0.57820696,0.0,0.0,0.0,1.0
9001932000,9001932000,-0.008876074,-0.001235313,0.00028009526,0.5784837,0.0,0.0,0.0,1.0
9002028000,9002028000,-0.011268507,-0.001281216,0.001607224,0.5787448,0.0,0.0,0.0,1.0
9002132000,9002132000,-0.009227858,-0.0013001799,0.0019303174,0.57626086,0.0,0.0,0.0,1.0
9002232000,9002232000,-0.011202057,-0.0030977752,0.0013784494,0.5772019,0.0,0.0,0.0,1.0
9002332000,9002332000,-0.01177204,0.0031576152,0.0020901714,0.5773687,0.0,0.0,0.0,1.0
9002428000,9002428000,-0.010526973,-2.4807116e-05,0.0012207187,0.5771985,0.0,0.0,0.0,1.0
9002532000,9002532000,-0.006933746,0.0014826958,0.001477542,0.5776584,0.0,0.0,0.0,1.0
9002632000,9002632000,-0.011653575,-0.0018357811,0.0021446904,0.57851493,0.0,0.0,0.0,1.0
9002732000,9002732000,-0.009325463,-7.287896e-05,0.0011246729,0.57826126,0.0,0.0,0.0,1.0
9002832000,9002832000,-0.00803273,-0.004800629,0.00092453265,0.5784448,0.0,0.0,0.0,1.0
9002932000,9002932000,-0.01326216,-0.000168967,0.0009838808,0.5786265,0.0,0.0,0.0,1.0
9003032000,9003032000,-0.010786405,0.00022246828,0.0024472296,0.5783853,0.0,0.0,0.0,1.0
9003132000,9003132000,-0.013431795,0.000758327,0.0017803549,0.57802784,0.0,0.0,0.0,1.0
9003232000,9003232000,-0.009903698,-0.004866202,0.0017533163,0.5784372,0.0,0.0,0.0,1.0
9003328000,9003328000,-0.013459016,-0.00091876497,0.0015951036,0.5780455,0.0,0.0,0.0,1.0
9003428000,9003428000,-0.008403808,-0.0002831883,0.0014182308,0.57952875,0.0,0.0,0.0,1.0
9003532000,9003532000,-0.008096546,0.0016534943,0.002920081,0.5780361,0.0,0.0,0.0,1.0
9003632000,9003632000,-0.00966705,0.0009640731,0.0011740103,0.57962936,0.0,0.0,0.0,1.0
9003732000,9003732000,-0.009188637,-0.00012259377,0.0018794016,0.5768295,0.0,0.0,0.0,1.0
9003828000,9003828000,-0.006663426,-0.0027259104,0.001551505,0.5780199,0.0,0.0,0.0,1.0
9003932000,9003932000,-0.010012425,-0.00062570634,0.0014178744,0.57808834,0.0,0.0,0.0,1.0
9004028000,9004028000,-0.011229657,-0.0011797271,0.0018585052,0.57815963,0.0,0.0,0.0,1.0
9004132000,9004132000,-0.0085199,-0.000829416,0.0011493495,0.5790065,0.0,0.0,0.0,1.0
9004232000,9004232000,-0.011226527,0.0013195564,0.0025174562,0.5765989,0.0,0.0,0.0,1.0
9004332000,9004332000,-0.008661786,-0.00062785496,0.0017906149,0.5782176,0.0,0.0,0.0,1.0
9004432000,9004432000,-0.011528593,0.00013004127,0.0018834136,0.57776123,0.0,0.0,0.0,1.0
9004532000,9004532000,-0.00980261,0.0012444777,0.0017552682,0.57874465,0.0,0.0,0.0,1.0
9004632000,9004632000,-0.010205137,-0.0035342753,0.0017014444,0.57766896,0.0,0.0,0.0,1.0
9004732000,9004732000,-0.013126046,-0.0017192608,0.0027424027,0.57772744,0.0,0.0,0.0,1.0
9004832000,9004832000,-0.011701946,-0.00060528493,0.0014211446,0.57866025,0.0,0.0,0.0,1.0
9004928000,9004928000,-0.011350222,0.00020215049,0.0019145127,0.5784792,0.0,0.0,0.0,1.0
9005032000,9005032000,-0.009927577,-4.7782087e-05,0.0018232764,0.57731175,0.0,0.0,0.0,1.0
9005128000,9005128000,-0.0076954747,-0.0027047747,0.00080130977,0.57733595,0.0,0.0,0.0,1.0
9005232000,9005232000,-0.009678493,-0.0013855528,0.00195787,0.5793,0.0,0.0,0.0,1.0
9005328000,9005328000,-0.010023438,-0.0024316697,0.0021738126,0.5781637,0.0,0.0,0.0,1.0
9005432000,9005432000,-0.009714349,-0.001377613,0.0018305962,0.5790168,0.0,0.0,0.0,1.0
9005532000,9005532000,-0.010456649,-0.0013397664,0.001749083,0.57932186,0.0,0.0,0.0,1.0
9005632000,9005632000,-0.010048502,0.00081253564,0.0011303386,0.5794748,0.0,0.0,0.0,1.0
9005732000,9005732000,-0.01104817,-0.0005366393,0.0014356943,0.5794631,0.0,0.0,0.0,1.0
9005832000,9005832000,-0.010356847,-0.002363201,0.0010796513,0.5799671,0.0,0.0,0.0,1.0
9005928000,9005928000,-0.007172205,-0.0016229564,0.0028590714,0.57831156,0.0,0.0,0.0,1.0
9006028000,9006028000,-0.008640386,0.00030762271,0.0013277304,0.5800257,0.0,0.0,0.0,1.0
9006128000,9006128000,-0.0069657294,-0.0013768219,0.0012767155,0.57978934,0.0,0.0,0.0,1.0
9006232000,9006232000,-0.011077635,-0.0037867795,0.0008786862,0.5793475,0.0,0.0,0.0,1.0
9006332000,9006332000,-0.009628036,-0.00033298635,0.0015350723,0.57868224,0.0,0.0,0.0,1.0
9006432000,9006432000,-0.010546708,0.0015538541,0.0014679161,0.5791072,0.0,0.0,0.0,1.0
9006532000,9006532000,-0.012556602,-0.0011150229,0.0008836367,0.580157,0.0,0.0,0.0,1.0
9006628000,9006628000,-0.009843932,-0.0048268395,0.0021269582,0.57970464,0.0,0.0,0.0,1.0
9006732000,9006732000,-0.008978671,-0.00078884093,0.0025423486,0.579139,0.0,0.0,0.0,1.0
9006828000,9006828000,-0.008565294,0.0013888786,0.0010516178,0.5791305,0.0,0.0,0.0,1.0
9006932000,9006932000,-0.009213548,0.0009447166,0.0011333078,0.5808874,0.0,0.0,0.0,1.0
9007032000,9007032000,-0.009111891,-0.0029472024,0.0019383768,0.58029103,0.0,0.0,0.0,1.0
9007132000,9007132000,-0.009023022,-0.0029414361,0.0019015877,0.5801309,0.0,0.0,0.0,1.0
9007232000,9007232000,-0.008448919,-0.0018951204,0.002228091,0.5802933,0.0,0.0,0.0,1.0
9007332000,9007332000,-0.009801307,0.00023435906,0.0004492437,0.58005345,0.0,0.0,0.0,1.0
9007432000,9007432000,-0.010969848,0.0002357054,0.0009146434,0.58020544,0.0,0.0,0.0,1.0
9007532000,9007532000,-0.01097558,0.0017896206,0.00088980567,0.5792649,0.0,0.0,0.0,1.0
9007632000,9007632000,-0.009150514,0.00071562344,0.0026929746,0.5795283,0.0,0.0,0.0,1.0
9007732000,9007732000,-0.011468724,-0.0040035127,0.0020596117,0.58189523,0.0,0.0,0.0,1.0
9007832000,9007832000,-0.00946383,-0.0020930283,0.0017159238,0.5786933,0.0,0.0,0.0,1.0
9007932000,9007932000,-0.0129669905,-0.00045139482,0.0019635812,0.5786313,0.0,0.0,0.0,1.0
9008032000,9008032000,-0.013755516,0.0006632351,0.0015628774,0.5796571,0.0,0.0,0.0,1.0
9008132000,9008132000,-0.011405272,-0.002049254,0.0019461331,0.5794689,0.0,0.0,0.0,1.0
9008232000,9008232000,-0.01015881,0.00041280861,0.0018068221,0.57825786,0.0,0.0,0.0,1.0
9008332000,9008332000,-0.009303637,-0.0024819162,0.0018896938,0.5789683,0.0,0.0,0.0,1.0
9008432000,9008432000,-0.010556602,0.0006325523,0.0020303603,0.5783141,0.0,0.0,0.0,1.0
9008532000,9008532000,-0.0090333,-0.0030262247,0.0014687922,0.5788225,0.0,0.0,0.0,1.0
9008632000,9008632000,-0.01283465,0.001056484,0.001972341,0.5797447,0.0,0.0,0.0,1.0
9008728000,9008728000,-0.010584778,-0.0012164051,0.001582394,0.57969165,0.0,0.0,0.0,1.0
9008828000,9008828000,-0.012906924,0.0002557583,0.0017671579,0.58073354,0.0,0.0,0.0,1.0
9008928000,9008928000,-0.012015433,-0.0014760261,0.0017740006,0.58168614,0.0,0.0,0.0,1.0
9009032000,9009032000,-0.011619264,-1.8208986e-05,0.0013979956,0.5794741,0.0,0.0,0.0,1.0
9009132000,9009132000,-0.009265659,0.0018801703,0.0015717507,0.58054984,0.0,0.0,0.0,1.0
9009232000,9009232000,-0.011529956,-0.0041693347,0.0013447781,0.5797864,0.0,0.0,0.0,1.0
9009332000,9009332000,-0.012629978,-0.00018953095,0.0010801177,0.5812554,0.0,0.0,0.0,1.0
9009432000,9009432000,-0.012265451,0.002054834,0.00246431,0.5791444,0.0,0.0,0.0,1.0
9009532000,9009532000,-0.010463803,0.00013927155,0.0016928163,0.57911986,0.0,0.0,0.0,1.0
9009632000,9009632000,-0.007872258,-0.003083844,0.001297006,0.5804298,0.0,0.0,0.0,1.0
9009732000,9009732000,-0.009806115,-0.0016462425,0.0017855692,0.5803752,0.0,0.0,0.0,1.0
9009828000,9009828000,-0.010449623,-0.0023299113,0.0015855463,0.5805662,0.0,0.0,0.0,1.0
9009932000,9009932000,-0.0121490285,-0.0024466375,0.0014326796,0.5805937,0.0,0.0,0.0,1.0
9010032000,9010032000,-0.009190222,-0.00023668807,0.0016471068,0.5802589,0.0,0.0,0.0,1.0
9010132000,9010132000,-0.007968182,-0.0019319204,0.001909556,0.5805377,0.0,0.0,0.0,1.0
9010228000,9010228000,-0.011939736,-0.0012029831,0.0020314946,0.5799898,0.0,0.0,0.0,1.0
9010332000,9010332000,-0.01175816,-0.0010115963,0.0016359132,0.5789494,0.0,0.0,0.0,1.0
9010432000,9010432000,-0.0062801624,0.0008830469,0.0023002573,0.5804215,0.0,0.0,0.0,1.0
9010532000,9010532000,-0.012171837,0.0006207981,0.0018595663,0.5815184,0.0,0.0,0.0,1.0
9010632000,9010632000,-0.007999722,0.00018864137,0.0033516344,0.58061093,0.0,0.0,0.0,1.0
9010732000,9010732000,-0.009804844,-0.0016345982,0.0020541123,0.5810154,0.0,0.0,0.0,1.0
9010832000,9010832000,-0.011053756,-0.0008397986,0.0019099888,0.58250946,0.0,0.0,0.0,1.0
9010932000,9010932000,-0.012031375,0.0020171702,0.0006813009,0.58086556,0.0,0.0,0.0,1.0
9011032000,9011032000,-0.011937365,0.0023629891,0.0005010676,0.5803191,0.0,0.0,0.0,1.0
9011128000,9011128000,-0.010611572,0.0007636073,0.0018338704,0.5793638,0.0,0.0,0.0,1.0
9011232000,9011232000,-0.011360326,0.0007840739,0.0023083629,0.5802886,0.0,0.0,0.0,1.0
9011328000,9011328000,-0.009664907,-0.0024007892,0.0014903726,0.5800435,0.0,0.0,0.0,1.0
9011432000,9011432000,-0.009723579,-0.0029260109,0.0010048659,0.57945156,0.0,0.0,0.0,1.0
9011528000,9011528000,-0.011046638,-0.0023134332,0.001983364,0.5807374,0.0,0.0,0.0,1.0
9011628000,9011628000,-0.01027768,0.00010368496,0.0019821825,0.579142,0.0,0.0,0.0,1.0
9011732000,9011732000,-0.011719468,-0.0046335086,0.0010009378,0.58096045,0.0,0.0,0.0,1.0
9011832000,9011832000,-0.012232035,0.001610772,0.0016951661,0.5803132,0.0,0.0,0.0,1.0
9011932000,9011932000,-0.011443997,0.00046647066,0.001782907,0.5786642,0.0,0.0,0.0,1.0
9012032000,9012032000,-0.012466284,-0.00057404785,0.0014581024,0.58031476,0.0,0.0,0.0,1.0
9012132000,9012132000,-0.012643006,0.0015526528,0.0017030493,0.5797334,0.0,0.0,0.0,1.0
9012232000,9012232000,-0.010918156,0.0032752866,0.0019120711,0.58001214,0.0,0.0,0.0,1.0
9012332000,9012332000,-0.012988029,2.9140327e-05,0.0017931061,0.58046126,0.0,0.0,0.0,1.0
9012432000,9012432000,-0.00980143,-0.00034355914,0.0012641379,0.57981634,0.0,0.0,0.0,1.0
9012532000,9012532000,-0.009457448,-0.0022454597,0.002596058,0.5796521,0.0,0.0,0.0,1.0
9012628000,9012628000,-0.007868454,0.00091480947,0.0020273104,0.5801699,0.0,0.0,0.0,1.0
9012732000,9012732000,-0.009237826,0.0015766069,0.0025363776,0.58031803,0.0,0.0,0.0,1.0
9012832000,9012832000,-0.010279939,-0.0018528134,0.00033417193,0.57964355,0.0,0.0,0.0,1.0
9012932000,9012932000,-0.009641354,-9.987538e-05,0.0010687818,0.5795374,0.0,0.0,0.0,1.0
9013028000,9013028000,-0.009533741,-0.000763705,0.0017401597,0.58081555,0.0,0.0,0.0,1.0
9013132000,9013132000,-0.008745305,0.0013818573,0.0020285123,0.5788836,0.0,0.0,0.0,1.0
9013232000,9013232000,-0.01163995,-0.0011067016,0.0033522402,0.57940984,0.0,0.0,0.0,1.0
9013332000,9013332000,-0.010959589,-0.0010943499,0.0014773798,0.5807903,0.0,0.0,0.0,1.0
9013432000,9013432000,-0.013507855,-0.0005282264,0.0007971804,0.5803705,0.0,0.0,0.0,1.0
9013532000,9013532000,-0.010044544,1.6614795e-05,0.0028291794,0.58033913,0.0,0.0,0.0,1.0
9013628000,9013628000,-0.011201373,-0.0020719892,0.0021005813,0.5802357,0.0,0.0,0.0,1.0
9013732000,9013732000,-0.012336433,0.00088051485,0.0016838849,0.57939965,0.0,0.0,0.0,1.0
9013832000,9013832000,-0.010991792,0.0020735702,0.0024626807,0.58196926,0.0,0.0,0.0,1.0
9013932000,9013932000,-0.0093895905,-0.00087595487,0.00059108424,0.57917756,0.0,0.0,0.0,1.0
9014032000,9014032000,-0.009195506,-0.0013706055,0.002335132,0.58030415,0.0,0.0,0.0,1.0
9014132000,9014132000,-0.0104413405,-0.000794127,0.0026568382,0.57889783,0.0,0.0,0.0,1.0
9014232000,9014232000,-0.012847283,-0.00246914,0.0017111886,0.58051246,0.0,0.0,0.0,1.0
9014328000,9014328000,-0.010691119,0.00039919803,0.0012614601,0.5790533,0.0,0.0,0.0,1.0
9014428000,9014428000,-0.010881154,0.0003266093,0.002099766,0.58123904,0.0,0.0,0.0,1.0
9014532000,9014532000,-0.012438582,-0.00058283546,0.0027098088,0.58047664,0.0,0.0,0.0,1.0
9014632000,9014632000,-0.009802215,-0.0004113551,0.002292027,0.5805504,0.0,0.0,0.0,1.0
9014732000,9014732000,-0.012291075,0.0013636606,0.0011325055,0.58039033,0.0,0.0,0.0,1.0
9014832000,9014832000,-0.010130185,-0.0016560969,0.0016900195,0.57901883,0.0,0.0,0.0,1.0
9014932000,9014932000,-0.013339851,-0.00034971826,0.0013680744,0.5798135,0.0,0.0,0.0,1.0
9015032000,9015032000,-0.011696583,-0.0014859654,0.0013283187,0.58065957,0.0,0.0,0.0,1.0
9015132000,9015132000,-0.011434598,-0.00017251537,0.002248815,0.58095354,0.0,0.0,0.0,1.0
9015228000,9015228000,-0.0120975375,0.0015984615,0.0023222042,0.57952696,0.0,0.0,0.0,1.0
9015332000,9015332000,-0.009856807,0.0009156135,0.0011351083,0.57956,0.0,0.0,0.0,1.0
9015432000,9015432000,-0.010724185,0.0014341751,0.0029362123,0.57880014,0.0,0.0,0.0,1.0
9015532000,9015532000,-0.0105017,0.00092470605,0.0011388946,0.5791957,0.0,0.0,0.0,1.0
9015628000,9015628000,-0.009316328,-0.0004231361,0.003475973,0.57901675,0.0,0.0,0.0,1.0
9015728000,9015728000,-0.010089829,-0.00052422204,0.0019604154,0.5800916,0.0,0.0,0.0,1.0
9015832000,9015832000,-0.0116999885,-0.00054340117,0.0024582,0.5783364,0.0,0.0,0.0,1.0
9015932000,9015932000,-0.010460976,0.00075555727,0.001550285,0.58072346,0.0,0.0,0.0,1.0
9016032000,9016032000,-0.009958147,0.00010558654,0.002420066,0.57982355,0.0,0.0,0.0,1.0
9016132000,9016132000,-0.011542596,-0.0022814684,0.0011745901,0.5795474,0.0,0.0,0.0,1.0
9016232000,9016232000,-0.00881781,0.00026229065,0.0010855417,0.5812421,0.0,0.0,0.0,1.0
9016328000,9016328000,-0.009495263,0.001920207,0.0014017627,0.5794468,0.0,0.0,0.0,1.0
9016432000,9016432000,-0.012671446,-0.0012377796,0.0017388035,0.5795174,0.0,0.0,0.0,1.0
9016532000,9016532000,-0.011256545,-0.0015270698,0.0017356,0.58018404,0.0,0.0,0.0,1.0
9016632000,9016632000,-0.011286341,-0.0010741696,0.0004152645,0.5779734,0.0,0.0,0.0,1.0
9016732000,9016732000,-0.011696643,-0.003119173,0.001573249,0.5785269,0.0,0.0,0.0,1.0
9016832000,9016832000,-0.011162073,0.0013618211,0.0015432824,0.5794871,0.0,0.0,0.0,1.0
9016932000,9016932000,-0.01138275,-0.0010143396,0.0019623465,0.5804776,0.0,0.0,0.0,1.0
9017028000,9017028000,-0.013508571,-0.0012088998,0.0019174964,0.57962906,0.0,0.0,0.0,1.0
9017128000,9017128000,-0.011668354,0.0011809634,0.0020286776,0.57978237,0.0,0.0,0.0,1.0
9017232000,9017232000,-0.009004112,-0.00065665407,0.00075223774,0.57922786,0.0,0.0,0.0,1.0
9017332000,9017332000,-0.010745528,-0.0016669084,0.0019490718,0.5795339,0.0,0.0,0.0,1.0
9017432000,9017432000,-0.010819206,-0.0032353161,0.0013463513,0.5787054,0.0,0.0,0.0,1.0
9017532000,9017532000,-0.010921818,0.00284481,0.0020210524,0.579354,0.0,0.0,0.0,1.0
9017628000,9017628000,-0.008511193,-0.0017491104,0.0027625402,0.57928514,0.0,0.0,0.0,1.0
9017732000,9017732000,-0.014321348,0.0023390218,0.0019584573,0.5793759,0.0,0.0,0.0,1.0
9017832000,9017832000,-0.010528276,-9.0871006e-05,0.0020745215,0.5779618,0.0,0.0,0.0,1.0
9017932000,9017932000,-0.012772515,-0.003207927,0.002124578,0.57838404,0.0,0.0,0.0,1.0
9018032000,9018032000,-0.0075526563,-0.0009365228,0.0015223171,0.5792324,0.0,0.0,0.0,1.0
9018132000,9018132000,-0.008030035,0.0031969831,0.002428391,0.5811527,0.0,0.0,0.0,1.0
9018232000,9018232000,-0.010617605,-0.0011187324,0.0017424873,0.578605,0.0,0.0,0.0,1.0
9018332000,9018332000,-0.01220601,-0.0044792504,0.0013461786,0.57806677,0.0,0.0,0.0,1.0
9018432000,9018432000,-0.012674906,-0.0005121483,0.0024774084,0.58025736,0.0,0.0,0.0,1.0
9018528000,9018528000,-0.009001536,-0.0024603903,0.0008283172,0.5784582,0.0,0.0,0.0,1.0
9018632000,9018632000,-0.010224576,-0.0010092033,0.0023537935,0.5806358,0.0,0.0,0.0,1.0
9018728000,9018728000,-0.012122333,-0.002853209,0.00069328246,0.5806384,0.0,0.0,0.0,1.0
9018832000,9018832000,-0.011218144,-0.0011669848,0.0014781818,0.5779288,0.0,0.0,0.0,1.0
9018932000,9018932000,-0.009286831,0.00065611274,0.0019594957,0.57925236,0.0,0.0,0.0,1.0
9019032000,9019032000,-0.00985907,-0.00028699933,0.0012136181,0.5792325,0.0,0.0,0.0,1.0
9019128000,9019128000,-0.011159333,0.00049825833,0.0012067147,0.5799634,0.0,0.0,0.0,1.0
9019228000,9019228000,-0.009374093,-0.001914269,0.0013890835,0.57939136,0.0,0.0,0.0,1.0
9019328000,9019328000,-0.010148159,0.00030798226,0.0017841896,0.5788629,0.0,0.0,0.0,1.0
9019432000,9019432000,-0.012796823,-0.0009323854,0.0018959971,0.5802416,0.0,0.0,0.0,1.0
9019532000,9019532000,-0.010366691,0.001739413,0.0017316161,0.57949215,0.0,0.0,0.0,1.0
9019632000,9019632000,-0.012513295,-0.0009102757,0.0025555158,0.57870597,0.0,0.0,0.0,1.0
9019732000,9019732000,-0.008291999,0.00076814415,0.0026935216,0.58029073,0.0,0.0,0.0,1.0
9019828000,9019828000,-0.009556499,-0.0021916311,0.0005385692,0.5784072,0.0,0.0,0.0,1.0
9019932000,9019932000,-0.0072046397,0.000117180985,0.0020117457,0.5792747,0.0,0.0,0.0,1.0
9020028000,9020028000,-0.013012404,0.0023649423,0.0028079704,0.5804386,0.0,0.0,0.0,1.0
9020132000,9020132000,-0.011511896,-0.00018294866,0.0012730766,0.5797749,0.0,0.0,0.0,1.0
9020232000,9020232000,-0.009168767,-0.0017499055,0.0012586105,0.5784338,0.0,0.0,0.0,1.0
9020332000,9020332000,-0.010382747,-0.0010459558,0.0015548164,0.5787186,0.0,0.0,0.0,1.0
9020432000,9020432000,-0.012780892,-0.0010795796,0.0014602409,0.57776767,0.0,0.0,0.0,1.0
9020532000,9020532000,-0.010912589,-0.00038083005,0.0018242765,0.58000666,0.0,0.0,0.0,1.0
9020632000,9020632000,-0.011308916,-0.003196877,0.0012595719,0.58002514,0.0,0.0,0.0,1.0
9020732000,9020732000,-0.009080572,-0.0014331308,0.0020692542,0.5789886,0.0,0.0,0.0,1.0
9020832000,9020832000,-0.010040957,0.00084146886,0.00244521,0.5794748,0.0,0.0,0.0,1.0
9020932000,9020932000,-0.011317047,-0.0013169411,0.0011365996,0.58018285,0.0,0.0,0.0,1.0
9021032000,9021032000,-0.010814213,0.0003649497,0.0011419166,0.5802929,0.0,0.0,0.0,1.0
9021132000,9021132000,-0.008330552,-0.002063816,0.0027592143,0.57969385,0.0,0.0,0.0,1.0
9021232000,9021232000,-0.0127144065,0.00083133474,0.0018454841,0.5787954,0.0,0.0,0.0,1.0
9021332000,9021332000,-0.01161087,0.00025188242,0.002438526,0.57940996,0.0,0.0,0.0,1.0
9021432000,9021432000,-0.0054200497,-0.003704384,0.0017765752,0.5805332,0.0,0.0,0.0,1.0
9021532000,9021532000,-0.011400004,-0.0026952673,0.00096446846,0.5788562,0.0,0.0,0.0,1.0
9021632000,9021632000,-0.011679599,9.473006e-05,0.0013006153,0.5793322,0.0,0.0,0.0,1.0
9021732000,9021732000,-0.011746702,0.00030935142,0.0020858967,0.5797728,0.0,0.0,0.0,1.0
9021828000,9021828000,-0.009805768,-0.00095311896,0.001465067,0.5788848,0.0,0.0,0.0,1.0
9021932000,9021932000,-0.009462202,-0.0012258227,0.0017439724,0.5797471,0.0,0.0,0.0,1.0
9022028000,9022028000,-0.010125966,-0.00044680477,0.0016337626,0.5797855,0.0,0.0,0.0,1.0
9022132000,9022132000,-0.009435953,0.002883595,0.0009976104,0.5787265,0.0,0.0,0.0,1.0
9022232000,9022232000,-0.010341128,-0.0015817711,0.0014499757,0.57885957,0.0,0.0,0.0,1.0
9022332000,9022332000,-0.011625417,0.0012336222,0.0020656807,0.5796657,0.0,0.0,0.0,1.0
9022432000,9022432000,-0.009411159,-0.002150746,0.001151365,0.5808641,0.0,0.0,0.0,1.0
9022528000,9022528000,-0.011228846,-0.00013027858,0.0014534807,0.5800142,0.0,0.0,0.0,1.0
9022632000,9022632000,-0.011586131,-8.562481e-05,0.0023633873,0.57833076,0.0,0.0,0.0,1.0
9022732000,9022732000,-0.010195906,0.0016586059,0.0021099353,0.5792842,0.0,0.0,0.0,1.0
9022828000,9022828000,-0.010711402,0.00020535558,0.001457745,0.58036,0.0,0.0,0.0,1.0
9022932000,9022932000,-0.010069694,-0.0020847595,0.002060259,0.5801533,0.0,0.0,0.0,1.0
9023032000,9023032000,-0.010489243,-0.002271409,0.001782593,0.5789177,0.0,0.0,0.0,1.0
9023132000,9023132000,-0.010173507,0.0015485896,0.0019416157,0.5804599,0.0,0.0,0.0,1.0
9023232000,9023232000,-0.011513945,-0.004219888,0.0019865579,0.5791525,0.0,0.0,0.0,1.0
9023332000,9023332000,-0.009382569,0.0013399695,0.0020287677,0.5806701,0.0,0.0,0.0,1.0
9023432000,9023432000,-0.010605383,-0.0013241937,0.0028034644,0.57881486,0.0,0.0,0.0,1.0
9023528000,9023528000,-0.0066157607,0.00073554355,0.0013165311,0.5807204,0.0,0.0,0.0,1.0
9023628000,9023628000,-0.0111787785,0.00067847455,0.0022698068,0.5803715,0.0,0.0,0.0,1.0
9023732000,9023732000,-0.014009959,2.2592081e-05,0.0021190336,0.57941234,0.0,0.0,0.0,1.0
9023832000,9023832000,-0.011126493,-0.0018405628,0.0015889722,0.5793427,0.0,0.0,0.0,1.0
9023932000,9023932000,-0.008694484,-0.0011837047,0.0020975915,0.58031,0.0,0.0,0.0,1.0
9024032000,9024032000,-0.010693437,-0.0017099793,0.0018232367,0.58070266,0.0,0.0,0.0,1.0
9024132000,9024132000,-0.012513744,-0.002322198,0.0024418165,0.579983,0.0,0.0,0.0,1.0
9024232000,9024232000,-0.011605946,-0.00047529885,0.0014633507,0.58003587,0.0,0.0,0.0,1.0
9024332000,9024332000,-0.012242574,-0.003400456,0.000954827,0.5810932,0.0,0.0,0.0,1.0
9024432000,9024432000,-0.011304632,-1.0627613e-05,0.002153828,0.57912374,0.0,0.0,0.0,1.0
9024532000,9024532000,-0.008835813,-0.0011976706,0.00169638,0.579098,0.0,0.0,0.0,1.0
9024632000,9024632000,-0.013226075,0.0019970534,0.0022693377,0.57897043,0.0,0.0,0.0,1.0
9024732000,9024732000,-0.009388814,-0.00087708514,0.002187939,0.57956386,0.0,0.0,0.0,1.0
9024828000,9024828000,-0.006334009,0.00050039537,0.0016367978,0.5805615,0.0,0.0,0.0,1.0
9024932000,9024932000,-0.010460426,-0.0014176299,0.000807034,0.5793476,0.0,0.0,0.0,1.0
9025032000,9025032000,-0.009835808,-0.0043528466,0.0022662294,0.58063453,0.0,0.0,0.0,1.0
9025128000,9025128000,-0.012256913,6.9202215e-05,0.0012849288,0.57860726,0.0,0.0,0.0,1.0
9025232000,9025232000,-0.008763136,-2.6099093e-05,0.0021073823,0.58026135,0.0,0.0,0.0,1.0
9025332000,9025332000,-0.0133675095,0.00052848074,0.001926477,0.5793285,0.0,0.0,0.0,1.0
9025428000,9025428000,-0.0710846,-0.067308106,-3.5009813e-05,0.5442943,0.0,0.0,0.0,1.0
9025532000,9025532000,0.015046766,0.019207163,0.006426611,0.56151336,0.0,0.0,0.0,1.0
9025628000,9025628000,-0.0035113492,0.006251026,0.0036869103,0.5791873,0.0,0.0,0.0,1.0
9025732000,9025732000,-0.016155109,-0.0022055604,0.001309579,0.5723697,0.0,0.0,0.0,1.0
9025832000,9025832000,-0.012451024,-0.003752781,0.00092574634,0.5754783,0.0,0.0,0.0,1.0
9025932000,9025932000,-0.012243751,-0.0019082117,0.00027097866,0.5787852,0.0,0.0,0.0,1.0
9026028000,9026028000,-0.013000533,-0.0030672224,0.00047939573,0.57961214,0.0,0.0,0.0,1.0
9026132000,9026132000,-0.010910226,-0.004247079,0.0013076587,0.5767021,0.0,0.0,0.0,1.0
9026228000,9026228000,-0.012388844,-0.004613949,0.0015613028,0.58074516,0.0,0.0,0.0,1.0
9026332000,9026332000,-0.011139577,-0.0041137403,0.0020068686,0.57986516,0.0,0.0,0.0,1.0
9026432000,9026432000,-0.010975765,-0.004574825,0.0024121082,0.58201116,0.0,0.0,0.0,1.0
9026532000,9026532000,-0.011189968,-0.0049531152,0.0007914697,0.5818682,0.0,0.0,0.0,1.0
9026628000,9026628000,-0.010181865,-0.0035587982,0.0010322775,0.58053535,0.0,0.0,0.0,1.0
9026728000,9026728000,-0.010817091,-0.0050132396,0.0010005624,0.5828011,0.0,0.0,0.0,1.0
9026832000,9026832000,-0.011385624,-0.0025701872,0.0021438226,0.5816194,0.0,0.0,0.0,1.0
9026928000,9026928000,-0.013403958,-0.007886156,0.0011984794,0.5819395,0.0,0.0,0.0,1.0
9027032000,9027032000,-0.011592525,-0.005038986,0.0012948778,0.58324003,0.0,0.0,0.0,1.0
9027132000,9027132000,-0.012619524,-0.002091168,0.0017827096,0.58181685,0.0,0.0,0.0,1.0
9027228000,9027228000,-0.012673958,-0.0019576354,0.002791884,0.5843378,0.0,0.0,0.0,1.0
9027332000,9027332000,-0.010364672,-0.0036385665,0.0009879632,0.582992,0.0,0.0,0.0,1.0
9027432000,9027432000,-0.011563621,-0.0065740403,0.0018567226,0.5849464,0.0,0.0,0.0,1.0
9027528000,9027528000,-0.016424453,-0.0061997212,0.00093927654,0.5834934,0.0,0.0,0.0,1.0
