timestamp,ref_timestamp,ref_lat,ref_lon,x,y,z,delta_xy[0],delta_xy[1],delta_z,vx,vy,vz,z_deriv,delta_vxy[0],delta_vxy[1],delta_vz,ax,ay,az,yaw,ref_alt,dist_bottom,dist_bottom_rate,eph,epv,evh,evv,vxy_max,vz_max,hagl_min,hagl_max,xy_valid,z_valid,v_xy_valid,v_z_valid,xy_reset_counter,z_reset_counter,vxy_reset_counter,vz_reset_counter,xy_global,z_global,dist_bottom_valid
8959832000,1688000,47.3977508,8.5456074,0.40900373,0.04881473,-0.12705904,-0.022968095,-0.0035443609,0.0,0.061550003,0.018023023,-0.0981779,-0.037805732,-0.059729103,-0.009160716,0.12626225,-0.0040526646,-0.041170772,0.03113318,0.40702575,0.0,0.16217817,0.0981779,0.42050496,0.2337396,0.18062793,0.10778553,inf,inf,inf,inf,1,1,1,1,2,0,2,2,1,1,1
8959928000,1688000,47.3977508,8.5456074,0.407607,0.04722705,-0.12745947,-0.022968095,-0.0035443609,0.0,0.06043374,0.018574106,-0.096404895,-0.033490293,-0.059729103,-0.009160716,0.12626225,0.0015682889,-0.021327617,0.07571931,0.40729287,0.0,0.1625786,0.096404895,0.43309942,0.23526545,0.18519953,0.10841092,inf,inf,inf,inf,1,1,1,1,2,0,2,2,1,1,1
8960024000,1688000,47.3977508,8.5456074,0.40720582,0.046335995,-0.12702395,-0.022968095,-0.0035443609,0.0,0.06017436,0.019360425,-0.09498934,-0.029157743,-0.059729103,-0.009160716,0.12626225,-0.06298538,0.029610904,-0.013773329,0.40725306,0.0,0.16214308,0.09498934,0.4186887,0.23371834,0.1791979,0.10745089,inf,inf,inf,inf,1,1,1,1,2,0,2,2,1,1,1
8960128000,1688000,47.3977508,8.5456074,0.40542603,0.045004155,-0.12583801,-0.022968095,-0.0035443609,0.0,0.059237365,0.017156353,-0.09406423,-0.024829447,-0.059729103,-0.009160716,0.12626225,0.03033488,-0.008349208,0.056221146,0.40720895,0.0,0.16095714,0.09406423,0.43222168,0.23426007,0.18409452,0.107810296,inf,inf,inf,inf,1,1,1,1,2,0,2,2,1,1,1
8960224000,1688000,47.3977508,8.5456074,0.40487838,0.044470686,-0.12553503,-0.022968095,-0.0035443609,0.0,0.057571262,0.016792754,-0.09318023,-0.022110272,-0.059729103,-0.009160716,0.12626225,0.008808274,-0.062870905,-0.026054678,0.40718013,0.0,0.16065416,0.09318023,0.41794974,0.2342956,0.17821614,0.10727756,inf,inf,inf,inf,1,1,1,1,2,0,2,2,1,1,1
8960328000,1688000,47.3977508,8.5456074,0.40284964,0.044042904,-0.12545523,-0.022968095,-0.0035443609,0.0,0.053619463,0.017565865,-0.091533124,-0.019093102,-0.059729103,-0.009160716,0.12626225,0.037512727,0.021164916,-0.014369375,0.40719643,0.0,0.16057436,0.091533124,0.431402,0.23479576,0.18308471,0.10761351,inf,inf,inf,inf,1,1,1,1,2,0,2,2,1,1,1
8960424000,1688000,47.3977508,8.5456074,0.4019896,0.043912448,-0.12635896,-0.022968095,-0.0035443609,0.0,0.05214933,0.015521341,-0.09064192,-0.018085295,-0.059729103,-0.009160716,0.12626225,-0.066794544,0.012538357,-0.03822613,0.40709582,0.0,0.16147809,0.09064192,0.4172584,0.23479627,0.1773172,0.107070014,inf,inf,inf,inf,1,1,1,1,2,0,2,2,1,1,1
8960528000,1688000,47.3977508,8.5456074,0.40016317,0.043072958,-0.12652913,-0.022968095,-0.0035443609,0.0,0.05078563,0.01411757,-0.09407913,-0.020522393,-0.059729103,-0.009160716,0.12626225,0.043865,0.057525188,-0.068736255,0.40703923,0.0,0.16164826,0.09407913,0.43063545,0.2352558,0.18216036,0.10738741,inf,inf,inf,inf,1,1,1,1,2,0,2,2,1,1,1
8960624000,1688000,47.3977508,8.5456074,0.39959815,0.042534478,-0.12680243,-0.022968095,-0.0035443609,0.0,0.04967181,0.01247382,-0.09534101,-0.020809926,-0.059729103,-0.009160716,0.12626225,-0.024309376,0.08850516,-0.087235115,0.40712243,0.0,0.16192156,0.09534101,0.416611,0.23522419,0.17649588,0.106837854,inf,inf,inf,inf,1,1,1,1,2,0,2,2,1,1,1
8960728000,1688000,47.3977508,8.5456074,0.39795482,0.041427698,-0.12652041,-0.022968095,-0.0035443609,0.0,0.047838416,0.010995378,-0.09588329,-0.019693226,-0.059729103,-0.009160716,0.12626225,-0.02225792,-0.042915557,-0.06940308,0.40735942,0.0,0.16163954,0.09588329,0.42991886,0.2356448,0.1813305,0.10714144,inf,inf,inf,inf,1,1,1,1,2,0,2,2,1,1,1
8960832000,1688000,47.3977508,8.5456074,0.397193,0.040616456,-0.12702526,-0.022968095,-0.0035443609,0.0,0.046262275,0.009741625,-0.09448217,-0.017616112,-0.059729103,-0.009160716,0.12626225,0.036535762,-0.03390677,0.03970973,0.4073598,0.0,0.1621444,0.09448217,0.41700152,0.23460479,0.17613548,0.10633855,inf,inf,inf,inf,1,1,1,1,2,0,2,2,1,1,1
8960928000,1688000,47.3977508,8.5456074,0.3959364,0.0396375,-0.12687704,-0.022968095,-0.0035443609,0.0,0.04432892,0.009609787,-0.09307724,-0.015228454,-0.059729103,-0.009160716,0.12626225,0.10905072,0.0147380475,-0.021173617,0.40744543,0.0,0.16199617,0.09307724,0.42924866,0.23596041,0.18057123,0.10688039,inf,inf,inf,inf,1,1,1,1,2,0,2,2,1,1,1
8961024000,1688000,47.3977508,8.5456074,0.39562297,0.03906579,-0.12608373,-0.022968095,-0.0035443609,0.0,0.0452307,0.007881795,-0.09143282,-0.012211817,-0.059729103,-0.009160716,0.12626225,-0.0020237565,-0.043786254,0.0064838673,0.40743557,0.0,0.16120286,0.09143282,0.41543695,0.23586649,0.17508613,0.10632727,inf,inf,inf,inf,1,1,1,1,2,0,2,2,1,1,1
8961128000,1688000,47.3977508,8.5456074,0.39446542,0.038072653,-0.12540495,-0.022968095,-0.0035443609,0.0,0.04313724,0.0059137642,-0.091666095,-0.011323185,-0.059729103,-0.009160716,0.12626225,-0.070796326,0.00062396063,-0.1164358,0.40742657,0.0,0.16052409,0.091666095,0.42862108,0.23621838,0.17987168,0.10661602,inf,inf,inf,inf,1,1,1,1,2,0,2,2,1,1,1
8961232000,1688000,47.3977508,8.5456074,0.3943085,0.037499797,-0.124796756,-0.022968095,-0.0035443609,0.0,0.0415449,0.005020771,-0.09287932,-0.011607215,-0.059729103,-0.009160716,0.12626225,0.015626468,0.045068685,-0.05445722,0.40732938,0.0,0.1599159,0.09287932,0.4158927,0.23511907,0.17483734,0.10581831,inf,inf,inf,inf,1,1,1,1,2,0,2,2,1,1,1
8961328000,1688000,47.3977508,8.5456074,0.39396933,0.037127543,-0.12374103,-0.022968095,-0.0035443609,0.0,0.041476592,0.0044356952,-0.091174,-0.008580258,-0.059729103,-0.009160716,0.12626225,0.019173311,-0.004285186,-0.049292106,0.40737712,0.0,0.15886016,0.091174,0.4280335,0.2364245,0.17924798,0.10635436,inf,inf,inf,inf,1,1,1,1,2,0,2,2,1,1,1
8961424000,1688000,47.3977508,8.5456074,0.39416814,0.0370373,-0.12265939,-0.022968095,-0.0035443609,0.0,0.038679935,0.0047965394,-0.08988671,-0.00623334,-0.059729103,-0.009160716,0.12626225,0.004636269,0.016318748,0.033230517,0.40728486,0.0,0.15777853,0.08988671,0.414405,0.23465829,0.17393392,0.10537527,inf,inf,inf,inf,1,1,1,1,2,0,2,2,1,1,1
8961528000,1688000,47.3977508,8.5456074,0.39313617,0.03700793,-0.12121098,-0.022968095,-0.0035443609,0.0,0.036413893,0.0035056581,-0.08839122,-0.0036627252,-0.059729103,-0.009160716,0.12626225,0.04475027,0.028348237,-0.07644481,0.4073237,0.0,0.15633011,0.08839122,0.427484,0.236603,0.17869473,0.1061083,inf,inf,inf,inf,1,1,1,1,2,0,2,2,1,1,1
8961632000,1688000,47.3977508,8.5456074,0.3927082,0.03690358,-0.11906514,-0.022968095,-0.0035443609,0.0,0.034606345,0.002568018,-0.09034503,-0.0040604994,-0.059729103,-0.009160716,0.12626225,-0.08232437,0.010073111,-0.22769718,0.4073474,0.0,0.15418428,0.09034503,0.414919,0.23547642,0.17379946,0.10533374,inf,inf,inf,inf,1,1,1,1,2,0,2,2,1,1,1
8961728000,1688000,47.3977508,8.5456074,0.39136973,0.036489107,-0.120666504,-0.022968095,-0.0035443609,0.0,0.029088309,0.0016094492,-0.18249783,-0.09492126,-0.059729103,-0.009160716,0.12626225,-0.024930907,-0.047478255,-1.5188828,0.40750077,0.0,0.15578564,0.18249783,0.42697057,0.23674895,0.17819573,0.10587627,inf,inf,inf,inf,1,1,1,1,2,0,2,2,1,1,1
8961824000,1688000,47.3977508,8.5456074,0.38999933,0.03615537,-0.13618444,-0.022968095,-0.0035443609,0.0,0.013166547,-0.00042952356,-0.32808092,-0.24044855,-0.059729103,-0.009160716,0.12626225,-0.19740865,-0.113630064,-1.3180877,0.40759686,0.0,0.17130357,0.32808092,0.41349998,0.23495495,0.1730542,0.10492005,inf,inf,inf,inf,1,1,1,1,2,0,2,2,1,1,1
8961928000,1688000,47.3977508,8.5456074,0.38605905,0.035457164,-0.16605821,-0.022968095,-0.0035443609,0.0,-0.0067851576,-0.0048288354,-0.45405722,-0.3656211,-0.059729103,-0.009160716,0.12626225,-0.12029863,0.03845866,-1.2115752,0.40772408,0.0,0.20117734,0.45405722,0.42650276,0.2368596,0.17829679,0.10566267,inf,inf,inf,inf,1,1,1,1,2,0,2,2,1,1,0
8962024000,1688000,47.3977508,8.5456074,0.3818901,0.034668434,-0.20545997,-0.022968095,-0.0035443609,0.0,-0.017594974,-0.0071527576,-0.58082426,-0.4914617,-0.059729103,-0.009160716,0.12626225,-0.09574237,-0.036870953,-1.3141007,0.40737706,0.0,0.2405791,0.58082426,0.41309053,0.23505275,0.17356813,0.10472075,inf,inf,inf,inf,1,1,1,1,2,0,2,2,1,1,0
8962128000,1688000,47.3977508,8.5456074,0.37647894,0.033383925,-0.26155058,-0.022968095,-0.0035443609,0.0,-0.021200951,-0.007818421,-0.715988,-0.62554586,-0.059729103,-0.009160716,0.12626225,0.051006645,0.017479504,-1.2560058,0.40738752,0.0,0.29666972,0.715988,0.4261012,0.23694152,0.17880873,0.10546705,inf,inf,inf,inf,1,1,1,1,2,0,2,2,1,1,0
8962224000,1688000,47.3977508,8.5456074,0.37209943,0.032141503,-0.3267662,-0.022968095,-0.0035443609,0.0,-0.018426005,-0.009442151,-0.84230185,-0.75168264,-0.059729103,-0.009160716,0.12626225,0.13709374,-0.013078188,-1.3134944,0.40713954,0.0,0.3618853,0.84230185,0.4127442,0.23511632,0.17404526,0.1045328,inf,inf,inf,inf,1,1,1,1,2,0,2,2,1,1,0
8962328000,1688000,47.3977508,8.5456074,0.367242,0.030381778,-0.41094542,-0.022968095,-0.0035443609,0.0,-0.0148335975,-0.008309459,-0.9789054,-0.88818645,-0.059729103,-0.009160716,0.12626225,0.11862871,0.005730664,-1.2962948,0.4070268,0.0,0.44606453,0.9789054,0.4257639,0.23533662,0.17934415,0.10484186,inf,inf,inf,inf,1,1,1,1,2,0,2,2,1,1,0
8962424000,1688000,47.3977508,8.5456074,0.3636549,0.028968679,-0.5012953,-0.022968095,-0.0035443609,0.0,-0.01006412,-0.00563556,-1.102348,-1.0117166,-0.059729103,-0.009160716,0.12626225,0.013962311,0.099599585,-1.4776317,0.40697995,0.0,0.53641444,1.102348,0.41245276,0.23516083,0.17454912,0.10436342,inf,inf,inf,inf,1,1,1,1,2,0,2,2,1,1,0
8962528000,1688000,47.3977508,8.5456074,0.3595141,0.026934974,-0.61350083,-0.022968095,-0.0035443609,0.0,-0.0021189207,-0.006877463,-1.2365752,-1.1469009,-0.059729103,-0.009160716,0.12626225,0.054076843,-0.08180143,-1.3839816,0.40711877,0.0,0.64861995,1.2365752,0.42548463,0.23536965,0.17984971,0.10467957,inf,inf,inf,inf,1,1,1,1,2,0,2,2,1,1,0
8962624000,1688000,47.3977508,8.5456074,0.35685897,0.025283355,-0.7303734,-0.022968095,-0.0035443609,0.0,0.0014389104,-0.006155365,-1.3574969,-1.2694745,-0.059729103,-0.009160716,0.12626225,0.02877298,-0.03279165,-1.2853703,0.40698284,0.0,0.7654925,1.3574969,0.4122106,0.23519059,0.17502894,0.10421238,inf,inf,inf,inf,1,1,1,1,2,0,2,2,1,1,0
8962728000,1688000,47.3977508,8.5456074,0.35311916,0.023356313,-0.8692599,-0.022968095,-0.0035443609,0.0,0.0030725147,-0.0059906095,-1.4917624,-1.4044911,-0.059729103,-0.009160716,0.12626225,0.061209388,0.033046648,-1.3773366,0.40708733,0.0,0.904379,1.4917624,0.4252562,0.23539022,0.18034299,0.1045362,inf,inf,inf,inf,1,1,1,1,2,0,2,2,1,1,0
8962824000,1688000,47.3977508,8.5456074,0.3505437,0.022044653,-1.0092407,-0.022968095,-0.0035443609,0.0,0.006850615,-0.004866073,-1.6154337,-1.5281448,-0.059729103,-0.009160716,0.12626225,0.052281,-0.037685018,-1.406445,0.40723252,0.0,1.0443599,1.6154337,0.4120126,0.23520944,0.17547825,0.1040798,inf,inf,inf,inf,1,1,1,1,2,0,2,2,1,1,0
8962928000,1688000,47.3977508,8.5456074,0.34757322,0.02068249,-1.1744307,-0.022968095,-0.0035443609,0.0,0.0124952905,-0.004456992,-1.7500223,-1.6628957,-0.059729103,-0.009160716,0.12626225,0.053459395,0.05384186,-1.3326461,0.40716448,0.0,1.2095499,1.7500223,0.42507318,0.23541953,0.18079966,0.104418896,inf,inf,inf,inf,1,1,1,1,2,0,2,2,1,1,0
8963024000,1688000,47.3977508,8.5456074,0.34591115,0.019854872,-1.3404449,-0.022968095,-0.0035443609,0.0,0.01420219,-0.0035882883,-1.8742623,-1.7882318,-0.059729103,-0.009160716,0.12626225,-0.021714963,0.06971033,-1.381115,0.407185,0.0,1.3755641,1.8742623,0.4118529,0.23524654,0.17591892,0.10397633,inf,inf,inf,inf,1,1,1,1,2,0,2,2,1,1,0
8963128000,1688000,47.3977508,8.5456074,0.3436845,0.019212931,-1.5334278,-0.022968095,-0.0035443609,0.0,0.014352763,-0.0019312403,-2.006704,-1.9215746,-0.059729103,-0.009160716,0.12626225,0.072099805,0.033424713,-1.4348114,0.40704328,0.0,1.568547,2.006704,0.42493063,0.23545052,0.18125717,0.10432252,inf,inf,inf,inf,1,1,1,1,2,0,2,2,1,1,0
8963224000,1688000,47.3977508,8.5456074,0.34224784,0.01867289,-1.7248619,-0.022968095,-0.0035443609,0.0,0.016342077,-0.0024245465,-2.1293366,-2.0458467,-0.059729103,-0.009160716,0.12626225,-0.01164346,0.06736957,-1.3103437,0.4070455,0.0,1.759981,2.1293366,0.41172808,0.23527724,0.1763357,0.10388889,inf,inf,inf,inf,1,1,1,1,2,0,2,2,1,1,0
8963328000,1688000,47.3977508,8.5456074,0.34028906,0.017698914,-1.9448223,-0.022968095,-0.0035443609,0.0,0.023048587,-0.0030948112,-2.2618022,-2.1792986,-0.059729103,-0.009160716,0.12626225,0.0645287,0.02776104,-1.367703,0.4069214,0.0,1.9799415,2.2618022,0.42482385,0.23547691,0.18167119,0.104241826,inf,inf,inf,inf,1,1,1,1,2,0,2,2,1,1,0
8963428000,1688000,47.3977508,8.5456074,0.3401681,0.017060407,-2.1612673,-0.022968095,-0.0035443609,0.0,0.02512275,-0.0027133669,-2.3862205,-2.3054461,-0.059729103,-0.009160716,0.12626225,0.10706789,-0.027351618,-1.2517115,0.4103707,0.0,2.1963863,2.3862205,0.43743348,0.23665877,0.18316682,0.104796566,inf,inf,inf,inf,1,1,1,1,2,0,2,2,1,1,0
8963524000,1688000,47.3977508,8.5456074,0.3408622,0.016321985,-2.3699334,-0.022968095,-0.0035443609,0.0,0.031320143,-0.0055429814,-2.5069065,-2.4273574,-0.059729103,-0.009160716,0.12626225,0.035454772,0.016393146,-1.559345,0.40984216,0.0,2.4050524,2.5069065,0.42149767,0.23581207,0.17404939,0.10413474,inf,inf,inf,inf,1,1,1,1,2,0,2,2,1,1,0
8963628000,1688000,47.3977508,8.5456074,0.34045985,0.015072653,-2.6263156,-0.022968095,-0.0035443609,0.0,0.028782334,-0.0035697648,-2.5380847,-2.458324,-0.059729103,-0.009160716,0.12626225,0.02529426,0.017788118,1.4343429,0.40881616,0.0,2.6614347,2.5380847,0.4346318,0.23436502,0.17571636,0.10403762,inf,inf,inf,inf,1,1,1,1,2,0,2,2,1,1,0
8963732000,1688000,47.3977508,8.5456074,0.3395542,0.014347186,-2.87096,-0.022968095,-0.0035443609,0.0,0.027331509,-0.0030172141,-2.314865,-2.2357724,-0.059729103,-0.009160716,0.12626225,-0.006237143,-0.047823433,2.0088267,0.4074062,0.0,2.906079,2.314865,0.42111897,0.23486272,0.16850127,0.10381425,inf,inf,inf,inf,1,1,1,1,2,0,2,2,1,1,0
8963828000,1688000,47.3977508,8.5456074,0.33701983,0.014171417,-3.078385,-0.022968095,-0.0035443609,0.0,0.026336832,-0.0022526882,-2.18133,-2.1026561,-0.059729103,-0.009160716,0.12626225,0.03439418,-0.010475756,0.9948927,0.4061933,0.0,3.1135042,2.18133,0.43285728,0.23444434,0.1705834,0.10399225,inf,inf,inf,inf,1,1,1,1,2,0,2,2,1,1,0
8963924000,1688000,47.3977508,8.5456074,0.33499342,0.014101755,-3.2773116,-0.022968095,-0.0035443609,0.0,0.02798559,-0.0045097577,-2.0746589,-1.9985155,-0.059729103,-0.009160716,0.12626225,0.008835482,-0.0057561332,1.2832917,0.40495676,0.0,3.3124306,2.0746589,0.41866788,0.23430084,0.16398264,0.10358971,inf,inf,inf,inf,1,1,1,1,2,0,2,2,1,1,0
8964028000,1688000,47.3977508,8.5456074,0.33166292,0.014215168,-3.4829729,-0.022968095,-0.0035443609,0.0,0.027516909,-0.0029467002,-1.946638,-1.8755027,-0.059729103,-0.009160716,0.12626225,-0.017843943,-0.05484046,1.1382391,0.40448266,0.0,3.518092,1.946638,0.430984,0.23451456,0.16675672,0.10397454,inf,inf,inf,inf,1,1,1,1,2,0,2,2,1,1,0
8964124000,1688000,47.3977508,8.5456074,0.3296738,0.014373567,-3.6623368,-0.022968095,-0.0035443609,0.0,0.03075517,-0.004628189,-1.8380897,-1.771746,-0.059729103,-0.009160716,0.12626225,0.060172655,0.024541577,1.2136399,0.40475905,0.0,3.697456,1.8380897,0.41707516,0.23436986,0.16125561,0.10358765,inf,inf,inf,inf,1,1,1,1,2,0,2,2,1,1,0
8964228000,1688000,47.3977508,8.5456074,0.327013,0.014661678,-3.8456128,-0.022968095,-0.0035443609,0.0,0.031881254,-0.00396525,-1.7319207,-1.670351,-0.059729103,-0.009160716,0.12626225,0.025945053,0.011128264,0.94917226,0.40526986,0.0,3.8807318,1.7319207,0.42906007,0.23458897,0.16458437,0.10399072,inf,inf,inf,inf,1,1,1,1,2,0,2,2,1,1,0
8964324000,1688000,47.3977508,8.5456074,0.32564,0.015003736,-4.00529,-0.022968095,-0.0035443609,0.0,0.034472726,-0.0018962806,-1.6404449,-1.5826482,-0.059729103,-0.009160716,0.12626225,0.06105629,0.028401058,0.9496407,0.4057845,0.0,4.040409,1.6404449,0.41542393,0.23444472,0.15990493,0.103616156,inf,inf,inf,inf,1,1,1,1,2,0,2,2,1,1,0
8964428000,1688000,47.3977508,8.5456074,0.32355732,0.015461997,-4.168786,-0.022968095,-0.0035443609,0.0,0.033756457,-0.0023366248,-1.5458293,-1.4917626,-0.059729103,-0.009160716,0.12626225,0.01414684,-0.016416917,0.90172696,0.40635747,0.0,4.203905,1.5458293,0.42713648,0.23467131,0.16379853,0.10403646,inf,inf,inf,inf,1,1,1,1,2,0,2,2,1,1,0
8964524000,1688000,47.3977508,8.5456074,0.32284987,0.015878435,-4.311546,-0.022968095,-0.0035443609,0.0,0.03578976,-0.0022073474,-1.4689707,-1.4181262,-0.059729103,-0.009160716,0.12626225,0.019251125,-0.06607375,0.7203016,0.40692747,0.0,4.346665,1.4689707,0.41376206,0.23453662,0.1598163,0.10367586,inf,inf,inf,inf,1,1,1,1,2,0,2,2,1,1,0
8964628000,1688000,47.3977508,8.5456074,0.32218593,0.016542446,-4.458511,-0.022968095,-0.0035443609,0.0,0.036536608,-0.0034173515,-1.3932608,-1.3456254,-0.059729103,-0.009160716,0.12626225,0.058511626,-0.048131052,0.74921453,0.40700138,0.0,4.49363,1.3932608,0.4252648,0.23476325,0.16421139,0.104107276,inf,inf,inf,inf,1,1,1,1,2,0,2,2,1,1,0
8964724000,1688000,47.3977508,8.5456074,0.322327,0.017087735,-4.586924,-0.022968095,-0.0035443609,0.0,0.037204213,-0.0049656644,-1.3245677,-1.2792312,-0.059729103,-0.009160716,0.12626225,0.07198474,-0.007511473,0.7797563,0.40712214,0.0,4.622043,1.3245677,0.41213825,0.233032,0.16076773,0.10333967,inf,inf,inf,inf,1,1,1,1,2,0,2,2,1,1,0
8964828000,1688000,47.3977508,8.5456074,0.32187077,0.018011706,-4.718293,-0.022968095,-0.0035443609,0.0,0.035703458,-0.0056212647,-1.2567852,-1.2132019,-0.059729103,-0.009160716,0.12626225,0.028274989,-0.03413474,0.59981734,0.40714094,0.0,4.7534122,1.2567852,0.42349568,0.23486724,0.1656345,0.10419986,inf,inf,inf,inf,1,1,1,1,2,0,2,2,1,1,0
8964924000,1688000,47.3977508,8.5456074,0.32187653,0.018856807,-4.833498,-0.022968095,-0.0035443609,0.0,0.036367252,-0.008162066,-1.2031494,-1.1607858,-0.059729103,-0.009160716,0.12626225,0.041129105,0.0033967732,0.47416425,0.40716773,0.0,4.868617,1.2031494,0.41059998,0.2331358,0.16254775,0.10343749,inf,inf,inf,inf,1,1,1,1,2,0,2,2,1,1,0
8965028000,1688000,47.3977508,8.5456074,0.32086676,0.020673161,-4.952658,-0.022968095,-0.0035443609,0.0,0.037150044,-0.0068692905,-1.1469471,-1.1057112,-0.059729103,-0.009160716,0.12626225,0.018376958,-0.010932678,0.5722651,0.4071893,0.0,4.987777,1.1469471,0.42187607,0.23497632,0.16780569,0.10430611,inf,inf,inf,inf,1,1,1,1,2,0,2,2,1,1,0
8965124000,1688000,47.3977508,8.5456074,0.32071108,0.022226237,-5.057698,-0.022968095,-0.0035443609,0.0,0.035930663,-0.007974137,-1.094768,-1.0547975,-0.059729103,-0.009160716,0.12626225,-0.035016928,-0.005502115,0.46453714,0.40719855,0.0,5.092817,1.094768,0.40919,0.23325369,0.16496958,0.10355101,inf,inf,inf,inf,1,1,1,1,2,0,2,2,1,1,0
8965228000,1688000,47.3977508,8.5456074,0.31994763,0.024534741,-5.1659665,-0.022968095,-0.0035443609,0.0,0.038203735,-0.009226283,-1.0508002,-1.0115374,-0.059729103,-0.009160716,0.12626225,0.019851554,-0.040625844,0.35966092,0.40714166,0.0,5.2010856,1.0508002,0.42044708,0.233501,0.17054419,0.10401002,inf,inf,inf,inf,1,1,1,1,2,0,2,2,1,1,0
8965324000,1688000,47.3977508,8.5456074,0.32031637,0.026134375,-5.2618723,-0.022968095,-0.0035443609,0.0,0.038743734,-0.010103385,-1.0057899,-0.96723896,-0.059729103,-0.009160716,0.12626225,0.061070114,-0.10227638,0.49108356,0.4071754,0.0,5.2969913,1.0057899,0.40794617,0.23339416,0.16778149,0.10367909,inf,inf,inf,inf,1,1,1,1,2,0,2,2,1,1,0
8965428000,1688000,47.3977508,8.5456074,0.32082072,0.027831225,-5.360141,-0.022968095,-0.0035443609,0.0,0.03898296,-0.012501592,-0.96255445,-0.9240102,-0.059729103,-0.009160716,0.12626225,0.006294176,-0.029111221,0.3873808,0.4070003,0.0,5.39526,0.96255445,0.41924152,0.2336453,0.1736355,0.10414243,inf,inf,inf,inf,1,1,1,1,2,0,2,2,1,1,0
8965524000,1688000,47.3977508,8.5456074,0.32189906,0.029308388,-5.447406,-0.022968095,-0.0035443609,0.0,0.037798516,-0.01243677,-0.9288225,-0.89036036,-0.059729103,-0.009160716,0.12626225,-0.019779028,-0.02808203,0.26979947,0.4069856,0.0,5.482525,0.9288225,0.40689757,0.2335406,0.1708149,0.10381128,inf,inf,inf,inf,1,1,1,1,2,0,2,2,1,1,0
8965628000,1688000,47.3977508,8.5456074,0.32264337,0.03212279,-5.538093,-0.022968095,-0.0035443609,0.0,0.039358445,-0.012731357,-0.89149344,-0.85300404,-0.059729103,-0.009160716,0.12626225,0.051322058,0.013456738,0.33979303,0.4068965,0.0,5.573212,0.89149344,0.4182821,0.23379596,0.17686008,0.10427698,inf,inf,inf,inf,1,1,1,1,2,0,2,2,1,1,0
8965724000,1688000,47.3977508,8.5456074,0.3239472,0.034465466,-5.6181564,-0.022968095,-0.0035443609,0.0,0.038798627,-0.012200573,-0.8585191,-0.8197298,-0.059729103,-0.009160716,0.12626225,0.020386323,0.058957674,0.36004928,0.4069627,0.0,5.6532755,0.8585191,0.40606296,0.23369327,0.173932,0.10394486,inf,inf,inf,inf,1,1,1,1,2,0,2,2,1,1,0
8965828000,1688000,47.3977508,8.5456074,0.3248282,0.03816702,-5.7010417,-0.022968095,-0.0035443609,0.0,0.037781153,-0.013022938,-0.8271831,-0.78764635,-0.059729103,-0.009160716,0.12626225,-0.028843975,-0.023581173,0.21619815,0.4068268,0.0,5.7361608,0.8271831,0.41758063,0.23396167,0.18010111,0.10441542,inf,inf,inf,inf,1,1,1,1,2,0,2,2,1,1,0
8965924000,1688000,47.3977508,8.5456074,0.32599202,0.040957324,-5.774727,-0.022968095,-0.0035443609,0.0,0.036787666,-0.015949443,-0.8006216,-0.7604242,-0.059729103,-0.009160716,0.12626225,-0.0011454393,-0.07183864,0.29923487,0.40699705,0.0,5.809846,0.8006216,0.40545273,0.23386928,0.17695034,0.10408442,inf,inf,inf,inf,1,1,1,1,2,0,2,2,1,1,0
8966028000,1688000,47.3977508,8.5456074,0.32679686,0.04460515,-5.8512855,-0.022968095,-0.0035443609,0.0,0.038391672,-0.018582229,-0.76965946,-0.7285968,-0.059729103,-0.009160716,0.12626225,0.027512657,-0.009879011,0.19804667,0.40688065,0.0,5.8864045,0.76965946,0.41713765,0.2341498,0.18321359,0.10455821,inf,inf,inf,inf,1,1,1,1,2,0,2,2,1,1,0
8966124000,1688000,47.3977508,8.5456074,0.32826805,0.047377903,-5.919276,-0.022968095,-0.0035443609,0.0,0.039118607,-0.018530203,-0.7451533,-0.70339555,-0.059729103,-0.009160716,0.12626225,-0.03276022,-0.054443397,0.28806177,0.40667728,0.0,5.9543953,0.7451533,0.40506583,0.23405795,0.17978898,0.104223125,inf,inf,inf,inf,1,1,1,1,2,0,2,2,1,1,0
8966228000,1688000,47.3977508,8.5456074,0.3295805,0.05132653,-5.9902954,-0.022968095,-0.0035443609,0.0,0.03475884,-0.018621812,-0.71908367,-0.67669976,-0.059729103,-0.009160716,0.12626225,-0.06107275,-0.034134746,0.2551386,0.4067298,0.0,6.0254145,0.71908367,0.41694304,0.23434162,0.18608007,0.10469481,inf,inf,inf,inf,1,1,1,1,2,0,2,2,1,1,0
8966324000,1688000,47.3977508,8.5456074,0.3309778,0.054160964,-6.0529957,-0.022968095,-0.0035443609,0.0,0.034986116,-0.01811311,-0.6964837,-0.6530475,-0.059729103,-0.009160716,0.12626225,0.0073376135,0.034857888,0.23825373,0.40692204,0.0,6.0881147,0.6964837,0.40489274,0.23424996,0.182346,0.10435477,inf,inf,inf,inf,1,1,1,1,2,0,2,2,1,1,0
8966428000,1688000,47.3977508,8.5456074,0.33206138,0.057354216,-6.1181273,-0.022968095,-0.0035443609,0.0,0.036732532,-0.02085201,-0.673187,-0.6283921,-0.059729103,-0.009160716,0.12626225,0.030872112,-0.09870082,0.21801701,0.40688828,0.0,6.1532464,0.673187,0.41697767,0.23453638,0.18865839,0.10482372,inf,inf,inf,inf,1,1,1,1,2,0,2,2,1,1,0
8966524000,1688000,47.3977508,8.5456074,0.33344257,0.059347846,-6.176282,-0.022968095,-0.0035443609,0.0,0.03634957,-0.024013782,-0.6520585,-0.6063157,-0.059729103,-0.009160716,0.12626225,0.10876682,-0.08968797,0.18943007,0.40718663,0.0,6.211401,0.6520585,0.40491587,0.23444454,0.18458904,0.1044782,inf,inf,inf,inf,1,1,1,1,2,0,2,2,1,1,0
8966628000,1688000,47.3977508,8.5456074,0.33424366,0.061877068,-6.237471,-0.022968095,-0.0035443609,0.0,0.033089526,-0.02324766,-0.63261974,-0.5862953,-0.059729103,-0.009160716,0.12626225,0.010625277,-0.025342247,0.0922121,0.40704978,0.0,6.27259,0.63261974,0.41721523,0.23472473,0.19087666,0.10493989,inf,inf,inf,inf,1,1,1,1,2,0,2,2,1,1,0
8966724000,1688000,47.3977508,8.5456074,0.3355546,0.06391872,-6.2924957,-0.022968095,-0.0035443609,0.0,0.03548042,-0.023317456,-0.6126285,-0.5661419,-0.059729103,-0.009160716,0.12626225,0.04656929,-0.058497082,0.19589251,0.40713412,0.0,6.327615,0.6126285,0.405112,0.23302636,0.18647598,0.10416831,inf,inf,inf,inf,1,1,1,1,2,0,2,2,1,1,0
8966828000,1688000,47.3977508,8.5456074,0.33696675,0.06729417,-6.348598,-0.022968095,-0.0035443609,0.0,0.034878045,-0.026334723,-0.5911721,-0.54341763,-0.059729103,-0.009160716,0.12626225,-0.059859365,-0.0798313,0.13912095,0.407195,0.0,6.383717,0.5911721,0.4176245,0.23491578,0.19272977,0.10504741,inf,inf,inf,inf,1,1,1,1,2,0,2,2,1,1,0
8966924000,1688000,47.3977508,8.5456074,0.3384696,0.069263406,-6.398848,-0.022968095,-0.0035443609,0.0,0.03319432,-0.026843825,-0.57673144,-0.527973,-0.059729103,-0.009160716,0.12626225,0.0013460739,0.061963428,0.14484859,0.40724528,0.0,6.433967,0.57673144,0.40545452,0.233213,0.1879869,0.10426847,inf,inf,inf,inf,1,1,1,1,2,0,2,2,1,1,0
8967028000,1688000,47.3977508,8.5456074,0.3393097,0.07158512,-6.451617,-0.022968095,-0.0035443609,0.0,0.030972691,-0.02629205,-0.5569503,-0.50741786,-0.059729103,-0.009160716,0.12626225,0.0034661787,-0.045850284,0.09451154,0.40712613,0.0,6.486736,0.5569503,0.41817158,0.235108,0.19416936,0.10514493,inf,inf,inf,inf,1,1,1,1,2,0,2,2,1,1,0
8967124000,1688000,47.3977508,8.5456074,0.34044445,0.07319544,-6.498616,-0.022968095,-0.0035443609,0.0,0.028362354,-0.026827827,-0.5416622,-0.49139637,-0.059729103,-0.009160716,0.12626225,-0.016094053,-0.064547434,0.11803768,0.40720564,0.0,6.5337353,0.5416622,0.40591344,0.23340064,0.18915008,0.10435927,inf,inf,inf,inf,1,1,1,1,2,0,2,2,1,1,0
8967228000,1688000,47.3977508,8.5456074,0.34148553,0.07574973,-6.548087,-0.022968095,-0.0035443609,0.0,0.027479442,-0.02641102,-0.5261735,-0.47534886,-0.059729103,-0.009160716,0.12626225,0.047078677,0.0025961997,0.14314799,0.40693226,0.0,6.583206,0.5261735,0.41882226,0.23369727,0.19524741,0.10481206,inf,inf,inf,inf,1,1,1,1,2,0,2,2,1,1,0
8967324000,1688000,47.3977508,8.5456074,0.34302938,0.07739655,-6.592867,-0.022968095,-0.0035443609,0.0,0.03055698,-0.027631499,-0.5103788,-0.45973065,-0.059729103,-0.009160716,0.12626225,0.10328354,0.014571818,0.15402119,0.40690064,0.0,6.627986,0.5103788,0.40646064,0.23361315,0.18995073,0.1044506,inf,inf,inf,inf,1,1,1,1,2,0,2,2,1,1,0
8967428000,1688000,47.3977508,8.5456074,0.34509054,0.07968752,-6.639793,-0.022968095,-0.0035443609,0.0,0.031457208,-0.030067055,-0.49269256,-0.44243172,-0.059729103,-0.009160716,0.12626225,0.09247545,-0.012039788,0.0947453,0.4068882,0.0,6.674912,0.49269256,0.4195437,0.2339093,0.1959578,0.104897976,inf,inf,inf,inf,1,1,1,1,2,0,2,2,1,1,0
8967524000,1688000,47.3977508,8.5456074,0.34725657,0.08099103,-6.681938,-0.022968095,-0.0035443609,0.0,0.030669348,-0.02917037,-0.47865778,-0.42897135,-0.059729103,-0.009160716,0.12626225,-0.036799062,-0.014181812,0.14526768,0.40668657,0.0,6.717057,0.47865778,0.40706843,0.23382263,0.19041026,0.104530185,inf,inf,inf,inf,1,1,1,1,2,0,2,2,1,1,0
8967628000,1688000,47.3977508,8.5456074,0.34921354,0.083338566,-6.725488,-0.022968095,-0.0035443609,0.0,0.029613467,-0.029494539,-0.4616123,-0.41206124,-0.059729103,-0.009160716,0.12626225,-0.027458647,-0.06680927,0.11126603,0.40663108,0.0,6.7606072,0.4616123,0.42030475,0.2341176,0.19632041,0.1049721,inf,inf,inf,inf,1,1,1,1,2,0,2,2,1,1,0
8967724000,1688000,47.3977508,8.5456074,0.35109094,0.08425476,-6.7644925,-0.022968095,-0.0035443609,0.0,0.02813793,-0.031652648,-0.45010287,-0.4007626,-0.059729103,-0.009160716,0.12626225,-0.052725013,-0.07971578,0.12013129,0.40673578,0.0,6.7996116,0.45010287,0.40771028,0.2340281,0.19056948,0.10459846,inf,inf,inf,inf,1,1,1,1,2,0,2,2,1,1,0
8967828000,1688000,47.3977508,8.5456074,0.35274136,0.08475567,-6.804931,-0.022968095,-0.0035443609,0.0,0.026998656,-0.034764465,-0.43721935,-0.38757035,-0.059729103,-0.009160716,0.12626225,0.00063267356,-0.05529064,0.11964514,0.4068082,0.0,6.84005,0.43721935,0.42107788,0.23432128,0.1963781,0.10503485,inf,inf,inf,inf,1,1,1,1,2,0,2,2,1,1,0
8967924000,1688000,47.3977508,8.5456074,0.35446137,0.08420544,-6.8410296,-0.022968095,-0.0035443609,0.0,0.025733711,-0.038011603,-0.42335877,-0.37357038,-0.059729103,-0.009160716,0.12626225,-0.075976595,-0.040665384,0.11540762,0.40696794,0.0,6.8761487,0.42335877,0.40836343,0.23422864,0.1904713,0.10465582,inf,inf,inf,inf,1,1,1,1,2,0,2,2,1,1,0
8968028000,1688000,47.3977508,8.5456074,0.3562647,0.08388529,-6.878432,-0.022968095,-0.0035443609,0.0,0.026690958,-0.037323996,-0.4134019,-0.36302722,-0.059729103,-0.009160716,0.12626225,0.013071781,-0.09393606,0.12035481,0.40693834,0.0,6.913551,0.4134019,0.42184067,0.23451105,0.19617805,0.10508314,inf,inf,inf,inf,1,1,1,1,2,0,2,2,1,1,0
8968124000,1688000,47.3977508,8.5456074,0.358069,0.08327017,-6.9123535,-0.022968095,-0.0035443609,0.0,0.026116617,-0.037465602,-0.4027836,-0.35238034,-0.059729103,-0.009160716,0.12626225,-0.00047208593,0.07706313,0.11612567,0.4069438,0.0,6.9474726,0.4027836,0.40900937,0.23440714,0.19012953,0.10469549,inf,inf,inf,inf,1,1,1,1,2,0,2,2,1,1,0
8968228000,1688000,47.3977508,8.5456074,0.35961157,0.08367822,-6.9482045,-0.022968095,-0.0035443609,0.0,0.025773238,-0.035067108,-0.389324,-0.33910587,-0.059729103,-0.009160716,0.12626225,-0.019123664,-0.006241021,0.14478433,0.40708697,0.0,6.9833236,0.389324,0.422574,0.23469639,0.19575045,0.105122425,inf,inf,inf,inf,1,1,1,1,2,0,2,2,1,1,0
8968324000,1688000,47.3977508,8.5456074,0.36098468,0.0837075,-6.9807534,-0.022968095,-0.0035443609,0.0,0.02418889,-0.036098957,-0.37909186,-0.32967967,-0.059729103,-0.009160716,0.12626225,0.036365997,0.016254026,0.10033044,0.40702787,0.0,7.0158725,0.37909186,0.40963137,0.2345901,0.1896083,0.10473086,inf,inf,inf,inf,1,1,1,1,2,0,2,2,1,1,0
8968428000,1688000,47.3977508,8.5456074,0.3620107,0.08482999,-7.015572,-0.022968095,-0.0035443609,0.0,0.024343966,-0.035766922,-0.36799276,-0.31992346,-0.059729103,-0.009160716,0.12626225,0.08363407,-0.08546848,0.17338431,0.40714833,0.0,7.050691,0.36799276,0.42326212,0.23487686,0.1951165,0.10515307,inf,inf,inf,inf,1,1,1,1,2,0,2,2,1,1,0
8968524000,1688000,47.3977508,8.5456074,0.3634659,0.08510186,-7.0464525,-0.022968095,-0.0035443609,0.0,0.025732903,-0.036497526,-0.35470945,-0.307674,-0.059729103,-0.009160716,0.12626225,-0.06428715,-0.0103882,0.1747338,0.4070282,0.0,7.0815716,0.35470945,0.41021702,0.23476776,0.18890421,0.10475773,inf,inf,inf,inf,1,1,1,1,2,0,2,2,1,1,0
8968628000,1688000,47.3977508,8.5456074,0.3650838,0.086053506,-7.0779066,-0.022968095,-0.0035443609,0.0,0.023731828,-0.034151,-0.3441877,-0.29740146,-0.059729103,-0.009160716,0.12626225,-0.01169546,0.038980607,0.0496339,0.40701246,0.0,7.1130257,0.3441877,0.42389345,0.23505165,0.19431311,0.10517572,inf,inf,inf,inf,1,1,1,1,2,0,2,2,1,1,0
8968724000,1688000,47.3977508,8.5456074,0.36675048,0.08571473,-7.1057143,-0.022968095,-0.0035443609,0.0,0.021787247,-0.035446517,-0.33712795,-0.29017928,-0.059729103,-0.009160716,0.12626225,-0.030195713,-0.0064004157,0.055074688,0.40706387,0.0,7.1408334,0.33712795,0.43718052,0.23468421,0.19935139,0.105374865,inf,inf,inf,inf,1,1,1,1,2,0,2,2,1,1,0
8968828000,1688000,47.3977508,8.5456074,0.36860517,0.084878154,-7.134923,-0.022968095,-0.0035443609,0.0,0.021229757,-0.03701987,-0.32641962,-0.27930543,-0.059729103,-0.009160716,0.12626225,-0.0013059106,-0.018270446,-0.052790154,0.40728053,0.0,7.170042,0.32641962,0.4231036,0.2352071,0.19249766,0.10514773,inf,inf,inf,inf,1,1,1,1,2,0,2,2,1,1,0
8968924000,1688000,47.3977508,8.5456074,0.37032497,0.08463965,-7.1609235,-0.022968095,-0.0035443609,0.0,0.018753992,-0.035583362,-0.318407,-0.2710361,-0.059729103,-0.009160716,0.12626225,0.009488998,0.042041354,0.051666047,0.4071918,0.0,7.1960425,0.318407,0.4363013,0.23483416,0.1974517,0.10534352,inf,inf,inf,inf,1,1,1,1,2,0,2,2,1,1,0
8969028000,1688000,47.3977508,8.5456074,0.3717843,0.0843628,-7.1888194,-0.022968095,-0.0035443609,0.0,0.020293575,-0.03433035,-0.31024823,-0.2633253,-0.059729103,-0.009160716,0.12626225,-0.04661922,0.011140369,0.064870335,0.40723306,0.0,7.2239385,0.31024823,0.42236805,0.23535357,0.19074664,0.105114594,inf,inf,inf,inf,1,1,1,1,2,0,2,2,1,1,0
8969124000,1688000,47.3977508,8.5456074,0.37245062,0.08471338,-7.214148,-0.022968095,-0.0035443609,0.0,0.0196525,-0.032977264,-0.3010655,-0.2548087,-0.059729103,-0.009160716,0.12626225,0.008299684,0.07261859,0.08687097,0.40716165,0.0,7.249267,0.3010655,0.435477,0.23497531,0.19560358,0.10530723,inf,inf,inf,inf,1,1,1,1,2,0,2,2,1,1,0
8969228000,1688000,47.3977508,8.5456074,0.37336254,0.084702514,-7.240147,-0.022968095,-0.0035443609,0.0,0.017737547,-0.030013865,-0.2917916,-0.24574111,-0.059729103,-0.009160716,0.12626225,0.028684424,0.0019256257,0.059228387,0.4071923,0.0,7.275266,0.2917916,0.421678,0.23549148,0.18904313,0.10507709,inf,inf,inf,inf,1,1,1,1,2,0,2,2,1,1,0
8969324000,1688000,47.3977508,8.5456074,0.37416893,0.08480542,-7.2637353,-0.022968095,-0.0035443609,0.0,0.018725159,-0.031928252,-0.28619528,-0.24062607,-0.059729103,-0.009160716,0.12626225,0.022180647,-0.057866715,0.08380319,0.40710202,0.0,7.2988544,0.28619528,0.43469852,0.23510802,0.19381547,0.105267204,inf,inf,inf,inf,1,1,1,1,2,0,2,2,1,1,0
8969428000,1688000,47.3977508,8.5456074,0.37484434,0.08412645,-7.2893395,-0.022968095,-0.0035443609,0.0,0.015990954,-0.032503117,-0.27606514,-0.23180339,-0.059729103,-0.009160716,0.12626225,-0.04676913,0.05227103,0.07990654,0.40710083,0.0,7.3244586,0.27606514,0.42102602,0.23561254,0.1873935,0.10503254,inf,inf,inf,inf,1,1,1,1,2,0,2,2,1,1,0
8969524000,1688000,47.3977508,8.5456074,0.37475556,0.083614215,-7.312704,-0.022968095,-0.0035443609,0.0,0.01463511,-0.031900782,-0.26713955,-0.22464971,-0.059729103,-0.009160716,0.12626225,-0.09608051,-0.026473926,-0.020391306,0.40717107,0.0,7.347823,0.26713955,0.4339589,0.23521595,0.19210295,0.10521735,inf,inf,inf,inf,1,1,1,1,2,0,2,2,1,1,0
8969628000,1688000,47.3977508,8.5456074,0.37482435,0.08272646,-7.335844,-0.022968095,-0.0035443609,0.0,0.01630826,-0.031672787,-0.25889823,-0.2167121,-0.059729103,-0.009160716,0.12626225,-0.0359898,-0.0074131107,0.046616416,0.40720403,0.0,7.370963,0.25889823,0.4204055,0.23409832,0.18581598,0.10455567,inf,inf,inf,inf,1,1,1,1,2,0,2,2,1,1,0
8969724000,1688000,47.3977508,8.5456074,0.3747168,0.082159646,-7.356515,-0.022968095,-0.0035443609,0.0,0.017074214,-0.031217968,-0.2505758,-0.20878738,-0.059729103,-0.009160716,0.12626225,0.009152579,-0.005738733,0.04643667,0.4070749,0.0,7.391634,0.2505758,0.433251,0.23532715,0.19045144,0.105170876,inf,inf,inf,inf,1,1,1,1,2,0,2,2,1,1,0
8969828000,1688000,47.3977508,8.5456074,0.37485462,0.081344746,-7.3780494,-0.022968095,-0.0035443609,0.0,0.017982606,-0.03126394,-0.24509156,-0.20350164,-0.059729103,-0.009160716,0.12626225,-0.034096953,0.031888343,0.12908874,0.40712905,0.0,7.4131684,0.24509156,0.41981068,0.23420583,0.18431489,0.104509816,inf,inf,inf,inf,1,1,1,1,2,0,2,2,1,1,0
8969924000,1688000,47.3977508,8.5456074,0.37465274,0.081015885,-7.3976808,-0.022968095,-0.0035443609,0.0,0.016904607,-0.029578349,-0.23977967,-0.19863509,-0.059729103,-0.009160716,0.12626225,-0.0024873696,-0.006746673,0.0021336598,0.40694702,0.0,7.4328,0.23977967,0.4325706,0.23543327,0.18889369,0.10512489,inf,inf,inf,inf,1,1,1,1,2,0,2,2,1,1,0
8970028000,1688000,47.3977508,8.5456074,0.37482184,0.080726594,-7.4183593,-0.022968095,-0.0035443609,0.0,0.018683955,-0.027728807,-0.23213203,-0.19150174,-0.059729103,-0.009160716,0.12626225,0.016800513,0.01123187,0.07451884,0.4069317,0.0,7.4534783,0.23213203,0.41923803,0.23431675,0.18290696,0.10446847,inf,inf,inf,inf,1,1,1,1,2,0,2,2,1,1,0
8970124000,1688000,47.3977508,8.5456074,0.37503338,0.081070125,-7.4371605,-0.022968095,-0.0035443609,0.0,0.017648863,-0.027716612,-0.22754143,-0.18773566,-0.059729103,-0.009160716,0.12626225,-0.021267561,-0.014271892,0.0049797813,0.40681303,0.0,7.4722795,0.22754143,0.4319149,0.23554265,0.1874416,0.1050835,inf,inf,inf,inf,1,1,1,1,2,0,2,2,1,1,0
8970228000,1688000,47.3977508,8.5456074,0.37512386,0.08090093,-7.4573917,-0.022968095,-0.0035443609,0.0,0.015420399,-0.026669083,-0.21822724,-0.1797788,-0.059729103,-0.009160716,0.12626225,-0.021830345,0.0042225015,0.08107535,0.40682268,0.0,7.492511,0.21822724,0.41868535,0.23443095,0.1815744,0.104431406,inf,inf,inf,inf,1,1,1,1,2,0,2,2,1,1,0
8970324000,1688000,47.3977508,8.5456074,0.37472692,0.080760136,-7.4761014,-0.022968095,-0.0035443609,0.0,0.01410012,-0.026021054,-0.21397686,-0.17726195,-0.059729103,-0.009160716,0.12626225,-0.005745234,0.018007029,0.06613321,0.40696207,0.0,7.5112205,0.21397686,0.43128067,0.23566416,0.18606842,0.10505033,inf,inf,inf,inf,1,1,1,1,2,0,2,2,1,1,0
8970428000,1688000,47.3977508,8.5456074,0.37447792,0.08026378,-7.495842,-0.022968095,-0.0035443609,0.0,0.014924057,-0.02799177,-0.20478648,-0.16984105,-0.059729103,-0.009160716,0.12626225,0.06706902,-0.018556463,0.080079764,0.40708217,0.0,7.530961,0.20478648,0.41814953,0.2345477,0.18032892,0.10439845,inf,inf,inf,inf,1,1,1,1,2,0,2,2,1,1,0
8970524000,1688000,47.3977508,8.5456074,0.3740368,0.08009931,-7.5142784,-0.022968095,-0.0035443609,0.0,0.014613383,-0.027871951,-0.19884947,-0.16633743,-0.059729103,-0.009160716,0.12626225,0.01791054,-0.014994724,-0.02302788,0.40719548,0.0,7.5493975,0.19884947,0.43066573,0.23577952,0.18478712,0.10501753,inf,inf,inf,inf,1,1,1,1,2,0,2,2,1,1,0
8970628000,1688000,47.3977508,8.5456074,0.3739341,0.079712145,-7.5334463,-0.022968095,-0.0035443609,0.0,0.014790789,-0.028309627,-0.18983543,-0.15962718,-0.059729103,-0.009160716,0.12626225,0.059814457,-0.10342232,0.0902526,0.40715852,0.0,7.5685654,0.18983543,0.41762927,0.23465897,0.17916764,0.104366176,inf,inf,inf,inf,1,1,1,1,2,0,2,2,1,1,0
8970724000,1688000,47.3977508,8.5456074,0.37371832,0.07987389,-7.5502696,-0.022968095,-0.0035443609,0.0,0.017197683,-0.024338268,-0.18416558,-0.15559627,-0.059729103,-0.009160716,0.12626225,-0.006506401,-0.008181948,0.07085967,0.4071274,0.0,7.5853887,0.18416558,0.4300687,0.23588958,0.18358347,0.10498541,inf,inf,inf,inf,1,1,1,1,2,0,2,2,1,1,0
8970828000,1688000,47.3977508,8.5456074,0.37401417,0.07971437,-7.567479,-0.022968095,-0.0035443609,0.0,0.019935181,-0.024690786,-0.17548706,-0.14826924,-0.059729103,-0.009160716,0.12626225,-0.0117622325,0.03722756,0.10829791,0.4069103,0.0,7.602598,0.17548706,0.417123,0.23475681,0.17809369,0.10433127,inf,inf,inf,inf,1,1,1,1,2,0,2,2,1,1,0
8970924000,1688000,47.3977508,8.5456074,0.3741677,0.079727106,-7.583494,-0.022968095,-0.0035443609,0.0,0.019114358,-0.021788256,-0.17100625,-0.14567333,-0.059729103,-0.009160716,0.12626225,0.020253077,0.014381014,0.07027387,0.40698123,0.0,7.6186132,0.17100625,0.42948887,0.23597804,0.18249165,0.10494757,inf,inf,inf,inf,1,1,1,1,2,0,2,2,1,1,0
8971028000,1688000,47.3977508,8.5456074,0.37420768,0.07919708,-7.6007266,-0.022968095,-0.0035443609,0.0,0.019209253,-0.021453725,-0.16382447,-0.14074458,-0.059729103,-0.009160716,0.12626225,-0.04717474,0.042126365,0.10890513,0.4071338,0.0,7.6358457,0.16382447,0.4166304,0.23484313,0.17711289,0.10429514,inf,inf,inf,inf,1,1,1,1,2,0,2,2,1,1,0
8971124000,1688000,47.3977508,8.5456074,0.3734003,0.07843917,-7.615196,-0.022968095,-0.0035443609,0.0,0.017035346,-0.02281287,-0.15672225,-0.13479434,-0.059729103,-0.009160716,0.12626225,-0.023768704,-0.06606729,0.058074478,0.40718696,0.0,7.6503153,0.15672225,0.42892644,0.23443675,0.18149883,0.10448296,inf,inf,inf,inf,1,1,1,1,2,0,2,2,1,1,0
8971228000,1688000,47.3977508,8.5456074,0.37286893,0.07717426,-7.629691,-0.022968095,-0.0035443609,0.0,0.01776338,-0.019426538,-0.15033871,-0.12900709,-0.059729103,-0.009160716,0.12626225,-0.009604652,0.07749609,0.07228646,0.4070704,0.0,7.66481,0.15033871,0.41615158,0.23493616,0.17623092,0.10426585,inf,inf,inf,inf,1,1,1,1,2,0,2,2,1,1,0
8971324000,1688000,47.3977508,8.5456074,0.37230524,0.07576322,-7.6431293,-0.022968095,-0.0035443609,0.0,0.015971642,-0.020028168,-0.1456894,-0.12542124,-0.059729103,-0.009160716,0.12626225,0.031311292,0.02128478,0.050438564,0.40712726,0.0,7.6782484,0.1456894,0.4283816,0.23452799,0.18060194,0.10445452,inf,inf,inf,inf,1,1,1,1,2,0,2,2,1,1,0
8971428000,1688000,47.3977508,8.5456074,0.37184963,0.074151956,-7.6574636,-0.022968095,-0.0035443609,0.0,0.016742365,-0.020238534,-0.14336616,-0.1242285,-0.059729103,-0.009160716,0.12626225,0.06376822,-0.040703308,0.03917515,0.4070155,0.0,7.6925826,0.14336616,0.41568694,0.23502737,0.17544918,0.104239434,inf,inf,inf,inf,1,1,1,1,2,0,2,2,1,1,0
8971532000,1688000,47.3977508,8.5456074,0.37115204,0.07250138,-7.670619,-0.022968095,-0.0035443609,0.0,0.017181873,-0.022032268,-0.13688992,-0.11825689,-0.059729103,-0.009160716,0.12626225,-0.03559525,0.018621152,0.05174521,0.40704435,0.0,7.705738,0.13688992,0.42889297,0.23526952,0.18018812,0.10462688,inf,inf,inf,inf,1,1,1,1,2,0,2,2,1,1,0
8971628000,1688000,47.3977508,8.5456074,0.37046227,0.07052679,-7.6829987,-0.022968095,-0.0035443609,0.0,0.016306205,-0.02137109,-0.13512875,-0.117521785,-0.059729103,-0.009160716,0.12626225,-0.002116365,0.04751206,0.08493568,0.40698865,0.0,7.7181177,0.13512875,0.4152375,0.23352545,0.17476255,0.10380151,inf,inf,inf,inf,1,1,1,1,2,0,2,2,1,1,0
8971724000,1688000,47.3977508,8.5456074,0.36915547,0.06830348,-7.6946893,-0.022968095,-0.0035443609,0.0,0.016870452,-0.019613998,-0.12882105,-0.11174302,-0.059729103,-0.009160716,0.12626225,0.028860815,-0.046923324,-0.015519558,0.4071196,0.0,7.7298083,0.12882105,0.42734927,0.23473914,0.17913115,0.1044205,inf,inf,inf,inf,1,1,1,1,2,0,2,2,1,1,0
8971828000,1688000,47.3977508,8.5456074,0.3683956,0.066201545,-7.7071705,-0.022968095,-0.0035443609,0.0,0.01699329,-0.01681625,-0.12480317,-0.10871112,-0.059729103,-0.009160716,0.12626225,0.023231978,-0.040001884,-0.0033704562,0.40700474,0.0,7.7422895,0.12480317,0.41480395,0.23363572,0.17417789,0.10378992,inf,inf,inf,inf,1,1,1,1,2,0,2,2,1,1,0
8971924000,1688000,47.3977508,8.5456074,0.36778295,0.06476269,-7.7185616,-0.022968095,-0.0035443609,0.0,0.015431361,-0.014119927,-0.12081607,-0.10559824,-0.059729103,-0.009160716,0.12626225,-0.0032166424,0.06821705,0.08780788,0.40690964,0.0,7.7536807,0.12081607,0.4268637,0.23484957,0.17853272,0.1044096,inf,inf,inf,inf,1,1,1,1,2,0,2,2,1,1,0
8972028000,1688000,47.3977508,8.5456074,0.36718482,0.06330402,-7.729557,-0.022968095,-0.0035443609,0.0,0.017784525,-0.014087323,-0.11715044,-0.10190973,-0.059729103,-0.009160716,0.12626225,0.008713828,-0.02635361,0.0653509,0.40695855,0.0,7.764676,0.11715044,0.414388,0.23373483,0.17366754,0.10377586,inf,inf,inf,inf,1,1,1,1,2,0,2,2,1,1,0
8972124000,1688000,47.3977508,8.5456074,0.3661057,0.061952915,-7.7393365,-0.022968095,-0.0035443609,0.0,0.01759489,-0.011542746,-0.114086516,-0.098954305,-0.059729103,-0.009160716,0.12626225,-0.0117571065,0.041194655,-0.03711227,0.40700057,0.0,7.7744555,0.114086516,0.4264004,0.23494056,0.17803715,0.10439285,inf,inf,inf,inf,1,1,1,1,2,0,2,2,1,1,0
8972228000,1688000,47.3977508,8.5456074,0.36546198,0.060514037,-7.7506824,-0.022968095,-0.0035443609,0.0,0.016893094,-0.009405696,-0.11103835,-0.09685945,-0.059729103,-0.009160716,0.12626225,0.029182887,-0.0024058358,0.027828848,0.4071107,0.0,7.7858014,0.11103835,0.41399062,0.23382455,0.17323767,0.10376031,inf,inf,inf,inf,1,1,1,1,2,0,2,2,1,1,0
8972324000,1688000,47.3977508,8.5456074,0.36504585,0.059074424,-7.7606997,-0.022968095,-0.0035443609,0.0,0.016742608,-0.006557184,-0.10410026,-0.09082636,-0.059729103,-0.009160716,0.12626225,0.065766126,0.062027592,0.057594847,0.40718296,0.0,7.795819,0.10410026,0.42596036,0.2350313,0.17763157,0.104378715,inf,inf,inf,inf,1,1,1,1,2,0,2,2,1,1,0
8972428000,1688000,47.3977508,8.5456074,0.36485535,0.057848185,-7.7714305,-0.022968095,-0.0035443609,0.0,0.016465137,-0.0032813083,-0.10343458,-0.09140961,-0.059729103,-0.009160716,0.12626225,-0.0346185,0.002614889,-0.013772397,0.40723357,0.0,7.8065495,0.10343458,0.41361266,0.23391402,0.17289536,0.10374733,inf,inf,inf,inf,1,1,1,1,2,0,2,2,1,1,0
8972532000,1688000,47.3977508,8.5456074,0.3644805,0.056791324,-7.7816224,-0.022968095,-0.0035443609,0.0,0.017664729,-0.003041038,-0.099731006,-0.0882722,-0.059729103,-0.009160716,0.12626225,0.004883317,-5.026322e-05,0.10316073,0.4072465,0.0,7.8167415,0.099731006,0.42656177,0.23414396,0.1776461,0.104133904,inf,inf,inf,inf,1,1,1,1,2,0,2,2,1,1,0
8972628000,1688000,47.3977508,8.5456074,0.36460367,0.0554842,-7.790241,-0.022968095,-0.0035443609,0.0,0.019042123,-0.000101498365,-0.09439309,-0.08320565,-0.059729103,-0.009160716,0.12626225,-0.01963412,-0.023440784,-0.011933035,0.40731192,0.0,7.82536,0.09439309,0.41325462,0.23401211,0.17263235,0.103740595,inf,inf,inf,inf,1,1,1,1,2,0,2,2,1,1,0
8972724000,1688000,47.3977508,8.5456074,0.3649176,0.053748947,-7.7982187,-0.022968095,-0.0035443609,0.0,0.020946007,0.0019884424,-0.094790705,-0.08340904,-0.059729103,-0.009160716,0.12626225,0.029848062,-0.0544915,-0.0339942,0.40736285,0.0,7.833338,0.094790705,0.4251541,0.23522133,0.17702867,0.10436126,inf,inf,inf,inf,1,1,1,1,2,0,2,2,1,1,0
8972828000,1688000,47.3977508,8.5456074,0.3657111,0.05195635,-7.807155,-0.022968095,-0.0035443609,0.0,0.020826874,0.00038220937,-0.090826996,-0.079803415,-0.059729103,-0.009160716,0.12626225,-0.01733172,-0.030962596,0.09142793,0.40724468,0.0,7.842274,0.090826996,0.4129188,0.23410155,0.17242816,0.10373195,inf,inf,inf,inf,1,1,1,1,2,0,2,2,1,1,0
8972924000,1688000,47.3977508,8.5456074,0.36650148,0.049963154,-7.815933,-0.022968095,-0.0035443609,0.0,0.021727098,0.0014972007,-0.08892619,-0.07888889,-0.059729103,-0.009160716,0.12626225,0.022049138,0.060619023,0.11097732,0.40700832,0.0,7.8510523,0.08892619,0.4247902,0.23530367,0.1768526,0.10435029,inf,inf,inf,inf,1,1,1,1,2,0,2,2,1,1,0
8973028000,1688000,47.3977508,8.5456074,0.36758652,0.047870513,-7.825218,-0.022968095,-0.0035443609,0.0,0.020938316,0.0017321925,-0.08411809,-0.07523934,-0.059729103,-0.009160716,0.12626225,-0.0074391277,0.021457937,-0.020687466,0.40701625,0.0,7.8603373,0.08411809,0.41260532,0.23418352,0.1723055,0.103722356,inf,inf,inf,inf,1,1,1,1,2,0,2,2,1,1,0
8973124000,1688000,47.3977508,8.5456074,0.36843362,0.045475956,-7.8341627,-0.022968095,-0.0035443609,0.0,0.020726679,0.0011933723,-0.08238388,-0.07512177,-0.059729103,-0.009160716,0.12626225,0.024253666,-0.030298045,-0.03325287,0.40707022,0.0,7.869282,0.08238388,0.42445365,0.2353877,0.17673562,0.10434211,inf,inf,inf,inf,1,1,1,1,2,0,2,2,1,1,0
8973228000,1688000,47.3977508,8.5456074,0.36969724,0.042990655,-7.8434596,-0.022968095,-0.0035443609,0.0,0.022780348,0.0004057366,-0.07744104,-0.07160082,-0.059729103,-0.009160716,0.12626225,0.03722989,-0.042563163,0.18825753,0.40693158,0.0,7.8785787,0.07744104,0.41231516,0.23426735,0.1722189,0.10371539,inf,inf,inf,inf,1,1,1,1,2,0,2,2,1,1,0
8973324000,1688000,47.3977508,8.5456074,0.37098616,0.04046949,-7.8514595,-0.022968095,-0.0035443609,0.0,0.021645498,0.002137584,-0.07353588,-0.068883575,-0.059729103,-0.009160716,0.12626225,0.074741945,0.02524815,-0.08553359,0.4069991,0.0,7.8865786,0.07353588,0.42414445,0.23547359,0.17666854,0.104336604,inf,inf,inf,inf,1,1,1,1,2,0,2,2,1,1,0
8973428000,1688000,47.3977508,8.5456074,0.37211943,0.03801976,-7.8602433,-0.022968095,-0.0035443609,0.0,0.018470634,0.0045982227,-0.07084563,-0.06759936,-0.059729103,-0.009160716,0.12626225,0.04041116,0.06485228,0.15398021,0.4070706,0.0,7.8953624,0.07084563,0.41204858,0.23435293,0.17218265,0.10371088,inf,inf,inf,inf,1,1,1,1,2,0,2,2,1,1,0
8973524000,1688000,47.3977508,8.5456074,0.37274218,0.035597894,-7.8681417,-0.022968095,-0.0035443609,0.0,0.01809113,0.0064589963,-0.06466208,-0.06292243,-0.059729103,-0.009160716,0.12626225,-0.042880945,-0.013729705,0.018096527,0.40724894,0.0,7.9032607,0.06466208,0.42386281,0.23395284,0.1766551,0.103913,inf,inf,inf,inf,1,1,1,1,2,0,2,2,1,1,0
8973628000,1688000,47.3977508,8.5456074,0.37384862,0.033912465,-7.876118,-0.022968095,-0.0035443609,0.0,0.019523717,0.008505968,-0.06414293,-0.06347027,-0.059729103,-0.009160716,0.12626225,0.031832617,-0.00029143938,0.092917114,0.40717086,0.0,7.9112372,0.06414293,0.4372425,0.23580112,0.1815524,0.1047125,inf,inf,inf,inf,1,1,1,1,2,0,2,2,1,1,0
8973724000,1688000,47.3977508,8.5456074,0.37514386,0.032823436,-7.8836427,-0.022968095,-0.0035443609,0.0,0.019993786,0.012254942,-0.058899503,-0.05964808,-0.059729103,-0.009160716,0.12626225,-0.013141735,0.038453545,0.06857886,0.40718716,0.0,7.9187617,0.058899503,0.4222791,0.23402505,0.17589813,0.10386528,inf,inf,inf,inf,1,1,1,1,2,0,2,2,1,1,0
8973828000,1688000,47.3977508,8.5456074,0.3763566,0.031223366,-7.8913255,-0.022968095,-0.0035443609,0.0,0.018256437,0.012955102,-0.058541656,-0.060434725,-0.059729103,-0.009160716,0.12626225,-0.06730798,0.057686593,0.03833137,0.40707636,0.0,7.9264445,0.058541656,0.43554989,0.235873,0.18081188,0.104665615,inf,inf,inf,inf,1,1,1,1,2,0,2,2,1,1,0
8973924000,1688000,47.3977508,8.5456074,0.37758577,0.030028353,-7.8971543,-0.022968095,-0.0035443609,0.0,0.017315531,0.015403227,-0.053840753,-0.055722605,-0.059729103,-0.009160716,0.12626225,0.028747238,0.004157851,0.06308965,0.40728486,0.0,7.9322734,0.053840753,0.42084488,0.23409607,0.17529826,0.10382065,inf,inf,inf,inf,1,1,1,1,2,0,2,2,1,1,0
8974028000,1688000,47.3977508,8.5456074,0.379119,0.027824815,-7.903238,-0.022968095,-0.0035443609,0.0,0.01815604,0.013737633,-0.052040614,-0.0540289,-0.059729103,-0.009160716,0.12626225,0.09793682,-0.01595788,-0.03341492,0.40728706,0.0,7.938357,0.052040614,0.4340238,0.23431899,0.18022332,0.10419389,inf,inf,inf,inf,1,1,1,1,2,0,2,2,1,1,0
8974124000,1688000,47.3977508,8.5456074,0.38055405,0.026114346,-7.909046,-0.022968095,-0.0035443609,0.0,0.017168488,0.015883407,-0.050671328,-0.053093374,-0.059729103,-0.009160716,0.12626225,-0.09416531,0.041212752,0.030807218,0.4073537,0.0,7.944165,0.050671328,0.41954812,0.23417497,0.17483963,0.1037831,inf,inf,inf,inf,1,1,1,1,2,0,2,2,1,1,0
8974228000,1688000,47.3977508,8.5456074,0.38159624,0.02358953,-7.9148073,-0.022968095,-0.0035443609,0.0,0.017536443,0.015402659,-0.047183514,-0.049697023,-0.059729103,-0.009160716,0.12626225,0.03649521,0.065894164,0.03988575,0.40719455,0.0,7.9499264,0.047183514,0.43265033,0.23438783,0.17977603,0.104153395,inf,inf,inf,inf,1,1,1,1,2,0,2,2,1,1,0
8974324000,1688000,47.3977508,8.5456074,0.3825756,0.021532714,-7.9200234,-0.022968095,-0.0035443609,0.0,0.016307447,0.016565789,-0.045595095,-0.048381615,-0.059729103,-0.009160716,0.12626225,-0.0129597,0.008714977,0.052304003,0.40719035,0.0,7.9551425,0.045595095,0.41837823,0.23423642,0.17450725,0.10374159,inf,inf,inf,inf,1,1,1,1,2,0,2,2,1,1,0
8974428000,1688000,47.3977508,8.5456074,0.38328356,0.01813756,-7.9256983,-0.022968095,-0.0035443609,0.0,0.015804667,0.016082386,-0.045252886,-0.048421912,-0.059729103,-0.009160716,0.12626225,-0.09837431,-0.024940152,0.0010095536,0.40720785,0.0,7.9608173,0.045252886,0.4314177,0.23444901,0.17944232,0.104113564,inf,inf,inf,inf,1,1,1,1,2,0,2,2,1,1,0
8974524000,1688000,47.3977508,8.5456074,0.38404354,0.016196856,-7.9320965,-0.022968095,-0.0035443609,0.0,0.021483956,0.038322523,-0.13957691,-0.14271021,-0.059729103,-0.009160716,0.12626225,0.26203072,0.9305784,-2.946333,0.4389013,0.0,7.9672155,0.13957691,0.41732624,0.23429938,0.17426178,0.103704825,inf,inf,inf,inf,1,1,1,1,2,0,2,2,1,1,0
8974628000,1688000,47.3977508,8.5456074,0.38646507,0.022112332,-7.955436,-0.022968095,-0.0035443609,0.0,0.04307194,0.1584841,-0.17660056,-0.17986423,-0.059729103,-0.009160716,0.12626225,0.11042083,1.0214031,2.9107022,0.6184353,0.0,7.9905553,0.17660056,0.43013644,0.2345031,0.17883912,0.10407472,inf,inf,inf,inf,1,1,1,1,2,0,2,2,1,1,0
8974724000,1688000,47.3977508,8.5456074,0.38981637,0.037339732,-7.958404,-0.022968095,-0.0035443609,0.0,0.04419436,0.24821058,0.088130765,0.08515779,-0.059729103,-0.009160716,0.12626225,-0.08699515,1.0177166,1.2522563,0.8359285,0.0,7.993523,-0.088130765,0.4160996,0.23433852,0.17425798,0.103660665,inf,inf,inf,inf,1,1,1,1,2,0,2,2,1,1,0
8974828000,1688000,47.3977508,8.5456074,0.39202613,0.061719198,-7.948232,-0.022968095,-0.0035443609,0.0,0.028823959,0.340272,0.062231306,0.060240164,-0.059729103,-0.009160716,0.12626225,-0.1973642,0.6280228,-0.785184,1.0461311,0.0,7.983351,-0.062231306,0.42886305,0.23454301,0.17819005,0.10401206,inf,inf,inf,inf,1,1,1,1,2,0,2,2,1,1,0
8974924000,1688000,47.3977508,8.5456074,0.39317477,0.089875795,-7.945716,-0.022968095,-0.0035443609,0.0,0.017761078,0.36897352,0.028678002,0.025881296,-0.059729103,-0.009160716,0.12626225,-0.16027251,0.12364896,0.024749896,1.1964743,0.0,7.980835,-0.028678002,0.41504928,0.23438907,0.172244,0.10358686,inf,inf,inf,inf,1,1,1,1,2,0,2,2,1,1,0
8975028000,1688000,47.3977508,8.5456074,0.3935832,0.11831959,-7.9447746,-0.022968095,-0.0035443609,0.0,0.0122378655,0.3690942,0.046082303,0.0407727,-0.059729103,-0.009160716,0.12626225,0.0095694335,0.042915925,0.10119471,1.3193592,0.0,7.9798937,-0.046082303,0.4276918,0.23459181,0.17722757,0.10395454,inf,inf,inf,inf,1,1,1,1,2,0,2,2,1,1,0
8975124000,1688000,47.3977508,8.5456074,0.39395058,0.14623943,-7.942821,-0.022968095,-0.0035443609,0.0,0.012668007,0.37033868,0.03934553,0.032523632,-0.059729103,-0.009160716,0.12626225,-0.01820399,0.00199466,-0.15497486,1.4030337,0.0,7.97794,-0.03934553,0.41404226,0.23443975,0.17226492,0.10355069,inf,inf,inf,inf,1,1,1,1,2,0,2,2,1,1,0
8975228000,1688000,47.3977508,8.5456074,0.39459407,0.17740047,-7.9412746,-0.022968095,-0.0035443609,0.0,0.011780968,0.37933874,0.03466396,0.026664823,-0.059729103,-0.009160716,0.12626225,-0.02614589,0.18963979,-0.016474163,1.4697412,0.0,7.9763937,-0.03466396,0.42663422,0.23465209,0.17700191,0.10392909,inf,inf,inf,inf,1,1,1,1,2,0,2,2,1,1,0
8975324000,1688000,47.3977508,8.5456074,0.3953303,0.20839785,-7.9394608,-0.022968095,-0.0035443609,0.0,0.010904223,0.39096,0.03319483,0.024828546,-0.059729103,-0.009160716,0.12626225,-0.045023177,0.11533696,-0.045173798,1.5147405,0.0,7.97458,-0.03319483,0.4131413,0.23450282,0.17224917,0.103529125,inf,inf,inf,inf,1,1,1,1,2,0,2,2,1,1,0
8975428000,1688000,47.3977508,8.5456074,0.39575982,0.24270594,-7.939543,-0.022968095,-0.0035443609,0.0,0.0066407677,0.40383095,0.031360988,0.020743173,-0.059729103,-0.009160716,0.12626225,0.018440593,0.14809193,-0.066645436,1.5504344,0.0,7.974662,-0.031360988,0.42568687,0.23471619,0.1772126,0.10390971,inf,inf,inf,inf,1,1,1,1,2,0,2,2,1,1,0
8975524000,1688000,47.3977508,8.5456074,0.39587286,0.27681547,-7.9402785,-0.022968095,-0.0035443609,0.0,0.0052684275,0.41819814,0.033620864,0.02055236,-0.059729103,-0.009160716,0.12626225,0.04853097,0.21737055,-0.01764111,1.5746938,0.0,7.9753976,-0.033620864,0.41233316,0.23456073,0.17259067,0.10350842,inf,inf,inf,inf,1,1,1,1,2,0,2,2,1,1,0
8975628000,1688000,47.3977508,8.5456074,0.3955711,0.3149117,-7.9401207,-0.022968095,-0.0035443609,0.0,0.003494426,0.43096185,0.03298118,0.018367268,-0.059729103,-0.009160716,0.12626225,-0.03359754,0.2104605,-0.014921649,1.5936525,0.0,7.9752398,-0.03298118,0.42484373,0.23476686,0.17768513,0.103887275,inf,inf,inf,inf,1,1,1,1,2,0,2,2,1,1,0
8975724000,1688000,47.3977508,8.5456074,0.39487144,0.35241574,-7.9397135,-0.022968095,-0.0035443609,0.0,0.0012096004,0.44482648,0.031449724,0.015898945,-0.059729103,-0.009160716,0.12626225,-0.061433088,0.18863012,0.018377787,1.6062249,0.0,7.9748325,-0.031449724,0.41161197,0.23461461,0.17315689,0.10348949,inf,inf,inf,inf,1,1,1,1,2,0,2,2,1,1,0
8975828000,1688000,47.3977508,8.5456074,0.39257112,0.3941783,-7.9385004,-0.022968095,-0.0035443609,0.0,0.0015045953,0.46052578,0.032732982,0.017175924,-0.059729103,-0.009160716,0.12626225,0.0388573,0.17508054,0.06702914,1.6158736,0.0,7.9736195,-0.032732982,0.42409968,0.23481373,0.17836459,0.103867054,inf,inf,inf,inf,1,1,1,1,2,0,2,2,1,1,0
8975924000,1688000,47.3977508,8.5456074,0.39106718,0.43497184,-7.9363523,-0.022968095,-0.0035443609,0.0,0.0018775224,0.474338,0.031774893,0.017009692,-0.059729103,-0.009160716,0.12626225,-0.03144588,0.1853056,0.014256685,1.6222802,0.0,7.9714713,-0.031774893,0.41097322,0.23464783,0.17391314,0.103465326,inf,inf,inf,inf,1,1,1,1,2,0,2,2,1,1,0
8976028000,1688000,47.3977508,8.5456074,0.38884333,0.48038125,-7.935892,-0.022968095,-0.0035443609,0.0,0.00026418606,0.48780495,0.026048435,0.010654747,-0.059729103,-0.009160716,0.12626225,0.008726724,0.17585592,0.0078659495,1.6272355,0.0,7.971011,-0.026048435,0.42345244,0.23484136,0.17919676,0.103842236,inf,inf,inf,inf,1,1,1,1,2,0,2,2,1,1,0
8976124000,1688000,47.3977508,8.5456074,0.38686535,0.5244699,-7.9363275,-0.022968095,-0.0035443609,0.0,0.00049420167,0.50382483,0.026979497,0.010384503,-0.059729103,-0.009160716,0.12626225,0.021411642,0.061499532,-0.07005408,1.6305732,0.0,7.9714465,-0.026979497,0.41041633,0.23468864,0.17477164,0.103448115,inf,inf,inf,inf,1,1,1,1,2,0,2,2,1,1,0
8976228000,1688000,47.3977508,8.5456074,0.38358584,0.573311,-7.9369836,-0.022968095,-0.0035443609,0.0,0.001274527,0.5195907,0.029351242,0.011272748,-0.059729103,-0.009160716,0.12626225,-0.0152889835,0.1842918,-0.011522322,1.6328467,0.0,7.9721026,-0.029351242,0.42290106,0.23489355,0.18013166,0.10383163,inf,inf,inf,inf,1,1,1,1,2,0,2,2,1,1,0
8976324000,1688000,47.3977508,8.5456074,0.3804964,0.6207226,-7.937482,-0.022968095,-0.0035443609,0.0,0.00026502353,0.5343686,0.029662274,0.010283429,-0.059729103,-0.009160716,0.12626225,-0.027143978,0.14883156,0.0041089947,1.6342471,0.0,7.972601,-0.029662274,0.40992066,0.2331438,0.17560545,0.103024326,inf,inf,inf,inf,1,1,1,1,2,0,2,2,1,1,0
8976428000,1688000,47.3977508,8.5456074,0.3749966,0.6739478,-7.938057,-0.022968095,-0.0035443609,0.0,0.00033872708,0.55307347,0.02961252,0.009060078,-0.059729103,-0.009160716,0.12626225,0.105945006,0.1954144,0.00048708168,1.6354496,0.0,7.973176,-0.02961252,0.42244193,0.23496014,0.18103525,0.10382945,inf,inf,inf,inf,1,1,1,1,2,0,2,2,1,1,0
8976524000,1688000,47.3977508,8.5456074,0.37021348,0.7255093,-7.937908,-0.022968095,-0.0035443609,0.0,-0.0017382085,0.5700298,0.033287354,0.012318712,-0.059729103,-0.009160716,0.12626225,0.043477524,0.22453593,0.06750598,1.6361812,0.0,7.973027,-0.033287354,0.40952376,0.23321177,0.17647022,0.10302415,inf,inf,inf,inf,1,1,1,1,2,0,2,2,1,1,0
8976628000,1688000,47.3977508,8.5456074,0.36341342,0.7831151,-7.9368687,-0.022968095,-0.0035443609,0.0,-0.0027124642,0.5882161,0.029104188,0.008364003,-0.059729103,-0.009160716,0.12626225,0.013697222,0.19779369,-0.062492672,1.6362734,0.0,7.9719877,-0.029104188,0.4220711,0.23503166,0.18192339,0.10383133,inf,inf,inf,inf,1,1,1,1,2,0,2,2,1,1,0
8976724000,1688000,47.3977508,8.5456074,0.35742128,0.83875364,-7.936126,-0.022968095,-0.0035443609,0.0,-0.002898845,0.6068603,0.028541623,0.008140643,-0.059729103,-0.009160716,0.12626225,0.03231363,0.23732327,0.0041434537,1.6362067,0.0,7.9712453,-0.028541623,0.40920278,0.2332846,0.1772655,0.103027545,inf,inf,inf,inf,1,1,1,1,2,0,2,2,1,1,0
8976828000,1688000,47.3977508,8.5456074,0.34881657,0.90110034,-7.9357257,-0.022968095,-0.0035443609,0.0,-0.004695127,0.6301844,0.030232318,0.009639389,-0.059729103,-0.009160716,0.12626225,0.026328022,0.32480386,0.02230983,1.6363243,0.0,7.9708447,-0.030232318,0.42178407,0.23509933,0.18275005,0.10383292,inf,inf,inf,inf,1,1,1,1,2,0,2,2,1,1,0
8976924000,1688000,47.3977508,8.5456074,0.34164035,0.96136636,-7.93619,-0.022968095,-0.0035443609,0.0,-0.0027047358,0.6521735,0.028416816,0.0068173595,-0.059729103,-0.009160716,0.12626225,0.13754638,0.28514254,-0.024742445,1.6359352,0.0,7.971309,-0.028416816,0.40895286,0.23334542,0.1780201,0.103027076,inf,inf,inf,inf,1,1,1,1,2,0,2,2,1,1,0
8977028000,1688000,47.3977508,8.5456074,0.3321911,1.0290501,-7.936381,-0.022968095,-0.0035443609,0.0,-0.0033225464,0.6761311,0.02868633,0.0065252427,-0.059729103,-0.009160716,0.12626225,-0.007048656,0.20302376,-0.033692453,1.6358029,0.0,7.9715,-0.02868633,0.42157495,0.23516396,0.18346603,0.10383442,inf,inf,inf,inf,1,1,1,1,2,0,2,2,1,1,0
8977124000,1688000,47.3977508,8.5456074,0.32461125,1.0942669,-7.935892,-0.022968095,-0.0035443609,0.0,-0.0040905075,0.6986846,0.029769888,0.0076870546,-0.059729103,-0.009160716,0.12626225,0.0069137746,0.2828425,-0.008562579,1.6354302,0.0,7.971011,-0.029769888,0.40876955,0.23341183,0.17865603,0.10303031,inf,inf,inf,inf,1,1,1,1,2,0,2,2,1,1,0
