timestamp,roll_body,pitch_body,yaw_body,yaw_sp_move_rate,q_d[0],q_d[1],q_d[2],q_d[3],thrust_body[0],thrust_body[1],thrust_body[2],q_d_valid,roll_reset_integral,pitch_reset_integral,yaw_reset_integral,fw_control_yaw,apply_flaps
8960852000,0.025826631,-0.041577496,0.4073474,0.0,0.9789825,0.016847571,-0.017744567,0.20247078,0.0,0.0,-0.12014386,1,0,0,0,0,0
8960944000,0.014532581,0.043915007,0.40699828,0.0,0.97913575,0.002677493,0.022970255,0.20188719,0.0,0.0,-0.12012849,1,0,0,0,0,0
8961040000,0.021483984,0.06744931,0.40699828,0.0,0.9788252,0.0037001686,0.035190254,0.20161621,0.0,0.0,-0.12068977,1,0,0,0,0,0
8961152000,0.012079039,0.03472143,0.40699828,0.0,0.97922117,0.0024056523,0.0182217,0.20196065,0.0,0.0,-0.21288437,1,0,0,0,0,0
8961244000,0.008625611,0.02337128,0.40699828,0.0,0.9792996,0.0018619486,0.01231569,0.20203246,0.0,0.0,-0.29373878,1,0,0,0,0,0
8961356000,0.0073344572,0.018996414,0.40699828,0.0,0.9793217,0.0016718649,0.010043115,0.20205295,0.0,0.0,-0.37756437,1,0,0,0,0,0
8961448000,0.005206924,0.013563772,0.40699828,0.0,0.9793431,0.0011790921,0.007168011,0.20207486,0.0,0.0,-0.44790277,1,0,0,0,0,0
8961544000,0.005137249,0.011882703,0.40699828,0.0,0.979348,0.0013148534,0.0063378033,0.20207833,0.0,0.0,-0.52275676,1,0,0,0,0,0
8961656000,0.004626877,0.008740853,0.40699828,0.0,0.9793555,0.001382431,0.0047477535,0.20208514,0.0,0.0,-0.6069888,1,0,0,0,0,0
8961748000,0.0035008995,0.0053591104,0.40699828,0.0,0.97936136,0.0011727929,0.0029780164,0.20209189,0.0,0.0,-0.6136431,1,0,0,0,0,0
8961840000,0.0004913945,-0.0046805763,0.40699828,0.0,0.97936255,0.0007135927,-0.0022423405,0.20209752,0.0,0.0,-0.60371643,1,0,0,0,0,0
8961952000,-0.0008517714,-0.010611383,0.40699828,0.0,0.97935206,0.0006551699,-0.0052822544,0.20209242,0.0,0.0,-0.6110843,1,0,0,0,0,0
8962048000,-0.00039745937,-0.0125747835,0.40699828,0.0,0.9793463,0.0010760326,-0.006197775,0.20209229,0.0,0.0,-0.6185194,1,0,0,0,0,0
8962140000,-0.00052988686,-0.012666184,0.40699828,0.0,0.9793461,0.001020422,-0.0062559126,0.20209178,0.0,0.0,-0.61680007,1,0,0,0,0,0
8962252000,0.0006865716,-0.012219391,0.40699828,0.0,0.97934663,0.0015709421,-0.0059142103,0.20209578,0.0,0.0,-0.61886173,1,0,0,0,0,0
8962344000,-0.00025192555,-0.0112917535,0.40699828,0.0,0.97935,0.0010176499,-0.005554803,0.2020936,0.0,0.0,-0.61639786,1,0,0,0,0,0
8962440000,-0.0002756539,-0.011526683,0.40699828,0.0,0.9793494,0.0010297698,-0.00567224,0.2020934,0.0,0.0,-0.62480384,1,0,0,0,0,0
8962552000,0.0027517232,-0.009303223,0.40699828,0.0,0.9793526,0.0022875313,-0.004277552,0.2021014,0.0,0.0,-0.62609315,1,0,0,0,0,0
8962644000,0.0017155663,-0.011520278,0.40699828,0.0,0.9793478,0.0020041717,-0.005467894,0.20209892,0.0,0.0,-0.62634367,1,0,0,0,0,0
8962740000,0.0019832961,-0.011671023,0.40699828,0.0,0.9793471,0.0021505044,-0.005514657,0.20209965,0.0,0.0,-0.6277691,1,0,0,0,0,0
8962852000,0.00307557,-0.010442649,0.40699828,0.0,0.9793493,0.0025612428,-0.0048027765,0.20210238,0.0,0.0,-0.6307822,1,0,0,0,0,0
8962944000,0.0028089148,-0.009610673,0.40699828,0.0,0.9793518,0.0023466023,-0.0044223233,0.20210156,0.0,0.0,-0.62850296,1,0,0,0,0,0
8963040000,0.0025282586,-0.010416479,0.40699828,0.0,0.97935003,0.002290594,-0.004845269,0.20210105,0.0,0.0,-0.63579977,1,0,0,0,0,0
8963152000,0.0021530404,-0.010861805,0.40699828,0.0,0.97934926,0.0021518564,-0.0051012496,0.20210014,0.0,0.0,-0.6381035,1,0,0,0,0,0
8963244000,0.003253514,-0.009927721,0.40699828,0.0,0.97935045,0.002596347,-0.0045326473,0.20210265,0.0,0.0,-0.6369837,1,0,0,0,0,0
8963356000,0.004518787,-0.008729987,0.40699828,0.0,0.9793516,0.0030948976,-0.003818286,0.20210472,0.0,0.0,-0.63891363,1,0,0,0,0,0
8963448000,0.0054660668,-0.008133962,0.40699828,0.0,0.97935134,0.0034985344,-0.0034307013,0.20210598,0.0,0.0,-0.6498167,1,0,0,0,0,0
8963540000,0.0073668105,-0.0076289373,0.40699828,0.0,0.9793488,0.004378252,-0.0029913245,0.20210843,0.0,0.0,-0.5845198,1,0,0,0,0,0
8963652000,0.0069290837,-0.011872747,0.40699828,0.0,0.9793381,0.0045926976,-0.005113648,0.20211287,0.0,0.0,-0.5036116,1,0,0,0,0,0
8963748000,0.0052613514,-0.011036208,0.40699828,0.0,0.9793442,0.003691536,-0.00487255,0.20210795,0.0,0.0,-0.5505538,1,0,0,0,0,0
8963840000,0.005622982,-0.012412374,0.40699828,0.0,0.9793391,0.004007662,-0.005509878,0.2021099,0.0,0.0,-0.5513062,1,0,0,0,0,0
8963952000,0.006633281,-0.012097442,0.40699828,0.0,0.97933805,0.0044705546,-0.005253568,0.20211235,0.0,0.0,-0.54621327,1,0,0,0,0,0
8964044000,0.005983257,-0.01271564,0.40699828,0.0,0.9793374,0.0042147194,-0.0056219716,0.20211114,0.0,0.0,-0.5466913,1,0,0,0,0,0
8964140000,0.0066340766,-0.012409379,0.40699828,0.0,0.97933704,0.0045024613,-0.0054062344,0.20211267,0.0,0.0,-0.5525816,1,0,0,0,0,0
8964252000,0.005584482,-0.012553696,0.40699828,0.0,0.97933877,0.004003089,-0.0055829706,0.20210992,0.0,0.0,-0.5526122,1,0,0,0,0,0
8964344000,0.005280711,-0.012488613,0.40699828,0.0,0.97933954,0.003847766,-0.005581799,0.20210902,0.0,0.0,-0.5518307,1,0,0,0,0,0
8964456000,0.00545462,-0.013127766,0.40699828,0.0,0.97933704,0.0039975015,-0.0058771996,0.20210993,0.0,0.0,-0.55553573,1,0,0,0,0,0
8964548000,0.0053739594,-0.01208681,0.40699828,0.0,0.97934073,0.0038528286,-0.0053756223,0.202109,0.0,0.0,-0.55341697,1,0,0,0,0,0
8964644000,0.0053736637,-0.013172912,0.40699828,0.0,0.97933704,0.0039624223,-0.0059074885,0.20210974,0.0,0.0,-0.5564254,1,0,0,0,0,0
8964736000,0.0060881507,-0.012985764,0.40699828,0.0,0.97933626,0.0042933743,-0.0057436433,0.20211166,0.0,0.0,-0.55729806,1,0,0,0,0,0
8964848000,0.006296378,-0.014544047,0.40699828,0.0,0.97933006,0.0045527783,-0.0064856466,0.2021136,0.0,0.0,-0.55933464,1,0,0,0,0,0
8964940000,0.006509138,-0.014796556,0.40699828,0.0,0.9793286,0.0046824715,-0.0065877917,0.20211451,0.0,0.0,-0.5572641,1,0,0,0,0,0
8965052000,0.005462119,-0.01358234,0.40699828,0.0,0.9793354,0.004047103,-0.006099035,0.20211026,0.0,0.0,-0.5589426,1,0,0,0,0,0
8965148000,0.0050260485,-0.014511986,0.40699828,0.0,0.9793328,0.003927503,-0.0065983217,0.20210941,0.0,0.0,-0.56247145,1,0,0,0,0,0
8965240000,0.0058807395,-0.013518858,0.40699828,0.0,0.9793348,0.0042456733,-0.0060256445,0.20211148,0.0,0.0,-0.55925983,1,0,0,0,0,0
8965352000,0.0063095936,-0.012541096,0.40699828,0.0,0.97933733,0.00435688,-0.0055035236,0.20211187,0.0,0.0,-0.5634473,1,0,0,0,0,0
8965444000,0.0055819605,-0.013684791,0.40699828,0.0,0.97933483,0.0041161366,-0.0061370907,0.20211068,0.0,0.0,-0.5622594,1,0,0,0,0,0
8965540000,0.005116186,-0.014101586,0.40699828,0.0,0.97933424,0.003930174,-0.0063882517,0.20210949,0.0,0.0,-0.5633245,1,0,0,0,0,0
8965652000,0.0054692654,-0.012566708,0.40699828,0.0,0.979339,0.003947985,-0.005600984,0.20210956,0.0,0.0,-0.56389326,1,0,0,0,0,0
8965744000,0.0033938468,-0.01203318,0.40699828,0.0,0.9793442,0.0028778056,-0.0055494583,0.20210354,0.0,0.0,-0.5638853,1,0,0,0,0,0
8965836000,0.0036528045,-0.012019285,0.40699828,0.0,0.9793439,0.0030032063,-0.0055164862,0.20210427,0.0,0.0,-0.562537,1,0,0,0,0,0
8965948000,0.0054030283,-0.01239082,0.40699828,0.0,0.9793396,0.0038977796,-0.0055215512,0.20210928,0.0,0.0,-0.5622212,1,0,0,0,0,0
8966044000,0.004148272,-0.011570469,0.40699828,0.0,0.97934455,0.0032004735,-0.005246644,0.20210545,0.0,0.0,-0.56498253,1,0,0,0,0,0
8966136000,0.0036417518,-0.010609467,0.40699828,0.0,0.97934806,0.0028553428,-0.00482725,0.2021038,0.0,0.0,-0.5635355,1,0,0,0,0,0
8966248000,0.0015473258,-0.01123512,0.40699828,0.0,0.9793488,0.0018929748,-0.0053452603,0.20209849,0.0,0.0,-0.5629965,1,0,0,0,0,0
8966340000,0.0016042328,-0.0104105035,0.40699828,0.0,0.979351,0.0018375176,-0.0049357153,0.20209877,0.0,0.0,-0.5629965,1,0,0,0,0,0
8966452000,0.0023701997,-0.010136604,0.40699828,0.0,0.9793509,0.0021849165,-0.004724192,0.20210066,0.0,0.0,-0.56349605,1,0,0,0,0,0
8966548000,0.0026966003,-0.010802425,0.40699828,0.0,0.9793487,0.002412024,-0.005017246,0.20210147,0.0,0.0,-0.56501627,1,0,0,0,0,0
8966640000,0.00090891554,-0.0102747055,0.40699828,0.0,0.97935194,0.0014833158,-0.0049394793,0.20209709,0.0,0.0,-0.56288254,1,0,0,0,0,0
8966752000,0.0013234013,-0.0097218,0.40699828,0.0,0.979353,0.0016304107,-0.0046268506,0.20209824,0.0,0.0,-0.5642269,1,0,0,0,0,0
8966844000,0.0020408423,-0.009512981,0.40699828,0.0,0.97935283,0.0019606245,-0.0044521,0.20209989,0.0,0.0,-0.5642224,1,0,0,0,0,0
8966940000,0.0010978456,-0.009468111,0.40699828,0.0,0.9793537,0.0014943273,-0.004525418,0.20209777,0.0,0.0,-0.56454974,1,0,0,0,0,0
8967052000,-0.0003175049,-0.009461761,0.40699828,0.0,0.97935456,0.00080062053,-0.0046653263,0.20209453,0.0,0.0,-0.5652654,1,0,0,0,0,0
8967144000,-0.0006495458,-0.010328642,0.40699828,0.0,0.97935265,0.00072562444,-0.005123369,0.20209315,0.0,0.0,-0.5643093,1,0,0,0,0,0
8967256000,-0.00070006924,-0.008750708,0.40699828,0.0,0.9793563,0.0005414366,-0.004355796,0.20209406,0.0,0.0,-0.5640916,1,0,0,0,0,0
8967348000,-0.00016964147,-0.0067370944,0.40699828,0.0,0.97935987,0.0005977037,-0.0033161745,0.2020961,0.0,0.0,-0.56397694,1,0,0,0,0,0
8967444000,0.0006693196,-0.0068613803,0.40699828,0.0,0.9793594,0.0010210848,-0.003292259,0.20209742,0.0,0.0,-0.56483513,1,0,0,0,0,0
8967556000,-0.001518716,-0.0074045584,0.40699828,0.0,0.97935903,4.5356505e-06,-0.0037793377,0.2020933,0.0,0.0,-0.56459147,1,0,0,0,0,0
8967648000,-0.00043077895,-0.007092972,0.40699828,0.0,0.9793594,0.0005057907,-0.0035168275,0.20209548,0.0,0.0,-0.5646572,1,0,0,0,0,0
8967740000,-0.000670273,-0.0070350314,0.40699828,0.0,0.9793595,0.00038266045,-0.0035126559,0.20209508,0.0,0.0,-0.5635557,1,0,0,0,0,0
8967852000,0.0017732721,-0.008499364,0.40699828,0.0,0.97935545,0.0017271797,-0.003982792,0.20209928,0.0,0.0,-0.56417465,1,0,0,0,0,0
8967948000,0.001705988,-0.008462619,0.40699828,0.0,0.9793556,0.0016905197,-0.0039715986,0.20209917,0.0,0.0,-0.56640065,1,0,0,0,0,0
8968040000,0.001809698,-0.0067890086,0.40699828,0.0,0.97935873,0.0015721918,-0.003141586,0.20209926,0.0,0.0,-0.56439584,1,0,0,0,0,0
8968152000,0.0015128535,-0.0055740243,0.40699828,0.0,0.97936094,0.0013040624,-0.0025766275,0.20209873,0.0,0.0,-0.56426907,1,0,0,0,0,0
8968244000,0.0007167343,-0.0064577935,0.40699828,0.0,0.97936,0.0010035214,-0.0030898398,0.20209758,0.0,0.0,-0.5645819,1,0,0,0,0,0
8968340000,0.0013455063,-0.005905569,0.40699828,0.0,0.9793606,0.0012556175,-0.0027558887,0.20209853,0.0,0.0,-0.5645354,1,0,0,0,0,0
8968452000,0.0018367786,-0.0053954446,0.40699828,0.0,0.97936094,0.0014446373,-0.002456448,0.20209913,0.0,0.0,-0.5643126,1,0,0,0,0,0
8968544000,0.001262319,-0.0049069854,0.40699828,0.0,0.97936195,0.001113978,-0.0022753077,0.20209837,0.0,0.0,-0.5647268,1,0,0,0,0,0
8968636000,7.9042846e-05,-0.0048135556,0.40699828,0.0,0.97936255,0.00052510906,-0.0023491255,0.20209703,0.0,0.0,-0.56448954,1,0,0,0,0,0
8968748000,0.001057842,-0.006155643,0.40699828,0.0,0.9793603,0.0011400236,-0.002907414,0.2020981,0.0,0.0,-0.56366974,1,0,0,0,0,0
8968844000,0.0016173354,-0.00511408,0.40699828,0.0,0.9793615,0.0013087492,-0.0023408441,0.2020988,0.0,0.0,-0.5650596,1,0,0,0,0,0
8968956000,3.2268807e-05,-0.005324706,0.40699828,0.0,0.97936195,0.0005538556,-0.0026041525,0.20209685,0.0,0.0,-0.5651316,1,0,0,0,0,0
8969048000,0.001750859,-0.0046059694,0.40699828,0.0,0.979362,0.0013227898,-0.002078539,0.20209885,0.0,0.0,-0.5637877,1,0,0,0,0,0
8969140000,-0.00011676184,-0.004346377,0.40699828,0.0,0.9793631,0.0003820195,-0.0021401427,0.2020969,0.0,0.0,-0.5637975,1,0,0,0,0,0
8969252000,-0.0017401119,-0.0041654482,0.40699828,0.0,0.9793633,-0.0004311879,-0.0022155815,0.20209523,0.0,0.0,-0.5649651,1,0,0,0,0,0
8969348000,0.00086655654,-0.004382749,0.40699828,0.0,0.9793627,0.0008672076,-0.0020585903,0.20209791,0.0,0.0,-0.56440896,1,0,0,0,0,0
8969440000,-0.00020311523,-0.005608726,0.40699828,0.0,0.9793616,0.00046729238,-0.002767017,0.20209643,0.0,0.0,-0.5641421,1,0,0,0,0,0
8969552000,0.0001556292,-0.004969861,0.40713143,0.0,0.9793489,0.0005785673,-0.0024178878,0.20216228,0.0,0.0,-0.5641319,1,0,0,0,0,0
8969644000,0.0009905888,-0.004991569,0.40713143,0.0,0.97934854,0.0009896198,-0.0023441187,0.20216325,0.0,0.0,-0.5641896,1,0,0,0,0,0
8969740000,0.0006452478,-0.0038243833,0.40713143,0.0,0.97935003,0.00070253527,-0.0018074849,0.20216294,0.0,0.0,-0.56639147,1,0,0,0,0,0
8969852000,0.0010500245,-0.004972093,0.40713143,0.0,0.97934854,0.0010167552,-0.0023285737,0.20216332,0.0,0.0,-0.564923,1,0,0,0,0,0
8969944000,-0.00010009558,-0.003913117,0.40713143,0.0,0.97935015,0.0003465286,-0.001926276,0.20216222,0.0,0.0,-0.56376654,1,0,0,0,0,0
8970056000,0.00047338943,-0.0026442928,0.40713143,0.0,0.97935104,0.00049909577,-0.0012469954,0.2021628,0.0,0.0,-0.5649838,1,0,0,0,0,0
8970148000,-0.0013910616,-0.004702299,0.40713143,0.0,0.9793494,-0.00020585339,-0.0024432102,0.20216048,0.0,0.0,-0.5638238,1,0,0,0,0,0
8970244000,-0.0012161527,-0.004671472,0.40713143,0.0,0.9793494,-0.00012332085,-0.0024104354,0.20216073,0.0,0.0,-0.5651278,1,0,0,0,0,0
8970356000,-0.0013293253,-0.0051569357,0.40713143,0.0,0.97934884,-0.00012966713,-0.0026595935,0.20216031,0.0,0.0,-0.56307155,1,0,0,0,0,0
8970448000,-0.00038707533,-0.005199319,0.40713143,0.0,0.9793487,0.00033601272,-0.0025851047,0.20216152,0.0,0.0,-0.563887,1,0,0,0,0,0
8970540000,-0.00081073557,-0.0041340156,0.40713143,0.0,0.97935,2.08747e-05,-0.0021062766,0.20216143,0.0,0.0,-0.5629706,1,0,0,0,0,0
8970652000,-0.00083394937,-0.0048859827,0.40713143,0.0,0.9793492,8.551742e-05,-0.002476842,0.20216109,0.0,0.0,-0.5627478,1,0,0,0,0,0
8970748000,-0.0013540356,-0.0030695507,0.40713143,0.0,0.9793508,-0.00035276372,-0.0016399517,0.20216143,0.0,0.0,-0.56332844,1,0,0,0,0,0
8970840000,-0.0010258452,-0.0028894886,0.40713143,0.0,0.9793509,-0.00021025795,-0.0015186062,0.20216174,0.0,0.0,-0.5640505,1,0,0,0,0,0
8970952000,-0.002002663,-0.003480249,0.40713143,0.0,0.9793503,-0.00062886626,-0.0019066241,0.20216058,0.0,0.0,-0.5629091,1,0,0,0,0,0
8971044000,-0.0020534722,-0.0036163852,0.40713143,0.0,0.9793502,-0.0006399853,-0.0019784223,0.20216042,0.0,0.0,-0.56291014,1,0,0,0,0,0
8971140000,-0.0020774223,-0.004295758,0.40713143,0.0,0.9793496,-0.0005830408,-0.002313515,0.20215994,0.0,0.0,-0.563613,1,0,0,0,0,0
8971252000,-0.0018363785,-0.0035970055,0.40713143,0.0,0.9793503,-0.000535639,-0.0019469886,0.20216066,0.0,0.0,-0.5643037,1,0,0,0,0,0
8971348000,-0.0016315256,-0.004083653,0.40713143,0.0,0.9793499,-0.00038613635,-0.002164581,0.20216058,0.0,0.0,-0.5645983,1,0,0,0,0,0
8971440000,-0.0012296983,-0.004726028,0.40713143,0.0,0.9793493,-0.00012443915,-0.002438519,0.20216067,0.0,0.0,-0.56342024,1,0,0,0,0,0
8971552000,-0.00048708208,-0.0052762106,0.40713143,0.0,0.97934866,0.00029481432,-0.0026328652,0.20216139,0.0,0.0,-0.5643925,1,0,0,0,0,0
8971644000,-0.00082369003,-0.0056762276,0.40713143,0.0,0.9793482,0.00017042032,-0.0028627678,0.20216073,0.0,0.0,-0.56222355,1,0,0,0,0,0
8971740000,-0.0008584113,-0.006005974,0.40713143,0.0,0.9793477,0.00018674937,-0.0030277448,0.2021605,0.0,0.0,-0.5643308,1,0,0,0,0,0
8971852000,-0.0013734213,-0.005733641,0.40713143,0.0,0.9793481,-9.296534e-05,-0.0029464485,0.2021599,0.0,0.0,-0.56360716,1,0,0,0,0,0
8971944000,-0.0027546466,-0.0064187,0.40713143,0.0,0.9793469,-0.0007000678,-0.0034215169,0.20215714,0.0,0.0,-0.56350535,1,0,0,0,0,0
8972056000,-0.0012616063,-0.006320434,0.40713143,0.0,0.9793473,2.110165e-05,-0.0032224832,0.20215969,0.0,0.0,-0.5644975,1,0,0,0,0,0
8972148000,-0.002720923,-0.0058894977,0.40713143,0.0,0.97934765,-0.00073704735,-0.0031589717,0.20215774,0.0,0.0,-0.563377,1,0,0,0,0,0
8972244000,-0.0027444689,-0.005676911,0.40713143,0.0,0.9793479,-0.00077006605,-0.003057254,0.20215787,0.0,0.0,-0.5637947,1,0,0,0,0,0
8972336000,-0.0042219125,-0.005886625,0.40713143,0.0,0.9793468,-0.0014723327,-0.0033092825,0.2021553,0.0,0.0,-0.5657335,1,0,0,0,0,0
8972448000,-0.0045323493,-0.006263326,0.40713143,0.0,0.9793461,-0.0015862669,-0.0035251202,0.20215423,0.0,0.0,-0.56344765,1,0,0,0,0,0
8972540000,-0.0037324927,-0.005706132,0.40713143,0.0,0.9793474,-0.0012509216,-0.0031714307,0.2021563,0.0,0.0,-0.56359106,1,0,0,0,0,0
8972652000,-0.004752011,-0.0043942947,0.40713143,0.0,0.9793479,-0.0018827585,-0.002632111,0.20215653,0.0,0.0,-0.5644922,1,0,0,0,0,0
8972748000,-0.0046199,-0.004727538,0.40713143,0.0,0.9793477,-0.0017843815,-0.0027819374,0.20215625,0.0,0.0,-0.5641582,1,0,0,0,0,0
8972840000,-0.0029916756,-0.0052224435,0.40713143,0.0,0.9793483,-0.0009370557,-0.002859701,0.20215796,0.0,0.0,-0.56418854,1,0,0,0,0,0
8972952000,-0.0030295285,-0.0040992564,0.40713143,0.0,0.9793494,-0.0010691261,-0.0023135315,0.20215902,0.0,0.0,-0.5633388,1,0,0,0,0,0
8973044000,-0.0029968636,-0.004675482,0.40713143,0.0,0.9793489,-0.0009948844,-0.0025923923,0.2021585,0.0,0.0,-0.5636676,1,0,0,0,0,0
8973156000,-0.0011908083,-0.0046989066,0.40713143,0.0,0.9793494,-0.000108137276,-0.0024213071,0.20216075,0.0,0.0,-0.56239545,1,0,0,0,0,0
8973252000,0.0002794392,-0.0033449526,0.40713143,0.0,0.97935057,0.0004749466,-0.001609696,0.20216262,0.0,0.0,-0.5636131,1,0,0,0,0,0
8973344000,0.00031564102,-0.0042487397,0.40713143,0.0,0.9793497,0.0005840295,-0.0020485988,0.20216258,0.0,0.0,-0.56302065,1,0,0,0,0,0
8973436000,-0.0015839939,-0.0046714875,0.40713143,0.0,0.9793494,-0.0003034418,-0.0024476242,0.20216027,0.0,0.0,-0.56283385,1,0,0,0,0,0
8973548000,-0.00086365564,-0.0048972485,0.40713143,0.0,0.9793492,7.21098e-05,-0.0024853614,0.20216103,0.0,0.0,-0.56330884,1,0,0,0,0,0
8973644000,-0.0010789402,-0.002939179,0.40713143,0.0,0.9793509,-0.00023123452,-0.0015483052,0.20216167,0.0,0.0,-0.5630883,1,0,0,0,0,0
8973756000,-0.0011880716,-0.0026998806,0.40713143,0.0,0.97935104,-0.0003088621,-0.0014421579,0.2021617,0.0,0.0,-0.5637356,1,0,0,0,0,0
8973848000,-0.0019770605,-0.0034061575,0.40713143,0.0,0.9793504,-0.0006238188,-0.0018677557,0.20216066,0.0,0.0,-0.56245047,1,0,0,0,0,0
8973940000,-0.0017738173,-0.0034056546,0.40713143,0.0,0.97935045,-0.0005243465,-0.0018469653,0.20216084,0.0,0.0,-0.5639574,1,0,0,0,0,0
8974052000,1.9286577e-05,-0.0023016003,0.40713143,0.0,0.97935134,0.00024209294,-0.0011250885,0.20216258,0.0,0.0,-0.56366116,1,0,0,0,0,0
8974148000,-0.0009449586,-0.0025239103,0.40713143,0.0,0.9793512,-0.00020760304,-0.0013314153,0.20216194,0.0,0.0,-0.56354326,1,0,0,0,0,0
8974240000,0.00072007964,-0.0024901605,0.40713143,0.0,0.97935104,0.00060431403,-0.0011465847,0.20216297,0.0,0.0,-0.5647836,1,0,0,0,0,0
8974352000,0.0013324957,-0.0031679121,0.40713143,0.0,0.9793503,0.0009727067,-0.001416559,0.20216344,0.0,0.0,-0.5641956,1,0,0,0,0,0
8974444000,0.0011625694,-0.18247199,1.6269187,0.0,0.6840929,0.066604,-0.06217053,0.7236821,0.0,0.0,-0.54173493,1,0,0,0,0,0
8974540000,0.0114218565,-0.18868226,1.6269369,0.0,0.68352515,0.07235835,-0.060582012,0.7238008,0.0,0.0,-0.46514204,1,0,0,0,0,0
8974652000,0.024462137,-0.12611265,1.6270374,0.0,0.684969,0.054174982,-0.034413792,0.72573984,0.0,0.0,-0.46149164,1,0,0,0,0,0
8974744000,0.017209657,-0.06631466,1.6271564,0.0,0.6862921,0.029999126,-0.01652079,0.7265192,0.0,0.0,-0.5971674,1,0,0,0,0,0
8974856000,0.009917245,-0.050874017,1.6272697,0.0,0.6865389,0.021889877,-0.013866906,0.7266313,0.0,0.0,-0.56903374,1,0,0,0,0,0
8974948000,0.0076302467,-0.06401455,1.6273403,0.0,0.68639004,0.025878169,-0.019208364,0.72651917,0.0,0.0,-0.5628407,1,0,0,0,0,0
8975044000,0.007662186,-0.072412856,1.6273923,0.0,0.6862607,0.028939525,-0.022078836,0.7264443,0.0,0.0,-0.5724958,1,0,0,0,0,0
8975156000,0.009469197,-0.07859736,1.6274599,0.0,0.6861189,0.031805884,-0.02354408,0.72641236,0.0,0.0,-0.5687767,1,0,0,0,0,0
8975248000,0.009065298,-0.07884326,1.6275294,0.0,0.6860964,0.031757433,-0.023774067,0.72642833,0.0,0.0,-0.5684828,1,0,0,0,0,0
8975340000,0.010096433,-0.08033189,1.6276015,0.0,0.6860306,0.032652512,-0.023909234,0.7264463,0.0,0.0,-0.5691386,1,0,0,0,0,0
8975452000,0.008313106,-0.08176092,1.627679,0.0,0.6860093,0.03256063,-0.025046075,0.72643226,0.0,0.0,-0.5678613,1,0,0,0,0,0
8975548000,0.009908264,-0.08260959,1.62773,0.0,0.6859511,0.03341653,-0.024757033,0.7264582,0.0,0.0,-0.56926423,1,0,0,0,0,0
8975640000,0.008241044,-0.08544732,1.6277838,0.0,0.685914,0.033875767,-0.026335334,0.7264165,0.0,0.0,-0.56944007,1,0,0,0,0,0
8975752000,0.008088065,-0.08846592,1.6278185,0.0,0.68585455,0.034919757,-0.027425893,0.72638285,0.0,0.0,-0.56832916,1,0,0,0,0,0
8975844000,0.010155402,-0.09089639,1.627829,0.0,0.68577236,0.036511187,-0.027508657,0.7263791,0.0,0.0,-0.57147753,1,0,0,0,0,0
8975940000,0.010439026,-0.09389487,1.6278489,0.0,0.68570673,0.03769721,-0.028433887,0.72634476,0.0,0.0,-0.57181764,1,0,0,0,0,0
8976052000,0.010013237,-0.09848747,1.6278645,0.0,0.6856249,0.039218515,-0.03016353,0.7262718,0.0,0.0,-0.5695837,1,0,0,0,0,0
8976144000,0.0108364355,-0.10138901,1.6278701,0.0,0.6855512,0.040553898,-0.030859672,0.72623867,0.0,0.0,-0.5700854,1,0,0,0,0,0
8976256000,0.011422742,-0.10487891,1.6278645,0.0,0.68547237,0.04202129,-0.031843808,0.7261872,0.0,0.0,-0.57179666,1,0,0,0,0,0
8976348000,0.011737699,-0.108028024,1.6278276,0.0,0.68541485,0.043271344,-0.032810215,0.726125,0.0,0.0,-0.5705849,1,0,0,0,0,0
8976444000,0.012922577,-0.111806445,1.6277727,0.0,0.68532896,0.045047328,-0.033677008,0.7260584,0.0,0.0,-0.5708838,1,0,0,0,0,0
8976536000,0.011789865,-0.11509942,1.6277095,0.0,0.68530613,0.045852683,-0.03521883,0.72595644,0.0,0.0,-0.5739461,1,0,0,0,0,0
8976648000,0.011492251,-0.119362846,1.6276032,0.0,0.6852569,0.04729519,-0.0367912,0.7258323,0.0,0.0,-0.57238054,1,0,0,0,0,0
8976740000,0.011885926,-0.12322599,1.6274987,0.0,0.68519676,0.048829075,-0.03797541,0.72572654,0.0,0.0,-0.5740877,1,0,0,0,0,0
8976852000,0.0129214255,-0.12652531,1.6273506,0.0,0.6851467,0.050377227,-0.038734592,0.72562784,0.0,0.0,-0.5744039,1,0,0,0,0,0
8976948000,0.012417047,-0.13191251,1.6272278,0.0,0.68507236,0.052154828,-0.040767737,0.72546107,0.0,0.0,-0.5737815,1,0,0,0,0,0
8977040000,0.012624087,-0.13539684,1.6270798,0.0,0.6850327,0.053485446,-0.041891076,0.7253376,0.0,0.0,-0.5742625,1,0,0,0,0,0
8977152000,0.012090307,-0.14038052,1.6269233,0.0,0.6849749,0.05510502,-0.043797348,0.72515833,0.0,0.0,-0.5751581,1,0,0,0,0,0
8977244000,0.011533778,-0.1460495,1.6267899,0.0,0.6848874,0.05696497,-0.045946013,0.72496426,0.0,0.0,-0.57459,1,0,0,0,0,0
8977340000,0.010461937,-0.15180261,1.6266706,0.0,0.6848031,0.05867862,-0.048309643,0.7247536,0.0,0.0,-0.5761613,1,0,0,0,0,0
8977452000,0.009444392,-0.15657593,1.6264768,0.0,0.6847687,0.060053665,-0.05031975,0.72453666,0.0,0.0,-0.57768923,1,0,0,0,0,0
8977544000,0.010319645,-0.15869518,1.6263205,0.0,0.6847376,0.0611165,-0.05073361,0.72444826,0.0,0.0,-0.5783133,1,0,0,0,0,0
8977636000,0.009769368,-0.16161859,1.6261516,0.0,0.68473005,0.061981786,-0.051939845,0.72429645,0.0,0.0,-0.5796862,1,0,0,0,0,0
8977748000,0.008789596,-0.16862881,1.6259625,0.0,0.684619,0.06417772,-0.05470237,0.7240067,0.0,0.0,-0.57920086,1,0,0,0,0,0
8977844000,0.007890828,-0.17499562,1.6258144,0.0,0.6845045,0.06616877,-0.05721339,0.7237417,0.0,0.0,-0.57993245,1,0,0,0,0,0
8977936000,0.007655503,-0.18008552,1.62567,0.0,0.68440247,0.06792445,-0.059046548,0.7235282,0.0,0.0,-0.58062166,1,0,0,0,0,0
8978048000,0.006976312,-0.18613936,1.625481,0.0,0.6842959,0.0698746,-0.06137166,0.7232498,0.0,0.0,-0.5822799,1,0,0,0,0,0
8978140000,0.0056350827,-0.18021752,1.6253415,0.0,0.6845853,0.06727093,-0.059833683,0.72335166,0.0,0.0,-0.58165485,1,0,0,0,0,0
8978252000,0.005913786,-0.14939007,1.6251746,0.0,0.6855416,0.056210622,-0.04917307,0.72419274,0.0,0.0,-0.58018446,1,0,0,0,0,0
8978348000,0.005080606,-0.13259453,1.6250422,0.0,0.68603516,0.04984099,-0.04371685,0.7245416,0.0,0.0,-0.5833678,1,0,0,0,0,0
8978440000,0.004646996,-0.12145216,1.6248865,0.0,0.6863549,0.045653064,-0.040053494,0.72472656,0.0,0.0,-0.5800118,1,0,0,0,0,0
8978552000,0.0049583875,-0.11504032,1.6247311,0.0,0.6865401,0.04343399,-0.037742756,0.7248115,0.0,0.0,-0.5807087,1,0,0,0,0,0
8978644000,0.0027286215,-0.11032215,1.6246046,0.0,0.6867277,0.04095656,-0.036933307,0.72481966,0.0,0.0,-0.5793308,1,0,0,0,0,0
8978740000,0.0017664233,-0.10334408,1.6245058,0.0,0.6869135,0.038095586,-0.034887344,0.724901,0.0,0.0,-0.57852215,1,0,0,0,0,0
8978852000,0.0011232224,-0.09892128,1.6243448,0.0,0.68706185,0.036268935,-0.03360414,0.7249148,0.0,0.0,-0.5758986,1,0,0,0,0,0
8978944000,0.001576186,-0.09443986,1.6243286,0.0,0.6871352,0.03479997,-0.031900544,0.7249942,0.0,0.0,-0.5767974,1,0,0,0,0,0
8979036000,0.0033538917,-0.09050053,1.6242936,0.0,0.6871818,0.033982296,-0.029903067,0.72507393,0.0,0.0,-0.57618237,1,0,0,0,0,0
8979148000,0.0011206755,-0.087016426,1.6242338,0.0,0.6872948,0.031951036,-0.029516345,0.72507507,0.0,0.0,-0.5748937,1,0,0,0,0,0
8979244000,-0.0014036165,-0.083299555,1.6241727,0.0,0.68741024,0.029735088,-0.029155044,0.7250745,0.0,0.0,-0.57453847,1,0,0,0,0,0
8979356000,-0.0021348528,-0.078903705,1.6240803,0.0,0.6875141,0.027888628,-0.027910605,0.7250984,0.0,0.0,-0.57418054,1,0,0,0,0,0
8979448000,-0.0058834236,-0.07594428,1.6239998,0.0,0.6876306,0.025525725,-0.028253442,0.7250616,0.0,0.0,-0.57440484,1,0,0,0,0,0
8979540000,-0.007896594,-0.07460187,1.6239204,0.0,0.6877002,0.024345625,-0.028522804,0.72502565,0.0,0.0,-0.57241595,1,0,0,0,0,0
8979652000,-0.010348147,-0.07026005,1.6238474,0.0,0.68780196,0.021927102,-0.027919848,0.7250298,0.0,0.0,-0.5736967,1,0,0,0,0,0
8979748000,-0.013065794,-0.06702354,1.6238221,0.0,0.6878708,0.01981837,-0.027792674,0.7250301,0.0,0.0,-0.572718,1,0,0,0,0,0
8979840000,-0.017338566,-0.062567644,1.6238023,0.0,0.6879544,0.016732367,-0.027809957,0.72502786,0.0,0.0,-0.574732,1,0,0,0,0,0
8979952000,-0.022637859,-0.059547044,1.6237832,0.0,0.68802255,0.013813553,-0.028692717,0.7249902,0.0,0.0,-0.57221156,1,0,0,0,0,0
8980044000,-0.030061413,-0.053346977,1.6237798,0.0,0.68809676,0.009010522,-0.029252362,0.7249731,0.0,0.0,-0.57215154,1,0,0,0,0,0
8980140000,-0.0395169,-0.045253865,1.6237992,0.0,0.68813527,0.0028215516,-0.029897746,0.7249607,0.0,0.0,-0.57364506,1,0,0,0,0,0
8980252000,-0.0575546,-0.029027734,1.6238844,0.0,0.6880361,-0.0092696715,-0.030858817,0.72496086,0.0,0.0,-0.57148445,1,0,0,0,0,0
8980344000,-0.07642026,-0.0047165896,1.6240172,0.0,0.6876035,-0.02457362,-0.02934257,0.725077,0.0,0.0,-0.5713738,1,0,0,0,0,0
8980456000,-0.09486986,0.058949213,1.6242743,0.0,0.6858625,-0.05397072,-0.01414719,0.7255892,0.0,0.0,-0.56742877,1,0,0,0,0,0
8980548000,-0.25142202,0.08374396,1.6246426,0.033333335,0.67797977,-0.11630841,-0.062367328,0.7231363,0.0,0.0,-0.5622061,1,0,0,0,0,0
8980644000,-0.22435911,0.06138485,1.6251104,0.033333335,0.68050724,-0.0990824,-0.06026904,0.72350544,0.0,0.0,-0.55512756,1,0,0,0,0,0
8980756000,-0.15270816,0.029774945,1.6261101,0.033333335,0.6843793,-0.06320224,-0.045201126,0.724974,0.0,0.0,-0.5755967,1,0,0,0,0,0
8980848000,-0.116063684,0.013960365,1.6274018,0.033333335,0.68534607,-0.04489855,-0.03736884,0.7258708,0.0,0.0,-0.5767597,1,0,0,0,0,0
8980940000,-0.10544915,0.009914253,1.6289928,0.033333335,0.68508273,-0.039764922,-0.034935556,0.7265397,0.0,0.0,-0.57446057,1,0,0,0,0,0
8981052000,-0.10625351,0.008705872,1.6309985,0.033333335,0.684363,-0.039565936,-0.03568159,0.7271923,0.0,0.0,-0.5745953,1,0,0,0,0,0
8981148000,-0.10804434,0.00970705,1.632633,0.033333335,0.6837116,-0.040513124,-0.03602309,0.7277358,0.0,0.0,-0.5744871,1,0,0,0,0,0
8981240000,-0.11012509,0.008225948,1.6344917,0.033333335,0.68302447,-0.04065111,-0.037324555,0.7283076,0.0,0.0,-0.5738751,1,0,0,0,0,0
8981352000,-0.109210804,0.0067297104,1.6367154,0.033333335,0.6822645,-0.03975249,-0.037547063,0.7290577,0.0,0.0,-0.57567936,1,0,0,0,0,0
8981444000,-0.10673053,0.0041478793,1.6386755,0.033333335,0.6816511,-0.037928637,-0.037561208,0.7297276,0.0,0.0,-0.5752759,1,0,0,0,0,0
8981540000,-0.10781248,0.0036269894,1.640512,0.033333335,0.6809707,-0.038072344,-0.038168516,0.7303236,0.0,0.0,-0.5742922,1,0,0,0,0,0
8981652000,-0.10792755,0.0020736728,1.6429071,0.033333335,0.6801248,-0.03749799,-0.038784444,0.7311087,0.0,0.0,-0.5770941,1,0,0,0,0,0
8981744000,-0.10779508,0.0009472858,1.644991,0.033333335,0.6793877,-0.037000433,-0.039157674,0.7317991,0.0,0.0,-0.5747307,1,0,0,0,0,0
8981856000,-0.108610295,0.0010043281,1.6474795,0.033333335,0.67846036,-0.03724913,-0.039482962,0.73262894,0.0,0.0,-0.57505256,1,0,0,0,0,0
8981948000,-0.108864985,-0.00016789345,1.6496553,0.033333335,0.6776817,-0.036862638,-0.040014055,0.73333997,0.0,0.0,-0.5766287,1,0,0,0,0,0
8982044000,-0.110369235,-0.0018173638,1.6516474,0.033333335,0.6769562,-0.036726538,-0.04116107,0.7339532,0.0,0.0,-0.57528424,1,0,0,0,0,0
8982156000,-0.1100028,-0.0034665645,1.6541828,0.033333335,0.6760646,-0.03594447,-0.041630343,0.7347867,0.0,0.0,-0.57513744,1,0,0,0,0,0
8982248000,-0.11021984,-0.004124217,1.6563772,0.033333335,0.675267,-0.035730153,-0.04197157,0.7355109,0.0,0.0,-0.5759456,1,0,0,0,0,0
8982340000,-0.1103983,-0.0028578385,1.6585907,0.033333335,0.67442435,-0.036210135,-0.041649826,0.7362784,0.0,0.0,-0.5750899,1,0,0,0,0,0
8982452000,-0.11097571,-0.003475856,1.6612059,0.033333335,0.67346287,-0.03612225,-0.042118024,0.73713565,0.0,0.0,-0.5758603,1,0,0,0,0,0
8982548000,-0.11151881,-0.0035755164,1.6632887,0.033333335,0.672687,-0.03622427,-0.042389493,0.7378232,0.0,0.0,-0.57576853,1,0,0,0,0,0
8982640000,-0.11111644,-0.0029468427,1.6655781,0.033333335,0.6718367,-0.03627276,-0.042071186,0.7386134,0.0,0.0,-0.576033,1,0,0,0,0,0
8982752000,-0.11067514,-0.0032543617,1.6682692,0.033333335,0.67085636,-0.03595438,-0.042059917,0.7395201,0.0,0.0,-0.576567,1,0,0,0,0,0
8982844000,-0.11219709,-0.004001685,1.670596,0.033333335,0.6699831,-0.0361386,-0.042915344,0.74025327,0.0,0.0,-0.5757876,1,0,0,0,0,0
8982940000,-0.11155962,-0.0056628687,1.6727407,0.033333335,0.6692334,-0.035263672,-0.043273576,0.7409525,0.0,0.0,-0.5757422,1,0,0,0,0,0
8983052000,-0.1132761,-0.0064195907,1.6755003,0.033333335,0.66819507,-0.035496633,-0.0442116,0.7418225,0.0,0.0,-0.57716095,1,0,0,0,0,0
8983144000,-0.11428737,-0.007189157,1.6778784,0.033333335,0.66731,-0.035495616,-0.044885922,0.7425784,0.0,0.0,-0.5765557,1,0,0,0,0,0
8983256000,-0.11383436,-0.0031637687,1.6806417,0.033333335,0.66620964,-0.036779586,-0.043425996,0.74359,0.0,0.0,-0.57605207,1,0,0,0,0,0
8983348000,-0.11418699,-0.0034847548,1.6830121,0.033333335,0.66532797,-0.03672591,-0.043707553,0.7443652,0.0,0.0,-0.5757642,1,0,0,0,0,0
8983444000,-0.11418866,-0.0045496016,1.685204,0.033333335,0.66453373,-0.036281757,-0.044102114,0.74507284,0.0,0.0,-0.57477343,1,0,0,0,0,0
8983556000,-0.11469654,-0.0039211204,1.6880196,0.033333335,0.6634619,-0.0366226,-0.044134166,0.74600893,0.0,0.0,-0.57546616,1,0,0,0,0,0
8983648000,-0.11602269,-0.0045543667,1.690448,0.033333335,0.66254455,-0.036771797,-0.044883497,0.74677175,0.0,0.0,-0.5757096,1,0,0,0,0,0
8983740000,-0.115263306,-0.0057201227,1.6928881,0.033333335,0.661671,-0.036029924,-0.045030013,0.7475732,0.0,0.0,-0.5764018,1,0,0,0,0,0
8983852000,-0.11662008,-0.004461099,1.6957513,0.033333335,0.66054904,-0.036884874,-0.04517363,0.7485144,0.0,0.0,-0.57703125,1,0,0,0,0,0
8983948000,-0.11644523,-0.0053098965,1.6980146,0.033333335,0.6597227,-0.036457993,-0.045429725,0.74924827,0.0,0.0,-0.5764075,1,0,0,0,0,0
8984040000,-0.115141705,-0.0055212486,1.7005113,0.033333335,0.6588148,-0.035892583,-0.04505593,0.7500965,0.0,0.0,-0.5755502,1,0,0,0,0,0
8984152000,-0.11549108,-0.0043623853,1.7033906,0.033333335,0.65770376,-0.036377866,-0.044857774,0.7510594,0.0,0.0,-0.5762803,1,0,0,0,0,0
8984244000,-0.116764806,-0.0054374826,1.7058246,0.033333335,0.6567887,-0.036337283,-0.045733765,0.7518089,0.0,0.0,-0.57694733,1,0,0,0,0,0
8984340000,-0.11746368,-0.0057437555,1.7080598,0.033333335,0.65594184,-0.036400087,-0.04613772,0.7525202,0.0,0.0,-0.5754408,1,0,0,0,0,0
8984452000,-0.1166653,-0.005280859,1.7109036,0.033333335,0.6548759,-0.036247466,-0.045737147,0.75347984,0.0,0.0,-0.5780448,1,0,0,0,0,0
8984544000,-0.11704744,-0.006038374,1.7133375,0.033333335,0.65396756,-0.036030963,-0.046172928,0.7542522,0.0,0.0,-0.5770742,1,0,0,0,0,0
8984636000,-0.11765159,-0.005801043,1.7157519,0.033333335,0.65304065,-0.03626209,-0.04636701,0.7550319,0.0,0.0,-0.5762406,1,0,0,0,0,0
8984748000,-0.119708315,-0.006713122,1.7185843,0.033333335,0.65195286,-0.03652201,-0.04749288,0.7558889,0.0,0.0,-0.5773457,1,0,0,0,0,0
8984844000,-0.11963724,-0.0065983906,1.7208064,0.033333335,0.6511115,-0.036489498,-0.047469202,0.75661683,0.0,0.0,-0.577245,1,0,0,0,0,0
8984936000,-0.119287804,-0.0060798093,1.72325,0.033333335,0.65018165,-0.036514327,-0.047212895,0.7574309,0.0,0.0,-0.57841015,1,0,0,0,0,0
8985048000,-0.120773025,-0.0058395187,1.7260981,0.033333335,0.6490699,-0.037020214,-0.047750052,0.7583255,0.0,0.0,-0.5763009,1,0,0,0,0,0
8985140000,-0.12180186,-0.0055334275,1.728573,0.033333335,0.6481051,-0.037410714,-0.04808718,0.75910985,0.0,0.0,-0.5776397,1,0,0,0,0,0
8985252000,-0.12106688,-0.0053582,1.7314894,0.033333335,0.6470072,-0.037169397,-0.0478057,0.7600754,0.0,0.0,-0.5770487,1,0,0,0,0,0
8985348000,-0.12188535,-0.0069792443,1.7337977,0.033333335,0.64615035,-0.036761787,-0.048683386,0.7607682,0.0,0.0,-0.57813853,1,0,0,0,0,0
8985440000,-0.12238676,-0.005793537,1.736328,0.033333335,0.64515173,-0.037313573,-0.048538484,0.76159763,0.0,0.0,-0.57704175,1,0,0,0,0,0
8985552000,-0.12274067,-0.0060292617,1.7392907,0.033333335,0.64402145,-0.03726569,-0.048804514,0.762539,0.0,0.0,-0.57684875,1,0,0,0,0,0
8985644000,-0.1241505,-0.00532648,1.7418354,0.033333335,0.64300835,-0.037925158,-0.04916412,0.76333797,0.0,0.0,-0.5768123,1,0,0,0,0,0
8985740000,-0.123076335,-0.0047090296,1.7441851,0.033333335,0.64211726,-0.03775846,-0.048600085,0.76413196,0.0,0.0,-0.57659805,1,0,0,0,0,0
8985852000,-0.12388947,-0.004034047,1.7472031,0.033333335,0.6409325,-0.038203947,-0.048751827,0.76509434,0.0,0.0,-0.5767965,1,0,0,0,0,0
8985944000,-0.12417874,-0.0048085395,1.7498009,0.033333335,0.6399506,-0.03793648,-0.049159914,0.765903,0.0,0.0,-0.57717353,1,0,0,0,0,0
8986036000,-0.12537651,-0.0053828894,1.752407,0.033333335,0.6389426,-0.038034804,-0.04985191,0.7666945,0.0,0.0,-0.5778127,1,0,0,0,0,0
8986148000,-0.12524289,-0.0043311664,1.7554679,0.033333335,0.6377465,-0.03831965,-0.049523517,0.76769674,0.0,0.0,-0.57614094,1,0,0,0,0,0
8986244000,-0.12470415,-0.0032902346,1.7578954,0.033333335,0.6368002,-0.038488038,-0.049031656,0.76850504,0.0,0.0,-0.5774492,1,0,0,0,0,0
8986336000,-0.12532064,-0.004080602,1.7605562,0.033333335,0.635784,-0.038314655,-0.049571138,0.7693201,0.0,0.0,-0.5776751,1,0,0,0,0,0
8986448000,-0.12536176,-0.0042815288,1.7636857,0.033333335,0.6345833,-0.038172685,-0.049710594,0.7703089,0.0,0.0,-0.5774693,1,0,0,0,0,0
8986540000,-0.12296696,-0.0034250047,1.7663887,0.033333335,0.63356704,-0.037677187,-0.048567444,0.77124214,0.0,0.0,-0.5792141,1,0,0,0,0,0
8986652000,-0.12509765,-0.003359243,1.7695746,0.033333335,0.63229567,-0.038298804,-0.0494293,0.7721995,0.0,0.0,-0.5786276,1,0,0,0,0,0
8986748000,-0.12655531,-0.003121548,1.7720802,0.033333335,0.6312941,-0.03878885,-0.049965605,0.77295965,0.0,0.0,-0.57890487,1,0,0,0,0,0
8986840000,-0.12584804,-0.0021302411,1.7748206,0.033333335,0.6302242,-0.03888109,-0.04943274,0.77386177,0.0,0.0,-0.5768775,1,0,0,0,0,0
8986952000,-0.12614438,-0.0028666584,1.778031,0.033333335,0.6289932,-0.038609542,-0.04984145,0.7748501,0.0,0.0,-0.5775322,1,0,0,0,0,0
8987044000,-0.12529,-0.0043583633,1.7807921,0.033333335,0.62797475,-0.037693772,-0.05003156,0.7757085,0.0,0.0,-0.57865113,1,0,0,0,0,0
8987140000,-0.126164,-0.004962328,1.7833354,0.033333335,0.62698567,-0.03766957,-0.05060805,0.77647203,0.0,0.0,-0.5773568,1,0,0,0,0,0
8987252000,-0.12535048,-0.002314233,1.7866033,0.033333335,0.6256683,-0.038361993,-0.049525045,0.7775698,0.0,0.0,-0.57681537,1,0,0,0,0,0
8987344000,-0.1255246,-0.0023952478,1.789403,0.033333335,0.62457776,-0.038315475,-0.04967176,0.778439,0.0,0.0,-0.5773979,1,0,0,0,0,0
8987456000,-0.12515104,-0.0027355747,1.7926754,0.033333335,0.62331855,-0.037985075,-0.04969485,0.7794623,0.0,0.0,-0.5780668,1,0,0,0,0,0
8987548000,-0.12684895,-0.0034067342,1.7954876,0.033333335,0.62220585,-0.038181487,-0.050619405,0.7802818,0.0,0.0,-0.57729405,1,0,0,0,0,0
8987644000,-0.1277406,-0.0032685525,1.7980648,0.033333335,0.6211794,-0.038447153,-0.05097388,0.78106314,0.0,0.0,-0.57714695,1,0,0,0,0,0
8987756000,-0.12656027,-0.0028282015,1.801338,0.033333335,0.61991215,-0.03817006,-0.050438713,0.78211755,0.0,0.0,-0.5781639,1,0,0,0,0,0
8987848000,-0.12636685,-0.004002271,1.8041524,0.033333335,0.6188431,-0.03757948,-0.050779823,0.7829703,0.0,0.0,-0.57842475,1,0,0,0,0,0
8987940000,-0.12718096,-0.0045458693,1.8069745,0.033333335,0.6177355,-0.03754615,-0.0513197,0.7838109,0.0,0.0,-0.5777923,1,0,0,0,0,0
8988052000,-0.12869869,-0.0053094127,1.8102858,0.033333335,0.61642706,-0.03762924,-0.052212607,0.7847775,0.0,0.0,-0.5763117,1,0,0,0,0,0
8988148000,-0.12764637,-0.0073590023,1.8128818,0.033333335,0.6154771,-0.036432303,-0.052478444,0.78556144,0.0,0.0,-0.57701397,1,0,0,0,0,0
8988240000,-0.12809499,-0.0073156767,1.8157198,0.033333335,0.6143525,-0.036512643,-0.052693184,0.786423,0.0,0.0,-0.57652956,1,0,0,0,0,0
8988352000,-0.12870193,-0.0082453005,1.819034,0.033333335,0.61305994,-0.03624518,-0.05327735,0.78740424,0.0,0.0,-0.5772893,1,0,0,0,0,0
8988444000,-0.1260772,-0.0077283033,1.821893,0.033333335,0.6119684,-0.035569742,-0.052136462,0.78835994,0.0,0.0,-0.57797265,1,0,0,0,0,0
8988540000,-0.12871538,-0.008810054,1.8245211,0.033333335,0.6109107,-0.03588007,-0.05355429,0.7890707,0.0,0.0,-0.57742107,1,0,0,0,0,0
8988652000,-0.13032776,-0.009924693,1.8278791,0.033333335,0.60958314,-0.035841018,-0.054590855,0.79002756,0.0,0.0,-0.57621217,1,0,0,0,0,0
8988744000,-0.12789276,-0.0102705145,1.8307514,0.033333335,0.60849917,-0.03488494,-0.053784437,0.79096085,0.0,0.0,-0.5793584,1,0,0,0,0,0
8988836000,-0.12758903,-0.010817938,1.8336406,0.033333335,0.6073742,-0.034498118,-0.05388061,0.7918354,0.0,0.0,-0.5779542,1,0,0,0,0,0
8988948000,-0.13037956,-0.011940852,1.8369542,0.033333335,0.60603994,-0.034809034,-0.055383805,0.79273987,0.0,0.0,-0.5778466,1,0,0,0,0,0
8989044000,-0.13042088,-0.0116658015,1.8395269,0.033333335,0.60501236,-0.034859452,-0.0553618,0.7935237,0.0,0.0,-0.5782513,1,0,0,0,0,0
8989156000,-0.13071825,-0.010379747,1.8427775,0.033333335,0.6036853,-0.035370365,-0.05514868,0.79452604,0.0,0.0,-0.57807726,1,0,0,0,0,0
8989248000,-0.13065115,-0.00844725,1.8455491,0.033333335,0.60253733,-0.03604259,-0.05458921,0.7954054,0.0,0.0,-0.5780094,1,0,0,0,0,0
8989340000,-0.12986284,-0.009649523,1.8483138,0.033333335,0.6014809,-0.03525116,-0.054686416,0.79623324,0.0,0.0,-0.57898486,1,0,0,0,0,0
8989452000,-0.13018936,-0.0089159375,1.8515639,0.033333335,0.6001624,-0.035552774,-0.05465383,0.79721636,0.0,0.0,-0.57786274,1,0,0,0,0,0
8989548000,-0.13019517,-0.0094487555,1.8541281,0.033333335,0.5991528,-0.035271734,-0.054861173,0.79797363,0.0,0.0,-0.5791978,1,0,0,0,0,0
8989640000,-0.13090794,-0.008918721,1.8569282,0.033333335,0.5980093,-0.03561981,-0.05503682,0.79880357,0.0,0.0,-0.5796096,1,0,0,0,0,0
8989752000,-0.1314024,-0.009203173,1.8602018,0.033333335,0.59669924,-0.035563406,-0.05537758,0.7997616,0.0,0.0,-0.5774021,1,0,0,0,0,0
8989844000,-0.13223466,-0.00860987,1.8630289,0.033333335,0.59553844,-0.03597052,-0.055584423,0.80059373,0.0,0.0,-0.5782059,1,0,0,0,0,0
8989940000,-0.13173978,-0.010994538,1.8658675,0.033333335,0.59446996,-0.034788486,-0.056145262,0.8014006,0.0,0.0,-0.5781241,1,0,0,0,0,0
8990052000,-0.13190791,-0.010461661,1.8691918,0.033333335,0.59312093,-0.034958877,-0.05611258,0.80239445,0.0,0.0,-0.57785845,1,0,0,0,0,0
8990148000,-0.1316477,-0.010146992,1.8718035,0.033333335,0.5920693,-0.034934975,-0.055960618,0.8031824,0.0,0.0,-0.5781801,1,0,0,0,0,0
8990240000,-0.13175815,-0.009985401,1.874657,0.033333335,0.5909168,-0.03495272,-0.056007102,0.80402654,0.0,0.0,-0.5770539,1,0,0,0,0,0
8990352000,-0.13233587,-0.009321659,1.8779955,0.033333335,0.589547,-0.035296775,-0.05610242,0.8050099,0.0,0.0,-0.57775253,1,0,0,0,0,0
8990444000,-0.1322376,-0.008550054,1.8808725,0.033333335,0.58837056,-0.03549815,-0.055886716,0.80587626,0.0,0.0,-0.578152,1,0,0,0,0,0
8990540000,-0.1322445,-0.010129014,1.8835194,0.033333335,0.58734334,-0.034789078,-0.056399714,0.80662054,0.0,0.0,-0.5781825,1,0,0,0,0,0
8990652000,-0.13215075,-0.009994609,1.8869069,0.033333335,0.5859746,-0.034720328,-0.056381367,0.8076195,0.0,0.0,-0.5764191,1,0,0,0,0,0
8990744000,-0.13300493,-0.008072164,1.8898332,0.033333335,0.5847282,-0.03566502,-0.05621579,0.8084929,0.0,0.0,-0.57776225,1,0,0,0,0,0
8990836000,-0.13300127,-0.008349617,1.8927567,0.033333335,0.58355296,-0.035469417,-0.056347266,0.809341,0.0,0.0,-0.5791286,1,0,0,0,0,0
8990948000,-0.13154222,-0.009709214,1.8961787,0.033333335,0.5822274,-0.034397125,-0.056212157,0.8103508,0.0,0.0,-0.5773388,1,0,0,0,0,0
8991044000,-0.13316712,-0.008606552,1.898879,0.033333335,0.5810764,-0.035240706,-0.05659743,0.8111134,0.0,0.0,-0.5775161,1,0,0,0,0,0
8991156000,-0.13372906,-0.008832354,1.9023237,0.033333335,0.5796745,-0.03521431,-0.056951612,0.81209224,0.0,0.0,-0.57895577,1,0,0,0,0,0
8991248000,-0.13322629,-0.008158077,1.9052857,0.033333335,0.5784625,-0.03525871,-0.056604482,0.8129783,0.0,0.0,-0.5777748,1,0,0,0,0,0
8991340000,-0.13305871,-0.008130845,1.9082577,0.033333335,0.577256,-0.03513727,-0.056580763,0.81384236,0.0,0.0,-0.57866347,1,0,0,0,0,0
8991452000,-0.1330078,-0.010777089,1.9117267,0.033333335,0.5759126,-0.03394584,-0.057382155,0.81478816,0.0,0.0,-0.57742244,1,0,0,0,0,0
8991548000,-0.13239616,-0.0087460615,1.9144493,0.033333335,0.57476115,-0.03452055,-0.056595728,0.81563157,0.0,0.0,-0.57868046,1,0,0,0,0,0
8991640000,-0.13352926,-0.009415811,1.9174418,0.033333335,0.57353795,-0.03448724,-0.05730178,0.81644434,0.0,0.0,-0.57710856,1,0,0,0,0,0
8991752000,-0.13319322,-0.00859604,1.9209673,0.033333335,0.57208234,-0.034625262,-0.056990843,0.81748086,0.0,0.0,-0.57734674,1,0,0,0,0,0
8991844000,-0.13219455,-0.007210265,1.9239895,0.033333335,0.57082754,-0.034821313,-0.056239236,0.8184012,0.0,0.0,-0.57852906,1,0,0,0,0,0
8991940000,-0.13259582,-0.00755257,1.9267608,0.033333335,0.569695,-0.0347174,-0.056549214,0.8191731,0.0,0.0,-0.57913315,1,0,0,0,0,0
8992052000,-0.13223916,-0.0071593644,1.9302728,0.033333335,0.56825155,-0.034678016,-0.056352194,0.82019025,0.0,0.0,-0.57897395,1,0,0,0,0,0
8992144000,-0.13450529,-0.0049925675,1.9332783,0.033333335,0.56692076,-0.03612546,-0.056720637,0.8210228,0.0,0.0,-0.57849586,1,0,0,0,0,0
8992236000,-0.13233176,-0.0035059834,1.9362631,0.033333335,0.56569403,-0.036037035,-0.055460956,0.82195836,0.0,0.0,-0.57853734,1,0,0,0,0,0
8992348000,-0.13289379,-0.002731912,1.9397402,0.033333335,0.56423324,-0.03641767,-0.055536456,0.82294,0.0,0.0,-0.5792818,1,0,0,0,0,0
8992444000,-0.13336623,-0.0024700223,1.9424833,0.033333335,0.5630883,-0.03658236,-0.055707213,0.823705,0.0,0.0,-0.57882804,1,0,0,0,0,0
8992556000,-0.1343134,-0.0011940671,1.9459841,0.033333335,0.5615932,-0.03727694,-0.055803485,0.82468754,0.0,0.0,-0.5789562,1,0,0,0,0,0
8992648000,-0.1328393,-0.00045714204,1.9489887,0.033333335,0.5603608,-0.037084255,-0.0550445,0.82558507,0.0,0.0,-0.57958066,1,0,0,0,0,0
8992740000,-0.13258366,-0.0009903354,1.9520007,0.033333335,0.5591361,-0.036709517,-0.055143695,0.826425,0.0,0.0,-0.57802117,1,0,0,0,0,0
8992852000,-0.13142435,-0.00096861005,1.955545,0.033333335,0.5576913,-0.036297463,-0.05472299,0.8274468,0.0,0.0,-0.57881904,1,0,0,0,0,0
8992948000,-0.13306996,-0.0021540422,1.9583366,0.033333335,0.55653816,-0.036188055,-0.055784855,0.8281569,0.0,0.0,-0.57815623,1,0,0,0,0,0
8993040000,-0.13173865,-0.002760311,1.96138,0.033333335,0.55531764,-0.03548215,-0.055456303,0.8290282,0.0,0.0,-0.57792026,1,0,0,0,0,0
8993152000,-0.13172463,-0.00073647004,1.9649359,0.033333335,0.55378807,-0.036219604,-0.054953158,0.8300525,0.0,0.0,-0.57835644,1,0,0,0,0,0
8993244000,-0.1322673,-0.00036784064,1.9679872,0.033333335,0.55250114,-0.036438785,-0.055131976,0.8308883,0.0,0.0,-0.57751656,1,0,0,0,0,0
8993340000,-0.13127361,0.00022921487,1.9707832,0.033333335,0.5513407,-0.036336027,-0.05460506,0.8316979,0.0,0.0,-0.57738644,1,0,0,0,0,0
8993452000,-0.13164686,-0.0010936083,1.9743268,0.033333335,0.54989564,-0.03579111,-0.055188432,0.8326393,0.0,0.0,-0.5784615,1,0,0,0,0,0
8993544000,-0.13242517,0.00040718916,1.9773569,0.033333335,0.5485782,-0.0365464,-0.055155285,0.8334773,0.0,0.0,-0.5787686,1,0,0,0,0,0
8993656000,-0.13097443,-0.0001363474,1.980905,0.033333335,0.5471399,-0.035824846,-0.05476343,0.8344792,0.0,0.0,-0.57710105,1,0,0,0,0,0
8993748000,-0.13180716,-0.00025898224,1.9839509,0.033333335,0.5458569,-0.03591747,-0.05519919,0.8352864,0.0,0.0,-0.5784281,1,0,0,0,0,0
8993844000,-0.13136101,-0.0006694956,1.986738,0.033333335,0.5447116,-0.03554738,-0.055174477,0.83605105,0.0,0.0,-0.5784121,1,0,0,0,0,0
8993936000,-0.13117847,-0.0021006018,1.9897816,0.033333335,0.54348093,-0.034814917,-0.055540953,0.83685815,0.0,0.0,-0.5786329,1,0,0,0,0,0
8994048000,-0.13164374,-0.0018282707,1.9933001,0.033333335,0.5419923,-0.034957334,-0.055723224,0.8378051,0.0,0.0,-0.57967067,1,0,0,0,0,0
8994140000,-0.13111053,-0.0017042105,1.9963019,0.033333335,0.54074013,-0.03478152,-0.055518527,0.83863467,0.0,0.0,-0.57825476,1,0,0,0,0,0
8994252000,-0.13210541,-0.0024195754,1.9997603,0.033333335,0.5392915,-0.034653414,-0.05618906,0.83952767,0.0,0.0,-0.5783129,1,0,0,0,0,0
8994348000,-0.13279843,-0.0030582605,2.0024598,0.033333335,0.5381634,-0.03449566,-0.05669874,0.84022343,0.0,0.0,-0.5768597,1,0,0,0,0,0
8994440000,-0.13283709,-0.0031877088,2.0053954,0.033333335,0.53693247,-0.034368336,-0.056800313,0.84100896,0.0,0.0,-0.579475,1,0,0,0,0,0
8994552000,-0.13309185,-0.0028481612,2.0087874,0.033333335,0.5354916,-0.034483127,-0.056874875,0.8419174,0.0,0.0,-0.5777993,1,0,0,0,0,0
8994644000,-0.13220944,-0.003551896,2.0116735,0.033333335,0.53431064,-0.033868726,-0.05674071,0.8427013,0.0,0.0,-0.5790646,1,0,0,0,0,0
8994740000,-0.13316096,-0.0056682825,2.0143151,0.033333335,0.5332391,-0.03315481,-0.057750624,0.8433396,0.0,0.0,-0.5792695,1,0,0,0,0,0
8994852000,-0.13329184,-0.0047607594,2.017673,0.033333335,0.5317953,-0.033475775,-0.05762027,0.84424704,0.0,0.0,-0.576475,1,0,0,0,0,0
8994944000,-0.1337107,-0.006507905,2.020555,0.033333335,0.5306194,-0.03276549,-0.058308642,0.8449672,0.0,0.0,-0.57821286,1,0,0,0,0,0
8995036000,-0.13512331,-0.0063350922,2.023436,0.033333335,0.5293736,-0.033128474,-0.058907412,0.8456926,0.0,0.0,-0.57848454,1,0,0,0,0,0
8995148000,-0.13438779,-0.005848769,2.0268116,0.033333335,0.52794415,-0.033040754,-0.0585236,0.84661585,0.0,0.0,-0.57729274,1,0,0,0,0,0
8995244000,-0.13450119,-0.0072576567,2.0294762,0.033333335,0.5268529,-0.032395586,-0.05898648,0.847288,0.0,0.0,-0.57789,1,0,0,0,0,0
8995356000,-0.13466659,-0.007839998,2.032867,0.033333335,0.52542907,-0.03209195,-0.059264306,0.848164,0.0,0.0,-0.5781329,1,0,0,0,0,0
8995448000,-0.13508292,-0.007094599,2.035772,0.033333335,0.52416915,-0.032431442,-0.05929238,0.84892833,0.0,0.0,-0.5785443,1,0,0,0,0,0
8995540000,-0.13303846,-0.0075778863,2.0386689,0.033333335,0.522985,-0.03160555,-0.05859696,0.84973776,0.0,0.0,-0.5802742,1,0,0,0,0,0
8995652000,-0.13444819,-0.0055411723,2.0420485,0.033333335,0.5214695,-0.03274054,-0.058719147,0.8506172,0.0,0.0,-0.57833284,1,0,0,0,0,0
8995748000,-0.13397118,-0.006905484,2.0447125,0.033333335,0.5203816,-0.03195732,-0.058914404,0.8512995,0.0,0.0,-0.5790569,1,0,0,0,0,0
8995840000,-0.13296176,-0.007014471,2.0476298,0.033333335,0.5191583,-0.03156289,-0.05855918,0.8520853,0.0,0.0,-0.58025247,1,0,0,0,0,0
8995952000,-0.13278838,-0.0069916486,2.0510497,0.033333335,0.51770264,-0.03142756,-0.058533207,0.85297716,0.0,0.0,-0.5806691,1,0,0,0,0,0
8996044000,-0.13371252,-0.0068476037,2.053994,0.033333335,0.5164279,-0.03164149,-0.058936723,0.8537139,0.0,0.0,-0.5789305,1,0,0,0,0,0
8996140000,-0.13370782,-0.0057111937,2.0566928,0.033333335,0.5152438,-0.032046337,-0.058684796,0.8544313,0.0,0.0,-0.57927686,1,0,0,0,0,0
8996252000,-0.13430406,-0.006176795,2.060132,0.033333335,0.51377726,-0.031899378,-0.059114326,0.85528994,0.0,0.0,-0.5799059,1,0,0,0,0,0
8996344000,-0.13369456,-0.0048344987,2.0630841,0.033333335,0.5124864,-0.032230582,-0.058556702,0.85609,0.0,0.0,-0.57987195,1,0,0,0,0,0
8996436000,-0.13272355,-0.0058924383,2.066052,0.033333335,0.5112604,-0.0314421,-0.058458723,0.85685873,0.0,0.0,-0.5801052,1,0,0,0,0,0
8996548000,-0.13421902,-0.0059850975,2.0695188,0.033333335,0.50975335,-0.031682137,-0.05917809,0.857698,0.0,0.0,-0.5780517,1,0,0,0,0,0
8996644000,-0.13409251,-0.0050978675,2.0722485,0.033333335,0.50855935,-0.03195006,-0.058941502,0.85841286,0.0,0.0,-0.5777453,1,0,0,0,0,0
8996736000,-0.13301204,-0.005347228,2.0752358,0.033333335,0.5073007,-0.031480774,-0.058588218,0.8591987,0.0,0.0,-0.5796331,1,0,0,0,0,0
8996848000,-0.13258497,-0.0066809505,2.0787606,0.033333335,0.50582945,-0.030695772,-0.058797024,0.8600797,0.0,0.0,-0.5781987,1,0,0,0,0,0
8996940000,-0.13179825,-0.005855418,2.081793,0.033333335,0.504514,-0.030763552,-0.058296762,0.8608838,0.0,0.0,-0.5775286,1,0,0,0,0,0
8997052000,-0.1318427,-0.005939585,2.0853493,0.033333335,0.5029841,-0.030634748,-0.058391687,0.86177653,0.0,0.0,-0.5794928,1,0,0,0,0,0
8997148000,-0.13091305,-0.004951029,2.0881329,0.033333335,0.50177103,-0.030746622,-0.057785485,0.86252046,0.0,0.0,-0.5773824,1,0,0,0,0,0
8997240000,-0.13086443,-0.0055654193,2.0911663,0.033333335,0.50048,-0.030381521,-0.05796471,0.863271,0.0,0.0,-0.57846886,1,0,0,0,0,0
8997352000,-0.13095267,-0.0050693867,2.0947008,0.033333335,0.49893853,-0.030515416,-0.05793277,0.86416024,0.0,0.0,-0.58065534,1,0,0,0,0,0
8997444000,-0.13134992,-0.004434033,2.0977294,0.033333335,0.49760562,-0.030801304,-0.057992715,0.86491436,0.0,0.0,-0.579401,1,0,0,0,0,0
8997540000,-0.13090874,-0.0050219297,2.1005008,0.033333335,0.4964297,-0.030356927,-0.05799024,0.8656056,0.0,0.0,-0.579794,1,0,0,0,0,0
8997652000,-0.13180201,-0.002622461,2.1040254,0.033333335,0.4948225,-0.03151541,-0.057837207,0.8664943,0.0,0.0,-0.5793799,1,0,0,0,0,0
8997744000,-0.13078213,-0.0026372236,2.1070318,0.033333335,0.49353576,-0.03117036,-0.057445917,0.8672663,0.0,0.0,-0.5782264,1,0,0,0,0,0
8997856000,-0.13122578,-0.002385637,2.1105309,0.033333335,0.49200365,-0.031288166,-0.05763105,0.86811984,0.0,0.0,-0.5796836,1,0,0,0,0,0
8997948000,-0.12920429,-0.0023607605,2.1135252,0.033333335,0.49073404,-0.030716658,-0.056793503,0.8689137,0.0,0.0,-0.5785488,1,0,0,0,0,0
8998044000,-0.13007872,-0.0015543556,2.1162713,0.033333335,0.48950443,-0.031203326,-0.0570185,0.86957496,0.0,0.0,-0.5785492,1,0,0,0,0,0
8998136000,-0.13127649,-0.0004948864,2.1192594,0.033333335,0.48815578,-0.031871505,-0.05732768,0.87028825,0.0,0.0,-0.5776245,1,0,0,0,0,0
8998248000,-0.13148752,-0.002508924,2.1227329,0.033333335,0.48669758,-0.030945966,-0.057964865,0.8710958,0.0,0.0,-0.5781495,1,0,0,0,0,0
8998340000,-0.1307179,-0.0028878737,2.1256871,0.033333335,0.48543292,-0.030508315,-0.057766974,0.87182975,0.0,0.0,-0.5795097,1,0,0,0,0,0
8998452000,-0.13358144,-0.0040149814,2.129107,0.033333335,0.4839298,-0.030610552,-0.059341043,0.8725558,0.0,0.0,-0.57938725,1,0,0,0,0,0
8998548000,-0.13174994,-0.002776786,2.1317892,0.033333335,0.48275182,-0.030629544,-0.058283616,0.8732786,0.0,0.0,-0.57869214,1,0,0,0,0,0
8998640000,-0.13085496,-0.0040633124,2.134718,0.033333335,0.4815224,-0.02976643,-0.058246914,0.87398934,0.0,0.0,-0.5786543,1,0,0,0,0,0
8998752000,-0.1316319,-0.004209059,2.1381447,0.033333335,0.48001674,-0.029789295,-0.05867262,0.874788,0.0,0.0,-0.5804765,1,0,0,0,0,0
8998844000,-0.13150443,-0.0029408718,2.1410823,0.033333335,0.47869724,-0.0302278,-0.058357093,0.87551683,0.0,0.0,-0.5783122,1,0,0,0,0,0
8998940000,-0.13210195,-0.003399497,2.1437697,0.033333335,0.47752446,-0.030091088,-0.05876888,0.8761342,0.0,0.0,-0.57828,1,0,0,0,0,0
8999052000,-0.13120273,-0.0047624875,2.1471834,0.033333335,0.47608036,-0.029178971,-0.058750134,0.8769518,0.0,0.0,-0.57910836,1,0,0,0,0,0
8999144000,-0.13070135,-0.002968508,2.150132,0.033333335,0.4747436,-0.02976068,-0.058147397,0.8776968,0.0,0.0,-0.5781481,1,0,0,0,0,0
8999256000,-0.13297522,-0.0035321582,2.153518,0.033333335,0.47323915,-0.029952642,-0.05932977,0.8784233,0.0,0.0,-0.5782814,1,0,0,0,0,0
8999348000,-0.13222475,-0.00240327,2.1563883,0.033333335,0.47195682,-0.030186635,-0.05877653,0.87914217,0.0,0.0,-0.57750803,1,0,0,0,0,0
8999444000,-0.13308677,-0.0033003571,2.1589887,0.033333335,0.4708263,-0.02991848,-0.05940602,0.87971497,0.0,0.0,-0.57714015,1,0,0,0,0,0
8999556000,-0.13250326,-0.0032160731,2.1622624,0.033333335,0.4693919,-0.029721359,-0.059178233,0.8805032,0.0,0.0,-0.5787916,1,0,0,0,0,0
8999648000,-0.13169773,-0.003299499,2.1650755,0.033333335,0.46816733,-0.029412776,-0.058884602,0.88118494,0.0,0.0,-0.57845145,1,0,0,0,0,0
8999740000,-0.13125612,-0.00428312,2.1678963,0.033333335,0.46695852,-0.028792841,-0.058960855,0.8818414,0.0,0.0,-0.5788267,1,0,0,0,0,0
8999852000,-0.13154878,-0.0070289774,2.1711829,0.033333335,0.46558255,-0.027552072,-0.059775937,0.88255346,0.0,0.0,-0.57954466,1,0,0,0,0,0
8999948000,-0.13219738,-0.006816663,2.1737661,0.033333335,0.46442726,-0.027719231,-0.06004862,0.8831382,0.0,0.0,-0.57881105,1,0,0,0,0,0
9000040000,-0.1319118,-0.006532516,2.1765952,0.033333335,0.46317345,-0.02769372,-0.059895825,0.8838076,0.0,0.0,-0.5787175,1,0,0,0,0,0
9000152000,-0.13312903,-0.007204394,2.179903,0.033333335,0.46171352,-0.027578406,-0.060634874,0.88452446,0.0,0.0,-0.5783104,1,0,0,0,0,0
9000244000,-0.1344512,-0.0066835983,2.1827497,0.033333335,0.46042058,-0.028027005,-0.061139435,0.8851493,0.0,0.0,-0.5780498,1,0,0,0,0,0
9000340000,-0.13369487,-0.006725792,2.185367,0.033333335,0.45927367,-0.027754601,-0.060850784,0.8857735,0.0,0.0,-0.5801152,1,0,0,0,0,0
9000452000,-0.13159466,-0.0072410917,2.1887283,0.033333335,0.45782775,-0.026943075,-0.060084198,0.88659894,0.0,0.0,-0.57905734,1,0,0,0,0,0
9000544000,-0.13134885,-0.0076282,2.1916356,0.033333335,0.4565528,-0.026627809,-0.06010253,0.8872645,0.0,0.0,-0.5776987,1,0,0,0,0,0
9000636000,-0.1330796,-0.007996983,2.194551,0.033333335,0.45524636,-0.026770372,-0.060993504,0.88787043,0.0,0.0,-0.57870007,1,0,0,0,0,0
9000748000,-0.13345985,-0.006821125,2.197948,0.033333335,0.4536986,-0.027275592,-0.060941342,0.88865054,0.0,0.0,-0.57880986,1,0,0,0,0,0
9000844000,-0.13280194,-0.0069942814,2.2006276,0.033333335,0.4525216,-0.02696805,-0.06072445,0.8892747,0.0,0.0,-0.5794146,1,0,0,0,0,0
9000936000,-0.13230444,-0.008581178,2.2035637,0.033333335,0.45126757,-0.026060333,-0.060900282,0.88992673,0.0,0.0,-0.5788771,1,0,0,0,0,0
9001048000,-0.13362525,-0.00913985,2.2069921,0.033333335,0.4497403,-0.026004033,-0.061658546,0.890649,0.0,0.0,-0.57919544,1,0,0,0,0,0
9001140000,-0.1329745,-0.0093765445,2.2099245,0.033333335,0.44844916,-0.02566218,-0.06145961,0.8913235,0.0,0.0,-0.57924366,1,0,0,0,0,0
9001252000,-0.13259174,-0.00837057,2.2133257,0.033333335,0.4469088,-0.025920935,-0.0611079,0.8921135,0.0,0.0,-0.57914877,1,0,0,0,0,0
9001348000,-0.13222834,-0.00816221,2.2159922,0.033333335,0.4457177,-0.025851483,-0.06093381,0.8927231,0.0,0.0,-0.57796896,1,0,0,0,0,0
9001440000,-0.13272437,-0.0077000004,2.218915,0.033333335,0.44439283,-0.026079135,-0.061090484,0.89336604,0.0,0.0,-0.5778227,1,0,0,0,0,0
9001552000,-0.1327949,-0.007288082,2.2223308,0.033333335,0.44285357,-0.026174586,-0.06107537,0.8941283,0.0,0.0,-0.5792759,1,0,0,0,0,0
9001644000,-0.13234797,-0.008501991,2.2252653,0.033333335,0.441582,-0.025443044,-0.061181474,0.8947708,0.0,0.0,-0.5783353,1,0,0,0,0,0
9001740000,-0.13307971,-0.007955825,2.2279599,0.033333335,0.4403509,-0.025766274,-0.06142315,0.8953515,0.0,0.0,-0.57810014,1,0,0,0,0,0
9001852000,-0.13221596,-0.0063060387,2.2314024,0.033333335,0.4387726,-0.026210396,-0.060718793,0.8961612,0.0,0.0,-0.5785401,1,0,0,0,0,0
9001944000,-0.13160871,-0.0059649884,2.2343645,0.033333335,0.43744284,-0.026140586,-0.060410723,0.89683384,0.0,0.0,-0.57824934,1,0,0,0,0,0
9002056000,-0.13298199,-0.0068136435,2.2378244,0.033333335,0.4358975,-0.025954397,-0.06125695,0.897534,0.0,0.0,-0.57778007,1,0,0,0,0,0
9002148000,-0.13266878,-0.0040324144,2.2407918,0.033333335,0.43448812,-0.027044713,-0.060550917,0.8982328,0.0,0.0,-0.5771521,1,0,0,0,0,0
9002244000,-0.13269225,-0.0068392716,2.2435036,0.033333335,0.43335167,-0.025706057,-0.061205752,0.8987766,0.0,0.0,-0.57694936,1,0,0,0,0,0
9002356000,-0.13280225,-0.0053251064,2.2469535,0.033333335,0.4317549,-0.026305337,-0.060972847,0.8995432,0.0,0.0,-0.57699907,1,0,0,0,0,0
9002448000,-0.13285571,-0.0049354443,2.2499022,0.033333335,0.43041602,-0.026402336,-0.060951844,0.90018326,0.0,0.0,-0.5773504,1,0,0,0,0,0
9002540000,-0.13169011,-0.0049786163,2.2528493,0.033333335,0.4291056,-0.026042959,-0.060474925,0.90085113,0.0,0.0,-0.57748187,1,0,0,0,0,0
9002652000,-0.13229512,-0.005168203,2.2563033,0.033333335,0.42754695,-0.02598234,-0.060833037,0.90156966,0.0,0.0,-0.57855767,1,0,0,0,0,0
9002748000,-0.1317458,-0.007327564,2.2590234,0.033333335,0.42639023,-0.024808262,-0.061080463,0.90213364,0.0,0.0,-0.5776332,1,0,0,0,0,0
9002840000,-0.13070081,-0.00710169,2.262002,0.033333335,0.42505264,-0.024597166,-0.060597703,0.90280294,0.0,0.0,-0.578429,1,0,0,0,0,0
9002952000,-0.13180746,-0.0074823373,2.2654912,0.033333335,0.4234744,-0.024553722,-0.061220966,0.9035035,0.0,0.0,-0.578389,1,0,0,0,0,0
9003044000,-0.13248737,-0.005465938,2.2684605,0.033333335,0.42206505,-0.025518032,-0.06113955,0.90414155,0.0,0.0,-0.57816136,1,0,0,0,0,0
9003140000,-0.13210824,-0.0044985274,2.2711728,0.033333335,0.42081493,-0.025793012,-0.060799185,0.9047392,0.0,0.0,-0.57796943,1,0,0,0,0,0
9003252000,-0.1314282,-0.0065620723,2.274645,0.033333335,0.41931254,-0.024610462,-0.06096825,0.90545803,0.0,0.0,-0.57832974,1,0,0,0,0,0
9003344000,-0.13347289,-0.0068856794,2.27763,0.033333335,0.41794497,-0.024800098,-0.06199877,0.906015,0.0,0.0,-0.5786521,1,0,0,0,0,0
9003436000,-0.13209856,-0.008867802,2.2806191,0.033333335,0.41666505,-0.02352236,-0.061825175,0.9066502,0.0,0.0,-0.5793702,1,0,0,0,0,0
9003548000,-0.13124892,-0.006206651,2.2841196,0.033333335,0.41501027,-0.02444546,-0.060929134,0.9074451,0.0,0.0,-0.5787689,1,0,0,0,0,0
9003644000,-0.1308182,-0.006047358,2.2868805,0.033333335,0.4137578,-0.024344549,-0.060734335,0.9080326,0.0,0.0,-0.5785795,1,0,0,0,0,0
9003736000,-0.13158967,-0.005762689,2.2898967,0.033333335,0.41237015,-0.024541352,-0.06106284,0.9086363,0.0,0.0,-0.5769155,1,0,0,0,0,0
9003848000,-0.13076599,-0.006552956,2.2934086,0.033333335,0.410807,-0.023905523,-0.060893487,0.9093723,0.0,0.0,-0.5787912,1,0,0,0,0,0
9003940000,-0.131643,-0.006189102,2.2964048,0.033333335,0.4094231,-0.02415939,-0.061253846,0.9099654,0.0,0.0,-0.57837903,1,0,0,0,0,0
9004052000,-0.131203,-0.006140287,2.2998993,0.033333335,0.4078364,-0.023984835,-0.061085667,0.9106936,0.0,0.0,-0.57883376,1,0,0,0,0,0
9004148000,-0.13103135,-0.006655011,2.3026462,0.033333335,0.40660232,-0.023631457,-0.061144892,0.9112504,0.0,0.0,-0.5787218,1,0,0,0,0,0
9004240000,-0.13265021,-0.0064225714,2.3056593,0.033333335,0.40520298,-0.0239733,-0.061871443,0.91181564,0.0,0.0,-0.57712555,1,0,0,0,0,0
9004352000,-0.1325407,-0.0065890313,2.3090956,0.033333335,0.4036419,-0.023768896,-0.061896138,0.9125114,0.0,0.0,-0.5784998,1,0,0,0,0,0
9004444000,-0.13345751,-0.0048114047,2.3119824,0.033333335,0.40226027,-0.024675649,-0.061991695,0.91309077,0.0,0.0,-0.5784201,1,0,0,0,0,0
9004540000,-0.13349268,-0.0044347914,2.3146174,0.033333335,0.4010452,-0.024773065,-0.061964747,0.91362435,0.0,0.0,-0.5786398,1,0,0,0,0,0
9004652000,-0.13300243,-0.0060569406,2.3179326,0.033333335,0.39958486,-0.023830714,-0.06210543,0.91427946,0.0,0.0,-0.5770054,1,0,0,0,0,0
9004744000,-0.1337019,-0.005620048,2.3207757,0.033333335,0.39826328,-0.024081573,-0.062372267,0.91483116,0.0,0.0,-0.5778807,1,0,0,0,0,0
9004856000,-0.1345857,-0.0048743687,2.324073,0.033333335,0.39672118,-0.024495402,-0.06266864,0.91546977,0.0,0.0,-0.5784675,1,0,0,0,0,0
9004948000,-0.13497548,-0.005235015,2.3269033,0.033333335,0.3954315,-0.024318557,-0.06295301,0.91601276,0.0,0.0,-0.5788378,1,0,0,0,0,0
9005044000,-0.13620013,-0.0059206854,2.3294988,0.033333335,0.39424863,-0.024163986,-0.06368075,0.9164763,0.0,0.0,-0.57747394,1,0,0,0,0,0
9005136000,-0.13555452,-0.006543606,2.3323383,0.033333335,0.39297375,-0.023661025,-0.06354124,0.9170465,0.0,0.0,-0.57794166,1,0,0,0,0,0
9005248000,-0.13618256,-0.0067264168,2.3356316,0.033333335,0.39146134,-0.023595395,-0.06390403,0.91766965,0.0,0.0,-0.57958597,1,0,0,0,0,0
9005340000,-0.13778993,-0.0064788,2.3384683,0.033333335,0.3901327,-0.023931991,-0.064627126,0.91817594,0.0,0.0,-0.57842094,1,0,0,0,0,0
9005452000,-0.1369966,-0.006896788,2.3417816,0.033333335,0.3886334,-0.023478672,-0.06438335,0.91884035,0.0,0.0,-0.5794314,1,0,0,0,0,0
9005548000,-0.13697258,-0.0074107726,2.344407,0.033333335,0.387443,-0.023153167,-0.06450252,0.9193429,0.0,0.0,-0.5792151,1,0,0,0,0,0
9005640000,-0.13709003,-0.007886529,2.3472877,0.033333335,0.38613182,-0.022864047,-0.06468156,0.919889,0.0,0.0,-0.57988364,1,0,0,0,0,0
