timestamp,q[0],q[1],q[2],q[3],delta_q_reset[0],delta_q_reset[1],delta_q_reset[2],delta_q_reset[3],quat_reset_counter
8959832000,0.97935504,0.0010934909,-0.0037107393,0.20211065,1.0,-2.9103836e-10,-1.7462302e-10,-0.00044590246,8
8959880000,0.97934526,0.0010944611,-0.0036711518,0.20215905,1.0,-2.9103836e-10,-1.7462302e-10,-0.00044590246,8
8959932000,0.97932965,0.0010590439,-0.0036206695,0.2022355,1.0,-2.9103836e-10,-1.7462302e-10,-0.00044590246,8
8959984000,0.97933483,0.0011102924,-0.0035366162,0.20221165,1.0,-2.9103836e-10,-1.7462302e-10,-0.00044590246,8
8960040000,0.9793323,0.0010683617,-0.0035030674,0.20222464,1.0,-2.9103836e-10,-1.7462302e-10,-0.00044590246,8
8960088000,0.97933537,0.001072781,-0.0034447499,0.20221122,1.0,-2.9103836e-10,-1.7462302e-10,-0.00044590246,8
8960140000,0.97933733,0.0010626749,-0.0034072793,0.20220207,1.0,-2.9103836e-10,-1.7462302e-10,-0.00044590246,8
8960192000,0.9793392,0.0010687774,-0.003342733,0.20219435,1.0,-2.9103836e-10,-1.7462302e-10,-0.00044590246,8
8960244000,0.97934,0.0010985195,-0.0032697315,0.2021914,1.0,-2.9103836e-10,-1.7462302e-10,-0.00044590246,8
8960300000,0.979332,0.0011089883,-0.0032503952,0.20223053,1.0,-2.9103836e-10,-1.7462302e-10,-0.00044590246,8
8960352000,0.9793345,0.0011189844,-0.0032332593,0.20221856,1.0,-2.9103836e-10,-1.7462302e-10,-0.00044590246,8
8960400000,0.9793433,0.0010938466,-0.0032063392,0.20217645,1.0,-2.9103836e-10,-1.7462302e-10,-0.00044590246,8
8960456000,0.9793605,0.0011111923,-0.0032023343,0.2020928,1.0,-2.9103836e-10,-1.7462302e-10,-0.00044590246,8
8960508000,0.9793536,0.0010808206,-0.0031907686,0.20212641,1.0,-2.9103836e-10,-1.7462302e-10,-0.00044590246,8
8960560000,0.97934806,0.0011006425,-0.0031800545,0.20215367,1.0,-2.9103836e-10,-1.7462302e-10,-0.00044590246,8
8960608000,0.9793485,0.0011097445,-0.0031682532,0.20215194,1.0,-2.9103836e-10,-1.7462302e-10,-0.00044590246,8
8960660000,0.97933733,0.0011665752,-0.003150734,0.20220557,1.0,-2.9103836e-10,-1.7462302e-10,-0.00044590246,8
8960716000,0.97931784,0.0011046891,-0.0031932087,0.20229985,1.0,-2.9103836e-10,-1.7462302e-10,-0.00044590246,8
8960764000,0.9793313,0.001076014,-0.0031724423,0.20223498,1.0,-2.9103836e-10,-1.7462302e-10,-0.00044590246,8
8960816000,0.97932154,0.0011169668,-0.0032875892,0.20228046,1.0,-2.9103836e-10,-1.7462302e-10,-0.00044590246,8
8960868000,0.97932243,0.0011096784,-0.0033054627,0.20227604,1.0,-2.9103836e-10,-1.7462302e-10,-0.00044590246,8
8960920000,0.979317,0.0011066546,-0.0032873438,0.20230258,1.0,-2.9103836e-10,-1.7462302e-10,-0.00044590246,8
8960972000,0.9793206,0.0011470362,-0.0033009646,0.2022843,1.0,-2.9103836e-10,-1.7462302e-10,-0.00044590246,8
8961028000,0.9793163,0.0011834216,-0.0031929563,0.20230685,1.0,-2.9103836e-10,-1.7462302e-10,-0.00044590246,8
8961076000,0.97931266,0.001144273,-0.003240727,0.20232385,1.0,-2.9103836e-10,-1.7462302e-10,-0.00044590246,8
8961128000,0.9793159,0.0011239074,-0.0032910192,0.20230746,1.0,-2.9103836e-10,-1.7462302e-10,-0.00044590246,8
8961180000,0.9793198,0.001212642,-0.0032241738,0.2022893,1.0,-2.9103836e-10,-1.7462302e-10,-0.00044590246,8
8961232000,0.97932583,0.0011655624,-0.0032352314,0.20226008,1.0,-2.9103836e-10,-1.7462302e-10,-0.00044590246,8
8961288000,0.97931755,0.0011702986,-0.0032155095,0.20230076,1.0,-2.9103836e-10,-1.7462302e-10,-0.00044590246,8
8961336000,0.9793185,0.001196469,-0.0032445928,0.20229533,1.0,-2.9103836e-10,-1.7462302e-10,-0.00044590246,8
8961392000,0.97931963,0.001246246,-0.0032707914,0.20228933,1.0,-2.9103836e-10,-1.7462302e-10,-0.00044590246,8
8961444000,0.97932893,0.0012856978,-0.0032762613,0.20224363,1.0,-2.9103836e-10,-1.7462302e-10,-0.00044590246,8
8961492000,0.97932535,0.0013062677,-0.003316074,0.20226069,1.0,-2.9103836e-10,-1.7462302e-10,-0.00044590246,8
8961544000,0.9793288,0.0012601635,-0.0032606148,0.202245,1.0,-2.9103836e-10,-1.7462302e-10,-0.00044590246,8
8961596000,0.97933936,0.0013049011,-0.0032683366,0.20219307,1.0,-2.9103836e-10,-1.7462302e-10,-0.00044590246,8
8961648000,0.97933024,0.001255553,-0.0030164304,0.20224182,1.0,-2.9103836e-10,-1.7462302e-10,-0.00044590246,8
8961700000,0.979329,0.0009975408,-0.00014949261,0.20227148,1.0,-2.9103836e-10,-1.7462302e-10,-0.00044590246,8
8961756000,0.9792957,0.0010775761,0.004078825,0.20239118,1.0,-2.9103836e-10,-1.7462302e-10,-0.00044590246,8
8961804000,0.979288,0.0010533837,0.006132317,0.20237717,1.0,-2.9103836e-10,-1.7462302e-10,-0.00044590246,8
8961856000,0.9792789,0.0011150253,0.0069591845,0.20239359,1.0,-2.9103836e-10,-1.7462302e-10,-0.00044590246,8
8961908000,0.9792797,0.001096924,0.006463444,0.20240618,1.0,-2.9103836e-10,-1.7462302e-10,-0.00044590246,8
8961960000,0.97929114,0.0011037679,0.004811933,0.20239739,1.0,-2.9103836e-10,-1.7462302e-10,-0.00044590246,8
8962012000,0.9793179,0.0011330997,0.0031138707,0.2023008,1.0,-2.9103836e-10,-1.7462302e-10,-0.00044590246,8
8962064000,0.9793209,0.0011162149,0.0015371424,0.20230441,1.0,-2.9103836e-10,-1.7462302e-10,-0.00044590246,8
8962116000,0.9793253,0.0012749893,0.00012307586,0.20228831,1.0,-2.9103836e-10,-1.7462302e-10,-0.00044590246,8
8962168000,0.9793427,0.0013351141,-0.0009179456,0.20220117,1.0,-2.9103836e-10,-1.7462302e-10,-0.00044590246,8
8962224000,0.97934866,0.0012983652,-0.001668873,0.20216796,1.0,-2.9103836e-10,-1.7462302e-10,-0.00044590246,8
8962272000,0.9793535,0.0014875558,-0.002046166,0.20213953,1.0,-2.9103836e-10,-1.7462302e-10,-0.00044590246,8
8962328000,0.9793582,0.0016488455,-0.0022310892,0.20211357,1.0,-2.9103836e-10,-1.7462302e-10,-0.00044590246,8
8962380000,0.97936916,0.0015881304,-0.0024513595,0.20205872,1.0,-2.9103836e-10,-1.7462302e-10,-0.00044590246,8
8962428000,0.97936296,0.0016320831,-0.002482855,0.20208764,1.0,-2.9103836e-10,-1.7462302e-10,-0.00044590246,8
8962480000,0.97935146,0.0014893325,-0.0024682584,0.20214465,1.0,-2.9103836e-10,-1.7462302e-10,-0.00044590246,8
8962532000,0.9793491,0.0014242191,-0.0024768058,0.20215674,1.0,-2.9103836e-10,-1.7462302e-10,-0.00044590246,8
8962584000,0.9793616,0.0016368916,-0.0024267002,0.2020949,1.0,-2.9103836e-10,-1.7462302e-10,-0.00044590246,8
8962636000,0.97935766,0.0019260416,-0.0021375036,0.20211467,1.0,-2.9103836e-10,-1.7462302e-10,-0.00044590246,8
8962692000,0.9793568,0.002013275,-0.0019987088,0.20211953,1.0,-2.9103836e-10,-1.7462302e-10,-0.00044590246,8
8962740000,0.9793512,0.002034826,-0.002388468,0.20214203,1.0,-2.9103836e-10,-1.7462302e-10,-0.00044590246,8
8962796000,0.9793418,0.00212245,-0.0026286307,0.20218393,1.0,-2.9103836e-10,-1.7462302e-10,-0.00044590246,8
8962844000,0.9793355,0.0021718268,-0.0028248213,0.20221114,1.0,-2.9103836e-10,-1.7462302e-10,-0.00044590246,8
8962896000,0.97934496,0.0021769083,-0.0028848664,0.20216408,1.0,-2.9103836e-10,-1.7462302e-10,-0.00044590246,8
8962952000,0.9793421,0.0024659797,-0.0028164806,0.20217606,1.0,-2.9103836e-10,-1.7462302e-10,-0.00044590246,8
8963004000,0.9793455,0.0024890155,-0.0027187117,0.2021607,1.0,-2.9103836e-10,-1.7462302e-10,-0.00044590246,8
8963056000,0.9793526,0.0024280755,-0.0027346606,0.20212705,1.0,-2.9103836e-10,-1.7462302e-10,-0.00044590246,8
8963104000,0.97934717,0.0024852033,-0.0027954292,0.20215173,1.0,-2.9103836e-10,-1.7462302e-10,-0.00044590246,8
8963156000,0.97936046,0.0023932476,-0.0029836756,0.20208564,1.0,-2.9103836e-10,-1.7462302e-10,-0.00044590246,8
8963212000,0.9793507,0.0023606545,-0.0031796603,0.2021301,1.0,-2.9103836e-10,-1.7462302e-10,-0.00044590246,8
8963264000,0.97935927,0.0023809886,-0.0032448363,0.20208734,1.0,-2.9103836e-10,-1.7462302e-10,-0.00044590246,8
8963312000,0.9793594,0.002452345,-0.0033205585,0.20208456,1.0,-2.9103836e-10,-1.7462302e-10,-0.00044590246,8
8963364000,0.9790275,0.0026651185,-0.003218221,0.2036856,0.9999987,2.9103833e-10,4.947652e-10,0.0016565325,9
8963420000,0.9790141,0.0027861176,-0.002979701,0.20375189,0.9999987,2.9103833e-10,4.947652e-10,0.0016565325,9
8963468000,0.97902644,0.0027887484,-0.0029301113,0.20369324,0.9999987,2.9103833e-10,4.947652e-10,0.0016565325,9
8963520000,0.9790638,0.0029399446,-0.0027012192,0.20351464,0.9999987,2.9103833e-10,4.947652e-10,0.0016565325,9
8963572000,0.97911304,0.0033268523,-0.0022396983,0.20327745,0.9999987,2.9103833e-10,4.947652e-10,0.0016565325,9
8963628000,0.9791701,0.0038316161,-0.0021089115,0.20299491,0.9999987,2.9103833e-10,4.947652e-10,0.0016565325,9
8963676000,0.9792332,0.0039774836,-0.002341388,0.20268477,0.9999987,2.9103833e-10,4.947652e-10,0.0016565325,9
8963732000,0.9793092,0.0040884907,-0.002938639,0.20230706,0.9999987,2.9103833e-10,4.947652e-10,0.0016565325,9
8963780000,0.9793808,0.0041120485,-0.0033212048,0.20195408,0.9999987,2.9103833e-10,4.947652e-10,0.0016565325,9
8963832000,0.9794353,0.004027456,-0.0037124488,0.20168449,0.9999987,2.9103833e-10,4.947652e-10,0.0016565325,9
8963884000,0.9795028,0.0038912722,-0.0039485553,0.20135406,0.9999987,2.9103833e-10,4.947652e-10,0.0016565325,9
8963936000,0.9795702,0.00394098,-0.00423827,0.20101938,0.9999987,2.9103833e-10,4.947652e-10,0.0016565325,9
8963988000,0.9795922,0.0040510795,-0.0043956754,0.20090702,0.9999987,2.9103833e-10,4.947652e-10,0.0016565325,9
8964040000,0.97959757,0.004092234,-0.004531818,0.2008761,0.9999987,2.9103833e-10,4.947652e-10,0.0016565325,9
8964092000,0.9795866,0.004183108,-0.0047915955,0.20092238,0.9999987,2.9103833e-10,4.947652e-10,0.0016565325,9
8964148000,0.9795518,0.0041570086,-0.0049723466,0.20108761,0.9999987,2.9103833e-10,4.947652e-10,0.0016565325,9
8964200000,0.979529,0.004291904,-0.004898162,0.2011977,0.9999987,2.9103833e-10,4.947652e-10,0.0016565325,9
8964248000,0.9795096,0.004319404,-0.0049701114,0.20129043,0.9999987,2.9103833e-10,4.947652e-10,0.0016565325,9
8964300000,0.97947097,0.004327225,-0.0049943184,0.20147689,0.9999987,2.9103833e-10,4.947652e-10,0.0016565325,9
8964352000,0.9794439,0.0042263814,-0.0049798805,0.20161135,0.9999987,2.9103833e-10,4.947652e-10,0.0016565325,9
8964404000,0.9794144,0.0039843116,-0.00490303,0.20176148,0.9999987,2.9103833e-10,4.947652e-10,0.0016565325,9
8964456000,0.97939324,0.003857878,-0.0050436296,0.20186263,0.9999987,2.9103833e-10,4.947652e-10,0.0016565325,9
8964508000,0.9793629,0.0038235246,-0.005197511,0.20200664,0.9999987,2.9103833e-10,4.947652e-10,0.0016565325,9
8964564000,0.9793431,0.0038669892,-0.005164182,0.20210275,0.9999987,2.9103833e-10,4.947652e-10,0.0016565325,9
8964612000,0.97934425,0.0037848933,-0.005202793,0.20209783,0.9999987,2.9103833e-10,4.947652e-10,0.0016565325,9
8964668000,0.97933096,0.0038440023,-0.005176,0.20216203,0.9999987,2.9103833e-10,4.947652e-10,0.0016565325,9
8964716000,0.9793305,0.0038996912,-0.0051635318,0.2021636,0.9999987,2.9103833e-10,4.947652e-10,0.0016565325,9
8964768000,0.97932696,0.004053239,-0.00527193,0.20217423,0.9999987,2.9103833e-10,4.947652e-10,0.0016565325,9
8964820000,0.9793287,0.0041515166,-0.005348072,0.20216206,0.9999987,2.9103833e-10,4.947652e-10,0.0016565325,9
8964872000,0.9793272,0.0040325243,-0.0054722773,0.20216852,0.9999987,2.9103833e-10,4.947652e-10,0.0016565325,9
8964928000,0.97931886,0.0042422973,-0.0056351726,0.20220026,0.9999987,2.9103833e-10,4.947652e-10,0.0016565325,9
8964980000,0.97930515,0.0043796403,-0.00580431,0.20225911,0.9999987,2.9103833e-10,4.947652e-10,0.0016565325,9
8965032000,0.9793158,0.0044664657,-0.0058934763,0.20220235,0.9999987,2.9103833e-10,4.947652e-10,0.0016565325,9
8965080000,0.9793186,0.0043664756,-0.0058993506,0.20219085,0.9999987,2.9103833e-10,4.947652e-10,0.0016565325,9
8965132000,0.9793186,0.004226186,-0.0058232625,0.20219606,0.9999987,2.9103833e-10,4.947652e-10,0.0016565325,9
8965184000,0.97930884,0.0041389964,-0.00587033,0.20224422,0.9999987,2.9103833e-10,4.947652e-10,0.0016565325,9
8965236000,0.97932214,0.004121061,-0.0059278733,0.20217836,0.9999987,2.9103833e-10,4.947652e-10,0.0016565325,9
8965292000,0.9793256,0.004074258,-0.0057991203,0.20216621,0.9999987,2.9103833e-10,4.947652e-10,0.0016565325,9
8965340000,0.9793188,0.0040500844,-0.005774388,0.20220086,0.9999987,2.9103833e-10,4.947652e-10,0.0016565325,9
8965392000,0.97933817,0.0040383316,-0.005786311,0.2021063,0.9999987,2.9103833e-10,4.947652e-10,0.0016565325,9
8965444000,0.9793428,0.00417134,-0.0056443634,0.20208502,0.9999987,2.9103833e-10,4.947652e-10,0.0016565325,9
8965496000,0.9793452,0.0042574983,-0.005642248,0.20207176,0.9999987,2.9103833e-10,4.947652e-10,0.0016565325,9
8965548000,0.9793369,0.0043540807,-0.00556896,0.20211191,0.9999987,2.9103833e-10,4.947652e-10,0.0016565325,9
8965600000,0.9793398,0.004261537,-0.0056353332,0.20209847,0.9999987,2.9103833e-10,4.947652e-10,0.0016565325,9
8965656000,0.97933865,0.0040705446,-0.0057172044,0.20210564,0.9999987,2.9103833e-10,4.947652e-10,0.0016565325,9
8965704000,0.9793446,0.0039748657,-0.0055774427,0.20208223,0.9999987,2.9103833e-10,4.947652e-10,0.0016565325,9
8965760000,0.9793392,0.0039273724,-0.0054790527,0.20211238,0.9999987,2.9103833e-10,4.947652e-10,0.0016565325,9
8965808000,0.97935134,0.0037014624,-0.0053925207,0.20205998,0.9999987,2.9103833e-10,4.947652e-10,0.0016565325,9
8965860000,0.9793609,0.0034969083,-0.005361963,0.20201802,0.9999987,2.9103833e-10,4.947652e-10,0.0016565325,9
8965912000,0.9793517,0.0034134192,-0.005368312,0.20206426,0.9999987,2.9103833e-10,4.947652e-10,0.0016565325,9
8965968000,0.97935766,0.003346724,-0.0054790587,0.20203328,0.9999987,2.9103833e-10,4.947652e-10,0.0016565325,9
8966016000,0.9793557,0.003418025,-0.005470328,0.20204172,0.9999987,2.9103833e-10,4.947652e-10,0.0016565325,9
8966068000,0.97937244,0.0034560852,-0.0053815446,0.2019622,0.9999987,2.9103833e-10,4.947652e-10,0.0016565325,9
8966120000,0.9793772,0.003476507,-0.0052109854,0.2019432,0.9999987,2.9103833e-10,4.947652e-10,0.0016565325,9
8966176000,0.97936934,0.0033878058,-0.004995875,0.20198818,0.9999987,2.9103833e-10,4.947652e-10,0.0016565325,9
8966228000,0.97937334,0.0031981461,-0.004923297,0.201974,0.9999987,2.9103833e-10,4.947652e-10,0.0016565325,9
8966280000,0.9793655,0.0029424913,-0.005089638,0.20201164,0.9999987,2.9103833e-10,4.947652e-10,0.0016565325,9
8966332000,0.9793529,0.002580304,-0.005177774,0.20207529,0.9999987,2.9103833e-10,4.947652e-10,0.0016565325,9
8966380000,0.9793639,0.0023870594,-0.0051948344,0.20202373,0.9999987,2.9103833e-10,4.947652e-10,0.0016565325,9
8966436000,0.9793559,0.0022149344,-0.0049419333,0.20207171,0.9999987,2.9103833e-10,4.947652e-10,0.0016565325,9
8966488000,0.97934955,0.002191913,-0.004741991,0.20210686,0.9999987,2.9103833e-10,4.947652e-10,0.0016565325,9
8966536000,0.9793354,0.0022396836,-0.0046150694,0.20217817,0.9999987,2.9103833e-10,4.947652e-10,0.0016565325,9
8966592000,0.97934026,0.002399661,-0.0047157654,0.2021506,0.9999987,2.9103833e-10,4.947652e-10,0.0016565325,9
8966640000,0.97934103,0.0023865283,-0.004775208,0.20214549,0.9999987,2.9103833e-10,4.947652e-10,0.0016565325,9
8966692000,0.97933775,0.002288267,-0.004902136,0.2021594,0.9999987,2.9103833e-10,4.947652e-10,0.0016565325,9
8966748000,0.97933185,0.002078502,-0.0048452932,0.20219138,0.9999987,2.9103833e-10,4.947652e-10,0.0016565325,9
8966796000,0.97932893,0.0019556151,-0.004601011,0.20221241,0.9999987,2.9103833e-10,4.947652e-10,0.0016565325,9
8966848000,0.9793293,0.0019258219,-0.0044902223,0.20221378,0.9999987,2.9103833e-10,4.947652e-10,0.0016565325,9
8966900000,0.9793353,0.0019011688,-0.0043342095,0.20218806,0.9999987,2.9103833e-10,4.947652e-10,0.0016565325,9
8966952000,0.97933114,0.0018948043,-0.0042641945,0.20221016,0.9999987,2.9103833e-10,4.947652e-10,0.0016565325,9
8967008000,0.97934484,0.0018554707,-0.0044349935,0.2021397,0.9999987,2.9103833e-10,4.947652e-10,0.0016565325,9
8967056000,0.97933507,0.0015908938,-0.0045834873,0.20218638,0.9999987,2.9103833e-10,4.947652e-10,0.0016565325,9
8967112000,0.9793257,0.0013005291,-0.004601623,0.20223352,0.9999987,2.9103833e-10,4.947652e-10,0.0016565325,9
8967160000,0.9793437,0.0011046513,-0.004731333,0.20214435,0.9999987,2.9103833e-10,4.947652e-10,0.0016565325,9
8967212000,0.9793519,0.0010873354,-0.004862165,0.20210151,0.9999987,2.9103833e-10,4.947652e-10,0.0016565325,9
8967264000,0.97936666,0.0009381197,-0.0049778004,0.20202799,0.9999987,2.9103833e-10,4.947652e-10,0.0016565325,9
8967316000,0.97936547,0.00076094014,-0.004912255,0.20203628,0.9999987,2.9103833e-10,4.947652e-10,0.0016565325,9
8967372000,0.97936475,0.00068415614,-0.0046624974,0.20204554,0.9999987,2.9103833e-10,4.947652e-10,0.0016565325,9
8967420000,0.9793646,0.0007143529,-0.0043407944,0.20205401,0.9999987,2.9103833e-10,4.947652e-10,0.0016565325,9
8967472000,0.97936124,0.00078296964,-0.0039607715,0.20207752,0.9999987,2.9103833e-10,4.947652e-10,0.0016565325,9
8967524000,0.97938925,0.00094369904,-0.0038238938,0.2019439,0.9999987,2.9103833e-10,4.947652e-10,0.0016565325,9
8967580000,0.9793997,0.0009311442,-0.0038373827,0.20189291,0.9999987,2.9103833e-10,4.947652e-10,0.0016565325,9
8967632000,0.979392,0.0006665036,-0.0036992035,0.20193364,0.9999987,2.9103833e-10,4.947652e-10,0.0016565325,9
8967680000,0.97937626,0.00046627157,-0.0036683166,0.20201148,0.9999987,2.9103833e-10,4.947652e-10,0.0016565325,9
8967732000,0.979388,0.00041596746,-0.0035392353,0.20195656,0.9999987,2.9103833e-10,4.947652e-10,0.0016565325,9
8967784000,0.97938484,0.00047974757,-0.003572143,0.20197125,0.9999987,2.9103833e-10,4.947652e-10,0.0016565325,9
8967840000,0.97937775,0.00047868732,-0.0035658202,0.2020058,0.9999987,2.9103833e-10,4.947652e-10,0.0016565325,9
8967888000,0.97935784,0.00067160703,-0.0035200878,0.20210245,0.9999987,2.9103833e-10,4.947652e-10,0.0016565325,9
8967940000,0.9793656,0.0010502513,-0.003649726,0.2020612,0.9999987,2.9103833e-10,4.947652e-10,0.0016565325,9
8967992000,0.97937036,0.0013353913,-0.0036647022,0.20203644,0.9999987,2.9103833e-10,4.947652e-10,0.0016565325,9
8968044000,0.9793627,0.001542045,-0.0037092757,0.20207106,0.9999987,2.9103833e-10,4.947652e-10,0.0016565325,9
8968096000,0.9793653,0.0015700485,-0.003574314,0.20206065,0.9999987,2.9103833e-10,4.947652e-10,0.0016565325,9
8968148000,0.9793585,0.0015449984,-0.0033945742,0.20209679,0.9999987,2.9103833e-10,4.947652e-10,0.0016565325,9
8968204000,0.9793492,0.0016522955,-0.003196948,0.20214427,0.9999987,2.9103833e-10,4.947652e-10,0.0016565325,9
8968252000,0.979349,0.0015257305,-0.0030093512,0.20214894,0.9999987,2.9103833e-10,4.947652e-10,0.0016565325,9
8968304000,0.9793572,0.0012728705,-0.0029281885,0.20211242,0.9999987,2.9103833e-10,4.947652e-10,0.0016565325,9
8968356000,0.97934836,0.0012283308,-0.0030335214,0.20215386,0.9999987,2.9103833e-10,4.947652e-10,0.0016565325,9
8968408000,0.97934496,0.001293979,-0.002990973,0.20217058,0.9999987,2.9103833e-10,4.947652e-10,0.0016565325,9
8968460000,0.97934407,0.001202958,-0.0029453794,0.20217599,0.9999987,2.9103833e-10,4.947652e-10,0.0016565325,9
8968512000,0.9793573,0.0011608148,-0.0028522226,0.20211358,0.9999987,2.9103833e-10,4.947652e-10,0.0016565325,9
8968564000,0.9793652,0.0012572033,-0.0026501354,0.20207699,0.9999987,2.9103833e-10,4.947652e-10,0.0016565325,9
8968620000,0.9793626,0.001346756,-0.0024581105,0.20209204,0.9999987,2.9103833e-10,4.947652e-10,0.0016565325,9
8968668000,0.97935814,0.0010665947,-0.0024735937,0.20211476,0.9999987,2.9103833e-10,4.947652e-10,0.0016565325,9
8968720000,0.9793563,0.0008461907,-0.0025043674,0.20212474,0.9999987,2.9103833e-10,4.947652e-10,0.0016565325,9
8968772000,0.97934544,0.0008267429,-0.002606964,0.20217621,0.9999987,2.9103833e-10,4.947652e-10,0.0016565325,9
8968824000,0.9793325,0.00096273876,-0.002675042,0.2022373,0.9999987,2.9103833e-10,4.947652e-10,0.0016565325,9
8968876000,0.9793466,0.0012607748,-0.0028026674,0.20216572,0.9999987,2.9103833e-10,4.947652e-10,0.0016565325,9
8968928000,0.97933745,0.001276253,-0.0026320776,0.2022119,0.9999987,2.9103833e-10,4.947652e-10,0.0016565325,9
8968980000,0.97934234,0.0012075215,-0.0025739863,0.20218955,0.9999987,2.9103833e-10,4.947652e-10,0.0016565325,9
8969032000,0.9793358,0.0010755527,-0.0026440523,0.20222098,0.9999987,2.9103833e-10,4.947652e-10,0.0016565325,9
8969084000,0.9793405,0.0010461153,-0.0024886108,0.20220028,0.9999987,2.9103833e-10,4.947652e-10,0.0016565325,9
8969136000,0.97934073,0.0011377314,-0.0023302156,0.20220032,0.9999987,2.9103833e-10,4.947652e-10,0.0016565325,9
8969188000,0.979338,0.0010613091,-0.0022502765,0.20221534,0.9999987,2.9103833e-10,4.947652e-10,0.0016565325,9
8969240000,0.97934633,0.0008223067,-0.002199504,0.20217665,0.9999987,2.9103833e-10,4.947652e-10,0.0016565325,9
8969292000,0.9793512,0.00053753343,-0.0022061688,0.20215383,0.9999987,2.9103833e-10,4.947652e-10,0.0016565325,9
8969344000,0.9793458,0.00033209223,-0.002101274,0.20218161,0.9999987,2.9103833e-10,4.947652e-10,0.0016565325,9
8969396000,0.97934514,0.0004271284,-0.00201755,0.2021852,0.9999987,2.9103833e-10,4.947652e-10,0.0016565325,9
8969448000,0.97935003,0.0006964362,-0.0021126643,0.20216008,0.9999987,2.9103833e-10,4.947652e-10,0.0016565325,9
8969500000,0.9793481,0.0007117792,-0.0023053242,0.20216696,0.9999987,2.9103833e-10,4.947652e-10,0.0016565325,9
8969552000,0.97934055,0.0006242143,-0.0025354258,0.20220128,0.9999987,2.9103833e-10,4.947652e-10,0.0016565325,9
8969604000,0.97933364,0.0006245396,-0.002631359,0.20223324,0.9999987,2.9103833e-10,4.947652e-10,0.0016565325,9
8969660000,0.97934335,0.00063986564,-0.0025980184,0.20218696,0.9999987,2.9103833e-10,4.947652e-10,0.0016565325,9
8969708000,0.979354,0.00067092205,-0.0024053697,0.20213762,0.9999987,2.9103833e-10,4.947652e-10,0.0016565325,9
8969760000,0.9793519,0.00072409323,-0.0022640328,0.20214926,0.9999987,2.9103833e-10,4.947652e-10,0.0016565325,9
8969812000,0.9793422,0.0007662879,-0.002174415,0.20219679,0.9999987,2.9103833e-10,4.947652e-10,0.0016565325,9
8969864000,0.97935367,0.0007829743,-0.0020625112,0.20214228,0.9999987,2.9103833e-10,4.947652e-10,0.0016565325,9
8969916000,0.979365,0.00083555916,-0.0020429979,0.2020876,0.9999987,2.9103833e-10,4.947652e-10,0.0016565325,9
8969968000,0.9793792,0.00077491207,-0.0021337727,0.20201848,0.9999987,2.9103833e-10,4.947652e-10,0.0016565325,9
8970020000,0.97937274,0.0006309107,-0.0020869314,0.20205018,0.9999987,2.9103833e-10,4.947652e-10,0.0016565325,9
8970076000,0.979374,0.0005165144,-0.0019955551,0.20204532,0.9999987,2.9103833e-10,4.947652e-10,0.0016565325,9
8970128000,0.9793817,0.0004609155,-0.0018242052,0.20201011,0.9999987,2.9103833e-10,4.947652e-10,0.0016565325,9
8970176000,0.9793778,0.00043199936,-0.0017697188,0.20202923,0.9999987,2.9103833e-10,4.947652e-10,0.0016565325,9
8970228000,0.97938126,0.0003164479,-0.001969151,0.20201096,0.9999987,2.9103833e-10,4.947652e-10,0.0016565325,9
8970280000,0.9793685,0.0001970334,-0.0021740126,0.20207109,0.9999987,2.9103833e-10,4.947652e-10,0.0016565325,9
8970336000,0.97936374,5.5315933e-05,-0.0023045368,0.20209236,0.9999987,2.9103833e-10,4.947652e-10,0.0016565325,9
8970384000,0.9793619,-3.981563e-06,-0.002365007,0.20210086,0.9999987,2.9103833e-10,4.947652e-10,0.0016565325,9
8970436000,0.97935027,6.442299e-05,-0.002602373,0.20215404,0.9999987,2.9103833e-10,4.947652e-10,0.0016565325,9
8970488000,0.97934544,0.00022391809,-0.0025663846,0.20217824,0.9999987,2.9103833e-10,4.947652e-10,0.0016565325,9
8970540000,0.97933984,0.000394108,-0.0025986745,0.20220464,0.9999987,2.9103833e-10,4.947652e-10,0.0016565325,9
8970596000,0.97934115,0.0003802425,-0.0026184095,0.20219785,0.9999987,2.9103833e-10,4.947652e-10,0.0016565325,9
8970648000,0.9793499,0.00037640688,-0.002518183,0.20215715,0.9999987,2.9103833e-10,4.947652e-10,0.0016565325,9
8970696000,0.9793469,0.00039565138,-0.0024601922,0.20217226,0.9999987,2.9103833e-10,4.947652e-10,0.0016565325,9
8970752000,0.97935665,0.0002504279,-0.0024423953,0.20212537,0.9999987,2.9103833e-10,4.947652e-10,0.0016565325,9
8970800000,0.9793605,9.266949e-05,-0.002294054,0.20210868,0.9999987,2.9103833e-10,4.947652e-10,0.0016565325,9
8970852000,0.97936887,-4.4395612e-05,-0.0019585125,0.20207179,0.9999987,2.9103833e-10,4.947652e-10,0.0016565325,9
8970904000,0.97936904,5.4867505e-05,-0.0016774423,0.20207332,0.9999987,2.9103833e-10,4.947652e-10,0.0016565325,9
8970956000,0.9793639,-0.00013603238,-0.0016090478,0.20209861,0.9999987,2.9103833e-10,4.947652e-10,0.0016565325,9
8971008000,0.97935134,-0.00039711242,-0.0016733332,0.20215873,0.9999987,2.9103833e-10,4.947652e-10,0.0016565325,9
8971060000,0.9793483,-0.0004757738,-0.0015655074,0.20217392,0.9999987,2.9103833e-10,4.947652e-10,0.0016565325,9
8971112000,0.9793443,-0.00049125205,-0.0015805206,0.2021929,0.9999987,2.9103833e-10,4.947652e-10,0.0016565325,9
8971164000,0.97934705,-0.00048911554,-0.0017688033,0.20217818,0.9999987,2.9103833e-10,4.947652e-10,0.0016565325,9
8971216000,0.97934926,-0.00057691423,-0.0019562792,0.20216577,0.9999987,2.9103833e-10,4.947652e-10,0.0016565325,9
8971272000,0.97935706,-0.00054408645,-0.0020127126,0.20212756,0.9999987,2.9103833e-10,4.947652e-10,0.0016565325,9
8971320000,0.97934985,-0.00070532697,-0.0020091285,0.20216173,0.9999987,2.9103833e-10,4.947652e-10,0.0016565325,9
8971372000,0.97935927,-0.0006690141,-0.0021504909,0.20211451,0.9999987,2.9103833e-10,4.947652e-10,0.0016565325,9
8971424000,0.9793611,-0.00053793093,-0.0022789906,0.20210505,0.9999987,2.9103833e-10,4.947652e-10,0.0016565325,9
8971480000,0.9793518,-0.0005953141,-0.0023469385,0.20214884,0.9999987,2.9103833e-10,4.947652e-10,0.0016565325,9
8971532000,0.9793582,-0.0003543137,-0.002442489,0.20211755,0.9999987,2.9103833e-10,4.947652e-10,0.0016565325,9
8971580000,0.9793568,-0.0001407478,-0.0023968022,0.20212524,0.9999987,2.9103833e-10,4.947652e-10,0.0016565325,9
8971632000,0.97936153,0.00015870747,-0.0024453255,0.20210175,0.9999987,2.9103833e-10,4.947652e-10,0.0016565325,9
8971688000,0.9793456,0.0001426874,-0.002614325,0.20217665,0.9999987,2.9103833e-10,4.947652e-10,0.0016565325,9
8971736000,0.97935146,0.00027639305,-0.0026727945,0.20214729,0.9999987,2.9103833e-10,4.947652e-10,0.0016565325,9
8971788000,0.9793521,0.0002115323,-0.0027005225,0.20214424,0.9999987,2.9103833e-10,4.947652e-10,0.0016565325,9
8971840000,0.97936785,0.00017374929,-0.0028321513,0.20206594,0.9999987,2.9103833e-10,4.947652e-10,0.0016565325,9
8971892000,0.9793758,2.8757746e-05,-0.0028641454,0.20202723,0.9999987,2.9103833e-10,4.947652e-10,0.0016565325,9
8971944000,0.9793671,-8.8151566e-05,-0.0029313287,0.20206845,0.9999987,2.9103833e-10,4.947652e-10,0.0016565325,9
8971996000,0.9793633,-0.0003165769,-0.003088985,0.20208405,0.9999987,2.9103833e-10,4.947652e-10,0.0016565325,9
8972048000,0.97936434,-0.0004692984,-0.0031572669,0.20207779,0.9999987,2.9103833e-10,4.947652e-10,0.0016565325,9
8972100000,0.9793565,-0.00034360503,-0.0029221787,0.20211904,0.9999987,2.9103833e-10,4.947652e-10,0.0016565325,9
8972156000,0.9793651,-0.00021505194,-0.0029245797,0.20207793,0.9999987,2.9103833e-10,4.947652e-10,0.0016565325,9
8972208000,0.9793572,-0.0002753919,-0.0029721565,0.20211582,0.9999987,2.9103833e-10,4.947652e-10,0.0016565325,9
8972260000,0.9793465,-0.0005049866,-0.0030658634,0.20216547,0.9999987,2.9103833e-10,4.947652e-10,0.0016565325,9
8972308000,0.9793356,-0.00069424295,-0.0031514384,0.20221658,0.9999987,2.9103833e-10,4.947652e-10,0.0016565325,9
8972364000,0.9793472,-0.00072466,-0.0032632987,0.20215821,0.9999987,2.9103833e-10,4.947652e-10,0.0016565325,9
8972412000,0.9793398,-0.001016449,-0.0031807867,0.20219436,0.9999987,2.9103833e-10,4.947652e-10,0.0016565325,9
8972464000,0.9793415,-0.001154972,-0.003171947,0.20218544,0.9999987,2.9103833e-10,4.947652e-10,0.0016565325,9
8972516000,0.9793388,-0.0012895511,-0.003214776,0.20219699,0.9999987,2.9103833e-10,4.947652e-10,0.0016565325,9
8972568000,0.9793364,-0.0013428407,-0.0032948887,0.20220684,0.9999987,2.9103833e-10,4.947652e-10,0.0016565325,9
8972624000,0.97932684,-0.001319564,-0.003201946,0.20225495,0.9999987,2.9103833e-10,4.947652e-10,0.0016565325,9
8972672000,0.97933114,-0.00140083,-0.0030522833,0.20223588,0.9999987,2.9103833e-10,4.947652e-10,0.0016565325,9
8972724000,0.9793245,-0.0015828938,-0.0028259654,0.2022699,0.9999987,2.9103833e-10,4.947652e-10,0.0016565325,9
8972780000,0.97932774,-0.0016357264,-0.0026744877,0.20225549,0.9999987,2.9103833e-10,4.947652e-10,0.0016565325,9
8972828000,0.9793371,-0.0015884173,-0.0025295392,0.20221289,0.9999987,2.9103833e-10,4.947652e-10,0.0016565325,9
8972880000,0.97936064,-0.0014676732,-0.0024277256,0.20210063,0.9999987,2.9103833e-10,4.947652e-10,0.0016565325,9
8972932000,0.97936743,-0.001155931,-0.0024639748,0.20206964,0.9999987,2.9103833e-10,4.947652e-10,0.0016565325,9
8972984000,0.9793586,-0.0010479268,-0.002404908,0.20211352,0.9999987,2.9103833e-10,4.947652e-10,0.0016565325,9
8973036000,0.9793636,-0.0010211589,-0.0023711377,0.20209001,0.9999987,2.9103833e-10,4.947652e-10,0.0016565325,9
8973088000,0.9793591,-0.00096568745,-0.0023386069,0.20211223,0.9999987,2.9103833e-10,4.947652e-10,0.0016565325,9
8973140000,0.9793594,-0.00089336606,-0.0023164027,0.20211147,0.9999987,2.9103833e-10,4.947652e-10,0.0016565325,9
8973192000,0.97937167,-0.00064999313,-0.0023958806,0.20205207,0.9999987,2.9103833e-10,4.947652e-10,0.0016565325,9
8973244000,0.9793747,-0.00044999906,-0.0023742034,0.20203811,0.9999987,2.9103833e-10,4.947652e-10,0.0016565325,9
8973296000,0.97937226,-0.00016172299,-0.002131875,0.20205311,0.9999987,2.9103833e-10,4.947652e-10,0.0016565325,9
8973348000,0.97935444,0.000102135666,-0.0020645212,0.20213988,0.9999987,2.9103833e-10,4.947652e-10,0.0016565325,9
8973404000,0.9793591,0.00019777402,-0.002079644,0.20211719,0.9999987,2.9103833e-10,4.947652e-10,0.0016565325,9
8973452000,0.9793554,0.00017724176,-0.0021095572,0.2021347,0.9999987,2.9103833e-10,4.947652e-10,0.0016565325,9
8973504000,0.97934675,-5.1541192e-05,-0.002350097,0.20217463,0.9999987,2.9103833e-10,4.947652e-10,0.0016565325,9
8973556000,0.979335,-8.5967506e-05,-0.0024109131,0.20223062,0.9999987,2.9103833e-10,4.947652e-10,0.0016565325,9
8973608000,0.97934324,-3.7119215e-05,-0.0024205162,0.20219082,0.9999987,2.9103833e-10,4.947652e-10,0.0016565325,9
8973660000,0.97934794,-3.4204495e-05,-0.002221191,0.2021702,0.9999987,2.9103833e-10,4.947652e-10,0.0016565325,9
8973712000,0.97933966,-8.715571e-05,-0.0020549006,0.20221224,0.9999987,2.9103833e-10,4.947652e-10,0.0016565325,9
8973764000,0.9793531,-0.0002842422,-0.0018359292,0.20214893,0.9999987,2.9103833e-10,4.947652e-10,0.0016565325,9
8973816000,0.97935754,-0.00037694676,-0.0016277438,0.20212927,0.9999987,2.9103833e-10,4.947652e-10,0.0016565325,9
8973868000,0.979353,-0.00045445046,-0.0015255731,0.20215152,0.9999987,2.9103833e-10,4.947652e-10,0.0016565325,9
8973924000,0.9793351,-0.00043717553,-0.0017631807,0.20223622,0.9999987,2.9103833e-10,4.947652e-10,0.0016565325,9
8973972000,0.97934586,-0.0006417741,-0.0017373879,0.20218393,0.9999987,2.9103833e-10,4.947652e-10,0.0016565325,9
8974028000,0.97933495,-0.0005588894,-0.0017317834,0.2022372,0.9999987,2.9103833e-10,4.947652e-10,0.0016565325,9
8974076000,0.97932965,-0.00041115313,-0.0016741058,0.20226325,0.9999987,2.9103833e-10,4.947652e-10,0.0016565325,9
8974128000,0.979329,-0.00013842365,-0.00151121,0.20226845,0.9999987,2.9103833e-10,4.947652e-10,0.0016565325,9
8974180000,0.9793389,-0.00015134351,-0.0013823415,0.20222141,0.9999987,2.9103833e-10,4.947652e-10,0.0016565325,9
8974236000,0.9793463,-0.00012549378,-0.0013499575,0.20218588,0.9999987,2.9103833e-10,4.947652e-10,0.0016565325,9
8974284000,0.97934854,0.00010321571,-0.0013463247,0.20217514,0.9999987,2.9103833e-10,4.947652e-10,0.0016565325,9
8974336000,0.9793426,0.00027813308,-0.0012978122,0.20220394,0.9999987,2.9103833e-10,4.947652e-10,0.0016565325,9
8974388000,0.9793423,0.00019914006,-0.0013546831,0.20220515,0.9999987,2.9103833e-10,4.947652e-10,0.0016565325,9
8974440000,0.9793413,0.00041623128,-0.0013051885,0.20220958,0.9999987,2.9103833e-10,4.947652e-10,0.0016565325,9
8974496000,0.9781102,0.016326716,-0.0071377307,0.20732374,0.9999987,2.9103833e-10,4.947652e-10,0.0016565325,9
8974544000,0.9718478,0.046225734,-0.020789351,0.23009339,0.9999987,2.9103833e-10,4.947652e-10,0.0016565325,9
8974596000,0.9591485,0.0637953,-0.031282682,0.27383536,0.9999987,2.9103833e-10,4.947652e-10,0.0016565325,9
8974648000,0.9414559,0.07220848,-0.035146832,0.32743186,0.9999987,2.9103833e-10,4.947652e-10,0.0016565325,9
8974700000,0.92036855,0.073108844,-0.03261694,0.38277027,0.9999987,2.9103833e-10,4.947652e-10,0.0016565325,9
8974752000,0.8977329,0.065228395,-0.027545514,0.43481272,0.9999987,2.9103833e-10,4.947652e-10,0.0016565325,9
8974804000,0.87489,0.05272147,-0.022563746,0.48091465,0.9999987,2.9103833e-10,4.947652e-10,0.0016565325,9
8974860000,0.8511056,0.039272998,-0.018252496,0.5232053,0.9999987,2.9103833e-10,4.947652e-10,0.0016565325,9
8974908000,0.8318289,0.030184533,-0.01566395,0.55398935,0.9999987,2.9103833e-10,4.947652e-10,0.0016565325,9
8974960000,0.81242424,0.024245156,-0.014346189,0.5823858,0.9999987,2.9103833e-10,4.947652e-10,0.0016565325,9
8975012000,0.79479384,0.022125557,-0.014658972,0.60629886,0.9999987,2.9103833e-10,4.947652e-10,0.0016565325,9
8975064000,0.7791409,0.022217812,-0.015974496,0.62625146,0.9999987,2.9103833e-10,4.947652e-10,0.0016565325,9
8975120000,0.7643841,0.023421949,-0.017699486,0.6440924,0.9999987,2.9103833e-10,4.947652e-10,0.0016565325,9
8975168000,0.7533432,0.02484403,-0.019203952,0.65687746,0.9999987,2.9103833e-10,4.947652e-10,0.0016565325,9
8975224000,0.7421053,0.026583165,-0.02030973,0.6694481,0.9999987,2.9103833e-10,4.947652e-10,0.0016565325,9
8975272000,0.73380214,0.027700568,-0.021008288,0.6784732,0.9999987,2.9103833e-10,4.947652e-10,0.0016565325,9
8975324000,0.72604096,0.028429676,-0.02162381,0.68672323,0.9999987,2.9103833e-10,4.947652e-10,0.0016565325,9
8975376000,0.719348,0.029094892,-0.02186626,0.6936958,0.9999987,2.9103833e-10,4.947652e-10,0.0016565325,9
8975428000,0.7136292,0.029768776,-0.02227816,0.6995362,0.9999987,2.9103833e-10,4.947652e-10,0.0016565325,9
8975480000,0.70871323,0.030164523,-0.022733606,0.7044849,0.9999987,2.9103833e-10,4.947652e-10,0.0016565325,9
8975532000,0.7044644,0.030376678,-0.023279967,0.7087068,0.9999987,2.9103833e-10,4.947652e-10,0.0016565325,9
8975588000,0.7006454,0.030715901,-0.023644805,0.71245605,0.9999987,2.9103833e-10,4.947652e-10,0.0016565325,9
8975640000,0.6976894,0.03117481,-0.023814881,0.7153255,0.9999987,2.9103833e-10,4.947652e-10,0.0016565325,9
8975688000,0.69532996,0.031610403,-0.02412184,0.71758986,0.9999987,2.9103833e-10,4.947652e-10,0.0016565325,9
8975744000,0.69301367,0.03205934,-0.024633832,0.71978986,0.9999987,2.9103833e-10,4.947652e-10,0.0016565325,9
8975792000,0.6913784,0.032509916,-0.025030127,0.72132695,0.9999987,2.9103833e-10,4.947652e-10,0.0016565325,9
8975848000,0.6897124,0.033033025,-0.025642334,0.7228749,0.9999987,2.9103833e-10,4.947652e-10,0.0016565325,9
8975896000,0.6884973,0.033556923,-0.025978087,0.7239962,0.9999987,2.9103833e-10,4.947652e-10,0.0016565325,9
8975948000,0.6874024,0.034293085,-0.02636706,0.7249874,0.9999987,2.9103833e-10,4.947652e-10,0.0016565325,9
8976000000,0.6864769,0.035003472,-0.026750475,0.72581595,0.9999987,2.9103833e-10,4.947652e-10,0.0016565325,9
8976052000,0.6856871,0.035696477,-0.02727101,0.726509,0.9999987,2.9103833e-10,4.947652e-10,0.0016565325,9
8976104000,0.6849985,0.036357533,-0.027890755,0.72710204,0.9999987,2.9103833e-10,4.947652e-10,0.0016565325,9
8976160000,0.684416,0.037062723,-0.028455943,0.72759295,0.9999987,2.9103833e-10,4.947652e-10,0.0016565325,9
8976212000,0.6840022,0.037741777,-0.028910212,0.72792906,0.9999987,2.9103833e-10,4.947652e-10,0.0016565325,9
8976260000,0.68368185,0.038517468,-0.02932072,0.728173,0.9999987,2.9103833e-10,4.947652e-10,0.0016565325,9
8976312000,0.68336886,0.03929825,-0.029814875,0.72840494,0.9999987,2.9103833e-10,4.947652e-10,0.0016565325,9
8976364000,0.683091,0.04019725,-0.030493628,0.72858846,0.9999987,2.9103833e-10,4.947652e-10,0.0016565325,9
8976420000,0.6828177,0.040899154,-0.031081896,0.7287806,0.9999987,2.9103833e-10,4.947652e-10,0.0016565325,9
8976468000,0.6826042,0.041564584,-0.03167916,0.72891724,0.9999987,2.9103833e-10,4.947652e-10,0.0016565325,9
8976520000,0.682437,0.04236791,-0.032317203,0.7289996,0.9999987,2.9103833e-10,4.947652e-10,0.0016565325,9
8976576000,0.68240345,0.04309477,-0.032950327,0.72896004,0.9999987,2.9103833e-10,4.947652e-10,0.0016565325,9
8976624000,0.68233025,0.043727208,-0.033588167,0.72896177,0.9999987,2.9103833e-10,4.947652e-10,0.0016565325,9
8976676000,0.6822819,0.04453144,-0.034352724,0.72892267,0.9999987,2.9103833e-10,4.947652e-10,0.0016565325,9
8976732000,0.68226093,0.045320373,-0.0350598,0.7288601,0.9999987,2.9103833e-10,4.947652e-10,0.0016565325,9
8976780000,0.6822062,0.04607403,-0.03566042,0.72883487,0.9999987,2.9103833e-10,4.947652e-10,0.0016565325,9
8976832000,0.68213147,0.046837762,-0.03632891,0.7288231,0.9999987,2.9103833e-10,4.947652e-10,0.0016565325,9
8976884000,0.68219763,0.047382616,-0.037093855,0.72868747,0.9999987,2.9103833e-10,4.947652e-10,0.0016565325,9
8976936000,0.68220496,0.048109166,-0.037736747,0.7286,0.9999987,2.9103833e-10,4.947652e-10,0.0016565325,9
8976992000,0.68218136,0.048956443,-0.038183834,0.72854227,0.9999987,2.9103833e-10,4.947652e-10,0.0016565325,9
8977040000,0.68215525,0.049551036,-0.03891014,0.7284882,0.9999987,2.9103833e-10,4.947652e-10,0.0016565325,9
8977092000,0.6821598,0.05043613,-0.03961849,0.728385,0.9999987,2.9103833e-10,4.947652e-10,0.0016565325,9
8977144000,0.682196,0.051329784,-0.040358573,0.72824794,0.9999987,2.9103833e-10,4.947652e-10,0.0016565325,9
8977200000,0.6822451,0.052061077,-0.041200735,0.7281029,0.9999987,2.9103833e-10,4.947652e-10,0.0016565325,9
8977248000,0.682249,0.05280778,-0.04200973,0.72799927,0.9999987,2.9103833e-10,4.947652e-10,0.0016565325,9
8977300000,0.6823129,0.053492714,-0.043100737,0.7278256,0.9999987,2.9103833e-10,4.947652e-10,0.0016565325,9
8977352000,0.68233836,0.05451148,-0.044135246,0.7276641,0.9999987,2.9103833e-10,4.947652e-10,0.0016565325,9
8977404000,0.6823704,0.055468295,-0.04511469,0.72750163,0.9999987,2.9103833e-10,4.947652e-10,0.0016565325,9
8977460000,0.6823922,0.05643576,-0.0464022,0.72732586,0.9999987,2.9103833e-10,4.947652e-10,0.0016565325,9
8977508000,0.68240273,0.057040114,-0.047282808,0.7272121,0.9999987,2.9103833e-10,4.947652e-10,0.0016565325,9
8977560000,0.6824297,0.05771504,-0.048116088,0.72707886,0.9999987,2.9103833e-10,4.947652e-10,0.0016565325,9
8977612000,0.6824245,0.058431104,-0.04875191,0.72698414,0.9999987,2.9103833e-10,4.947652e-10,0.0016565325,9
8977664000,0.68248224,0.059091855,-0.049488008,0.7268268,0.9999987,2.9103833e-10,4.947652e-10,0.0016565325,9
8977716000,0.6824896,0.059715327,-0.050243728,0.7267171,0.9999987,2.9103833e-10,4.947652e-10,0.0016565325,9
8977768000,0.6825369,0.060487717,-0.051046215,0.7265528,0.9999987,2.9103833e-10,4.947652e-10,0.0016565325,9
8977820000,0.68258667,0.061319295,-0.05196746,0.72637093,0.9999987,2.9103833e-10,4.947652e-10,0.0016565325,9
8977872000,0.6825859,0.06228115,-0.053119574,0.72620654,0.9999987,2.9103833e-10,4.947652e-10,0.0016565325,9
8977924000,0.68256897,0.06327931,-0.05439273,0.7260419,0.9999987,2.9103833e-10,4.947652e-10,0.0016565325,9
8977980000,0.6825994,0.0643222,-0.055525295,0.72583586,0.9999987,2.9103833e-10,4.947652e-10,0.0016565325,9
8978032000,0.68256664,0.065350376,-0.056597304,0.725692,0.9999987,2.9103833e-10,4.947652e-10,0.0016565325,9
8978084000,0.68255347,0.06632919,-0.057830036,0.72551847,0.9999987,2.9103833e-10,4.947652e-10,0.0016565325,9
8978136000,0.6825384,0.0673423,-0.058948897,0.72534925,0.9999987,2.9103833e-10,4.947652e-10,0.0016565325,9
8978188000,0.6825516,0.068019606,-0.05988301,0.72519696,0.9999987,2.9103833e-10,4.947652e-10,0.0016565325,9
8978236000,0.6826383,0.06750956,-0.059756745,0.7251735,0.9999987,2.9103833e-10,4.947652e-10,0.0016565325,9
8978292000,0.68290514,0.0650214,-0.057608113,0.72532344,0.9999987,2.9103833e-10,4.947652e-10,0.0016565325,9
8978340000,0.6832714,0.061663635,-0.054480385,0.72551334,0.9999987,2.9103833e-10,4.947652e-10,0.0016565325,9
8978396000,0.68368423,0.057501677,-0.05038873,0.725762,0.9999987,2.9103833e-10,4.947652e-10,0.0016565325,9
8978444000,0.6840756,0.053769827,-0.04709336,0.7259006,0.9999987,2.9103833e-10,4.947652e-10,0.0016565325,9
8978496000,0.68437594,0.050318077,-0.04420686,0.7260464,0.9999987,2.9103833e-10,4.947652e-10,0.0016565325,9
8978552000,0.6846303,0.047560327,-0.041764688,0.72613716,0.9999987,2.9103833e-10,4.947652e-10,0.0016565325,9
8978600000,0.68481493,0.04587555,-0.04019146,0.7261602,0.9999987,2.9103833e-10,4.947652e-10,0.0016565325,9
8978652000,0.6849619,0.04446291,-0.038803793,0.72618496,0.9999987,2.9103833e-10,4.947652e-10,0.0016565325,9
8978704000,0.68512356,0.04299184,-0.037714344,0.7261784,0.9999987,2.9103833e-10,4.947652e-10,0.0016565325,9
8978756000,0.6852156,0.041634113,-0.036861245,0.72621447,0.9999987,2.9103833e-10,4.947652e-10,0.0016565325,9
8978808000,0.68537253,0.04047647,-0.036101352,0.72617006,0.9999987,2.9103833e-10,4.947652e-10,0.0016565325,9
8978860000,0.6854856,0.039150294,-0.035544768,0.7261635,0.9999987,2.9103833e-10,4.947652e-10,0.0016565325,9
8978912000,0.6856058,0.03807685,-0.035027195,0.7261322,0.9999987,2.9103833e-10,4.947652e-10,0.0016565325,9
8978964000,0.6857152,0.037146423,-0.034361266,0.72610897,0.9999987,2.9103833e-10,4.947652e-10,0.0016565325,9
8979016000,0.6858229,0.036373064,-0.03352639,0.7260854,0.9999987,2.9103833e-10,4.947652e-10,0.0016565325,9
8979068000,0.6859183,0.035620138,-0.03243658,0.7260821,0.9999987,2.9103833e-10,4.947652e-10,0.0016565325,9
8979120000,0.68598413,0.034867555,-0.03136363,0.72610354,0.9999987,2.9103833e-10,4.947652e-10,0.0016565325,9
8979172000,0.68609846,0.034137007,-0.030613974,0.72606224,0.9999987,2.9103833e-10,4.947652e-10,0.0016565325,9
8979228000,0.68616146,0.03327239,-0.0301536,0.7260621,0.9999987,2.9103833e-10,4.947652e-10,0.0016565325,9
8979276000,0.6862357,0.03258089,-0.029701332,0.7260419,0.9999987,2.9103833e-10,4.947652e-10,0.0016565325,9
8979332000,0.6863647,0.031631127,-0.029546667,0.7259683,0.9999987,2.9103833e-10,4.947652e-10,0.0016565325,9
8979380000,0.68641734,0.030634314,-0.02943304,0.725966,0.9999987,2.9103833e-10,4.947652e-10,0.0016565325,9
8979436000,0.68649954,0.029679358,-0.029027505,0.72594416,0.9999987,2.9103833e-10,4.947652e-10,0.0016565325,9
8979484000,0.68659365,0.028954579,-0.02853882,0.7259038,0.9999987,2.9103833e-10,4.947652e-10,0.0016565325,9
8979536000,0.6866505,0.027997166,-0.028476369,0.7258901,0.9999987,2.9103833e-10,4.947652e-10,0.0016565325,9
8979592000,0.6868091,0.026908567,-0.028588425,0.7257768,0.9999987,2.9103833e-10,4.947652e-10,0.0016565325,9
8979644000,0.6868376,0.02597277,-0.028540231,0.7257858,0.9999987,2.9103833e-10,4.947652e-10,0.0016565325,9
8979692000,0.6868997,0.025275808,-0.028333014,0.72575974,0.9999987,2.9103833e-10,4.947652e-10,0.0016565325,9
8979744000,0.6869933,0.024120549,-0.028261017,0.7257133,0.9999987,2.9103833e-10,4.947652e-10,0.0016565325,9
8979796000,0.68705946,0.023017716,-0.028202647,0.72568876,0.9999987,2.9103833e-10,4.947652e-10,0.0016565325,9
8979848000,0.68715054,0.022037504,-0.028122915,0.72563607,0.9999987,2.9103833e-10,4.947652e-10,0.0016565325,9
8979900000,0.68716943,0.02080343,-0.028119916,0.72565466,0.9999987,2.9103833e-10,4.947652e-10,0.0016565325,9
8979952000,0.6872024,0.019247832,-0.028210122,0.7256629,0.9999987,2.9103833e-10,4.947652e-10,0.0016565325,9
8980004000,0.6872456,0.017801283,-0.028621051,0.7256428,0.9999987,2.9103833e-10,4.947652e-10,0.0016565325,9
8980060000,0.68731713,0.016332233,-0.028804323,0.7256024,0.9999987,2.9103833e-10,4.947652e-10,0.0016565325,9
8980112000,0.6873455,0.014451946,-0.02894382,0.7256099,0.9999987,2.9103833e-10,4.947652e-10,0.0016565325,9
8980164000,0.68743855,0.011885668,-0.029196624,0.72555816,0.9999987,2.9103833e-10,4.947652e-10,0.0016565325,9
8980216000,0.6875313,0.008940384,-0.02964945,0.72549415,0.9999987,2.9103833e-10,4.947652e-10,0.0016565325,9
8980268000,0.6875803,0.0057185,-0.030094013,0.72546196,0.9999987,2.9103833e-10,4.947652e-10,0.0016565325,9
8980316000,0.6876751,0.0018261299,-0.030527582,0.72537416,0.9999987,2.9103833e-10,4.947652e-10,0.0016565325,9
8980368000,0.6877206,-0.0036569524,-0.030811269,0.72531223,0.9999987,2.9103833e-10,4.947652e-10,0.0016565325,9
8980420000,0.68770933,-0.010416133,-0.030667264,0.72526336,0.9999987,2.9103833e-10,4.947652e-10,0.0016565325,9
8980472000,0.6877244,-0.018726015,-0.029232277,0.72514135,0.9999987,2.9103833e-10,4.947652e-10,0.0016565325,9
8980524000,0.687684,-0.029365165,-0.025494875,0.7249679,0.9999987,2.9103833e-10,4.947652e-10,0.0016565325,9
8980576000,0.68711895,-0.04644484,-0.023907827,0.7246647,0.9999987,2.9103833e-10,4.947652e-10,0.0016565325,9
8980628000,0.68492055,-0.07284573,-0.036432624,0.7240511,0.9999987,2.9103833e-10,4.947652e-10,0.0016565325,9
8980680000,0.68275154,-0.08897581,-0.047546446,0.7236526,0.9999987,2.9103833e-10,4.947652e-10,0.0016565325,9
8980732000,0.6815607,-0.09199486,-0.052450698,0.7240587,0.9999987,2.9103833e-10,4.947652e-10,0.0016565325,9
8980784000,0.68111086,-0.08611304,-0.05275858,0.7251821,0.9999987,2.9103833e-10,4.947652e-10,0.0016565325,9
8980836000,0.6811063,-0.07572064,-0.05016548,0.7265288,0.9999987,2.9103833e-10,4.947652e-10,0.0016565325,9
8980888000,0.68125075,-0.06454053,-0.046349127,0.7277251,0.9999987,2.9103833e-10,4.947652e-10,0.0016565325,9
8980940000,0.68130076,-0.054974426,-0.042722017,0.7286851,0.9999987,2.9103833e-10,4.947652e-10,0.0016565325,9
8980992000,0.68125486,-0.0481672,-0.03988379,0.7293703,0.9999987,2.9103833e-10,4.947652e-10,0.0016565325,9
8981044000,0.6811847,-0.04361661,-0.0379521,0.72982514,0.9999987,2.9103833e-10,4.947652e-10,0.0016565325,9
8981096000,0.6810624,-0.040716976,-0.036752388,0.73016804,0.9999987,2.9103833e-10,4.947652e-10,0.0016565325,9
8981152000,0.6808991,-0.038940758,-0.03622727,0.7304435,0.9999987,2.9103833e-10,4.947652e-10,0.0016565325,9
8981200000,0.68078214,-0.03814456,-0.03601214,0.7306051,0.9999987,2.9103833e-10,4.947652e-10,0.0016565325,9
8981252000,0.68056345,-0.03772958,-0.03591938,0.730835,0.9999987,2.9103833e-10,4.947652e-10,0.0016565325,9
8981308000,0.68028784,-0.0376847,-0.036061425,0.73108685,0.9999987,2.9103833e-10,4.947652e-10,0.0016565325,9
8981356000,0.6800602,-0.037625317,-0.03650856,0.7312795,0.9999987,2.9103833e-10,4.947652e-10,0.0016565325,9
8981408000,0.6797552,-0.037509985,-0.0368052,0.731554,0.9999987,2.9103833e-10,4.947652e-10,0.0016565325,9
8981460000,0.67949045,-0.037130516,-0.03711626,0.7318036,0.9999987,2.9103833e-10,4.947652e-10,0.0016565325,9
8981512000,0.6791909,-0.036658656,-0.03727272,0.7320975,0.9999987,2.9103833e-10,4.947652e-10,0.0016565325,9
8981568000,0.678858,-0.0362245,-0.0374515,0.73241866,0.9999987,2.9103833e-10,4.947652e-10,0.0016565325,9
8981616000,0.6785662,-0.035982788,-0.03770442,0.73268795,0.9999987,2.9103833e-10,4.947652e-10,0.0016565325,9
8981668000,0.67821616,-0.035769068,-0.0379939,0.73300743,0.9999987,2.9103833e-10,4.947652e-10,0.0016565325,9
8981720000,0.67793524,-0.0355337,-0.03827673,0.73326397,0.9999987,2.9103833e-10,4.947652e-10,0.0016565325,9
8981772000,0.6776276,-0.035299353,-0.038565718,0.73354447,0.9999987,2.9103833e-10,4.947652e-10,0.0016565325,9
8981828000,0.67725646,-0.03518718,-0.038850635,0.73387754,0.9999987,2.9103833e-10,4.947652e-10,0.0016565325,9
8981876000,0.6769581,-0.035225954,-0.038885016,0.73414904,0.9999987,2.9103833e-10,4.947652e-10,0.0016565325,9
8981928000,0.67653006,-0.03537797,-0.039100565,0.73452485,0.9999987,2.9103833e-10,4.947652e-10,0.0016565325,9
8981980000,0.6761803,-0.03548287,-0.03924462,0.7348341,0.9999987,2.9103833e-10,4.947652e-10,0.0016565325,9
8982036000,0.6757349,-0.03543273,-0.039534654,0.7352306,0.9999987,2.9103833e-10,4.947652e-10,0.0016565325,9
8982088000,0.6753181,-0.035212573,-0.039801814,0.73560953,0.9999987,2.9103833e-10,4.947652e-10,0.0016565325,9
8982140000,0.674915,-0.03507688,-0.040270153,0.7359604,0.9999987,2.9103833e-10,4.947652e-10,0.0016565325,9
8982188000,0.67453665,-0.034918956,-0.04076799,0.73628736,0.9999987,2.9103833e-10,4.947652e-10,0.0016565325,9
8982244000,0.6740926,-0.03461032,-0.041131143,0.73668826,0.9999987,2.9103833e-10,4.947652e-10,0.0016565325,9
8982296000,0.67370087,-0.03447206,-0.041300785,0.73704356,0.9999987,2.9103833e-10,4.947652e-10,0.0016565325,9
8982344000,0.673353,-0.034524303,-0.04137364,0.73735476,0.9999987,2.9103833e-10,4.947652e-10,0.0016565325,9
8982400000,0.6729245,-0.03463595,-0.041493736,0.7377339,0.9999987,2.9103833e-10,4.947652e-10,0.0016565325,9
8982448000,0.67247546,-0.034891892,-0.041616615,0.73812425,0.9999987,2.9103833e-10,4.947652e-10,0.0016565325,9
8982504000,0.6720085,-0.035092145,-0.041787785,0.7385302,0.9999987,2.9103833e-10,4.947652e-10,0.0016565325,9
8982556000,0.67161655,-0.03513499,-0.041869882,0.7388801,0.9999987,2.9103833e-10,4.947652e-10,0.0016565325,9
8982604000,0.67115796,-0.035181593,-0.042030282,0.73928535,0.9999987,2.9103833e-10,4.947652e-10,0.0016565325,9
8982656000,0.67069507,-0.03530772,-0.04213336,0.73969346,0.9999987,2.9103833e-10,4.947652e-10,0.0016565325,9
8982708000,0.67030907,-0.035234068,-0.042163078,0.740045,0.9999987,2.9103833e-10,4.947652e-10,0.0016565325,9
8982760000,0.6698879,-0.03520728,-0.042102627,0.740431,0.9999987,2.9103833e-10,4.947652e-10,0.0016565325,9
8982812000,0.66941476,-0.03521556,-0.042105027,0.7408583,0.9999987,2.9103833e-10,4.947652e-10,0.0016565325,9
8982864000,0.66893345,-0.035291698,-0.042129505,0.7412878,0.9999987,2.9103833e-10,4.947652e-10,0.0016565325,9
8982916000,0.66846776,-0.035274636,-0.042288586,0.74169964,0.9999987,2.9103833e-10,4.947652e-10,0.0016565325,9
8982968000,0.6679868,-0.03524915,-0.04254882,0.7421191,0.9999987,2.9103833e-10,4.947652e-10,0.0016565325,9
8983020000,0.6674837,-0.035074413,-0.042811822,0.74256486,0.9999987,2.9103833e-10,4.947652e-10,0.0016565325,9
8983072000,0.6670555,-0.03492687,-0.043092743,0.74294025,0.9999987,2.9103833e-10,4.947652e-10,0.0016565325,9
8983128000,0.66659254,-0.034872305,-0.043418556,0.74333924,0.9999987,2.9103833e-10,4.947652e-10,0.0016565325,9
8983176000,0.6661692,-0.03473674,-0.043684136,0.74370944,0.9999987,2.9103833e-10,4.947652e-10,0.0016565325,9
8983228000,0.6657394,-0.03468837,-0.04400826,0.7440774,0.9999987,2.9103833e-10,4.947652e-10,0.0016565325,9
8983280000,0.6652321,-0.03496899,-0.04410974,0.7445118,0.9999987,2.9103833e-10,4.947652e-10,0.0016565325,9
8983332000,0.664743,-0.035221994,-0.043959618,0.74494547,0.9999987,2.9103833e-10,4.947652e-10,0.0016565325,9
8983384000,0.66424984,-0.035606634,-0.043753795,0.7453791,0.9999987,2.9103833e-10,4.947652e-10,0.0016565325,9
8983440000,0.6637037,-0.035982013,-0.043775473,0.7458462,0.9999987,2.9103833e-10,4.947652e-10,0.0016565325,9
8983488000,0.66330653,-0.035967182,-0.043887965,0.74619347,0.9999987,2.9103833e-10,4.947652e-10,0.0016565325,9
8983544000,0.66277033,-0.035948385,-0.04394873,0.7466671,0.9999987,2.9103833e-10,4.947652e-10,0.0016565325,9
8983592000,0.6622764,-0.035906214,-0.0439804,0.7471054,0.9999987,2.9103833e-10,4.947652e-10,0.0016565325,9
8983648000,0.66179925,-0.03594756,-0.044050053,0.74752206,0.9999987,2.9103833e-10,4.947652e-10,0.0016565325,9
8983700000,0.6613413,-0.035895396,-0.04420034,0.7479208,0.9999987,2.9103833e-10,4.947652e-10,0.0016565325,9
8983748000,0.6608761,-0.036002345,-0.04436752,0.7483169,0.9999987,2.9103833e-10,4.947652e-10,0.0016565325,9
8983800000,0.66035444,-0.036076095,-0.04454322,0.74876326,0.9999987,2.9103833e-10,4.947652e-10,0.0016565325,9
8983852000,0.65987974,-0.035981487,-0.04484928,0.749168,0.9999987,2.9103833e-10,4.947652e-10,0.0016565325,9
8983904000,0.6594094,-0.035970386,-0.044986833,0.74957424,0.9999987,2.9103833e-10,4.947652e-10,0.0016565325,9
8983956000,0.6589011,-0.036122438,-0.045044452,0.7500103,0.9999987,2.9103833e-10,4.947652e-10,0.0016565325,9
8984012000,0.65832835,-0.036122896,-0.04511126,0.7505092,0.9999987,2.9103833e-10,4.947652e-10,0.0016565325,9
8984060000,0.6578956,-0.036114626,-0.045236222,0.75088143,0.9999987,2.9103833e-10,4.947652e-10,0.0016565325,9
8984112000,0.6574366,-0.035905413,-0.045161318,0.75129783,0.9999987,2.9103833e-10,4.947652e-10,0.0016565325,9
8984164000,0.65699047,-0.03574335,-0.045062564,0.7517017,0.9999987,2.9103833e-10,4.947652e-10,0.0016565325,9
8984216000,0.65647626,-0.03567412,-0.04483258,0.7521678,0.9999987,2.9103833e-10,4.947652e-10,0.0016565325,9
8984268000,0.6559413,-0.035742857,-0.04492226,0.7526257,0.9999987,2.9103833e-10,4.947652e-10,0.0016565325,9
8984320000,0.65540093,-0.03591088,-0.04502956,0.75308204,0.9999987,2.9103833e-10,4.947652e-10,0.0016565325,9
8984372000,0.65489966,-0.035946406,-0.045354523,0.75349665,0.9999987,2.9103833e-10,4.947652e-10,0.0016565325,9
8984424000,0.65440565,-0.035981033,-0.045497272,0.75391555,0.9999987,2.9103833e-10,4.947652e-10,0.0016565325,9
8984476000,0.6539416,-0.035934474,-0.04576094,0.7543044,0.9999987,2.9103833e-10,4.947652e-10,0.0016565325,9
8984528000,0.65344024,-0.035903595,-0.045744225,0.75474125,0.9999987,2.9103833e-10,4.947652e-10,0.0016565325,9
8984580000,0.6528883,-0.035955623,-0.04579712,0.755213,0.9999987,2.9103833e-10,4.947652e-10,0.0016565325,9
8984632000,0.6523405,-0.036065593,-0.04597481,0.7556703,0.9999987,2.9103833e-10,4.947652e-10,0.0016565325,9
8984684000,0.65182555,-0.036210824,-0.046267167,0.7560898,0.9999987,2.9103833e-10,4.947652e-10,0.0016565325,9
8984740000,0.65129554,-0.036204074,-0.04640021,0.7565385,0.9999987,2.9103833e-10,4.947652e-10,0.0016565325,9
8984788000,0.65083915,-0.03606084,-0.046487007,0.7569327,0.9999987,2.9103833e-10,4.947652e-10,0.0016565325,9
8984840000,0.6503675,-0.03605844,-0.04685663,0.7573152,0.9999987,2.9103833e-10,4.947652e-10,0.0016565325,9
8984892000,0.6498737,-0.036154475,-0.047060724,0.75772184,0.9999987,2.9103833e-10,4.947652e-10,0.0016565325,9
8984944000,0.649342,-0.036069527,-0.04718329,0.758174,0.9999987,2.9103833e-10,4.947652e-10,0.0016565325,9
8984996000,0.64882976,-0.036106028,-0.047166076,0.7586116,0.9999987,2.9103833e-10,4.947652e-10,0.0016565325,9
8985048000,0.6483844,-0.03623619,-0.047207806,0.7589836,0.9999987,2.9103833e-10,4.947652e-10,0.0016565325,9
8985100000,0.6478498,-0.036534663,-0.047374547,0.75941527,0.9999987,2.9103833e-10,4.947652e-10,0.0016565325,9
8985152000,0.6472403,-0.036698885,-0.04741869,0.75992423,0.9999987,2.9103833e-10,4.947652e-10,0.0016565325,9
8985204000,0.6467358,-0.036815926,-0.04757357,0.7603383,0.9999987,2.9103833e-10,4.947652e-10,0.0016565325,9
8985256000,0.6462737,-0.036912933,-0.04769629,0.7607186,0.9999987,2.9103833e-10,4.947652e-10,0.0016565325,9
8985312000,0.64571846,-0.03693495,-0.047729705,0.7611869,0.9999987,2.9103833e-10,4.947652e-10,0.0016565325,9
8985360000,0.6452142,-0.036863863,-0.047836002,0.76161104,0.9999987,2.9103833e-10,4.947652e-10,0.0016565325,9
8985412000,0.64469564,-0.036734853,-0.04800125,0.76204604,0.9999987,2.9103833e-10,4.947652e-10,0.0016565325,9
8985464000,0.644154,-0.036626626,-0.048093792,0.7625032,0.9999987,2.9103833e-10,4.947652e-10,0.0016565325,9
8985520000,0.64356136,-0.036744013,-0.048256326,0.7629877,0.9999987,2.9103833e-10,4.947652e-10,0.0016565325,9
8985568000,0.64309317,-0.03687505,-0.04834049,0.7633706,0.9999987,2.9103833e-10,4.947652e-10,0.0016565325,9
8985620000,0.64264435,-0.037037466,-0.04849375,0.7637308,0.9999987,2.9103833e-10,4.947652e-10,0.0016565325,9
8985672000,0.6420711,-0.037122678,-0.048594393,0.7642023,0.9999987,2.9103833e-10,4.947652e-10,0.0016565325,9
8985724000,0.64153713,-0.037279148,-0.04882791,0.7646282,0.9999987,2.9103833e-10,4.947652e-10,0.0016565325,9
8985776000,0.640998,-0.03741812,-0.048957627,0.7650651,0.9999987,2.9103833e-10,4.947652e-10,0.0016565325,9
8985828000,0.64044994,-0.0374134,-0.0489099,0.7655273,0.9999987,2.9103833e-10,4.947652e-10,0.0016565325,9
8985880000,0.63992023,-0.03763632,-0.048765823,0.7659683,0.9999987,2.9103833e-10,4.947652e-10,0.0016565325,9
8985932000,0.6394383,-0.03777509,-0.048684314,0.76636916,0.9999987,2.9103833e-10,4.947652e-10,0.0016565325,9
8985988000,0.6389074,-0.037892245,-0.04883841,0.76679623,0.9999987,2.9103833e-10,4.947652e-10,0.0016565325,9
8986036000,0.6383907,-0.03787999,-0.0489959,0.76721686,0.9999987,2.9103833e-10,4.947652e-10,0.0016565325,9
8986088000,0.63783437,-0.03782894,-0.049300205,0.7676626,0.9999987,2.9103833e-10,4.947652e-10,0.0016565325,9
8986144000,0.6371875,-0.037845213,-0.049583405,0.7681806,0.9999987,2.9103833e-10,4.947652e-10,0.0016565325,9
8986192000,0.6366636,-0.03784038,-0.049783655,0.7686022,0.9999987,2.9103833e-10,4.947652e-10,0.0016565325,9
8986248000,0.6361317,-0.037804626,-0.049845498,0.7690402,0.9999987,2.9103833e-10,4.947652e-10,0.0016565325,9
8986296000,0.6356614,-0.03781552,-0.049599607,0.76944435,0.9999987,2.9103833e-10,4.947652e-10,0.0016565325,9
8986348000,0.6351139,-0.03797228,-0.049493227,0.7698953,0.9999987,2.9103833e-10,4.947652e-10,0.0016565325,9
8986400000,0.6345332,-0.03802362,-0.049513232,0.7703701,0.9999987,2.9103833e-10,4.947652e-10,0.0016565325,9
8986452000,0.6340135,-0.038036127,-0.049670808,0.77078724,0.9999987,2.9103833e-10,4.947652e-10,0.0016565325,9
8986504000,0.6334657,-0.038064394,-0.04971545,0.7712332,0.9999987,2.9103833e-10,4.947652e-10,0.0016565325,9
8986556000,0.6328544,-0.037871215,-0.049631882,0.77174985,0.9999987,2.9103833e-10,4.947652e-10,0.0016565325,9
8986608000,0.6323045,-0.03770789,-0.049448695,0.77222013,0.9999987,2.9103833e-10,4.947652e-10,0.0016565325,9
8986660000,0.6317988,-0.037625607,-0.049237315,0.77265155,0.9999987,2.9103833e-10,4.947652e-10,0.0016565325,9
8986716000,0.63123536,-0.037624177,-0.049114224,0.77311975,0.9999987,2.9103833e-10,4.947652e-10,0.0016565325,9
8986768000,0.6306535,-0.037850954,-0.04932048,0.7735703,0.9999987,2.9103833e-10,4.947652e-10,0.0016565325,9
8986816000,0.6300691,-0.038179964,-0.0494727,0.77402043,0.9999987,2.9103833e-10,4.947652e-10,0.0016565325,9
8986868000,0.6294711,-0.038420297,-0.049617182,0.7744857,0.9999987,2.9103833e-10,4.947652e-10,0.0016565325,9
8986920000,0.6289408,-0.038540587,-0.04961719,0.77491045,0.9999987,2.9103833e-10,4.947652e-10,0.0016565325,9
8986976000,0.6283089,-0.038570873,-0.04953226,0.7754269,0.9999987,2.9103833e-10,4.947652e-10,0.0016565325,9
8987024000,0.62775034,-0.038498048,-0.049507942,0.7758843,0.9999987,2.9103833e-10,4.947652e-10,0.0016565325,9
8987080000,0.6271354,-0.038302436,-0.049831532,0.7763703,0.9999987,2.9103833e-10,4.947652e-10,0.0016565325,9
8987128000,0.6266518,-0.03804869,-0.049949493,0.77676564,0.9999987,2.9103833e-10,4.947652e-10,0.0016565325,9
8987180000,0.62605876,-0.037714254,-0.050110556,0.7772496,0.9999987,2.9103833e-10,4.947652e-10,0.0016565325,9
8987232000,0.62549686,-0.03752863,-0.05022177,0.77770376,0.9999987,2.9103833e-10,4.947652e-10,0.0016565325,9
8987284000,0.62492085,-0.0375612,-0.050020248,0.77817816,0.9999987,2.9103833e-10,4.947652e-10,0.0016565325,9
8987336000,0.62433666,-0.037722506,-0.04974912,0.7786565,0.9999987,2.9103833e-10,4.947652e-10,0.0016565325,9
8987388000,0.6237524,-0.037866414,-0.049772743,0.7791161,0.9999987,2.9103833e-10,4.947652e-10,0.0016565325,9
8987440000,0.62319744,-0.03799727,-0.04970089,0.7795583,0.9999987,2.9103833e-10,4.947652e-10,0.0016565325,9
8987492000,0.6226275,-0.03803932,-0.049642563,0.7800153,0.9999987,2.9103833e-10,4.947652e-10,0.0016565325,9
8987548000,0.6219772,-0.038036343,-0.04974576,0.78052735,0.9999987,2.9103833e-10,4.947652e-10,0.0016565325,9
8987596000,0.6214486,-0.03802565,-0.04983887,0.780943,0.9999987,2.9103833e-10,4.947652e-10,0.0016565325,9
8987648000,0.62088984,-0.038053982,-0.05019433,0.7813632,0.9999987,2.9103833e-10,4.947652e-10,0.0016565325,9
8987700000,0.6202968,-0.038085967,-0.0505024,0.78181255,0.9999987,2.9103833e-10,4.947652e-10,0.0016565325,9
8987752000,0.6196479,-0.038060155,-0.050704625,0.78231514,0.9999987,2.9103833e-10,4.947652e-10,0.0016565325,9
8987808000,0.61899316,-0.038073953,-0.050720055,0.7828316,0.9999987,2.9103833e-10,4.947652e-10,0.0016565325,9
8987860000,0.6183916,-0.037938904,-0.050588526,0.7833221,0.9999987,2.9103833e-10,4.947652e-10,0.0016565325,9
8987908000,0.6177996,-0.037696205,-0.050484575,0.78380746,0.9999987,2.9103833e-10,4.947652e-10,0.0016565325,9
8987960000,0.6171987,-0.037622772,-0.050736748,0.7842679,0.9999987,2.9103833e-10,4.947652e-10,0.0016565325,9
8988012000,0.61659396,-0.037679814,-0.05099788,0.7847237,0.9999987,2.9103833e-10,4.947652e-10,0.0016565325,9
8988064000,0.61596954,-0.03754546,-0.051306054,0.78520036,0.9999987,2.9103833e-10,4.947652e-10,0.0016565325,9
8988116000,0.61541206,-0.037445467,-0.05154143,0.7856267,0.9999987,2.9103833e-10,4.947652e-10,0.0016565325,9
