timestamp,q[0],q[1],q[2],q[3],delta_q_reset[0],delta_q_reset[1],delta_q_reset[2],delta_q_reset[3],quat_reset_counter
8959832000,0.98027825,-7.672071e-05,0.0003763432,0.19764489,0.0,0.0,0.0,0.0,0
8959844000,0.98027825,-7.663214e-05,0.00037641366,0.19764489,0.0,0.0,0.0,0.0,0
8959856000,0.98027825,-7.652803e-05,0.00037649082,0.19764489,0.0,0.0,0.0,0.0,0
8959868000,0.98027825,-7.644128e-05,0.00037656308,0.19764489,0.0,0.0,0.0,0.0,0
8959880000,0.98027825,-7.634791e-05,0.00037662726,0.19764489,0.0,0.0,0.0,0.0,0
8959892000,0.98027825,-7.624451e-05,0.0003766888,0.19764489,0.0,0.0,0.0,0.0,0
8959904000,0.98027825,-7.616181e-05,0.00037675464,0.19764489,0.0,0.0,0.0,0.0,0
8959916000,0.98027825,-7.605604e-05,0.00037682973,0.19764489,0.0,0.0,0.0,0.0,0
8959928000,0.98027825,-7.595957e-05,0.00037690342,0.19764489,0.0,0.0,0.0,0.0,0
8959936000,0.98027825,-7.589793e-05,0.000376955,0.19764489,0.0,0.0,0.0,0.0,0
8959952000,0.98027825,-7.578526e-05,0.00037705526,0.19764489,0.0,0.0,0.0,0.0,0
8959960000,0.98027825,-7.573101e-05,0.0003771045,0.19764489,0.0,0.0,0.0,0.0,0
8959976000,0.98027825,-7.562083e-05,0.0003772015,0.19764489,0.0,0.0,0.0,0.0,0
8959988000,0.98027825,-7.552908e-05,0.00037727394,0.19764489,0.0,0.0,0.0,0.0,0
8960000000,0.98027825,-7.542416e-05,0.0003773507,0.19764489,0.0,0.0,0.0,0.0,0
8960012000,0.98027825,-7.531911e-05,0.00037743352,0.19764489,0.0,0.0,0.0,0.0,0
8960024000,0.98027825,-7.520827e-05,0.00037752627,0.19764489,0.0,0.0,0.0,0.0,0
8960036000,0.98027825,-7.512236e-05,0.00037760177,0.19764489,0.0,0.0,0.0,0.0,0
8960048000,0.98027825,-7.5034826e-05,0.00037765512,0.19764489,0.0,0.0,0.0,0.0,0
8960060000,0.98027825,-7.493118e-05,0.0003777282,0.19764489,0.0,0.0,0.0,0.0,0
8960072000,0.98027825,-7.4844116e-05,0.0003778155,0.19764489,0.0,0.0,0.0,0.0,0
8960084000,0.98027825,-7.474841e-05,0.00037786222,0.19764489,0.0,0.0,0.0,0.0,0
8960096000,0.98027825,-7.4643394e-05,0.00037791938,0.19764489,0.0,0.0,0.0,0.0,0
8960104000,0.98027825,-7.457744e-05,0.00037796848,0.19764489,0.0,0.0,0.0,0.0,0
8960120000,0.98027825,-7.444747e-05,0.00037805448,0.19764489,0.0,0.0,0.0,0.0,0
8960132000,0.98027825,-7.435498e-05,0.00037811988,0.19764489,0.0,0.0,0.0,0.0,0
8960144000,0.98027825,-7.42565e-05,0.00037819246,0.19764489,0.0,0.0,0.0,0.0,0
8960156000,0.98027825,-7.415879e-05,0.00037825105,0.19764489,0.0,0.0,0.0,0.0,0
8960168000,0.98027825,-7.406146e-05,0.0003783064,0.19764489,0.0,0.0,0.0,0.0,0
8960180000,0.98027825,-7.396919e-05,0.0003783842,0.19764489,0.0,0.0,0.0,0.0,0
8960192000,0.98027825,-7.388392e-05,0.0003784511,0.19764489,0.0,0.0,0.0,0.0,0
8960204000,0.98027825,-7.3776966e-05,0.00037851432,0.19764489,0.0,0.0,0.0,0.0,0
8960216000,0.98027825,-7.368536e-05,0.00037857954,0.19764489,0.0,0.0,0.0,0.0,0
8960224000,0.98027825,-7.361124e-05,0.00037863062,0.19764489,0.0,0.0,0.0,0.0,0
8960240000,0.98027825,-7.3500065e-05,0.00037872768,0.19764489,0.0,0.0,0.0,0.0,0
8960252000,0.98027825,-7.340276e-05,0.0003788052,0.19764489,0.0,0.0,0.0,0.0,0
8960264000,0.98027825,-7.331523e-05,0.0003788829,0.19764489,0.0,0.0,0.0,0.0,0
8960276000,0.98027825,-7.323126e-05,0.0003789587,0.19764489,0.0,0.0,0.0,0.0,0
8960288000,0.98027825,-7.31478e-05,0.00037903286,0.19764489,0.0,0.0,0.0,0.0,0
8960300000,0.98027825,-7.305914e-05,0.00037910618,0.19764489,0.0,0.0,0.0,0.0,0
8960308000,0.98027825,-7.299136e-05,0.00037915632,0.19764489,0.0,0.0,0.0,0.0,0
8960324000,0.98027825,-7.285095e-05,0.0003792631,0.19764489,0.0,0.0,0.0,0.0,0
8960336000,0.98027825,-7.27411e-05,0.0003793552,0.19764489,0.0,0.0,0.0,0.0,0
8960348000,0.98027825,-7.265637e-05,0.0003794362,0.19764489,0.0,0.0,0.0,0.0,0
8960360000,0.98027825,-7.2567986e-05,0.00037948022,0.19764489,0.0,0.0,0.0,0.0,0
8960372000,0.98027825,-7.246414e-05,0.0003795464,0.19764489,0.0,0.0,0.0,0.0,0
8960384000,0.98027825,-7.23768e-05,0.00037964407,0.19764489,0.0,0.0,0.0,0.0,0
8960396000,0.98027825,-7.228019e-05,0.00037969765,0.19764489,0.0,0.0,0.0,0.0,0
8960408000,0.98027825,-7.2179435e-05,0.00037975115,0.19764489,0.0,0.0,0.0,0.0,0
8960420000,0.98027825,-7.2087525e-05,0.00037982283,0.19764489,0.0,0.0,0.0,0.0,0
8960428000,0.98027825,-7.2022456e-05,0.0003798665,0.19764489,0.0,0.0,0.0,0.0,0
8960444000,0.98027825,-7.189305e-05,0.00037995318,0.19764489,0.0,0.0,0.0,0.0,0
8960456000,0.98027825,-7.1795475e-05,0.00038002554,0.19764489,0.0,0.0,0.0,0.0,0
8960468000,0.98027825,-7.170665e-05,0.00038008232,0.19764489,0.0,0.0,0.0,0.0,0
8960480000,0.98027825,-7.1596136e-05,0.00038013596,0.19764489,0.0,0.0,0.0,0.0,0
8960492000,0.98027825,-7.1502734e-05,0.00038021407,0.19764489,0.0,0.0,0.0,0.0,0
8960504000,0.98027825,-7.141677e-05,0.0003802853,0.19764489,0.0,0.0,0.0,0.0,0
8960516000,0.98027825,-7.131204e-05,0.0003803491,0.19764489,0.0,0.0,0.0,0.0,0
8960524000,0.98027825,-7.1255796e-05,0.0003803912,0.19764489,0.0,0.0,0.0,0.0,0
8960540000,0.98027825,-7.113177e-05,0.0003804862,0.19764489,0.0,0.0,0.0,0.0,0
8960552000,0.98027825,-7.1031354e-05,0.0003805631,0.19764489,0.0,0.0,0.0,0.0,0
8960560000,0.98027825,-7.096593e-05,0.00038061413,0.19764489,0.0,0.0,0.0,0.0,0
8960576000,0.98027825,-7.086842e-05,0.0003807123,0.19764489,0.0,0.0,0.0,0.0,0
8960584000,0.98027825,-7.081023e-05,0.0003807633,0.19764489,0.0,0.0,0.0,0.0,0
8960600000,0.98027825,-7.0694696e-05,0.00038086338,0.19764489,0.0,0.0,0.0,0.0,0
8960612000,0.98027825,-7.060465e-05,0.00038093724,0.19764489,0.0,0.0,0.0,0.0,0
8960624000,0.98027825,-7.0501796e-05,0.000381013,0.19764489,0.0,0.0,0.0,0.0,0
8960632000,0.98027825,-7.0430724e-05,0.00038106556,0.19764489,0.0,0.0,0.0,0.0,0
8960644000,0.98027825,-7.032425e-05,0.00038115212,0.19764489,0.0,0.0,0.0,0.0,0
8960660000,0.98027825,-7.018925e-05,0.00038127144,0.19764489,0.0,0.0,0.0,0.0,0
8960672000,0.98027825,-7.009991e-05,0.00038132392,0.19764489,0.0,0.0,0.0,0.0,0
8960684000,0.98027825,-6.999972e-05,0.0003813866,0.19764489,0.0,0.0,0.0,0.0,0
8960696000,0.98027825,-6.991328e-05,0.00038148003,0.19764489,0.0,0.0,0.0,0.0,0
8960708000,0.98027825,-6.981677e-05,0.00038154254,0.19764489,0.0,0.0,0.0,0.0,0
8960720000,0.98027825,-6.972314e-05,0.0003815847,0.19764489,0.0,0.0,0.0,0.0,0
8960732000,0.98027825,-6.96224e-05,0.00038165587,0.19764489,0.0,0.0,0.0,0.0,0
8960744000,0.98027825,-6.951925e-05,0.00038172305,0.19764489,0.0,0.0,0.0,0.0,0
8960756000,0.98027825,-6.942809e-05,0.00038178655,0.19764489,0.0,0.0,0.0,0.0,0
8960768000,0.98027825,-6.933191e-05,0.0003818576,0.19764489,0.0,0.0,0.0,0.0,0
8960780000,0.98027825,-6.923984e-05,0.00038191804,0.19764489,0.0,0.0,0.0,0.0,0
8960792000,0.98027825,-6.913135e-05,0.00038197325,0.19764489,0.0,0.0,0.0,0.0,0
8960804000,0.98027825,-6.903729e-05,0.00038204668,0.19764489,0.0,0.0,0.0,0.0,0
8960816000,0.98027825,-6.895006e-05,0.00038212008,0.19764489,0.0,0.0,0.0,0.0,0
8960824000,0.98027825,-6.888455e-05,0.0003821635,0.19764489,0.0,0.0,0.0,0.0,0
8960840000,0.98027825,-6.875269e-05,0.00038224566,0.19764489,0.0,0.0,0.0,0.0,0
8960852000,0.98027825,-6.866369e-05,0.00038231767,0.19764489,0.0,0.0,0.0,0.0,0
8960864000,0.98027825,-6.858594e-05,0.00038239075,0.19764489,0.0,0.0,0.0,0.0,0
8960872000,0.98027825,-6.8518246e-05,0.0003824394,0.19764489,0.0,0.0,0.0,0.0,0
8960888000,0.98027825,-6.839881e-05,0.00038253513,0.19764489,0.0,0.0,0.0,0.0,0
8960900000,0.98027825,-6.831496e-05,0.00038260198,0.19764489,0.0,0.0,0.0,0.0,0
8960912000,0.98027825,-6.8211506e-05,0.00038267142,0.19764489,0.0,0.0,0.0,0.0,0
8960924000,0.98027825,-6.813139e-05,0.0003827521,0.19764489,0.0,0.0,0.0,0.0,0
8960936000,0.98027825,-6.803075e-05,0.00038281467,0.19764489,0.0,0.0,0.0,0.0,0
8960944000,0.98027825,-6.798276e-05,0.00038286153,0.19764489,0.0,0.0,0.0,0.0,0
8960960000,0.98027825,-6.785043e-05,0.00038294244,0.19764489,0.0,0.0,0.0,0.0,0
8960972000,0.98027825,-6.777986e-05,0.0003829928,0.19764489,0.0,0.0,0.0,0.0,0
8960980000,0.98027825,-6.772392e-05,0.00038302896,0.19764489,0.0,0.0,0.0,0.0,0
8960996000,0.98027825,-6.758007e-05,0.000383101,0.19764489,0.0,0.0,0.0,0.0,0
8961008000,0.98027825,-6.751556e-05,0.00038315024,0.19764489,0.0,0.0,0.0,0.0,0
8961020000,0.98027825,-6.7431676e-05,0.00038320376,0.19764489,0.0,0.0,0.0,0.0,0
8961032000,0.98027825,-6.735613e-05,0.00038326407,0.19764489,0.0,0.0,0.0,0.0,0
8961044000,0.98027825,-6.727399e-05,0.0003833377,0.19764489,0.0,0.0,0.0,0.0,0
8961052000,0.98027825,-6.720241e-05,0.00038338455,0.19764489,0.0,0.0,0.0,0.0,0
8961068000,0.98027825,-6.709952e-05,0.0003834607,0.19764489,0.0,0.0,0.0,0.0,0
8961080000,0.98027825,-6.702908e-05,0.000383508,0.19764489,0.0,0.0,0.0,0.0,0
8961092000,0.98027825,-6.691725e-05,0.00038356826,0.19764489,0.0,0.0,0.0,0.0,0
8961104000,0.98027825,-6.682592e-05,0.00038362938,0.19764489,0.0,0.0,0.0,0.0,0
8961116000,0.98027825,-6.677422e-05,0.0003836657,0.19764489,0.0,0.0,0.0,0.0,0
8961128000,0.98027825,-6.667844e-05,0.0003837304,0.19764489,0.0,0.0,0.0,0.0,0
8961140000,0.98027825,-6.658704e-05,0.0003837898,0.19764489,0.0,0.0,0.0,0.0,0
8961152000,0.98027825,-6.6529494e-05,0.00038385406,0.19764489,0.0,0.0,0.0,0.0,0
8961164000,0.98027825,-6.643034e-05,0.00038391183,0.19764487,0.0,0.0,0.0,0.0,0
8961176000,0.98027825,-6.6373155e-05,0.0003839623,0.19764487,0.0,0.0,0.0,0.0,0
8961188000,0.98027825,-6.6298475e-05,0.00038400467,0.19764487,0.0,0.0,0.0,0.0,0
8961200000,0.98027825,-6.6221495e-05,0.00038404684,0.19764487,0.0,0.0,0.0,0.0,0
8961212000,0.98027825,-6.614285e-05,0.0003840955,0.19764487,0.0,0.0,0.0,0.0,0
8961224000,0.98027825,-6.6066874e-05,0.00038414818,0.19764487,0.0,0.0,0.0,0.0,0
8961232000,0.98027825,-6.60316e-05,0.00038417854,0.19764487,0.0,0.0,0.0,0.0,0
8961248000,0.98027825,-6.59501e-05,0.00038425,0.19764487,0.0,0.0,0.0,0.0,0
8961260000,0.98027825,-6.586434e-05,0.00038429626,0.19764487,0.0,0.0,0.0,0.0,0
8961268000,0.98027825,-6.581659e-05,0.0003843226,0.19764487,0.0,0.0,0.0,0.0,0
8961284000,0.98027825,-6.573958e-05,0.0003843633,0.19764487,0.0,0.0,0.0,0.0,0
8961292000,0.98027825,-6.570681e-05,0.0003843836,0.19764487,0.0,0.0,0.0,0.0,0
8961304000,0.98027825,-6.56338e-05,0.00038442612,0.19764487,0.0,0.0,0.0,0.0,0
8961316000,0.98027825,-6.555911e-05,0.0003844742,0.19764487,0.0,0.0,0.0,0.0,0
8961332000,0.98027825,-6.550595e-05,0.00038452705,0.19764487,0.0,0.0,0.0,0.0,0
8961340000,0.98027825,-6.547688e-05,0.00038454676,0.19764487,0.0,0.0,0.0,0.0,0
8961356000,0.98027825,-6.54031e-05,0.00038458398,0.19764487,0.0,0.0,0.0,0.0,0
8961368000,0.98027825,-6.531774e-05,0.00038462016,0.19764487,0.0,0.0,0.0,0.0,0
8961380000,0.98027825,-6.5239845e-05,0.00038465855,0.19764487,0.0,0.0,0.0,0.0,0
8961392000,0.98027825,-6.517429e-05,0.00038470855,0.19764487,0.0,0.0,0.0,0.0,0
8961404000,0.98027825,-6.5182154e-05,0.00038472252,0.19764487,0.0,0.0,0.0,0.0,0
8961416000,0.98027825,-6.509982e-05,0.0003847467,0.19764487,0.0,0.0,0.0,0.0,0
8961428000,0.98027825,-6.5101776e-05,0.00038475828,0.19764487,0.0,0.0,0.0,0.0,0
8961440000,0.98027825,-6.5015105e-05,0.00038479312,0.19764487,0.0,0.0,0.0,0.0,0
8961452000,0.98027825,-6.494666e-05,0.00038482936,0.19764487,0.0,0.0,0.0,0.0,0
8961464000,0.98027825,-6.4975495e-05,0.00038483675,0.19764487,0.0,0.0,0.0,0.0,0
8961476000,0.98027825,-6.4896085e-05,0.000384856,0.19764487,0.0,0.0,0.0,0.0,0
8961488000,0.98027825,-6.491234e-05,0.00038485724,0.19764487,0.0,0.0,0.0,0.0,0
8961500000,0.98027825,-6.482544e-05,0.0003848853,0.19764487,0.0,0.0,0.0,0.0,0
8961512000,0.98027825,-6.486805e-05,0.00038488713,0.19764487,0.0,0.0,0.0,0.0,0
8961520000,0.98027825,-6.474912e-05,0.00038491673,0.19764487,0.0,0.0,0.0,0.0,0
8961536000,0.98027825,-6.47275e-05,0.00038492368,0.19764486,0.0,0.0,0.0,0.0,0
8961548000,0.98027825,-6.476143e-05,0.00038492144,0.19764486,0.0,0.0,0.0,0.0,0
8961560000,0.98027825,-6.468433e-05,0.00038493887,0.19764486,0.0,0.0,0.0,0.0,0
8961572000,0.98027825,-6.47548e-05,0.00038492744,0.19764486,0.0,0.0,0.0,0.0,0
8961584000,0.98027825,-6.4696695e-05,0.00038494266,0.19764486,0.0,0.0,0.0,0.0,0
8961596000,0.98027825,-6.4628686e-05,0.00038495945,0.19764486,0.0,0.0,0.0,0.0,0
8961608000,0.98027825,-6.471007e-05,0.000384953,0.19764486,0.0,0.0,0.0,0.0,0
8961620000,0.98027825,-6.510081e-05,0.00038728633,0.19764495,0.0,0.0,0.0,0.0,0
8961632000,0.98027813,-7.420551e-05,0.000433373,0.19764535,0.0,0.0,0.0,0.0,0
8961644000,0.980278,-0.000102659425,0.0005768052,0.19764562,0.0,0.0,0.0,0.0,0
8961656000,0.98027754,-0.00016185398,0.0008698004,0.19764681,0.0,0.0,0.0,0.0,0
8961668000,0.9802745,-0.0002565355,0.0013561916,0.19765915,0.0,0.0,0.0,0.0,0
8961676000,0.980271,-0.0003274817,0.0018069682,0.1976729,0.0,0.0,0.0,0.0,0
8961692000,0.98026276,-0.00039792177,0.0029839224,0.19769932,0.0,0.0,0.0,0.0,0
8961704000,0.98025554,-0.00037299324,0.003997639,0.19771713,0.0,0.0,0.0,0.0,0
8961716000,0.98024803,-0.00032712377,0.0050244047,0.1977309,0.0,0.0,0.0,0.0,0
8961728000,0.98024094,-0.00028907091,0.0059873383,0.19773942,0.0,0.0,0.0,0.0,0
8961740000,0.98023456,-0.00026692217,0.0068471152,0.19774303,0.0,0.0,0.0,0.0,0
8961752000,0.98022896,-0.0002667356,0.0076069445,0.19774301,0.0,0.0,0.0,0.0,0
8961764000,0.9802243,-0.00029161165,0.008282595,0.19773892,0.0,0.0,0.0,0.0,0
8961776000,0.980221,-0.0003127108,0.008866955,0.19773018,0.0,0.0,0.0,0.0,0
8961788000,0.98021865,-0.00031361345,0.0093631055,0.1977188,0.0,0.0,0.0,0.0,0
8961800000,0.9802173,-0.0003069871,0.0097779315,0.1977055,0.0,0.0,0.0,0.0,0
8961812000,0.9802168,-0.0002979491,0.010116836,0.19769086,0.0,0.0,0.0,0.0,0
8961824000,0.9802173,-0.00027678028,0.010380855,0.19767494,0.0,0.0,0.0,0.0,0
8961832000,0.98021805,-0.00025379745,0.0105137285,0.19766411,0.0,0.0,0.0,0.0,0
8961848000,0.98022085,-0.00019944481,0.010674057,0.19764163,0.0,0.0,0.0,0.0,0
8961860000,0.98022383,-0.00017288544,0.01070947,0.19762507,0.0,0.0,0.0,0.0,0
8961872000,0.98022753,-0.00016524614,0.010675158,0.19760856,0.0,0.0,0.0,0.0,0
8961884000,0.9802322,-0.00017481954,0.010564306,0.19759129,0.0,0.0,0.0,0.0,0
8961896000,0.980238,-0.00019074217,0.010363473,0.19757292,0.0,0.0,0.0,0.0,0
8961904000,0.9802425,-0.00020051042,0.010181539,0.19756033,0.0,0.0,0.0,0.0,0
8961920000,0.980252,-0.00022289428,0.009748823,0.19753475,0.0,0.0,0.0,0.0,0
8961932000,0.9802597,-0.00023621896,0.009381702,0.19751446,0.0,0.0,0.0,0.0,0
8961944000,0.9802679,-0.00022777404,0.008982834,0.19749247,0.0,0.0,0.0,0.0,0
8961956000,0.9802764,-0.0002020801,0.008571643,0.19746827,0.0,0.0,0.0,0.0,0
8961968000,0.9802851,-0.00017526599,0.008170597,0.1974421,0.0,0.0,0.0,0.0,0
8961976000,0.98029083,-0.00016088337,0.00790851,0.19742447,0.0,0.0,0.0,0.0,0
8961992000,0.98030174,-0.00014521091,0.0073889,0.19739035,0.0,0.0,0.0,0.0,0
8962004000,0.98030937,-0.00014657994,0.00700454,0.19736661,0.0,0.0,0.0,0.0,0
8962016000,0.9803166,-0.00015707465,0.006630351,0.19734378,0.0,0.0,0.0,0.0,0
8962028000,0.9803233,-0.00016099546,0.0062554977,0.1973225,0.0,0.0,0.0,0.0,0
8962040000,0.98032933,-0.00015046177,0.0058853924,0.1973039,0.0,0.0,0.0,0.0,0
8962052000,0.9803347,-0.00013782346,0.0055265375,0.19728775,0.0,0.0,0.0,0.0,0
8962064000,0.98033977,-0.000120459146,0.0051747384,0.19727197,0.0,0.0,0.0,0.0,0
8962076000,0.98034483,-8.630634e-05,0.0048351493,0.19725557,0.0,0.0,0.0,0.0,0
8962088000,0.98034984,-4.7955873e-05,0.0045064217,0.19723843,0.0,0.0,0.0,0.0,0
8962100000,0.98035496,-2.1319081e-05,0.0041947705,0.19721971,0.0,0.0,0.0,0.0,0
8962112000,0.98036027,-4.026478e-06,0.003898588,0.1971996,0.0,0.0,0.0,0.0,0
8962124000,0.9803656,1.0955491e-05,0.003617763,0.19717841,0.0,0.0,0.0,0.0,0
8962136000,0.9803707,2.3505958e-05,0.003360957,0.19715747,0.0,0.0,0.0,0.0,0
8962144000,0.980374,2.609143e-05,0.0032024696,0.19714388,0.0,0.0,0.0,0.0,0
8962156000,0.9803786,2.2462356e-05,0.0029796604,0.19712417,0.0,0.0,0.0,0.0,0
8962168000,0.98038304,1.4379362e-05,0.002771748,0.1971055,0.0,0.0,0.0,0.0,0
8962184000,0.9803881,-7.804598e-07,0.0025272577,0.19708343,0.0,0.0,0.0,0.0,0
8962192000,0.98039025,-8.785387e-06,0.002416328,0.19707409,0.0,0.0,0.0,0.0,0
8962208000,0.980394,-1.3165632e-05,0.0022084257,0.19705783,0.0,0.0,0.0,0.0,0
8962220000,0.9803965,-3.827571e-06,0.0020735709,0.1970469,0.0,0.0,0.0,0.0,0
8962232000,0.98039883,1.8807508e-05,0.0019580435,0.19703652,0.0,0.0,0.0,0.0,0
8962244000,0.980401,5.917827e-05,0.0018517114,0.19702673,0.0,0.0,0.0,0.0,0
8962256000,0.9804029,0.0001095382,0.0017571866,0.19701834,0.0,0.0,0.0,0.0,0
8962268000,0.98040444,0.00016019854,0.0016769232,0.19701111,0.0,0.0,0.0,0.0,0
8962280000,0.9804059,0.0001999845,0.0016064758,0.1970042,0.0,0.0,0.0,0.0,0
8962292000,0.9804073,0.00023209673,0.0015516367,0.19699778,0.0,0.0,0.0,0.0,0
8962300000,0.98040813,0.0002499151,0.0015242066,0.19699395,0.0,0.0,0.0,0.0,0
8962316000,0.98040974,0.00027346876,0.0014677594,0.19698632,0.0,0.0,0.0,0.0,0
8962328000,0.980411,0.00028052964,0.0014209388,0.19698045,0.0,0.0,0.0,0.0,0
8962340000,0.9804121,0.0002833722,0.0013680968,0.1969751,0.0,0.0,0.0,0.0,0
8962352000,0.9804131,0.00028259054,0.0013107336,0.19697082,0.0,0.0,0.0,0.0,0
8962364000,0.98041385,0.00028482336,0.0012602292,0.19696723,0.0,0.0,0.0,0.0,0
8962376000,0.98041445,0.00028831724,0.0012218058,0.19696459,0.0,0.0,0.0,0.0,0
8962388000,0.98041487,0.00029607376,0.0011987265,0.19696265,0.0,0.0,0.0,0.0,0
8962400000,0.980415,0.0003032807,0.0011839124,0.19696203,0.0,0.0,0.0,0.0,0
8962408000,0.980415,0.00030319684,0.0011730266,0.19696221,0.0,0.0,0.0,0.0,0
8962424000,0.98041517,0.00027539712,0.0011595342,0.19696134,0.0,0.0,0.0,0.0,0
8962436000,0.98041564,0.00023321151,0.001161069,0.19695902,0.0,0.0,0.0,0.0,0
8962444000,0.98041606,0.00020223473,0.0011666869,0.19695708,0.0,0.0,0.0,0.0,0
8962460000,0.98041683,0.00014257642,0.0011764063,0.19695306,0.0,0.0,0.0,0.0,0
8962472000,0.9804176,0.00010500308,0.0011831484,0.1969494,0.0,0.0,0.0,0.0,0
8962484000,0.98041826,7.222385e-05,0.001181366,0.19694601,0.0,0.0,0.0,0.0,0
8962496000,0.980419,4.8339123e-05,0.0011703845,0.19694254,0.0,0.0,0.0,0.0,0
8962508000,0.98042005,3.750045e-05,0.0011514062,0.19693723,0.0,0.0,0.0,0.0,0
8962520000,0.98042154,4.447378e-05,0.0011270863,0.19693004,0.0,0.0,0.0,0.0,0
8962532000,0.9804233,6.5916895e-05,0.0011087706,0.19692154,0.0,0.0,0.0,0.0,0
8962544000,0.98042524,0.00010362686,0.0011000044,0.1969116,0.0,0.0,0.0,0.0,0
8962552000,0.98042667,0.0001373153,0.001098121,0.19690454,0.0,0.0,0.0,0.0,0
8962568000,0.98042935,0.0002246442,0.0011077711,0.19689107,0.0,0.0,0.0,0.0,0
8962576000,0.98043054,0.00027156158,0.0011243365,0.19688493,0.0,0.0,0.0,0.0,0
8962592000,0.9804328,0.00036365908,0.0011841981,0.19687311,0.0,0.0,0.0,0.0,0
8962600000,0.9804338,0.00041009905,0.0012221877,0.19686784,0.0,0.0,0.0,0.0,0
8962612000,0.980435,0.00047981952,0.001287783,0.19686137,0.0,0.0,0.0,0.0,0
8962628000,0.98043627,0.00056002167,0.0013817564,0.19685419,0.0,0.0,0.0,0.0,0
8962636000,0.9804368,0.0005955126,0.0014263238,0.19685112,0.0,0.0,0.0,0.0,0
8962652000,0.98043776,0.00064995734,0.0014971548,0.19684578,0.0,0.0,0.0,0.0,0
8962660000,0.9804383,0.0006671081,0.0015177496,0.19684292,0.0,0.0,0.0,0.0,0
8962676000,0.9804395,0.0006870505,0.0015187858,0.19683671,0.0,0.0,0.0,0.0,0
8962688000,0.9804405,0.0006862716,0.001481833,0.19683214,0.0,0.0,0.0,0.0,0
8962700000,0.9804416,0.00068547216,0.0014194462,0.19682722,0.0,0.0,0.0,0.0,0
8962712000,0.98044276,0.0006935029,0.0013394135,0.19682188,0.0,0.0,0.0,0.0,0
8962724000,0.98044395,0.0007109535,0.001250578,0.1968164,0.0,0.0,0.0,0.0,0
8962732000,0.9804447,0.00072550226,0.0011926185,0.1968128,0.0,0.0,0.0,0.0,0
8962748000,0.98044634,0.00075685035,0.0010978467,0.19680516,0.0,0.0,0.0,0.0,0
8962760000,0.9804477,0.0007850665,0.0010438866,0.19679846,0.0,0.0,0.0,0.0,0
8962768000,0.9804487,0.0008078298,0.0010110553,0.19679362,0.0,0.0,0.0,0.0,0
8962784000,0.9804507,0.0008501372,0.0009452511,0.196784,0.0,0.0,0.0,0.0,0
8962796000,0.9804521,0.0008704146,0.0008840159,0.19677716,0.0,0.0,0.0,0.0,0
8962808000,0.9804538,0.0008814808,0.0008214059,0.19676892,0.0,0.0,0.0,0.0,0
8962816000,0.9804551,0.00088624464,0.0007839452,0.19676246,0.0,0.0,0.0,0.0,0
8962832000,0.9804581,0.0008965551,0.00072487496,0.19674784,0.0,0.0,0.0,0.0,0
8962844000,0.9804607,0.0009004037,0.00069310644,0.19673485,0.0,0.0,0.0,0.0,0
8962856000,0.9804637,0.00089509983,0.0006710028,0.1967202,0.0,0.0,0.0,0.0,0
8962868000,0.9804668,0.0008862983,0.0006608708,0.1967048,0.0,0.0,0.0,0.0,0
8962880000,0.9804698,0.00089330156,0.0006637557,0.1966897,0.0,0.0,0.0,0.0,0
8962892000,0.98047256,0.0009203517,0.00067182654,0.19667566,0.0,0.0,0.0,0.0,0
8962904000,0.9804751,0.00095774,0.0006766923,0.19666277,0.0,0.0,0.0,0.0,0
8962916000,0.98047733,0.001004276,0.0006831892,0.19665165,0.0,0.0,0.0,0.0,0
8962924000,0.98047864,0.0010383901,0.0006875346,0.19664492,0.0,0.0,0.0,0.0,0
8962940000,0.98048115,0.0011146464,0.0007050366,0.19663188,0.0,0.0,0.0,0.0,0
8962952000,0.98048323,0.0011681762,0.00072392094,0.19662091,0.0,0.0,0.0,0.0,0
8962964000,0.98048556,0.0011970829,0.00073899043,0.1966092,0.0,0.0,0.0,0.0,0
8962976000,0.9804878,0.0012021008,0.0007506128,0.19659775,0.0,0.0,0.0,0.0,0
8962988000,0.98048997,0.0011889335,0.00076141953,0.19658723,0.0,0.0,0.0,0.0,0
8963000000,0.98049176,0.0011697382,0.00076806685,0.19657826,0.0,0.0,0.0,0.0,0
8963012000,0.9804935,0.0011530768,0.00077573763,0.19656985,0.0,0.0,0.0,0.0,0
8963024000,0.9804954,0.0011390327,0.00077430595,0.19656041,0.0,0.0,0.0,0.0,0
8963032000,0.9804968,0.0011357348,0.00076947466,0.19655327,0.0,0.0,0.0,0.0,0
8963048000,0.98050016,0.001137018,0.0007547781,0.19653659,0.0,0.0,0.0,0.0,0
8963060000,0.9805029,0.001148438,0.0007388262,0.19652314,0.0,0.0,0.0,0.0,0
8963072000,0.9805054,0.0011683145,0.00072594767,0.19651048,0.0,0.0,0.0,0.0,0
8963080000,0.98050684,0.0011802062,0.0007197723,0.19650337,0.0,0.0,0.0,0.0,0
8963096000,0.9805092,0.0011904358,0.00071081024,0.19649146,0.0,0.0,0.0,0.0,0
8963108000,0.980511,0.0011835773,0.00070108235,0.19648246,0.0,0.0,0.0,0.0,0
8963120000,0.98051286,0.0011721995,0.00068385113,0.1964735,0.0,0.0,0.0,0.0,0
8963132000,0.9805146,0.0011581905,0.0006516722,0.19646496,0.0,0.0,0.0,0.0,0
8963144000,0.9805162,0.0011400839,0.0006035627,0.19645724,0.0,0.0,0.0,0.0,0
8963156000,0.98051757,0.0011176514,0.0005424023,0.19645064,0.0,0.0,0.0,0.0,0
8963168000,0.9805187,0.0010982638,0.00048341524,0.19644535,0.0,0.0,0.0,0.0,0
8963180000,0.9805195,0.0010872049,0.0004351318,0.19644156,0.0,0.0,0.0,0.0,0
8963192000,0.98052025,0.0010889528,0.0003933096,0.1964377,0.0,0.0,0.0,0.0,0
8963204000,0.98052126,0.0011023777,0.00035253682,0.19643278,0.0,0.0,0.0,0.0,0
8963216000,0.9805224,0.0011200226,0.00031172912,0.19642717,0.0,0.0,0.0,0.0,0
8963228000,0.9805236,0.0011326728,0.00027681983,0.19642101,0.0,0.0,0.0,0.0,0
8963240000,0.980525,0.0011344576,0.000247907,0.19641401,0.0,0.0,0.0,0.0,0
8963252000,0.98052645,0.0011394117,0.00023042127,0.19640684,0.0,0.0,0.0,0.0,0
8963264000,0.9805277,0.001156142,0.00021907919,0.19640042,0.0,0.0,0.0,0.0,0
8963276000,0.9805287,0.0011775333,0.00020490256,0.19639541,0.0,0.0,0.0,0.0,0
8963288000,0.9805295,0.0011999859,0.00019010418,0.1963912,0.0,0.0,0.0,0.0,0
8963300000,0.98053026,0.0012285181,0.00017468171,0.1963874,0.0,0.0,0.0,0.0,0
8963312000,0.9805309,0.0012691681,0.0001671075,0.19638385,0.0,0.0,0.0,0.0,0
8963324000,0.9805315,0.0013108396,0.00017581819,0.19638054,0.0,0.0,0.0,0.0,0
8963336000,0.98053205,0.0013454981,0.0002021244,0.19637744,0.0,0.0,0.0,0.0,0
8963348000,0.9805325,0.0013753796,0.00023921307,0.19637501,0.0,0.0,0.0,0.0,0
8963360000,0.98053265,0.0014027727,0.00027754277,0.19637404,0.0,0.0,0.0,0.0,0
8963372000,0.9805326,0.0014313151,0.0003161914,0.196374,0.0,0.0,0.0,0.0,0
8963384000,0.9805329,0.001456491,0.0003601532,0.19637233,0.0,0.0,0.0,0.0,0
8963396000,0.98053384,0.0014793405,0.00040923382,0.19636743,0.0,0.0,0.0,0.0,0
8963408000,0.98053575,0.0014964041,0.0004476881,0.19635749,0.0,0.0,0.0,0.0,0
8963420000,0.98053896,0.001505918,0.0004765509,0.19634148,0.0,0.0,0.0,0.0,0
8963432000,0.9805435,0.0015106476,0.0005006104,0.1963188,0.0,0.0,0.0,0.0,0
8963444000,0.9805494,0.0015116878,0.0005139111,0.19628932,0.0,0.0,0.0,0.0,0
8963452000,0.9805539,0.0015123741,0.0005164334,0.1962664,0.0,0.0,0.0,0.0,0
8963464000,0.9805617,0.0015153858,0.0005211767,0.19622785,0.0,0.0,0.0,0.0,0
8963480000,0.9805729,0.0015291048,0.0005430071,0.19617163,0.0,0.0,0.0,0.0,0
8963488000,0.9805787,0.0015464523,0.00056445866,0.1961421,0.0,0.0,0.0,0.0,0
8963500000,0.9805877,0.0015941331,0.00061340176,0.19609664,0.0,0.0,0.0,0.0,0
8963516000,0.9805998,0.0016759709,0.00071070326,0.1960353,0.0,0.0,0.0,0.0,0
8963528000,0.98060876,0.0017509356,0.00079228496,0.19598933,0.0,0.0,0.0,0.0,0
8963540000,0.98061764,0.0018397054,0.00088435435,0.19594377,0.0,0.0,0.0,0.0,0
8963548000,0.9806236,0.0019043244,0.0009510602,0.19591312,0.0,0.0,0.0,0.0,0
8963564000,0.9806356,0.0020412526,0.0010807053,0.19585115,0.0,0.0,0.0,0.0,0
8963576000,0.98064446,0.0021486168,0.0011672073,0.19580479,0.0,0.0,0.0,0.0,0
8963588000,0.9806533,0.0022501147,0.0012371087,0.19575906,0.0,0.0,0.0,0.0,0
8963600000,0.9806619,0.002345344,0.0012858316,0.19571444,0.0,0.0,0.0,0.0,0
8963612000,0.9806704,0.00243571,0.0013126255,0.1956707,0.0,0.0,0.0,0.0,0
8963624000,0.98067874,0.002517033,0.0013196365,0.19562775,0.0,0.0,0.0,0.0,0
8963636000,0.980687,0.002577362,0.0013035558,0.1955856,0.0,0.0,0.0,0.0,0
8963644000,0.9806925,0.0026065703,0.0012801011,0.19555776,0.0,0.0,0.0,0.0,0
8963660000,0.9807035,0.0026446066,0.0012020738,0.19550297,0.0,0.0,0.0,0.0,0
8963672000,0.98071134,0.0026599928,0.0011197174,0.19546355,0.0,0.0,0.0,0.0,0
8963684000,0.98071903,0.0026722632,0.0010142822,0.19542539,0.0,0.0,0.0,0.0,0
8963696000,0.98072654,0.0026872177,0.00088932866,0.19538832,0.0,0.0,0.0,0.0,0
8963704000,0.98073137,0.0026986997,0.000799386,0.19536433,0.0,0.0,0.0,0.0,0
8963720000,0.9807405,0.0027303302,0.00062475767,0.19531861,0.0,0.0,0.0,0.0,0
8963732000,0.9807467,0.002755931,0.0005006465,0.19528738,0.0,0.0,0.0,0.0,0
8963744000,0.98075235,0.0027783164,0.00038609284,0.195259,0.0,0.0,0.0,0.0,0
8963756000,0.98075736,0.0027949703,0.00028134257,0.19523391,0.0,0.0,0.0,0.0,0
8963764000,0.9807602,0.0028034167,0.00021791123,0.19521941,0.0,0.0,0.0,0.0,0
8963780000,0.980765,0.0028147849,0.00010067761,0.19519547,0.0,0.0,0.0,0.0,0
8963792000,0.9807679,0.0028156955,1.4352551e-05,0.1951806,0.0,0.0,0.0,0.0,0
8963800000,0.98076963,0.0028096184,-4.369549e-05,0.19517219,0.0,0.0,0.0,0.0,0
8963816000,0.9807723,0.0027745191,-0.00015837111,0.19515899,0.0,0.0,0.0,0.0,0
8963824000,0.98077345,0.0027467485,-0.00021361717,0.19515376,0.0,0.0,0.0,0.0,0
8963840000,0.9807754,0.0026939798,-0.0003063076,0.19514439,0.0,0.0,0.0,0.0,0
8963852000,0.98077685,0.002659804,-0.0003693967,0.19513763,0.0,0.0,0.0,0.0,0
8963860000,0.9807776,0.0026392108,-0.00041229892,0.19513385,0.0,0.0,0.0,0.0,0
8963876000,0.9807786,0.0026137854,-0.00050714775,0.1951293,0.0,0.0,0.0,0.0,0
8963888000,0.9807786,0.002606876,-0.0005858081,0.19512896,0.0,0.0,0.0,0.0,0
8963900000,0.98077804,0.0026024976,-0.0006676861,0.19513144,0.0,0.0,0.0,0.0,0
8963912000,0.98077697,0.0026025958,-0.00074457494,0.19513653,0.0,0.0,0.0,0.0,0
8963924000,0.9807753,0.002613596,-0.0008118983,0.19514461,0.0,0.0,0.0,0.0,0
8963936000,0.9807731,0.0026335514,-0.00087473146,0.19515528,0.0,0.0,0.0,0.0,0
8963948000,0.9807704,0.0026577602,-0.00093099533,0.1951681,0.0,0.0,0.0,0.0,0
8963956000,0.98076826,0.0026722492,-0.0009613376,0.19517851,0.0,0.0,0.0,0.0,0
8963972000,0.98076296,0.002703295,-0.0010033423,0.19520459,0.0,0.0,0.0,0.0,0
8963984000,0.98075825,0.0027365845,-0.0010276944,0.19522753,0.0,0.0,0.0,0.0,0
8963996000,0.9807533,0.002776176,-0.0010498387,0.19525172,0.0,0.0,0.0,0.0,0
8964008000,0.98074836,0.0028110065,-0.0010714086,0.19527598,0.0,0.0,0.0,0.0,0
8964020000,0.9807435,0.0028358623,-0.0010982826,0.19529985,0.0,0.0,0.0,0.0,0
8964032000,0.98073864,0.0028553018,-0.0011323995,0.19532377,0.0,0.0,0.0,0.0,0
8964040000,0.9807353,0.0028676542,-0.001160214,0.19534016,0.0,0.0,0.0,0.0,0
8964056000,0.9807283,0.002884245,-0.0012319355,0.19537444,0.0,0.0,0.0,0.0,0
8964068000,0.9807228,0.0028921887,-0.0012985842,0.19540176,0.0,0.0,0.0,0.0,0
8964080000,0.9807169,0.002892793,-0.0013741871,0.19543077,0.0,0.0,0.0,0.0,0
8964092000,0.98071074,0.0028850362,-0.0014485428,0.19546123,0.0,0.0,0.0,0.0,0
8964104000,0.9807045,0.0028686202,-0.001506202,0.19549237,0.0,0.0,0.0,0.0,0
8964116000,0.98069817,0.0028538774,-0.001543215,0.19552416,0.0,0.0,0.0,0.0,0
8964128000,0.9806917,0.0028511924,-0.0015662134,0.19555663,0.0,0.0,0.0,0.0,0
8964140000,0.98068506,0.0028603328,-0.0015765411,0.19558947,0.0,0.0,0.0,0.0,0
8964152000,0.9806787,0.0028764752,-0.0015755049,0.19562131,0.0,0.0,0.0,0.0,0
8964164000,0.9806724,0.0029047655,-0.0015648496,0.19565237,0.0,0.0,0.0,0.0,0
8964172000,0.98066837,0.0029280335,-0.0015535215,0.19567242,0.0,0.0,0.0,0.0,0
8964188000,0.9806608,0.002972485,-0.0015369132,0.19570987,0.0,0.0,0.0,0.0,0
8964200000,0.9806553,0.0030016506,-0.0015299332,0.19573691,0.0,0.0,0.0,0.0,0
8964212000,0.98064977,0.003016158,-0.0015321362,0.19576424,0.0,0.0,0.0,0.0,0
8964224000,0.9806443,0.0030223588,-0.0015457448,0.19579178,0.0,0.0,0.0,0.0,0
8964236000,0.9806386,0.0030395864,-0.0015669032,0.19581947,0.0,0.0,0.0,0.0,0
8964248000,0.980633,0.0030680664,-0.0015934143,0.19584693,0.0,0.0,0.0,0.0,0
8964260000,0.9806274,0.0030935463,-0.001621299,0.19587435,0.0,0.0,0.0,0.0,0
8964272000,0.98062176,0.0031042846,-0.0016414023,0.19590236,0.0,0.0,0.0,0.0,0
8964284000,0.9806163,0.0031063007,-0.0016501828,0.19592966,0.0,0.0,0.0,0.0,0
8964296000,0.9806114,0.003097546,-0.0016528172,0.19595431,0.0,0.0,0.0,0.0,0
8964304000,0.98060834,0.0030865467,-0.0016548735,0.19596978,0.0,0.0,0.0,0.0,0
8964320000,0.98060256,0.0030528507,-0.0016605618,0.19599922,0.0,0.0,0.0,0.0,0
8964328000,0.9805998,0.0030311393,-0.001664525,0.19601303,0.0,0.0,0.0,0.0,0
8964344000,0.98059475,0.002976351,-0.0016683816,0.19603927,0.0,0.0,0.0,0.0,0
8964356000,0.98059106,0.0029179351,-0.0016671418,0.19605869,0.0,0.0,0.0,0.0,0
8964368000,0.9805876,0.002852362,-0.0016609561,0.19607686,0.0,0.0,0.0,0.0,0
8964380000,0.9805843,0.0027900233,-0.0016479889,0.19609436,0.0,0.0,0.0,0.0,0
8964392000,0.9805809,0.0027399217,-0.0016333521,0.19611213,0.0,0.0,0.0,0.0,0
8964404000,0.98057765,0.002704899,-0.0016287431,0.19612902,0.0,0.0,0.0,0.0,0
8964416000,0.9805748,0.0026735538,-0.0016463337,0.19614372,0.0,0.0,0.0,0.0,0
8964424000,0.98057306,0.0026556344,-0.0016682668,0.19615228,0.0,0.0,0.0,0.0,0
8964440000,0.98057014,0.002629599,-0.0017169068,0.19616695,0.0,0.0,0.0,0.0,0
8964452000,0.98056805,0.0026192828,-0.0017512741,0.19617724,0.0,0.0,0.0,0.0,0
8964464000,0.980566,0.0026123784,-0.001788493,0.19618703,0.0,0.0,0.0,0.0,0
8964472000,0.9805648,0.0026090064,-0.0018141324,0.1961932,0.0,0.0,0.0,0.0,0
8964484000,0.980563,0.0026025716,-0.0018504674,0.19620165,0.0,0.0,0.0,0.0,0
8964500000,0.98056126,0.002587014,-0.0018851088,0.19621037,0.0,0.0,0.0,0.0,0
8964508000,0.9805605,0.0025805926,-0.001898422,0.19621421,0.0,0.0,0.0,0.0,0
8964524000,0.98055893,0.0025817575,-0.0019205031,0.1962217,0.0,0.0,0.0,0.0,0
8964536000,0.98055804,0.0025959515,-0.0019362137,0.19622588,0.0,0.0,0.0,0.0,0
8964544000,0.9805577,0.0026052895,-0.0019441743,0.19622734,0.0,0.0,0.0,0.0,0
8964560000,0.9805575,0.0026111403,-0.0019515939,0.19622801,0.0,0.0,0.0,0.0,0
8964572000,0.98055756,0.002602421,-0.0019542654,0.19622794,0.0,0.0,0.0,0.0,0
8964584000,0.9805575,0.002591661,-0.0019594552,0.19622812,0.0,0.0,0.0,0.0,0
8964596000,0.98055744,0.0025773847,-0.0019643416,0.19622862,0.0,0.0,0.0,0.0,0
8964608000,0.98055726,0.0025664987,-0.0019610838,0.19622982,0.0,0.0,0.0,0.0,0
8964616000,0.98055696,0.0025641827,-0.0019564528,0.19623142,0.0,0.0,0.0,0.0,0
8964632000,0.9805561,0.0025808762,-0.00193997,0.1962357,0.0,0.0,0.0,0.0,0
8964640000,0.9805556,0.0025946184,-0.0019320073,0.19623792,0.0,0.0,0.0,0.0,0
8964656000,0.98055464,0.0026251238,-0.0019270496,0.19624245,0.0,0.0,0.0,0.0,0
8964668000,0.9805538,0.00265347,-0.0019390209,0.19624609,0.0,0.0,0.0,0.0,0
8964680000,0.9805531,0.0026773985,-0.0019555208,0.19624932,0.0,0.0,0.0,0.0,0
8964692000,0.98055243,0.002691222,-0.0019700672,0.19625224,0.0,0.0,0.0,0.0,0
8964704000,0.98055196,0.0026958697,-0.0019881122,0.19625436,0.0,0.0,0.0,0.0,0
8964712000,0.98055166,0.0026997805,-0.0020009882,0.19625546,0.0,0.0,0.0,0.0,0
8964728000,0.9805512,0.0027164605,-0.0020268157,0.1962574,0.0,0.0,0.0,0.0,0
8964740000,0.9805507,0.00274364,-0.0020532345,0.19625926,0.0,0.0,0.0,0.0,0
8964748000,0.9805503,0.0027696802,-0.0020749755,0.19626078,0.0,0.0,0.0,0.0,0
8964760000,0.9805496,0.0028146908,-0.0021115215,0.19626316,0.0,0.0,0.0,0.0,0
8964776000,0.9805487,0.0028738638,-0.0021501782,0.19626646,0.0,0.0,0.0,0.0,0
8964788000,0.980548,0.0029035145,-0.0021679464,0.19626895,0.0,0.0,0.0,0.0,0
8964796000,0.9805477,0.0029167966,-0.002178794,0.19627018,0.0,0.0,0.0,0.0,0
8964812000,0.9805474,0.0029333527,-0.0021966826,0.19627127,0.0,0.0,0.0,0.0,0
8964824000,0.98054725,0.002941779,-0.0022075928,0.19627205,0.0,0.0,0.0,0.0,0
8964836000,0.98054695,0.0029367213,-0.0022241974,0.19627333,0.0,0.0,0.0,0.0,0
8964848000,0.9805466,0.0029221608,-0.002254891,0.19627497,0.0,0.0,0.0,0.0,0
8964860000,0.98054624,0.0029198756,-0.0022917464,0.19627625,0.0,0.0,0.0,0.0,0
8964872000,0.9805459,0.002930604,-0.002327132,0.19627768,0.0,0.0,0.0,0.0,0
8964884000,0.98054534,0.002951366,-0.002369526,0.19627954,0.0,0.0,0.0,0.0,0
8964896000,0.9805448,0.002988262,-0.002422142,0.19628099,0.0,0.0,0.0,0.0,0
8964908000,0.9805445,0.0030273984,-0.0024888758,0.19628085,0.0,0.0,0.0,0.0,0
8964920000,0.9805447,0.0030638247,-0.002561759,0.19627868,0.0,0.0,0.0,0.0,0
8964932000,0.9805451,0.003088911,-0.002633036,0.19627514,0.0,0.0,0.0,0.0,0
8964944000,0.9805458,0.0031080244,-0.0026928664,0.19627053,0.0,0.0,0.0,0.0,0
8964956000,0.9805467,0.003134183,-0.0027366024,0.19626483,0.0,0.0,0.0,0.0,0
8964968000,0.980548,0.0031703082,-0.002762495,0.19625747,0.0,0.0,0.0,0.0,0
8964980000,0.9805496,0.0032116782,-0.0027749154,0.19624902,0.0,0.0,0.0,0.0,0
8964992000,0.9805514,0.0032474687,-0.0027851367,0.19623893,0.0,0.0,0.0,0.0,0
8965004000,0.9805538,0.0032680715,-0.0028073662,0.19622643,0.0,0.0,0.0,0.0,0
8965012000,0.9805555,0.003272879,-0.0028324504,0.19621749,0.0,0.0,0.0,0.0,0
8965028000,0.98055875,0.0032609438,-0.0029005762,0.19620042,0.0,0.0,0.0,0.0,0
8965040000,0.98056096,0.0032315282,-0.002943376,0.19618928,0.0,0.0,0.0,0.0,0
8965052000,0.98056316,0.0031950346,-0.0029638784,0.19617857,0.0,0.0,0.0,0.0,0
8965064000,0.9805653,0.0031529253,-0.002968663,0.19616821,0.0,0.0,0.0,0.0,0
8965072000,0.98056674,0.0031244187,-0.0029648226,0.19616169,0.0,0.0,0.0,0.0,0
8965084000,0.9805688,0.0030797778,-0.0029530216,0.19615215,0.0,0.0,0.0,0.0,0
8965100000,0.98057145,0.0030214149,-0.0029347981,0.19614018,0.0,0.0,0.0,0.0,0
8965112000,0.98057353,0.002975992,-0.0029175205,0.19613083,0.0,0.0,0.0,0.0,0
8965124000,0.9805756,0.0029304677,-0.0029058259,0.1961213,0.0,0.0,0.0,0.0,0
8965136000,0.9805776,0.0028953732,-0.0029032102,0.19611204,0.0,0.0,0.0,0.0,0
8965148000,0.9805795,0.002872106,-0.0029083688,0.1961027,0.0,0.0,0.0,0.0,0
8965156000,0.98058075,0.002862586,-0.0029144292,0.19609633,0.0,0.0,0.0,0.0,0
8965172000,0.98058337,0.0028479127,-0.002920904,0.1960834,0.0,0.0,0.0,0.0,0
8965184000,0.9805857,0.0028313538,-0.0029285154,0.19607182,0.0,0.0,0.0,0.0,0
8965196000,0.9805884,0.0028135707,-0.0029445265,0.19605857,0.0,0.0,0.0,0.0,0
8965204000,0.9805902,0.0028008025,-0.0029571156,0.19604939,0.0,0.0,0.0,0.0,0
8965220000,0.98059374,0.002768981,-0.0029805263,0.19603185,0.0,0.0,0.0,0.0,0
8965232000,0.98059595,0.0027401687,-0.0029927199,0.19602089,0.0,0.0,0.0,0.0,0
8965244000,0.98059773,0.0027120716,-0.0029966002,0.19601233,0.0,0.0,0.0,0.0,0
8965256000,0.9805993,0.0026855117,-0.0029892058,0.19600517,0.0,0.0,0.0,0.0,0
8965264000,0.9806002,0.0026695249,-0.0029771705,0.19600102,0.0,0.0,0.0,0.0,0
8965280000,0.9806016,0.002650965,-0.002943231,0.19599472,0.0,0.0,0.0,0.0,0
8965292000,0.98060244,0.0026408432,-0.0029272244,0.19599085,0.0,0.0,0.0,0.0,0
8965304000,0.9806033,0.002628316,-0.0029241322,0.19598685,0.0,0.0,0.0,0.0,0
8965316000,0.98060423,0.0026186865,-0.002928443,0.1959822,0.0,0.0,0.0,0.0,0
8965328000,0.9806052,0.0026104874,-0.002940371,0.1959772,0.0,0.0,0.0,0.0,0
8965340000,0.9806064,0.0026034615,-0.002957538,0.19597134,0.0,0.0,0.0,0.0,0
8965352000,0.98060775,0.0025959115,-0.0029721253,0.19596411,0.0,0.0,0.0,0.0,0
8965360000,0.9806088,0.0025896537,-0.0029778883,0.19595884,0.0,0.0,0.0,0.0,0
8965376000,0.9806108,0.0025833182,-0.0029823687,0.19594903,0.0,0.0,0.0,0.0,0
8965388000,0.980612,0.0025869263,-0.002972419,0.19594318,0.0,0.0,0.0,0.0,0
8965400000,0.980613,0.0026042352,-0.002941775,0.1959382,0.0,0.0,0.0,0.0,0
8965412000,0.98061377,0.0026309025,-0.0029021346,0.1959348,0.0,0.0,0.0,0.0,0
8965420000,0.9806141,0.0026469156,-0.0028766706,0.19593312,0.0,0.0,0.0,0.0,0
8965436000,0.9806146,0.0026658613,-0.0028419676,0.19593088,0.0,0.0,0.0,0.0,0
8965444000,0.9806147,0.0026745405,-0.0028357657,0.19593021,0.0,0.0,0.0,0.0,0
8965460000,0.98061514,0.0026962066,-0.0028299913,0.19592807,0.0,0.0,0.0,0.0,0
8965472000,0.98061544,0.0027172512,-0.0028203328,0.19592649,0.0,0.0,0.0,0.0,0
8965484000,0.9806157,0.002737317,-0.0028077564,0.19592503,0.0,0.0,0.0,0.0,0
8965496000,0.980616,0.0027513725,-0.00279789,0.19592364,0.0,0.0,0.0,0.0,0
8965504000,0.98061603,0.0027582939,-0.0027885924,0.1959231,0.0,0.0,0.0,0.0,0
8965520000,0.9806163,0.0027684974,-0.0027676302,0.19592229,0.0,0.0,0.0,0.0,0
8965532000,0.98061645,0.0027703815,-0.0027585416,0.19592138,0.0,0.0,0.0,0.0,0
8965544000,0.98061675,0.0027691447,-0.0027551025,0.19591996,0.0,0.0,0.0,0.0,0
8965556000,0.98061717,0.0027581237,-0.002758187,0.19591811,0.0,0.0,0.0,0.0,0
8965568000,0.9806176,0.002733003,-0.002769637,0.19591607,0.0,0.0,0.0,0.0,0
8965576000,0.98061794,0.0027089438,-0.0027834445,0.19591436,0.0,0.0,0.0,0.0,0
8965592000,0.9806188,0.0026577776,-0.0028225365,0.19591045,0.0,0.0,0.0,0.0,0
8965600000,0.98061913,0.0026304985,-0.0028482103,0.19590858,0.0,0.0,0.0,0.0,0
8965616000,0.98061985,0.002565727,-0.0028956074,0.1959051,0.0,0.0,0.0,0.0,0
8965628000,0.98062015,0.0025173856,-0.0029168546,0.19590391,0.0,0.0,0.0,0.0,0
8965640000,0.9806201,0.0024778605,-0.0029202697,0.19590485,0.0,0.0,0.0,0.0,0
8965652000,0.98061967,0.002444784,-0.002903885,0.19590753,0.0,0.0,0.0,0.0,0
8965664000,0.98061913,0.0024138624,-0.0028750163,0.19591098,0.0,0.0,0.0,0.0,0
8965676000,0.9806188,0.0023882336,-0.0028398628,0.19591372,0.0,0.0,0.0,0.0,0
8965688000,0.98061866,0.0023679156,-0.0028055569,0.19591506,0.0,0.0,0.0,0.0,0
8965700000,0.98061866,0.0023534491,-0.00277868,0.19591564,0.0,0.0,0.0,0.0,0
8965712000,0.9806187,0.0023403424,-0.002755953,0.19591567,0.0,0.0,0.0,0.0,0
8965724000,0.9806188,0.0023271253,-0.002731326,0.19591594,0.0,0.0,0.0,0.0,0
8965732000,0.9806188,0.0023154847,-0.0027115792,0.19591641,0.0,0.0,0.0,0.0,0
8965748000,0.9806188,0.0022847792,-0.0026735298,0.19591731,0.0,0.0,0.0,0.0,0
8965760000,0.98061895,0.0022484097,-0.0026440856,0.19591722,0.0,0.0,0.0,0.0,0
8965772000,0.9806194,0.00219684,-0.002613894,0.19591609,0.0,0.0,0.0,0.0,0
8965784000,0.9806199,0.002141597,-0.0025873878,0.19591422,0.0,0.0,0.0,0.0,0
8965796000,0.9806205,0.00208521,-0.002567869,0.19591211,0.0,0.0,0.0,0.0,0
8965808000,0.98062116,0.0020231933,-0.0025592986,0.1959098,0.0,0.0,0.0,0.0,0
8965820000,0.9806217,0.0019591853,-0.002557016,0.19590761,0.0,0.0,0.0,0.0,0
8965832000,0.9806221,0.0019037109,-0.002554486,0.19590619,0.0,0.0,0.0,0.0,0
8965844000,0.980622,0.0018645554,-0.0025550395,0.19590707,0.0,0.0,0.0,0.0,0
8965856000,0.9806216,0.0018301003,-0.0025588907,0.1959096,0.0,0.0,0.0,0.0,0
8965868000,0.98062104,0.0018016389,-0.0025633771,0.19591226,0.0,0.0,0.0,0.0,0
8965880000,0.98062056,0.0017753113,-0.002571291,0.19591491,0.0,0.0,0.0,0.0,0
8965892000,0.98062,0.0017433392,-0.0025795838,0.19591777,0.0,0.0,0.0,0.0,0
8965904000,0.98061955,0.001710822,-0.0025865466,0.19592021,0.0,0.0,0.0,0.0,0
8965912000,0.9806194,0.0016895131,-0.0025930663,0.19592147,0.0,0.0,0.0,0.0,0
8965924000,0.9806192,0.0016543857,-0.0026125645,0.1959224,0.0,0.0,0.0,0.0,0
8965940000,0.98061943,0.0016214105,-0.0026521687,0.1959207,0.0,0.0,0.0,0.0,0
8965952000,0.9806204,0.0016174687,-0.0026838975,0.19591564,0.0,0.0,0.0,0.0,0
8965964000,0.98062164,0.001626696,-0.0027133652,0.19590889,0.0,0.0,0.0,0.0,0
8965976000,0.9806229,0.0016382157,-0.002733597,0.19590217,0.0,0.0,0.0,0.0,0
8965984000,0.98062366,0.00164596,-0.0027393196,0.19589813,0.0,0.0,0.0,0.0,0
8966000000,0.980625,0.0016682252,-0.0027381564,0.19589163,0.0,0.0,0.0,0.0,0
8966012000,0.98062575,0.001697496,-0.0027317796,0.1958876,0.0,0.0,0.0,0.0,0
8966024000,0.9806264,0.001732821,-0.0027236599,0.1958839,0.0,0.0,0.0,0.0,0
8966036000,0.9806272,0.0017556563,-0.0027081897,0.19588026,0.0,0.0,0.0,0.0,0
8966048000,0.9806281,0.0017664649,-0.0026812686,0.19587606,0.0,0.0,0.0,0.0,0
8966056000,0.9806287,0.0017729902,-0.0026559003,0.19587293,0.0,0.0,0.0,0.0,0
8966072000,0.9806298,0.0018020928,-0.0026049817,0.19586794,0.0,0.0,0.0,0.0,0
8966084000,0.9806302,0.0018248191,-0.0025706352,0.19586605,0.0,0.0,0.0,0.0,0
8966096000,0.9806303,0.0018390391,-0.0025327632,0.19586611,0.0,0.0,0.0,0.0,0
8966108000,0.98063004,0.0018417916,-0.0024938236,0.19586797,0.0,0.0,0.0,0.0,0
8966120000,0.98062956,0.0018309526,-0.002451648,0.1958708,0.0,0.0,0.0,0.0,0
8966132000,0.98062897,0.0018125803,-0.002414167,0.19587441,0.0,0.0,0.0,0.0,0
8966144000,0.9806283,0.0017979423,-0.0023758125,0.19587825,0.0,0.0,0.0,0.0,0
8966152000,0.98062795,0.0017930225,-0.0023455329,0.19588068,0.0,0.0,0.0,0.0,0
8966168000,0.9806272,0.0017885133,-0.0022802914,0.19588518,0.0,0.0,0.0,0.0,0
8966180000,0.9806267,0.0017757416,-0.002237923,0.19588839,0.0,0.0,0.0,0.0,0
8966192000,0.9806262,0.0017473171,-0.0022059567,0.19589129,0.0,0.0,0.0,0.0,0
8966204000,0.98062617,0.0017034967,-0.0021859852,0.19589223,0.0,0.0,0.0,0.0,0
8966216000,0.98062634,0.0016519447,-0.0021848355,0.19589186,0.0,0.0,0.0,0.0,0
8966228000,0.9806266,0.0015931468,-0.002200024,0.19589095,0.0,0.0,0.0,0.0,0
8966240000,0.9806268,0.0015297367,-0.002224213,0.1958898,0.0,0.0,0.0,0.0,0
8966252000,0.980627,0.0014682976,-0.0022601609,0.19588894,0.0,0.0,0.0,0.0,0
8966264000,0.9806271,0.0014106042,-0.0023071168,0.19588834,0.0,0.0,0.0,0.0,0
8966276000,0.9806271,0.0013518814,-0.0023605127,0.19588813,0.0,0.0,0.0,0.0,0
8966288000,0.98062706,0.0012856403,-0.002409472,0.19588822,0.0,0.0,0.0,0.0,0
8966300000,0.9806272,0.0012130236,-0.0024476943,0.19588764,0.0,0.0,0.0,0.0,0
8966312000,0.9806275,0.0011308383,-0.0024794526,0.19588612,0.0,0.0,0.0,0.0,0
8966324000,0.9806281,0.001038458,-0.0025053378,0.19588356,0.0,0.0,0.0,0.0,0
8966336000,0.9806289,0.0009464094,-0.0025235985,0.19587944,0.0,0.0,0.0,0.0,0
8966348000,0.98063,0.00087257696,-0.0025324097,0.19587435,0.0,0.0,0.0,0.0,0
8966360000,0.98063123,0.0008138474,-0.0025335,0.1958684,0.0,0.0,0.0,0.0,0
8966372000,0.9806324,0.00076098973,-0.0025250143,0.1958626,0.0,0.0,0.0,0.0,0
8966384000,0.98063356,0.0007157668,-0.0025079749,0.19585755,0.0,0.0,0.0,0.0,0
8966396000,0.98063445,0.00067324477,-0.0024792035,0.1958534,0.0,0.0,0.0,0.0,0
8966408000,0.980635,0.0006260321,-0.0024326663,0.19585145,0.0,0.0,0.0,0.0,0
8966420000,0.98063487,0.0005887836,-0.0023777084,0.19585279,0.0,0.0,0.0,0.0,0
8966432000,0.98063433,0.00055930845,-0.002320459,0.19585623,0.0,0.0,0.0,0.0,0
8966444000,0.9806336,0.0005341129,-0.0022621152,0.19586058,0.0,0.0,0.0,0.0,0
8966456000,0.98063296,0.00051983364,-0.0022052058,0.19586477,0.0,0.0,0.0,0.0,0
8966464000,0.9806326,0.0005135601,-0.0021717346,0.19586685,0.0,0.0,0.0,0.0,0
8966480000,0.98063225,0.0004957651,-0.0021108754,0.19586924,0.0,0.0,0.0,0.0,0
8966488000,0.9806323,0.00048559107,-0.0020787083,0.19586936,0.0,0.0,0.0,0.0,0
8966504000,0.9806325,0.0004750929,-0.002023642,0.19586906,0.0,0.0,0.0,0.0,0
8966512000,0.9806325,0.00047863205,-0.0020056677,0.19586934,0.0,0.0,0.0,0.0,0
8966524000,0.9806325,0.00049625704,-0.0019948054,0.1958695,0.0,0.0,0.0,0.0,0
8966540000,0.9806327,0.0005356051,-0.0020060383,0.19586788,0.0,0.0,0.0,0.0,0
8966552000,0.9806333,0.0005713581,-0.0020250785,0.19586483,0.0,0.0,0.0,0.0,0
8966564000,0.980634,0.00060507655,-0.0020418742,0.19586125,0.0,0.0,0.0,0.0,0
8966576000,0.98063457,0.0006322441,-0.0020568008,0.19585784,0.0,0.0,0.0,0.0,0
8966588000,0.9806352,0.00065082486,-0.0020686372,0.19585437,0.0,0.0,0.0,0.0,0
8966600000,0.9806357,0.00066564797,-0.0020766845,0.19585185,0.0,0.0,0.0,0.0,0
8966612000,0.9806359,0.0006778784,-0.0020799907,0.19585101,0.0,0.0,0.0,0.0,0
8966624000,0.9806357,0.0006873661,-0.0020834089,0.19585162,0.0,0.0,0.0,0.0,0
8966636000,0.9806354,0.0006852304,-0.002091654,0.19585308,0.0,0.0,0.0,0.0,0
8966648000,0.98063475,0.00068520434,-0.0021069676,0.19585638,0.0,0.0,0.0,0.0,0
8966660000,0.9806338,0.00068226486,-0.0021270574,0.19586077,0.0,0.0,0.0,0.0,0
8966668000,0.9806332,0.0006738545,-0.0021440329,0.19586375,0.0,0.0,0.0,0.0,0
8966684000,0.9806319,0.0006430856,-0.00217738,0.19587006,0.0,0.0,0.0,0.0,0
8966696000,0.980631,0.00060711155,-0.0021840918,0.19587454,0.0,0.0,0.0,0.0,0
8966708000,0.98063016,0.0005630774,-0.0021746738,0.19587897,0.0,0.0,0.0,0.0,0
8966720000,0.9806294,0.00052227284,-0.0021541533,0.19588308,0.0,0.0,0.0,0.0,0
8966732000,0.98062885,0.00048003977,-0.0021213042,0.19588633,0.0,0.0,0.0,0.0,0
8966740000,0.98062855,0.00045294946,-0.0020930488,0.1958881,0.0,0.0,0.0,0.0,0
8966756000,0.9806281,0.0004098705,-0.002017276,0.19589156,0.0,0.0,0.0,0.0,0
8966768000,0.98062783,0.0003895383,-0.001951446,0.19589338,0.0,0.0,0.0,0.0,0
8966780000,0.9806278,0.00037667918,-0.001885318,0.19589415,0.0,0.0,0.0,0.0,0
8966792000,0.9806279,0.00036597686,-0.0018297882,0.19589417,0.0,0.0,0.0,0.0,0
8966804000,0.9806283,0.00035510093,-0.0017853545,0.1958926,0.0,0.0,0.0,0.0,0
8966816000,0.9806291,0.0003474209,-0.0017464804,0.19588919,0.0,0.0,0.0,0.0,0
8966824000,0.9806296,0.00034462442,-0.00172401,0.19588669,0.0,0.0,0.0,0.0,0
8966840000,0.98063046,0.00032866065,-0.001675512,0.19588289,0.0,0.0,0.0,0.0,0
8966852000,0.98063093,0.00031615645,-0.0016321512,0.19588083,0.0,0.0,0.0,0.0,0
8966864000,0.98063135,0.0003110072,-0.0015870022,0.19587903,0.0,0.0,0.0,0.0,0
8966876000,0.98063195,0.00030579092,-0.0015457225,0.19587658,0.0,0.0,0.0,0.0,0
8966888000,0.9806326,0.00030355414,-0.0015139024,0.19587342,0.0,0.0,0.0,0.0,0
8966900000,0.9806333,0.0003076107,-0.0014903807,0.19587012,0.0,0.0,0.0,0.0,0
8966912000,0.9806339,0.0003094329,-0.0014713606,0.19586724,0.0,0.0,0.0,0.0,0
8966920000,0.9806342,0.00030824138,-0.0014621167,0.19586584,0.0,0.0,0.0,0.0,0
8966936000,0.98063457,0.00030132465,-0.0014599889,0.19586402,0.0,0.0,0.0,0.0,0
8966948000,0.98063487,0.00029253899,-0.001473529,0.19586234,0.0,0.0,0.0,0.0,0
8966960000,0.9806352,0.0002797525,-0.0015004037,0.19586039,0.0,0.0,0.0,0.0,0
8966972000,0.98063564,0.0002693059,-0.0015354385,0.19585812,0.0,0.0,0.0,0.0,0
8966980000,0.9806359,0.00026634455,-0.0015588212,0.19585665,0.0,0.0,0.0,0.0,0
8966992000,0.9806361,0.00026021508,-0.0015918107,0.19585524,0.0,0.0,0.0,0.0,0
8967008000,0.9806362,0.00022374101,-0.0016377072,0.19585456,0.0,0.0,0.0,0.0,0
8967020000,0.9806362,0.00017607368,-0.0016691296,0.19585454,0.0,0.0,0.0,0.0,0
8967032000,0.9806359,0.00011213725,-0.001697118,0.19585563,0.0,0.0,0.0,0.0,0
8967040000,0.98063564,5.847806e-05,-0.0017134892,0.19585694,0.0,0.0,0.0,0.0,0
8967056000,0.98063505,-6.02055e-05,-0.0017436061,0.19585952,0.0,0.0,0.0,0.0,0
8967068000,0.98063475,-0.00014357253,-0.0017602097,0.19586094,0.0,0.0,0.0,0.0,0
8967080000,0.9806346,-0.00021397213,-0.0017664419,0.1958614,0.0,0.0,0.0,0.0,0
8967092000,0.9806348,-0.00027972338,-0.0017622281,0.19586049,0.0,0.0,0.0,0.0,0
8967104000,0.9806352,-0.00034220403,-0.0017564562,0.19585836,0.0,0.0,0.0,0.0,0
8967112000,0.9806356,-0.00037976122,-0.0017574162,0.19585629,0.0,0.0,0.0,0.0,0
8967128000,0.98063684,-0.00044559932,-0.001770192,0.1958498,0.0,0.0,0.0,0.0,0
8967140000,0.9806382,-0.00048995594,-0.0017938387,0.19584274,0.0,0.0,0.0,0.0,0
8967152000,0.9806395,-0.0005241791,-0.0018269117,0.19583574,0.0,0.0,0.0,0.0,0
8967164000,0.9806406,-0.0005470406,-0.0018656428,0.19582993,0.0,0.0,0.0,0.0,0
8967176000,0.98064137,-0.0005615506,-0.001904099,0.19582552,0.0,0.0,0.0,0.0,0
8967188000,0.98064214,-0.000571325,-0.0019324312,0.19582152,0.0,0.0,0.0,0.0,0
8967196000,0.9806427,-0.0005783009,-0.0019490132,0.19581842,0.0,0.0,0.0,0.0,0
8967212000,0.9806441,-0.00060092873,-0.00198345,0.19581097,0.0,0.0,0.0,0.0,0
8967220000,0.9806448,-0.00062093575,-0.0020003514,0.19580714,0.0,0.0,0.0,0.0,0
8967236000,0.9806461,-0.0006655173,-0.002032837,0.19580056,0.0,0.0,0.0,0.0,0
8967244000,0.98064655,-0.0006863193,-0.0020462705,0.19579785,0.0,0.0,0.0,0.0,0
8967260000,0.98064715,-0.00073842064,-0.0020667505,0.19579458,0.0,0.0,0.0,0.0,0
8967268000,0.9806472,-0.000767431,-0.002070386,0.19579397,0.0,0.0,0.0,0.0,0
8967284000,0.9806474,-0.00082348,-0.0020634846,0.19579287,0.0,0.0,0.0,0.0,0
8967292000,0.9806475,-0.0008520369,-0.0020526368,0.19579236,0.0,0.0,0.0,0.0,0
8967308000,0.9806476,-0.0009038746,-0.0020143662,0.19579183,0.0,0.0,0.0,0.0,0
8967320000,0.98064786,-0.000931855,-0.001980379,0.19579095,0.0,0.0,0.0,0.0,0
8967332000,0.9806483,-0.0009547752,-0.0019395553,0.1957891,0.0,0.0,0.0,0.0,0
8967344000,0.9806489,-0.00096764864,-0.0018907815,0.1957867,0.0,0.0,0.0,0.0,0
8967356000,0.98064965,-0.0009717783,-0.0018316606,0.19578333,0.0,0.0,0.0,0.0,0
8967368000,0.98065066,-0.00097115437,-0.001767984,0.19577876,0.0,0.0,0.0,0.0,0
8967380000,0.9806518,-0.00096744485,-0.0016983652,0.19577362,0.0,0.0,0.0,0.0,0
8967392000,0.980653,-0.0009609014,-0.0016188242,0.19576834,0.0,0.0,0.0,0.0,0
8967404000,0.9806543,-0.00095268345,-0.0015357628,0.19576263,0.0,0.0,0.0,0.0,0
8967416000,0.98065567,-0.0009485139,-0.0014507076,0.19575642,0.0,0.0,0.0,0.0,0
8967428000,0.98065716,-0.0009496782,-0.0013700349,0.1957496,0.0,0.0,0.0,0.0,0
8967440000,0.98065877,-0.00095412193,-0.0012964677,0.19574197,0.0,0.0,0.0,0.0,0
8967448000,0.98065984,-0.00095176225,-0.0012494205,0.19573672,0.0,0.0,0.0,0.0,0
8967464000,0.98066205,-0.00092945015,-0.0011661378,0.19572644,0.0,0.0,0.0,0.0,0
8967476000,0.98066384,-0.0009005726,-0.0011184396,0.19571799,0.0,0.0,0.0,0.0,0
8967488000,0.9806658,-0.0008719315,-0.0010907883,0.19570833,0.0,0.0,0.0,0.0,0
8967500000,0.9806678,-0.00085166784,-0.0010699339,0.19569832,0.0,0.0,0.0,0.0,0
8967512000,0.9806696,-0.00084142265,-0.0010452789,0.1956897,0.0,0.0,0.0,0.0,0
8967524000,0.9806708,-0.0008338346,-0.0010206767,0.19568369,0.0,0.0,0.0,0.0,0
8967536000,0.98067147,-0.0008276553,-0.0010066639,0.19568059,0.0,0.0,0.0,0.0,0
8967548000,0.98067147,-0.0008224458,-0.0009965526,0.19568078,0.0,0.0,0.0,0.0,0
8967560000,0.98067087,-0.00082767365,-0.00097600376,0.19568378,0.0,0.0,0.0,0.0,0
8967572000,0.9806699,-0.0008499566,-0.0009466573,0.19568844,0.0,0.0,0.0,0.0,0
8967580000,0.9806692,-0.00087584194,-0.00092164986,0.19569206,0.0,0.0,0.0,0.0,0
8967596000,0.9806674,-0.00095156545,-0.0008709057,0.19570099,0.0,0.0,0.0,0.0,0
8967608000,0.98066545,-0.0010182824,-0.0008341661,0.19571063,0.0,0.0,0.0,0.0,0
8967620000,0.98066306,-0.0010917827,-0.00080025924,0.19572248,0.0,0.0,0.0,0.0,0
8967632000,0.98066044,-0.0011663783,-0.0007715478,0.19573501,0.0,0.0,0.0,0.0,0
8967644000,0.9806579,-0.001238105,-0.0007505445,0.19574776,0.0,0.0,0.0,0.0,0
8967656000,0.9806554,-0.0013001424,-0.0007296624,0.19575976,0.0,0.0,0.0,0.0,0
8967668000,0.9806534,-0.0013496806,-0.0007001784,0.19576949,0.0,0.0,0.0,0.0,0
8967676000,0.9806524,-0.0013745547,-0.0006756587,0.19577439,0.0,0.0,0.0,0.0,0
8967692000,0.98065114,-0.0014105735,-0.0006217012,0.19578077,0.0,0.0,0.0,0.0,0
8967704000,0.9806505,-0.0014276203,-0.00058250135,0.19578388,0.0,0.0,0.0,0.0,0
8967716000,0.98065,-0.0014399273,-0.00055226503,0.19578634,0.0,0.0,0.0,0.0,0
8967728000,0.9806495,-0.001446279,-0.0005326103,0.19578895,0.0,0.0,0.0,0.0,0
8967740000,0.98064876,-0.0014436392,-0.0005264971,0.19579254,0.0,0.0,0.0,0.0,0
8967748000,0.98064816,-0.0014381472,-0.00052709045,0.19579571,0.0,0.0,0.0,0.0,0
8967760000,0.9806471,-0.0014266305,-0.0005373935,0.1958012,0.0,0.0,0.0,0.0,0
8967776000,0.98064584,-0.0014053404,-0.0005469264,0.19580735,0.0,0.0,0.0,0.0,0
8967788000,0.98064506,-0.0013963308,-0.00054868514,0.19581145,0.0,0.0,0.0,0.0,0
8967800000,0.98064417,-0.0013921659,-0.00054593646,0.1958161,0.0,0.0,0.0,0.0,0
8967812000,0.9806432,-0.0013951426,-0.0005462524,0.19582078,0.0,0.0,0.0,0.0,0
8967824000,0.9806424,-0.0013914756,-0.0005454434,0.1958249,0.0,0.0,0.0,0.0,0
8967832000,0.98064196,-0.0013799056,-0.0005394484,0.19582705,0.0,0.0,0.0,0.0,0
8967848000,0.98064154,-0.0013437526,-0.00052182283,0.19582963,0.0,0.0,0.0,0.0,0
8967860000,0.9806413,-0.0013031604,-0.0005108292,0.19583102,0.0,0.0,0.0,0.0,0
8967868000,0.9806412,-0.0012661896,-0.0005100852,0.19583187,0.0,0.0,0.0,0.0,0
8967880000,0.980641,-0.0012031227,-0.0005205398,0.19583304,0.0,0.0,0.0,0.0,0
8967896000,0.98064095,-0.0011061992,-0.0005466754,0.19583382,0.0,0.0,0.0,0.0,0
8967908000,0.9806414,-0.0010243536,-0.0005756674,0.19583198,0.0,0.0,0.0,0.0,0
8967916000,0.98064196,-0.0009700589,-0.0005997574,0.19582933,0.0,0.0,0.0,0.0,0
8967932000,0.98064333,-0.00086362404,-0.0006478656,0.19582273,0.0,0.0,0.0,0.0,0
8967940000,0.9806441,-0.00081022317,-0.0006691845,0.19581917,0.0,0.0,0.0,0.0,0
8967956000,0.9806455,-0.000704183,-0.0007038633,0.19581267,0.0,0.0,0.0,0.0,0
8967968000,0.9806462,-0.00063336035,-0.00072598446,0.19580907,0.0,0.0,0.0,0.0,0
8967980000,0.9806468,-0.00057565194,-0.00074939296,0.1958063,0.0,0.0,0.0,0.0,0
8967992000,0.98064727,-0.0005242655,-0.0007767054,0.19580385,0.0,0.0,0.0,0.0,0
8968004000,0.9806476,-0.00047343547,-0.0008079809,0.19580218,0.0,0.0,0.0,0.0,0
8968016000,0.9806477,-0.00042083432,-0.00083604053,0.1958018,0.0,0.0,0.0,0.0,0
8968028000,0.9806476,-0.00037050774,-0.000848745,0.19580211,0.0,0.0,0.0,0.0,0
8968036000,0.98064756,-0.00034135554,-0.00084879505,0.1958024,0.0,0.0,0.0,0.0,0
8968052000,0.98064756,-0.0002967859,-0.0008362051,0.19580278,0.0,0.0,0.0,0.0,0
8968064000,0.98064756,-0.00028094184,-0.00081317517,0.19580285,0.0,0.0,0.0,0.0,0
8968076000,0.98064756,-0.00027338217,-0.00077812123,0.19580302,0.0,0.0,0.0,0.0,0
8968088000,0.98064756,-0.00027720368,-0.0007337767,0.19580312,0.0,0.0,0.0,0.0,0
8968096000,0.9806475,-0.0002817569,-0.0007028103,0.19580345,0.0,0.0,0.0,0.0,0
8968112000,0.9806472,-0.00028754337,-0.00064275967,0.19580513,0.0,0.0,0.0,0.0,0
8968124000,0.9806467,-0.0002835181,-0.0005985716,0.19580758,0.0,0.0,0.0,0.0,0
8968136000,0.9806462,-0.00027246738,-0.0005554541,0.1958105,0.0,0.0,0.0,0.0,0
8968148000,0.98064566,-0.00025194255,-0.0005076896,0.1958134,0.0,0.0,0.0,0.0,0
8968160000,0.98064524,-0.00022455653,-0.00046395714,0.19581555,0.0,0.0,0.0,0.0,0
8968172000,0.980645,-0.00019680765,-0.00042925056,0.19581705,0.0,0.0,0.0,0.0,0
8968184000,0.9806449,-0.00018027985,-0.00040003695,0.19581771,0.0,0.0,0.0,0.0,0
8968196000,0.980645,-0.0001782503,-0.00036681077,0.19581713,0.0,0.0,0.0,0.0,0
8968208000,0.9806451,-0.00019988243,-0.00032575702,0.19581643,0.0,0.0,0.0,0.0,0
8968220000,0.98064524,-0.00023433828,-0.00028584016,0.19581601,0.0,0.0,0.0,0.0,0
8968228000,0.98064536,-0.000260439,-0.00026312462,0.19581546,0.0,0.0,0.0,0.0,0
8968244000,0.98064566,-0.00032384542,-0.00022410187,0.19581367,0.0,0.0,0.0,0.0,0
8968256000,0.9806459,-0.0003831799,-0.0001977453,0.1958125,0.0,0.0,0.0,0.0,0
8968268000,0.9806459,-0.0004442097,-0.00017629539,0.19581243,0.0,0.0,0.0,0.0,0
8968280000,0.9806459,-0.0005065754,-0.00016324379,0.19581231,0.0,0.0,0.0,0.0,0
8968292000,0.9806461,-0.00056384073,-0.00015728055,0.1958111,0.0,0.0,0.0,0.0,0
8968304000,0.9806464,-0.0006078632,-0.00016424767,0.19580965,0.0,0.0,0.0,0.0,0
8968316000,0.9806463,-0.00064076704,-0.0001835638,0.19580972,0.0,0.0,0.0,0.0,0
8968324000,0.9806461,-0.000658346,-0.00020140194,0.1958109,0.0,0.0,0.0,0.0,0
8968340000,0.98064536,-0.00067401666,-0.00024486057,0.1958143,0.0,0.0,0.0,0.0,0
8968352000,0.98064476,-0.00066910184,-0.000277958,0.19581719,0.0,0.0,0.0,0.0,0
8968364000,0.98064435,-0.00065028097,-0.00030444283,0.1958194,0.0,0.0,0.0,0.0,0
8968376000,0.9806441,-0.00062847196,-0.0003200449,0.19582073,0.0,0.0,0.0,0.0,0
8968388000,0.9806439,-0.0006137348,-0.00032544622,0.19582172,0.0,0.0,0.0,0.0,0
8968400000,0.98064375,-0.00061178854,-0.00032438317,0.19582267,0.0,0.0,0.0,0.0,0
8968412000,0.9806436,-0.0006269929,-0.00032699932,0.19582334,0.0,0.0,0.0,0.0,0
8968424000,0.9806436,-0.00065804605,-0.0003343125,0.19582333,0.0,0.0,0.0,0.0,0
8968436000,0.98064387,-0.0006920839,-0.00033054175,0.19582154,0.0,0.0,0.0,0.0,0
8968448000,0.9806445,-0.00072467414,-0.00031036843,0.19581823,0.0,0.0,0.0,0.0,0
8968460000,0.9806454,-0.0007524583,-0.00028458724,0.19581372,0.0,0.0,0.0,0.0,0
8968472000,0.98064655,-0.0007698027,-0.00026510414,0.195808,0.0,0.0,0.0,0.0,0
8968484000,0.9806478,-0.0007848918,-0.0002521044,0.19580187,0.0,0.0,0.0,0.0,0
8968496000,0.980649,-0.0007968472,-0.0002357686,0.1957957,0.0,0.0,0.0,0.0,0
8968508000,0.9806501,-0.00080184994,-0.00020778415,0.19579008,0.0,0.0,0.0,0.0,0
8968520000,0.980651,-0.0007930867,-0.00016758894,0.19578569,0.0,0.0,0.0,0.0,0
8968532000,0.98065174,-0.00077836186,-0.00011957376,0.19578224,0.0,0.0,0.0,0.0,0
8968540000,0.9806521,-0.00076822005,-8.6829124e-05,0.19578053,0.0,0.0,0.0,0.0,0
8968556000,0.98065263,-0.0007447765,-2.2400225e-05,0.19577797,0.0,0.0,0.0,0.0,0
8968564000,0.98065287,-0.00072627945,1.02731465e-05,0.19577685,0.0,0.0,0.0,0.0,0
8968580000,0.98065305,-0.00069223,7.949032e-05,0.1957759,0.0,0.0,0.0,0.0,0
8968592000,0.980653,-0.0006809414,0.000121763245,0.19577624,0.0,0.0,0.0,0.0,0
8968604000,0.9806528,-0.0006830945,0.00015057581,0.19577707,0.0,0.0,0.0,0.0,0
8968616000,0.9806527,-0.0007032866,0.00016500913,0.19577768,0.0,0.0,0.0,0.0,0
8968628000,0.9806526,-0.000745028,0.00017397557,0.19577809,0.0,0.0,0.0,0.0,0
8968640000,0.98065245,-0.0008093512,0.0001752479,0.19577843,0.0,0.0,0.0,0.0,0
8968652000,0.98065233,-0.00089143217,0.00016890105,0.1957786,0.0,0.0,0.0,0.0,0
8968664000,0.98065233,-0.000982505,0.00016175066,0.19577824,0.0,0.0,0.0,0.0,0
8968676000,0.9806525,-0.0010633611,0.00015950206,0.19577704,0.0,0.0,0.0,0.0,0
8968688000,0.9806529,-0.0011254299,0.00016338263,0.19577456,0.0,0.0,0.0,0.0,0
8968696000,0.9806533,-0.0011573477,0.00016753747,0.19577263,0.0,0.0,0.0,0.0,0
8968712000,0.98065406,-0.0012039322,0.00017406676,0.19576842,0.0,0.0,0.0,0.0,0
8968720000,0.9806545,-0.0012173189,0.00017032602,0.19576608,0.0,0.0,0.0,0.0,0
8968736000,0.9806554,-0.0012329567,0.00015099121,0.19576153,0.0,0.0,0.0,0.0,0
8968744000,0.9806558,-0.0012414778,0.00013937918,0.19575946,0.0,0.0,0.0,0.0,0
8968760000,0.9806568,-0.0012605041,0.00011149793,0.19575435,0.0,0.0,0.0,0.0,0
8968772000,0.9806578,-0.0012634821,8.90531e-05,0.19574921,0.0,0.0,0.0,0.0,0
8968784000,0.98065907,-0.0012553704,6.383868e-05,0.19574314,0.0,0.0,0.0,0.0,0
8968796000,0.9806604,-0.0012406363,4.383212e-05,0.19573638,0.0,0.0,0.0,0.0,0
8968808000,0.98066187,-0.0012152038,2.3247749e-05,0.19572932,0.0,0.0,0.0,0.0,0
8968820000,0.9806633,-0.0011741748,3.4850274e-07,0.19572237,0.0,0.0,0.0,0.0,0
8968832000,0.98066485,-0.0011172263,-2.8492554e-05,0.19571488,0.0,0.0,0.0,0.0,0
8968840000,0.98066604,-0.0010757025,-4.7057325e-05,0.19570914,0.0,0.0,0.0,0.0,0
8968852000,0.9806681,-0.0010124705,-7.0589296e-05,0.19569899,0.0,0.0,0.0,0.0,0
8968864000,0.9806704,-0.0009624809,-7.819155e-05,0.19568804,0.0,0.0,0.0,0.0,0
8968880000,0.98067266,-0.00092542823,-4.547731e-05,0.19567676,0.0,0.0,0.0,0.0,0
8968892000,0.98067373,-0.00091246475,-5.0152053e-06,0.19567148,0.0,0.0,0.0,0.0,0
8968904000,0.9806746,-0.0009070363,3.3911863e-05,0.19566706,0.0,0.0,0.0,0.0,0
8968912000,0.9806752,-0.0009031472,5.8478898e-05,0.19566402,0.0,0.0,0.0,0.0,0
8968928000,0.98067653,-0.0008944924,0.00010418971,0.19565746,0.0,0.0,0.0,0.0,0
8968940000,0.98067766,-0.0008968724,0.00012839142,0.19565165,0.0,0.0,0.0,0.0,0
8968952000,0.98067904,-0.00090510264,0.00013795581,0.19564489,0.0,0.0,0.0,0.0,0
8968964000,0.98068064,-0.0009169531,0.00013825098,0.19563682,0.0,0.0,0.0,0.0,0
8968976000,0.98068225,-0.00093157706,0.000126522,0.19562855,0.0,0.0,0.0,0.0,0
8968988000,0.9806838,-0.0009462169,0.00010021555,0.19562064,0.0,0.0,0.0,0.0,0
8969000000,0.9806853,-0.0009643511,6.8045585e-05,0.1956133,0.0,0.0,0.0,0.0,0
8969008000,0.9806861,-0.0009815842,5.0933668e-05,0.19560905,0.0,0.0,0.0,0.0,0
8969024000,0.98068774,-0.0010155815,4.1049272e-05,0.19560055,0.0,0.0,0.0,0.0,0
8969036000,0.9806892,-0.0010397175,5.276057e-05,0.19559304,0.0,0.0,0.0,0.0,0
8969048000,0.9806908,-0.0010556581,7.926313e-05,0.1955851,0.0,0.0,0.0,0.0,0
8969060000,0.98069245,-0.0010616472,0.000117776304,0.19557685,0.0,0.0,0.0,0.0,0
8969072000,0.98069406,-0.0010599827,0.0001683295,0.19556877,0.0,0.0,0.0,0.0,0
