timestamp,timestamp_sample,xyz[0],xyz[1],xyz[2]
8959832000,8959832000,-0.0038359242,-0.0017507668,-0.0024868245
8959844000,8959844000,-0.0023846563,0.0004652054,0.0026766488
8959856000,8959856000,-0.00010033441,0.001630065,-0.0007301454
8959864000,8959864000,-0.0034667875,0.003917693,-0.00077406364
8959880000,8959880000,0.0046027373,-0.0014229044,0.004659961
8959892000,8959892000,-0.0019993605,0.0039674267,0.00018102402
8959904000,8959904000,0.0023926613,0.006920545,0.001992649
8959916000,8959916000,0.0009925058,0.0024979468,0.0034949325
8959928000,8959928000,-0.0027009293,-0.0048031784,0.0077409977
8959940000,8959940000,-0.0085676545,-0.00041998737,-0.0038889942
8959952000,8959952000,-0.00028946833,0.0061963713,-0.004597258
8959960000,8959960000,0.0032302167,0.00360431,-0.000804581
8959972000,8959972000,0.009786217,-0.0019067582,-0.0006590495
8959984000,8959984000,0.0033979774,0.0035729993,0.0032042158
8960000000,8960000000,-0.0017047138,0.0024162321,0.0049505252
8960012000,8960012000,-0.0048663802,-0.004847799,0.0019895937
8960024000,8960024000,0.0008920012,-2.3362227e-06,-0.003995877
8960036000,8960036000,0.0007702764,0.004878247,-0.0018925429
8960044000,8960044000,-0.0018426722,0.0040520392,0.0017532276
8960060000,8960060000,0.0011215638,-0.0005996241,-0.00051847263
8960072000,8960072000,7.539289e-06,0.0018339013,0.0029870193
8960084000,8960084000,0.0004270405,0.005363152,-0.0020653065
8960096000,8960096000,0.0037781498,0.002865323,-0.005727004
8960108000,8960108000,0.0023030085,-0.00048208702,0.000109681976
8960120000,8960120000,-0.0022777936,-0.00017868169,-0.0025105916
8960132000,8960132000,-0.0032414142,0.0017268495,0.0019193508
8960144000,8960144000,-0.0015066443,0.003271506,0.0009180572
8960156000,8960156000,0.0011637129,0.0011495855,-0.0014594161
8960168000,8960168000,0.0018811112,0.0008920133,-0.002343635
8960180000,8960180000,0.0013664878,0.005828231,0.00086827367
8960188000,8960188000,-0.0011221443,0.0017410526,0.0018109528
8960204000,8960204000,0.003342551,0.0019828407,-0.0016123673
8960216000,8960216000,0.005549848,0.002900684,0.00023937732
8960228000,8960228000,-0.0013836126,0.0004075528,-4.0013692e-05
8960240000,8960240000,-0.00048232847,0.004056823,0.00037030567
8960252000,8960252000,-0.00083764596,0.002144787,0.0015792917
8960264000,8960264000,0.0016423818,-0.001577938,-0.0017712425
8960276000,8960276000,0.0010609532,0.0008420213,0.00293882
8960288000,8960288000,0.001592172,0.00033534225,-0.00015338953
8960300000,8960300000,-0.0013459618,-0.0026181932,0.0048112655
8960312000,8960312000,0.004174874,0.0009819018,0.00023680786
8960324000,8960324000,-0.0041520656,-0.0057008583,-0.004257047
8960336000,8960336000,-0.00041842833,0.0017071739,-0.0035136165
8960348000,8960348000,0.001407302,0.0029209852,0.0050747623
8960360000,8960360000,-5.8058882e-05,0.004168488,0.0003084587
8960372000,8960372000,-0.0012301935,-0.0012522936,-0.002606484
8960384000,8960384000,-0.00058521633,0.0014276896,-0.004885352
8960396000,8960396000,-0.0010369434,-0.0013985964,-0.00054741616
8960408000,8960408000,-0.0008522002,0.00014639739,-0.0014975526
8960420000,8960420000,-0.0023086483,-2.3440924e-05,-0.0037835576
8960432000,8960432000,0.00033230567,0.0034331155,-0.0022705044
8960444000,8960444000,0.0019808111,-0.0009262664,-0.0040426706
8960456000,8960456000,0.0014291124,-0.00356443,-0.0018172947
8960468000,8960468000,1.9786647e-05,0.001246667,-0.0024601202
8960480000,8960480000,0.0033757256,0.001056137,0.0030097805
8960492000,8960492000,-0.0003963844,0.0006446121,-0.0004440134
8960500000,8960500000,-0.0049346224,-0.0031866655,-0.00014119397
8960516000,8960516000,-0.0040714596,0.0031871093,0.005345269
8960524000,8960524000,-0.004148731,0.0014441158,-0.0023517462
8960536000,8960536000,0.0026199978,0.00012912136,0.0011376542
8960548000,8960548000,0.0034362073,-0.0019682557,0.0038069366
8960560000,8960560000,0.0014598639,-0.0014559585,0.00039196253
8960576000,8960576000,9.7618904e-05,-0.0019309116,-0.0015952952
8960584000,8960584000,0.00032995222,0.0005272059,-0.001955343
8960600000,8960600000,-0.0010296712,0.00052927947,0.00071304
8960612000,8960612000,0.0006514769,0.003767771,0.0037968368
8960624000,8960624000,0.0004694364,-0.0010608379,0.00052808743
8960636000,8960636000,0.0018064581,-0.00292284,0.0023065559
8960648000,8960648000,0.004821418,-4.9600843e-05,0.0020805197
8960660000,8960660000,0.0014145533,0.0016837139,0.0017225645
8960672000,8960672000,0.0026127202,-0.0004848605,0.0049533197
8960684000,8960684000,-0.00479031,-0.0053555896,0.002579561
8960696000,8960696000,-0.0009806107,0.00029132422,0.0035106316
8960708000,8960708000,-0.0025192755,-0.0014174185,0.0043181637
8960720000,8960720000,-0.0066881953,-0.00014698924,-0.0020311459
8960732000,8960732000,-0.0028527817,0.0033559832,-0.0028361732
8960744000,8960744000,-0.0017501512,-0.0002638083,-0.003729589
8960756000,8960756000,0.0006246243,-0.0021820413,-0.0036496776
8960768000,8960768000,-0.00036943168,-0.00015786989,0.00014944636
8960780000,8960780000,0.00035490352,-0.0039715567,0.0074350024
8960792000,8960792000,-0.0006832576,-0.0044443836,0.0015840475
8960804000,8960804000,0.0010864164,-0.005793162,-0.0024079252
8960816000,8960816000,0.0022833706,-0.0047020926,-0.00060234824
8960824000,8960824000,-0.0023353207,-0.004625659,-0.0034801413
8960836000,8960836000,0.00026880996,-0.0011260295,0.0012477979
8960852000,8960852000,0.002313268,-0.0012951232,-0.0017149128
8960864000,8960864000,-0.0029489307,0.0008393675,-3.8843136e-06
8960872000,8960872000,-0.00062767114,9.423774e-05,0.0021828595
8960884000,8960884000,0.0031198817,0.00057983585,0.0038228743
8960900000,8960900000,-0.0032214087,0.00014158012,0.002446984
8960912000,8960912000,0.0015196415,0.003422625,-0.0010310699
8960924000,8960924000,-0.0026631784,-0.003025298,-0.001608308
8960936000,8960936000,-0.0018065553,0.00049383007,0.0009207511
8960948000,8960948000,0.0026236663,-0.0031158584,-0.0021813253
8960960000,8960960000,-0.0007343453,0.0038555928,-0.0012715437
8960972000,8960972000,0.0054385597,-0.0046745464,-0.0015361406
8960980000,8960980000,0.006014101,0.0014574006,0.00011832651
8960996000,8960996000,-0.00010041939,0.00013518194,0.0009887972
8961008000,8961008000,0.0026837476,0.0046062307,2.2144755e-05
8961020000,8961020000,0.0022334708,0.0027258405,0.0015338195
8961032000,8961032000,0.0006515132,0.0041582645,0.0006742509
8961040000,8961040000,-0.0009025431,-0.0025746655,-0.0010297183
8961056000,8961056000,-0.0071735997,-0.0016383626,0.0060149534
8961068000,8961068000,-0.0007280314,-0.0018302631,-0.00093900925
8961080000,8961080000,0.0013428337,0.0012236801,-0.0022097689
8961088000,8961088000,0.00025542662,0.0014335727,-0.004013027
8961104000,8961104000,-0.00094626565,-0.00425377,0.00022026873
8961116000,8961116000,-0.0015541208,-0.0064905835,-0.0008354938
8961128000,8961128000,-0.0025414065,-0.0012904997,0.003269957
8961140000,8961140000,0.0058066053,-0.004990098,0.003506979
8961152000,8961152000,0.0035777455,0.001289384,-0.0014326316
8961164000,8961164000,0.0044249096,0.006960658,-0.000595949
8961176000,8961176000,0.00071206223,0.0032284053,-0.0019560833
8961188000,8961188000,0.0024459544,0.0015103011,-0.004606855
8961200000,8961200000,0.00454768,0.001211674,0.0013789388
8961212000,8961212000,-0.0017585522,-0.0016989107,-0.0032865633
8961224000,8961224000,-0.002504544,-0.0033067488,-0.0010149
8961236000,8961236000,-0.012495769,7.8832265e-05,0.0010558254
8961248000,8961248000,-0.0011661311,0.0003002854,0.0026319353
8961260000,8961260000,0.0023346776,0.0005676551,8.0891885e-05
8961272000,8961272000,-0.003497089,0.0030258975,0.0006401799
8961284000,8961284000,0.0018571902,0.00032111723,-0.0009849496
8961296000,8961296000,0.0032142184,-0.0030598356,0.0060465657
8961308000,8961308000,-0.0025116673,-0.0028634681,-0.0029606998
8961320000,8961320000,0.0013152059,-0.00086954515,-0.0011987176
8961332000,8961332000,0.003877088,-0.0014741942,-0.0021572104
8961344000,8961344000,0.0038349892,-0.001938642,0.0068236645
8961356000,8961356000,0.0029449463,-0.0010181074,0.0011682543
8961368000,8961368000,0.0021038635,-0.0008385675,-0.003257248
8961380000,8961380000,-0.0022104478,-0.0023038862,-0.0008506288
8961392000,8961392000,0.00046669063,-0.002154388,-0.0016598402
8961404000,8961404000,0.0026739617,0.0012284117,-0.004055811
8961412000,8961412000,-0.00082217157,-0.0030850102,-0.0034855069
8961428000,8961428000,0.005072756,-0.0020522065,-0.0032379506
8961440000,8961440000,-0.00047110626,0.00040425034,0.0011869143
8961452000,8961452000,0.0009912277,-0.00012227334,-0.0002704832
8961464000,8961464000,0.0007500234,-0.0012789317,0.0010522859
8961472000,8961472000,-0.0010349862,-0.005581097,0.0008444781
8961488000,8961488000,4.9243215e-05,-0.0029953169,0.0018419318
8961496000,8961496000,0.00060906354,0.00048113754,0.00012811518
8961512000,8961512000,-0.0031834815,0.0045526847,-4.1856314e-05
8961520000,8961520000,-0.0008434851,0.0040951744,-0.0008405064
8961536000,8961536000,-0.002033257,-0.00032591727,-0.0028242813
8961548000,8961548000,-0.0033330272,0.00034749415,-0.0004962719
8961560000,8961560000,-0.00054863095,0.0016688905,-0.0044967616
8961572000,8961572000,0.001857406,-0.0024688365,0.00027538993
8961584000,8961584000,0.0038043666,-0.005498613,-0.0003954044
8961596000,8961596000,0.0016111245,0.00304064,-0.0040197643
8961608000,8961608000,0.002053957,-0.0010609645,0.00703152
8961620000,8961620000,-0.0036844413,-0.0014993036,0.0034727575
8961632000,8961632000,0.00022134674,0.006141449,0.0021479202
8961644000,8961644000,1.1055032e-05,0.022971261,-0.0049139853
8961656000,8961656000,0.0025049134,0.03889416,-0.0025616118
8961668000,8961668000,-0.0014806034,0.07300632,-0.0011331569
8961676000,8961676000,0.0005412842,0.09695605,0.0015979792
8961692000,8961692000,0.022560835,0.14363377,0.0016146062
8961700000,8961700000,0.033637352,0.15948564,0.002457791
8961716000,8961716000,0.043133497,0.16476782,0.006891883
8961728000,8961728000,0.040528897,0.15991776,0.0026899863
8961740000,8961740000,0.03194341,0.14285561,0.005199892
8961752000,8961752000,0.025061678,0.13046023,0.0017312125
8961764000,8961764000,0.016852714,0.112586476,0.0015366373
8961776000,8961776000,0.01873231,0.10099328,-0.0011890962
8961788000,8961788000,0.016108379,0.08429879,-0.0022399481
8961800000,8961800000,0.015066503,0.06285315,-0.00027885265
8961812000,8961812000,0.0098319305,0.0571162,0.00050530233
8961824000,8961824000,0.005613708,0.049069464,-0.0011130169
8961836000,8961836000,0.010562829,0.030407384,-0.0023047933
8961848000,8961848000,0.010288517,0.015306018,0.0021830802
8961860000,8961860000,0.00648281,0.004935403,0.0036198725
8961872000,8961872000,0.00016993354,0.0010734396,0.0005191537
8961884000,8961884000,-0.003942697,-0.008849512,-0.002001002
8961896000,8961896000,-0.005214735,-0.02907461,0.00024161802
8961904000,8961904000,-0.0077203885,-0.040840495,0.0016522893
8961920000,8961920000,-0.015968453,-0.051397048,0.0020016832
8961932000,8961932000,-0.016639907,-0.056419134,0.0035811337
8961944000,8961944000,-0.013502584,-0.0671015,-0.00033502805
8961956000,8961956000,-0.00976339,-0.06944976,-0.0039267614
8961968000,8961968000,-0.0047971755,-0.06909734,-0.0036430946
8961976000,8961976000,-0.009756048,-0.064758524,-0.004568499
8961992000,8961992000,-0.011590494,-0.0691747,-9.58615e-05
8962004000,8962004000,-0.011763965,-0.061682083,-0.005681793
8962016000,8962016000,-0.018564723,-0.059914872,-0.0079681715
8962028000,8962028000,-0.013195568,-0.062246248,-0.0022539736
8962040000,8962040000,-0.011860431,-0.059153758,0.0021760943
8962048000,8962048000,-0.014800422,-0.061642185,0.000800044
8962064000,8962064000,-0.012252903,-0.054397695,0.0026165554
8962076000,8962076000,-0.005022808,-0.05753681,0.0013312651
8962088000,8962088000,-0.0034164803,-0.05713646,0.0012408266
8962100000,8962100000,-0.0040778043,-0.053046662,-0.00040867995
8962112000,8962112000,-0.008699107,-0.051899895,-0.002318207
8962124000,8962124000,-0.004500335,-0.050161757,-0.0029210038
8962136000,8962136000,-0.00367117,-0.04582841,-0.0031982413
8962144000,8962144000,-0.0038104036,-0.040691875,-0.0022273944
8962156000,8962156000,-0.0080128815,-0.03611041,-0.0045673195
8962172000,8962172000,-0.007829277,-0.030856023,-0.0046363357
8962184000,8962184000,-0.00801914,-0.029193552,0.00012908707
8962196000,8962196000,-0.008327229,-0.030732783,-0.0006854908
8962208000,8962208000,-0.007663979,-0.027165728,-0.0004001665
8962220000,8962220000,-0.006211545,-0.018465502,-0.0023669463
8962232000,8962232000,-0.0018978457,-0.019221434,-0.0038421059
8962244000,8962244000,0.0010727115,-0.018334143,-0.0005783767
8962256000,8962256000,0.009145671,-0.014416267,0.0005848479
8962268000,8962268000,0.005263447,-0.016865958,-0.002846875
8962280000,8962280000,0.0045222156,-0.016810426,-0.0015852158
8962292000,8962292000,0.0067423214,-0.00852097,0.00091012195
8962304000,8962304000,0.006683264,-0.00932269,-0.00027953635
8962316000,8962316000,0.0031948995,-0.0053117676,-0.0039599664
8962328000,8962328000,0.0015945362,-0.004596904,-0.0018242627
8962340000,8962340000,-0.0038674208,-0.009536625,-0.0013002886
8962352000,8962352000,-0.0023405785,-0.0113002015,-0.0028251514
8962364000,8962364000,-0.00840002,-0.009801884,0.0007951588
8962376000,8962376000,-0.0037586216,-0.006126697,-0.0043177702
8962388000,8962388000,0.0025768403,-0.0009395862,-0.00045314257
8962400000,8962400000,0.0063125184,-0.0051136883,0.004379039
8962412000,8962412000,0.0030695847,-0.004678366,0.0007041716
8962424000,8962424000,-0.0027339521,0.00028088642,-0.0014464483
8962436000,8962436000,-0.004148474,0.0026897367,0.0005701832
8962444000,8962444000,-0.0054727336,-0.002016164,0.0016897131
8962460000,8962460000,-0.0051846635,0.0023169308,-0.0037869243
8962472000,8962472000,-0.0047684605,0.002448806,0.004429742
8962484000,8962484000,-0.0047694445,0.0025073749,0.005839607
8962496000,8962496000,-0.0057779714,0.0026752155,0.0021976708
8962508000,8962508000,-0.0025608884,-0.0034220433,0.000663056
8962520000,8962520000,-0.002442164,-0.003148695,0.001932294
8962532000,8962532000,0.001086677,0.0020520082,-0.00257923
8962544000,8962544000,0.0026322296,-0.0002512983,-0.0040983846
8962552000,8962552000,0.008057155,-0.0023756889,-0.00078508374
8962568000,8962568000,0.011302128,-0.003469003,-0.0013821603
8962576000,8962576000,0.009668947,0.0018961821,-0.003953902
8962592000,8962592000,0.010982042,0.0043556336,-0.0036232073
8962600000,8962600000,0.014162487,0.006352543,0.0027264273
8962616000,8962616000,0.010772556,0.009353268,-0.003471131
8962628000,8962628000,0.0132495565,0.0103266835,0.00078167603
8962636000,8962636000,0.015433733,0.0093224505,0.0037443165
8962648000,8962648000,0.009383543,0.009093074,0.0012252032
8962660000,8962660000,0.009079346,0.0054896204,-0.0031254573
8962676000,8962676000,0.002309315,0.0029909324,0.0013930863
8962688000,8962688000,-0.0026647972,5.005393e-05,-0.0013050803
8962700000,8962700000,-0.0048287828,-0.006185995,0.00012067205
8962712000,8962712000,-0.002625843,-0.014487,-0.0016359141
8962724000,8962724000,-0.0010413779,-0.022510864,0.0030700034
8962732000,8962732000,-0.0016829651,-0.019061591,0.00305512
8962744000,8962744000,-0.0029209359,-0.014805571,-0.0002492275
8962760000,8962760000,0.0016895212,-0.012901314,-0.003818817
8962768000,8962768000,0.0049372334,-0.006473617,-0.0019231694
8962784000,8962784000,0.0032927138,-0.008576434,0.005277564
8962796000,8962796000,-0.00067347754,-0.008831585,0.0016498868
8962808000,8962808000,-0.0025706312,-0.008849829,-0.0007567605
8962820000,8962820000,-0.001092101,-0.008026822,0.0050463337
8962832000,8962832000,0.003592336,-0.0083328225,0.00017174863
8962844000,8962844000,0.001702039,-0.009307154,-0.0014910474
8962856000,8962856000,-0.006599636,-0.007057285,-0.0030985817
8962868000,8962868000,-0.0049772738,-0.003125758,-0.002775825
8962880000,8962880000,0.0018677933,0.0009790375,-0.0026255203
8962892000,8962892000,0.0020175208,-0.0041349973,-0.0036042167
8962904000,8962904000,0.009540973,0.0012909505,6.3218526e-05
8962912000,8962912000,0.0066618016,-0.0015893197,-0.00014503789
8962924000,8962924000,0.0076760715,-0.00065842085,0.004617012
8962940000,8962940000,0.016280252,0.0018905737,-0.0007375028
8962952000,8962952000,0.0126169445,0.00094307447,-0.0014592182
8962964000,8962964000,0.008420637,-0.00016391417,-0.004929522
8962976000,8962976000,0.0036396503,0.004750223,-0.0031649126
8962988000,8962988000,-0.0024135283,0.00045117782,0.00016104989
8963000000,8963000000,-0.00038454332,0.0064915805,0.0039551063
8963012000,8963012000,-0.0050384765,0.005247214,0.002850817
8963024000,8963024000,-0.0014357597,0.0028329666,0.0027919048
8963036000,8963036000,-0.0033207247,0.0025175824,-0.0020153741
8963048000,8963048000,-0.0046811234,-0.0038309214,-0.0036103828
8963060000,8963060000,-0.00034750067,-0.006341333,-0.006689134
8963072000,8963072000,0.0053467453,-0.0074658697,0.0029098594
8963084000,8963084000,0.003910971,-0.0036548777,0.0029133277
8963096000,8963096000,-0.0011866614,-0.0016686441,-0.0021221275
8963108000,8963108000,-0.0021210627,0.00017786166,-0.00042380148
8963120000,8963120000,-0.0026239052,-0.0005145436,-0.0036928726
8963132000,8963132000,-0.0027408276,-0.004073698,-0.002698799
8963144000,8963144000,-0.007176535,-0.010099033,-0.004820683
8963156000,8963156000,-0.009180962,-0.012817538,-0.0026934114
8963168000,8963168000,-0.010646897,-0.010197057,0.0030113398
8963180000,8963180000,-0.008469639,-0.005911054,0.002775368
8963192000,8963192000,-0.001694337,-0.003814028,-0.0019103063
8963204000,8963204000,0.0021457684,-0.0072866865,0.0016485011
8963216000,8963216000,0.006535994,-0.007097342,0.00091764034
8963224000,8963224000,0.0028012637,-0.008493476,-0.00080274034
8963240000,8963240000,-0.0044727586,-0.0036069034,-0.0035056674
8963252000,8963252000,0.0010389381,0.0018861811,-0.0033571653
8963264000,8963264000,0.002537812,0.00068832794,0.0012538603
8963272000,8963272000,0.00061079976,-0.0008252794,-0.001091618
8963284000,8963284000,-0.0023857753,0.001413451,-0.00047065958
8963300000,8963300000,0.0040135966,-0.0070095905,-0.00010436354
8963312000,8963312000,0.006804945,-0.0073550297,0.00014030875
8963324000,8963324000,0.006846896,-0.0019713356,-0.0031008252
8963336000,8963336000,0.009078866,0.0022838074,-0.0028975673
8963344000,8963344000,0.0068485453,0.0047694063,-0.0009435194
8963360000,8963360000,0.009482566,0.0030964147,-0.00060005405
8963372000,8963372000,0.0077347816,0.002090925,-0.0023007714
8963384000,8963384000,0.008258634,0.0101186205,0.0028114314
8963396000,8963396000,0.006219092,0.008908886,-0.0011908099
8963408000,8963408000,0.0034037486,0.0040308703,0.0041216044
8963420000,8963420000,0.004246196,0.0073916083,0.0014569587
8963432000,8963432000,0.0021337208,0.007375885,-0.0016482306
8963444000,8963444000,-0.00066441344,0.0018336643,-0.0048592226
8963452000,8963452000,0.0006151551,-4.0534884e-05,-0.007754374
8963464000,8963464000,-0.00035098405,-0.0006992365,-0.0052789897
8963480000,8963480000,-0.0015955132,0.0005629808,-0.008213587
8963492000,8963492000,0.008897527,0.001613949,-0.0067508905
8963500000,8963500000,0.011578667,0.012908678,-0.0076742484
8963512000,8963512000,0.009538405,0.012758105,-0.009844418
8963528000,8963528000,0.011249398,0.010584569,-0.0044797896
8963540000,8963540000,0.016875498,0.014706267,-0.008306951
8963552000,8963552000,0.017325368,0.014642119,-0.0065603256
8963564000,8963564000,0.021700542,0.015096841,-0.010319574
8963576000,8963576000,0.019798419,0.011425852,-0.008624335
8963588000,8963588000,0.019076353,0.008387575,-0.0063592917
8963600000,8963600000,0.017693615,0.0018350515,-0.0037939334
8963608000,8963608000,0.023202522,0.00023492938,-0.00743274
8963620000,8963620000,0.01905022,-0.004814438,-0.0030779033
8963636000,8963636000,0.011390869,-0.0057054013,-0.0070965462
8963644000,8963644000,0.010183064,-0.010917962,-0.010198631
8963660000,8963660000,0.0026092164,-0.008243372,-0.0025445407
8963672000,8963672000,-7.244898e-05,-0.013480732,-0.0054617324
8963684000,8963684000,0.0011744436,-0.01535703,-0.005069135
8963696000,8963696000,-0.0032412077,-0.022038769,-0.006870003
8963708000,8963708000,-0.001419577,-0.022084769,-0.0074653686
8963720000,8963720000,0.00055728504,-0.023573209,-0.006072747
8963732000,8963732000,0.00075104716,-0.020397931,-0.007144408
8963744000,8963744000,-0.0017075434,-0.019537447,-0.0088024605
8963756000,8963756000,-0.0037985325,-0.016858133,-0.0042556417
8963764000,8963764000,-0.0020765092,-0.013293801,-0.0024565696
8963780000,8963780000,-0.0008655861,-0.013041932,-0.005785099
8963788000,8963788000,-0.0013952043,-0.01490574,-0.002972851
8963800000,8963800000,-0.0017116566,-0.01329964,-0.0011524828
8963816000,8963816000,-0.010973996,-0.018250797,0.0028855307
8963828000,8963828000,-0.009888509,-0.0106693655,6.958924e-05
8963840000,8963840000,-0.007538516,-0.007920949,-0.004887084
8963852000,8963852000,-0.010508341,-0.004090467,-0.002852282
8963864000,8963864000,-0.0068833698,-0.007379506,-0.002383526
8963872000,8963872000,-0.005136193,-0.006797922,-0.0011411911
8963888000,8963888000,-0.006082177,-0.012137913,0.000850235
8963900000,8963900000,-0.007316783,-0.014371344,-0.0042072805
8963912000,8963912000,-0.0011757512,-0.008394213,0.0027399282
8963920000,8963920000,0.0010909336,-0.009167723,0.003715365
8963936000,8963936000,0.0059680725,-0.011818616,-0.0043701143
8963948000,8963948000,0.0037207007,-0.010934109,-0.0022155126
8963960000,8963960000,0.0002935466,-0.006481041,0.0051933583
8963972000,8963972000,0.0017803531,-0.004741582,0.006403443
8963984000,8963984000,0.0047221305,-0.0061768503,0.007293489
8963996000,8963996000,0.004867194,-0.004867514,0.006766492
8964008000,8964008000,-0.000781683,-0.007238815,0.0029931902
8964020000,8964020000,-0.0017447702,-0.006966337,0.0033654931
8964032000,8964032000,0.0025103614,-0.0056544403,0.0035237176
8964044000,8964044000,-0.000546491,-0.0021311687,0.00242102
8964056000,8964056000,0.0035071794,-0.0041662096,0.0012168628
8964068000,8964068000,0.0040887734,-0.009158144,0.0047323443
8964076000,8964076000,0.0026241383,-0.012248384,0.006628519
8964092000,8964092000,-0.0031636283,-0.015247043,0.00445961
8964104000,8964104000,-0.005762469,-0.009175785,0.0036124974
8964116000,8964116000,-0.004550953,-0.0064426446,0.0076811723
8964128000,8964128000,0.0012084998,-0.006547586,0.01096251
8964136000,8964136000,-0.002038906,-0.00433723,0.004815302
8964152000,8964152000,-0.0003217922,-0.0029586186,0.007842201
8964160000,8964160000,0.0042113494,0.0022802842,0.009282217
8964172000,8964172000,0.0045452802,0.0018975371,0.0015227606
8964184000,8964184000,0.007218686,0.00011998555,0.0011342304
8964200000,8964200000,0.0056172973,0.0019131466,0.0050688162
8964212000,8964212000,-0.003692348,-2.4937093e-05,0.00284454
8964224000,8964224000,-0.0031797476,4.6659727e-05,0.0066612614
8964232000,8964232000,-0.00024053385,-0.0019983863,0.0047309506
8964248000,8964248000,0.0063598994,-0.008726718,0.0010034147
8964260000,8964260000,-0.0005489064,-0.008073829,0.008518995
8964268000,8964268000,-9.192224e-05,-0.006818794,0.0122595215
8964284000,8964284000,-0.00014208816,0.002022799,2.9237359e-05
8964296000,8964296000,-0.0004675046,0.0021890248,0.0042766226
8964304000,8964304000,3.228942e-05,0.004902538,0.0053655636
8964320000,8964320000,-0.001558176,0.0013494794,0.0022461424
8964328000,8964328000,0.0012190179,-0.0006623715,-0.0001178995
8964344000,8964344000,-0.006520622,0.0034047973,0.008080574
8964356000,8964356000,-0.00964704,0.00085428404,0.00042967906
8964368000,8964368000,-0.011820909,0.0010123877,0.0002222939
8964376000,8964376000,-0.013338044,0.0044405237,0.0051344614
8964392000,8964392000,-0.0030255103,0.010257326,0.0057517267
8964404000,8964404000,-0.006896233,0.005076606,0.00432859
8964416000,8964416000,-0.008518411,-0.0024092766,0.002557171
8964428000,8964428000,-0.009704478,-0.0066081895,-0.00012487278
8964440000,8964440000,-0.0050796187,-0.00279907,0.0027491723
8964452000,8964452000,-0.0037268768,-0.005754089,0.0022273064
8964464000,8964464000,-0.00043850578,-0.008028789,0.0059190905
8964472000,8964472000,0.0016728882,-0.011277851,0.006813978
8964488000,8964488000,-0.0017819693,-0.0070613734,-0.0010292608
8964500000,8964500000,-0.0055932608,-0.0044957213,0.0016099375
8964508000,8964508000,-0.005936738,0.00020048814,0.0055411845
8964524000,8964524000,0.0012566808,-0.0012692469,0.0067658345
8964532000,8964532000,0.0030855152,-0.0021307515,0.0020372658
8964544000,8964544000,0.005212097,-0.00064453157,-0.0014544622
8964560000,8964560000,-0.0019226323,0.0039733322,-0.0021313147
8964572000,8964572000,0.0031828359,0.0017404873,0.00022855692
8964584000,8964584000,-0.0021999604,-0.004143769,-0.0038398174
8964596000,8964596000,-0.003478048,8.254778e-05,-0.0040256586
8964608000,8964608000,-0.009319555,-0.0009846669,0.0016494897
8964620000,8964620000,7.248996e-05,0.00096734473,0.002015307
8964632000,8964632000,0.0006009275,0.003608307,-0.0025583128
8964640000,8964640000,-2.0142179e-05,0.0051433323,-0.0013324196
8964656000,8964656000,0.0039517684,-0.0013844725,0.0024613538
8964668000,8964668000,0.004749731,-0.0052212677,-9.7939046e-05
8964680000,8964680000,0.0059981463,0.00032495894,0.0021260483
8964692000,8964692000,0.0016140145,-0.00079188356,-0.0004025706
8964704000,8964704000,0.0010264112,-0.0019833422,-0.0021840257
8964712000,8964712000,0.00047376822,0.00022494374,-0.0010911649
8964728000,8964728000,-0.0002159616,0.0006920351,4.338927e-05
8964740000,8964740000,0.004600988,-0.00332919,0.0008880665
8964748000,8964748000,0.0031499628,-0.0058466685,-0.00011895329
8964764000,8964764000,0.009016167,-0.008912845,0.0015172458
8964776000,8964776000,0.0061996663,-0.0043689767,0.0018511524
8964788000,8964788000,0.0010458045,-0.005100215,0.0013236994
8964796000,8964796000,-0.0013341571,-0.0056551294,-0.003098209
8964812000,8964812000,0.004057264,-0.0037260214,-0.0009407301
8964824000,8964824000,0.005193334,0.0011166516,-8.7969005e-05
8964836000,8964836000,-0.0077148676,-0.0024049114,0.0016374569
8964844000,8964844000,-0.006763717,-0.0090943,-0.0019186651
8964860000,8964860000,-0.0015748166,-0.003074512,-0.0008261341
8964872000,8964872000,-0.006535543,-0.0016801562,0.0029767272
8964884000,8964884000,0.0033798246,-0.0008033705,0.004388332
8964896000,8964896000,0.0022853448,-0.004870645,0.0025870297
8964908000,8964908000,0.011358294,-0.0079357065,-0.0005737825
8964920000,8964920000,0.0081247315,-0.011682682,0.0009699142
8964932000,8964932000,0.0017602638,-0.011028402,0.0020546154
8964944000,8964944000,-0.0003023725,-0.011471944,0.0027540822
8964956000,8964956000,0.0012952969,-0.010703009,-0.0018737518
8964968000,8964968000,0.005229625,-0.007261822,0.0043014064
8964980000,8964980000,0.00814966,-0.00017280597,0.0024391068
8964988000,8964988000,0.008529296,0.0022422927,-0.0012584069
8965004000,8965004000,0.0070508253,0.0013785455,-0.004391686
8965012000,8965012000,0.0043224245,-0.0061525973,-0.0060688695
8965028000,8965028000,-0.0047414573,-0.011503734,0.0020644485
8965040000,8965040000,-0.0025249878,-0.0042845323,-0.0027404428
8965052000,8965052000,-0.006807157,-0.00258683,-0.0010978206
8965064000,8965064000,-0.0047481777,0.0013485346,-0.0023926066
8965076000,8965076000,-0.004830909,0.0047505717,0.0019942762
8965084000,8965084000,-0.004115558,-0.0005027787,0.0018741868
8965100000,8965100000,-0.0020267842,0.003201081,-0.00066692405
8965112000,8965112000,-0.007679995,0.0057761706,-0.0028145127
8965124000,8965124000,-0.0065974575,0.004376828,0.0042034644
8965136000,8965136000,-0.007051451,0.0013853395,-0.0018309653
8965144000,8965144000,-0.00672971,-0.0034712078,0.00036210433
8965160000,8965160000,-0.0017943587,-0.0018839412,0.006067715
8965168000,8965168000,-0.004283538,0.001892285,0.0023118383
8965184000,8965184000,-0.0039160913,0.0010445588,-0.0033215485
8965196000,8965196000,-0.0008926322,-0.00092976727,-0.004166206
8965208000,8965208000,-0.0006128312,-0.0012578117,-0.007209486
8965220000,8965220000,-0.0026108525,-0.0017111655,-0.0027334145
8965232000,8965232000,-0.0021355753,-0.0032143076,0.0006875277
8965244000,8965244000,-0.0022004158,-0.0035120593,-0.002302616
8965252000,8965252000,-0.0064951805,-0.0013530198,-0.004516081
8965268000,8965268000,0.0015640911,0.0096909255,-0.0023537395
8965280000,8965280000,0.004904529,0.008183866,0.002323655
8965292000,8965292000,-0.0029367255,0.0058508217,0.0014299458
8965304000,8965304000,-0.0005958681,0.005180594,-0.0006505294
8965316000,8965316000,-9.375927e-05,0.0031257658,0.0028371753
8965328000,8965328000,-0.0025447109,-0.00041978946,0.0018790085
8965340000,8965340000,-0.0017627114,-0.0028274278,0.00034401106
8965352000,8965352000,-0.001205775,0.0012562247,-0.00588032
8965364000,8965364000,-0.00015922077,-6.120978e-05,-0.0020852196
8965376000,8965376000,-0.004054225,-0.005149575,-0.0016773508
8965384000,8965384000,-0.0020663498,-0.0015347879,-0.0054916074
8965400000,8965400000,0.0074822083,0.0040337034,-0.00016644783
8965412000,8965412000,0.0117005035,0.00715723,-0.0031620762
8965424000,8965424000,0.004753677,0.009043583,0.0027474088
8965436000,8965436000,0.0034591076,0.0015804204,0.0023228284
8965448000,8965448000,-0.00099095,-0.002860616,-0.0032250197
8965460000,8965460000,0.0020779958,-0.0020480296,-0.00020717143
8965472000,8965472000,0.0053933943,0.0017666295,-0.000772528
8965484000,8965484000,0.0029793193,-0.0035719601,-0.0024392465
8965496000,8965496000,0.0023006317,0.001770772,0.0006648022
8965508000,8965508000,0.005015042,0.004326982,0.0015426574
8965520000,8965520000,0.0015753984,0.0030140525,0.0014215182
8965532000,8965532000,0.003884277,0.0013329098,-0.00011840172
8965544000,8965544000,0.0028466154,-3.940426e-06,0.00032894907
8965556000,8965556000,0.0019862237,0.00024629477,0.0020056176
8965568000,8965568000,-0.005521516,0.00082280254,-0.0029897424
8965576000,8965576000,-0.006249352,0.0032549782,0.00023381348
8965592000,8965592000,-0.0029797705,-0.003505309,-0.002325905
8965604000,8965604000,-0.0069285007,-0.005345271,-0.0037150076
8965616000,8965616000,-0.010642492,-0.004861565,-0.0061245533
8965628000,8965628000,-0.008379935,-0.0063576032,0.0003064304
8965640000,8965640000,-0.0053504277,-0.0009978116,0.0011887272
8965648000,8965648000,-0.005634657,0.0043031005,0.0035409816
8965660000,8965660000,-0.006774972,0.0040369993,0.004197925
8965676000,8965676000,-0.0046210187,0.009290951,1.43885845e-05
8965688000,8965688000,-0.0015385565,0.0060955808,0.0020548939
8965700000,8965700000,-0.0043824296,0.003635239,-0.0042461124
8965712000,8965712000,-0.001486145,0.0006615543,0.00090488093
8965724000,8965724000,0.0009081935,0.0052866703,0.0011988477
8965736000,8965736000,0.0014661262,0.0028271386,0.0018422762
8965748000,8965748000,0.00071860757,0.0028636598,0.0039619445
8965760000,8965760000,-0.0078559145,0.006339498,-0.00020318141
8965768000,8965768000,-0.00978706,0.007078655,-0.00021723937
8965780000,8965780000,-0.008444558,0.009036971,0.0007422701
8965796000,8965796000,-0.0068358323,0.0053224396,-0.0004292843
8965808000,8965808000,-0.010674413,4.9802475e-06,-0.0034671356
8965820000,8965820000,-0.012952277,0.002041263,-0.0064575723
8965832000,8965832000,-0.0066015287,0.0027953647,0.001188159
8965840000,8965840000,-0.007865701,0.0011624419,0.0035794375
8965856000,8965856000,-0.0065072984,0.0045486027,-0.00052197825
8965868000,8965868000,-0.0011958089,-0.00039118342,-0.00014277326
8965876000,8965876000,-0.0024387885,-0.0009788224,0.0041515054
8965892000,8965892000,-0.0038560426,-0.0010182606,0.0019184026
8965904000,8965904000,-0.0003794965,0.0029731286,0.00077792845
8965912000,8965912000,-0.005684891,0.0032917757,0.006644143
8965924000,8965924000,-0.009428363,-3.1089876e-05,0.009475587
8965936000,8965936000,-0.010624741,-0.0004049018,-3.059907e-05
8965952000,8965952000,-0.0017941492,-0.005265958,-0.0016819431
8965964000,8965964000,0.0025066878,-0.009073703,-0.0037372801
8965976000,8965976000,0.00048464816,-0.004250457,-0.0010923296
8965988000,8965988000,-0.0013330241,0.0014433134,0.002225678
8966000000,8966000000,-0.0013164466,0.004037397,0.0009535545
8966008000,8966008000,0.006220663,0.00078296475,0.0021581077
8966024000,8966024000,0.0073331883,-0.0013395781,0.0021799938
8966036000,8966036000,0.002108418,-0.0019821618,0.00053917884
8966044000,8966044000,-0.0020237756,0.006352881,-0.003557826
8966056000,8966056000,0.00015452877,0.00789034,-0.0016098865
8966072000,8966072000,0.0012049128,0.0012323391,-0.00435132
8966084000,8966084000,0.0043225293,0.005231823,-0.0027885067
8966096000,8966096000,0.0050053373,0.0031469187,0.0025506208
8966108000,8966108000,0.0024764584,0.010018504,-0.00095850625
8966116000,8966116000,-0.0003381162,0.011034541,0.00023035757
8966132000,8966132000,-0.00716269,0.005810168,0.001144682
8966140000,8966140000,-0.006339588,0.006603879,0.00054887176
8966152000,8966152000,0.00024591642,0.011121474,-0.00046580133
8966168000,8966168000,3.1504314e-06,0.009918056,0.0021334314
8966176000,8966176000,-0.00015158253,0.00721106,0.008725874
8966192000,8966192000,-0.006304604,0.008600743,-0.00104076
8966204000,8966204000,-0.0054772394,0.006009444,0.0011798664
8966216000,8966216000,-0.007601775,-0.00045262184,-0.0005523424
8966228000,8966228000,-0.009662566,0.0025831747,-0.00055976224
8966240000,8966240000,-0.011964979,0.00063943025,0.00018514221
8966252000,8966252000,-0.01148742,-0.0017358796,0.000433315
8966264000,8966264000,-0.009840765,-0.006781343,0.001179097
8966272000,8966272000,-0.010970007,-0.0070639,0.0036168967
8966284000,8966284000,-0.011406974,-0.005964636,0.0017062586
8966300000,8966300000,-0.010822568,-0.0023503425,0.0035144533
8966312000,8966312000,-0.013278216,-0.0007539019,0.0044735908
8966324000,8966324000,-0.019651394,5.8360863e-05,0.00073146546
8966336000,8966336000,-0.016953124,0.0019041216,0.002359932
8966344000,8966344000,-0.012071362,-6.654626e-05,-0.0017138289
8966360000,8966360000,-0.011146007,0.0029540397,-0.0021422105
8966372000,8966372000,-0.008175395,0.0035068376,-0.00049689517
8966384000,8966384000,-0.0022721614,-0.0016631274,-0.0053588124
8966396000,8966396000,-0.0063056974,0.0071502733,-0.0070002237
8966408000,8966408000,-0.0049287314,0.010633677,0.0034631593
8966420000,8966420000,-0.0034739587,0.010788779,-0.00019845658
8966432000,8966432000,-0.0065764356,0.011753874,0.005115842
8966444000,8966444000,-0.001291489,0.013293842,0.0017233773
8966456000,8966456000,0.003978642,0.008143671,0.003847183
8966464000,8966464000,0.0018012191,0.0017718379,0.0028002122
8966480000,8966480000,-0.0009296532,0.008827018,-0.0029733388
8966492000,8966492000,-0.0017324823,0.011329634,-0.0010574916
8966504000,8966504000,-0.0030838626,0.012419742,0.0043556476
8966516000,8966516000,0.0013302523,0.007298031,0.0028732761
8966524000,8966524000,0.0060395617,0.0043198783,0.0046182103
8966540000,8966540000,0.008612973,-0.0037948037,-0.0053660925
8966548000,8966548000,0.0089663975,-0.00036883913,-0.0023899842
8966564000,8966564000,0.008235186,-0.0048507354,0.00016258209
8966576000,8966576000,0.002729607,-0.0058640945,-0.0057815677
8966588000,8966588000,0.000103264814,-0.0070428406,-0.003925184
8966600000,8966600000,-0.003215435,-0.0039925645,-0.0023574189
8966612000,8966612000,0.0043441323,-0.0032779318,-0.0007071395
8966620000,8966620000,-0.002702381,-0.0010490823,-0.0054501286
8966636000,8966636000,-0.003892081,-0.0032544374,0.003162939
8966648000,8966648000,-0.00053751236,-0.0008425764,0.0003252665
8966660000,8966660000,-0.0050302497,-0.0032487442,-0.0016387205
8966672000,8966672000,-0.004723046,-0.010114647,0.0009976858
8966684000,8966684000,-0.004737366,-0.005132523,-0.001272502
8966696000,8966696000,-0.01073109,0.0005461774,0.0028969531
8966708000,8966708000,-0.0048145484,0.00020333845,0.0023774896
8966716000,8966716000,-0.005252936,0.0022437405,0.0010780058
8966732000,8966732000,-0.008894751,0.0011584088,-0.0017451479
8966740000,8966740000,-0.009429591,0.0046702255,0.0026050154
8966752000,8966752000,-0.007814903,0.010236386,0.0008280169
8966768000,8966768000,-0.002825027,0.012126209,-0.0010611052
8966780000,8966780000,-0.0019704318,0.012644034,0.0047432566
8966792000,8966792000,-0.0032563428,0.008167457,0.0012079009
8966804000,8966804000,-0.0032999113,0.009042011,-0.0030712509
8966816000,8966816000,0.0029591664,0.0033651276,-0.0034482055
8966824000,8966824000,0.000491553,0.0032429872,-5.1505747e-05
8966840000,8966840000,-0.004478198,0.006448935,-0.00066614244
8966852000,8966852000,0.0017338445,0.0054089804,0.0030441186
8966864000,8966864000,-0.00020231865,0.00888977,6.528536e-05
8966876000,8966876000,-0.002755899,0.008134507,-0.0017084688
8966888000,8966888000,0.0013655014,0.0028483248,-0.001274338
8966900000,8966900000,0.0005819439,0.0032436794,-0.0032585198
8966912000,8966912000,0.0024965934,0.0037755582,0.0014362101
8966924000,8966924000,-0.00011743442,0.0031324157,0.0033246838
8966936000,8966936000,0.0017098407,0.0038513495,-0.0023832507
8966948000,8966948000,-0.0032540504,0.0025918907,0.00068713113
8966960000,8966960000,-0.007980837,-0.0015913132,-0.0036328011
8966972000,8966972000,-0.003777016,-0.0053438875,-0.0037326831
8966984000,8966984000,0.0016777155,-0.0051093693,-0.000554811
8966992000,8966992000,-0.00016857241,-0.0060221297,-0.0018849699
8967008000,8967008000,-0.003848887,-0.006448967,-0.0041292203
8967020000,8967020000,-0.0026154614,-0.006868932,0.0013157056
8967032000,8967032000,-0.009957777,-0.002219209,0.0017842682
8967040000,8967040000,-0.013831848,-0.0021994128,5.714246e-06
8967056000,8967056000,-0.018848483,-0.0038514812,0.0026683896
8967068000,8967068000,-0.011951737,-0.0040269517,0.0021532504
8967080000,8967080000,-0.011244321,0.00037879264,0.00013979751
8967092000,8967092000,-0.012291212,0.0063285264,0.0011993081
8967104000,8967104000,-0.010421981,0.0016769664,0.006180951
8967116000,8967116000,-0.00689896,0.0025969984,0.00064093934
8967128000,8967128000,-0.008980102,-0.00030858116,-0.0057027787
8967140000,8967140000,-0.010914726,-0.0021527424,-0.0040638344
8967152000,8967152000,-0.009747693,-0.0047395104,-0.0028844557
8967164000,8967164000,-0.008637543,-0.011334829,0.0024315608
8967172000,8967172000,-0.004623102,-0.009112222,0.0029032493
8967188000,8967188000,-0.0002797374,-0.004318242,0.0005921971
8967196000,8967196000,0.002301675,-0.004246124,-0.0023600312
8967212000,8967212000,-0.0043918984,-0.0036638966,-0.0016149638
8967224000,8967224000,-0.0071847057,-0.00516241,-0.0029142578
8967236000,8967236000,-0.0028895023,-0.0038235928,-0.0050176904
8967244000,8967244000,-0.0055938647,-0.004943319,-0.002758424
8967260000,8967260000,-0.010199038,-0.00060762325,0.0019920098
8967272000,8967272000,-0.006602982,0.0009883135,0.00090100756
8967284000,8967284000,-0.007554625,0.00040960684,-0.0014612193
8967292000,8967292000,-0.009260369,0.0039321007,0.0049710637
8967308000,8967308000,-0.0034345703,0.004180896,0.0005192971
8967320000,8967320000,-0.0062604444,0.0076866606,0.0011554842
8967332000,8967332000,-0.004417593,0.004458747,0.0032499228
8967344000,8967344000,-0.0007653001,0.010623049,0.002605908
8967356000,8967356000,-0.00034460286,0.012115121,-0.0016152438
8967368000,8967368000,-0.0006610905,0.010169153,-0.00018868863
8967380000,8967380000,1.8351944e-05,0.011827359,0.0016235549
8967392000,8967392000,0.0037802595,0.010007206,0.001946918
8967404000,8967404000,0.0033166227,0.014333026,-0.00014409772
8967416000,8967416000,0.007421327,0.014792984,0.0016199204
8967428000,8967428000,0.0015506493,0.011173919,-0.0028530993
8967440000,8967440000,0.0006714768,0.01183955,0.0015494579
8967448000,8967448000,0.00013346039,0.013127243,0.0021205167
8967464000,8967464000,0.008582208,0.018871687,0.0033805126
8967476000,8967476000,0.011679446,0.007905802,-0.0012488943
8967488000,8967488000,0.010378616,0.0013958835,-0.0055686175
8967500000,8967500000,0.006663629,0.0030685372,-0.0077481708
8967512000,8967512000,0.006711387,0.007908014,-0.003537565
8967524000,8967524000,0.0011894887,0.0053732246,-0.005692248
8967536000,8967536000,-2.6751775e-05,-0.0038857362,-0.0009257061
8967548000,8967548000,8.131517e-05,-0.0010644966,-0.00051609066
8967556000,8967556000,-0.0010850383,-0.0021695257,0.0013626016
8967572000,8967572000,-0.0010205691,0.0027802878,-0.003083318
8967584000,8967584000,-0.0062089963,0.0029215908,-0.0070034796
8967596000,8967596000,-0.005429414,0.007127416,-0.00065911165
8967604000,8967604000,-0.008095538,0.0050254166,0.0019140495
8967620000,8967620000,-0.009829299,0.008613974,-0.00043703092
8967632000,8967632000,-0.012802944,0.008360485,0.0056794807
8967644000,8967644000,-0.012116,0.0025893687,0.007063954
8967656000,8967656000,-0.012110361,0.001936588,0.005703267
8967668000,8967668000,-0.0058162706,0.0024132298,0.0030851043
8967680000,8967680000,-0.0037313185,0.003708399,-0.00020039163
8967692000,8967692000,0.00017832033,0.0050594355,0.00017317722
8967704000,8967704000,-0.001710705,0.0031933298,-0.0030271446
8967716000,8967716000,-0.0022297213,0.00785656,-0.002520998
8967728000,8967728000,-0.0026589949,0.003043892,-0.0018114164
8967740000,8967740000,-0.00045789196,0.006926122,0.0017103693
8967752000,8967752000,-0.0016207742,-0.004783395,0.0047825775
8967764000,8967764000,0.0057815164,-0.0021024514,-0.0027111871
8967776000,8967776000,0.0015126162,-0.005101977,-0.003161491
8967788000,8967788000,0.004681821,0.00053109415,0.0016671843
8967800000,8967800000,-0.0024491267,0.00024242792,0.0010697956
8967812000,8967812000,-0.004096261,-0.004659548,0.002390125
8967824000,8967824000,0.0026450038,-0.00037469948,0.0025007557
8967832000,8967832000,0.0032540353,0.00064401515,-0.0015052703
8967848000,8967848000,0.0011324493,0.0064897006,0.0021797323
8967860000,8967860000,0.008227605,0.0041453997,-0.0005751612
8967872000,8967872000,0.008766526,-0.003681006,0.003671947
8967884000,8967884000,0.008524993,-0.0025281478,0.007309314
8967896000,8967896000,0.012543229,-0.004384252,0.0023753922
8967908000,8967908000,0.012355648,-0.0061228364,0.00014780543
8967920000,8967920000,0.012534335,-0.008640308,-0.0020141925
8967932000,8967932000,0.011663165,-0.009334493,-0.0028402018
8967940000,8967940000,0.013490557,-0.0074186022,-0.0037967428
8967956000,8967956000,0.01563966,-0.0055759707,0.00026531995
8967968000,8967968000,0.010522498,-0.0036117723,0.0009928397
8967980000,8967980000,0.008024862,9.198021e-05,-0.0053260545
8967992000,8967992000,0.0060058823,-0.0008819429,-0.0017337509
8968004000,8968004000,0.006907189,-0.007054867,0.0018342331
8968016000,8968016000,0.0069983983,-0.0055913553,0.0016323325
8968028000,8968028000,0.0072624427,-0.001041553,0.0006508685
8968036000,8968036000,0.008563623,-0.0009392039,0.0011554094
8968052000,8968052000,0.0028954276,-0.000146735,0.00014923594
8968064000,8968064000,0.0067136846,0.00039835973,0.000954574
8968072000,8968072000,0.0035616541,0.0035483679,-0.0017456264
8968088000,8968088000,0.00084285135,0.007474482,-0.0016194613
8968100000,8968100000,-0.0029159994,0.008018738,-0.0005333136
8968112000,8968112000,-0.0012441911,0.009450122,-0.00097420276
8968124000,8968124000,-0.0032445048,0.0036326076,0.0013929019
8968136000,8968136000,0.001461278,0.0069609163,0.0014022966
8968144000,8968144000,0.002084179,0.010456834,0.00090930803
8968160000,8968160000,0.0075816615,0.008893486,0.0019176092
8968172000,8968172000,0.005219542,0.0042172126,0.0030563571
8968184000,8968184000,0.011259811,0.0010980335,-0.0029318891
8968196000,8968196000,0.0032751304,0.0073675937,0.002610988
8968204000,8968204000,-0.0023659363,0.01032828,0.0039383774
8968220000,8968220000,-0.0038125326,0.009613892,-1.5526079e-05
8968232000,8968232000,-0.0027796219,0.007139966,-0.0018015546
8968244000,8968244000,-0.006265207,0.007684478,-0.0036973855
8968256000,8968256000,-0.0054206764,0.009291977,0.005077222
8968268000,8968268000,-0.009650335,0.0053627784,0.0009224846
8968280000,8968280000,-0.011340984,0.007557799,-0.0021606504
8968292000,8968292000,-0.009227752,0.0047376053,-0.006200404
8968304000,8968304000,-0.007750312,0.0022677472,-0.0026591504
8968316000,8968316000,-0.008087882,0.0007144315,0.0035935428
8968328000,8968328000,-0.0039583836,-0.0016480782,-0.0018907174
8968340000,8968340000,-0.0037960955,-0.005524873,0.004573531
8968352000,8968352000,0.0004724441,-0.006778839,0.00082145364
8968364000,8968364000,0.003877108,-0.004039112,-0.0013849101
8968376000,8968376000,0.0034776335,-0.00138694,-0.0015591074
8968388000,8968388000,0.00462451,0.0043611974,0.0005319831
8968400000,8968400000,0.0045016916,0.005730629,0.0007691042
8968412000,8968412000,-0.0040307017,-0.0022017974,0.00403434
8968424000,8968424000,-0.0065569566,-0.0060489024,-0.0010986244
8968436000,8968436000,-0.004986882,0.0005690525,0.002750076
8968448000,8968448000,-0.006059101,0.008772564,0.0021122305
8968460000,8968460000,0.0023750772,0.0071078115,-0.0027555164
8968472000,8968472000,0.0012571104,0.0034507692,-9.385578e-05
8968484000,8968484000,-0.0018929648,0.00082515646,-0.002618874
8968496000,8968496000,-0.0062941513,0.0035928162,-0.0037554938
8968508000,8968508000,-0.00017940532,0.0057093566,-0.0015338161
8968520000,8968520000,0.0055819894,0.0070193335,-0.0020819572
8968532000,8968532000,0.005805661,0.007310742,0.00095919345
8968540000,8968540000,-0.00016682176,0.008865447,0.0018287157
8968556000,8968556000,0.0043586656,0.0042870874,-0.00346031
8968564000,8968564000,0.010334412,0.008364294,-0.0028911415
8968580000,8968580000,0.0065030064,0.009791619,0.0003168233
8968588000,8968588000,0.0058915215,0.010282204,0.0021893613
8968604000,8968604000,0.003899686,0.0022558789,-0.00038540363
8968616000,8968616000,0.0022142832,0.0029927376,-0.0006570268
8968628000,8968628000,-0.0022173077,0.003634066,0.002073091
8968640000,8968640000,-0.005363995,0.0017075683,6.030919e-05
8968652000,8968652000,-0.01580564,0.0014459523,0.0019777252
8968664000,8968664000,-0.01868552,-0.0005803262,0.0018312734
8968676000,8968676000,-0.014957765,0.0005186568,-0.0015513876
8968688000,8968688000,-0.011276579,0.0016023731,-4.4407905e-05
8968700000,8968700000,-0.011508361,0.00674087,0.0010847728
8968708000,8968708000,-0.009219554,0.0023343,-0.00011559704
8968724000,8968724000,-0.0002963033,-0.0046150745,0.0014191547
8968736000,8968736000,-0.0004865923,-0.0016030106,0.0014383832
8968748000,8968748000,-0.0035032437,-0.0026557515,0.0035715776
8968760000,8968760000,-0.0030066913,-0.0011393023,0.00053435296
8968772000,8968772000,0.00017461763,-0.009138489,0.0018677154
8968784000,8968784000,0.003076511,-0.0051050866,-0.0017969713
8968796000,8968796000,0.0028052358,-0.0055771032,8.418085e-05
8968808000,8968808000,0.003053756,0.00040670112,0.0030090548
8968820000,8968820000,0.008532372,-0.005694303,0.0054721907
8968832000,8968832000,0.008793012,-0.0055679544,0.0021653534
8968844000,8968844000,0.013504512,-0.012128264,-0.0036849617
8968856000,8968856000,0.010936319,-0.01530258,-0.012635403
8968868000,8968868000,0.008890053,-0.0030642138,0.00020735827
8968876000,8968876000,0.005268118,0.0025424077,0.0017941574
8968892000,8968892000,-0.00033640023,0.004449388,0.0017116833
8968904000,8968904000,0.00088568334,0.004032786,0.00026356318
8968912000,8968912000,0.0025225806,0.006302004,0.0010171436
8968928000,8968928000,0.0006297957,0.009165307,0.0010606111
8968940000,8968940000,-0.0011566267,0.0014058994,0.003588771
8968952000,8968952000,-0.001731107,0.004604531,-0.00353267
8968964000,8968964000,-0.004016825,0.007298189,-0.00061629654
8968972000,8968972000,-0.0049548447,0.004402039,-0.00066334323
8968988000,8968988000,-0.0020221742,-0.0035764761,-0.0033338387
8969000000,8969000000,-0.0077209994,-0.005579632,0.004058443
8969012000,8969012000,-0.004282305,-0.0021062186,0.00036266557
8969024000,8969024000,-0.007195021,-0.00011707563,-0.0010779897
8969036000,8969036000,-0.0054337876,0.0027642096,0.0011126107
8969048000,8969048000,-0.0019805708,0.0021408247,-0.0033017788
8969060000,8969060000,-0.0027640702,0.0055242823,-0.003536086
8969072000,8969072000,0.002081977,0.006217455,-0.00011730485
8969084000,8969084000,0.0018109591,0.011343155,0.0016709575
8969096000,8969096000,0.003161799,0.009537668,-0.0012160552
8969108000,8969108000,0.005062014,0.011172421,-0.000981758
8969120000,8969120000,0.00937742,0.003292967,-0.0028803856
8969132000,8969132000,0.0027479692,0.0015387842,0.0028527887
8969144000,8969144000,-0.0024410717,-0.0030997782,0.0006758081
8969156000,8969156000,-0.00086143427,0.00025257003,-0.0015152562
8969164000,8969164000,0.0017768362,0.0047911434,0.0011379507
8969180000,8969180000,-0.0036372428,0.00664058,0.00052785734
8969188000,8969188000,-0.007336003,0.006796575,0.0021990743
8969204000,8969204000,-0.007459594,0.0064218007,-0.0012088165
8969216000,8969216000,-0.005130586,0.0047042547,-0.0021655557
8969228000,8969228000,-0.011319762,0.003910696,-0.00012959389
8969240000,8969240000,-0.011725008,0.00066711893,-0.0036495428
8969252000,8969252000,-0.01169787,0.00093822554,0.0008862203
8969264000,8969264000,-0.015245809,0.0033894512,-0.0015980423
8969276000,8969276000,-0.011031648,0.003583589,-0.0044563403
8969288000,8969288000,-0.007458453,0.0003819135,-0.0029692804
8969300000,8969300000,-0.008225416,0.0028218732,-0.0005061396
8969308000,8969308000,-0.010592207,0.00345433,0.000115534815
8969324000,8969324000,-0.011977002,0.0078070266,-0.0014277276
8969336000,8969336000,-0.0015241085,0.007020107,0.00230161
8969348000,8969348000,-0.0026736343,0.0032821537,0.00268263
8969360000,8969360000,-0.001866973,0.010077552,0.0016627323
8969372000,8969372000,0.002817036,0.004016336,-0.0014870089
8969384000,8969384000,0.006960907,-0.0018287674,-0.0024711108
8969396000,8969396000,0.008627012,-0.0036113253,0.0005429989
8969408000,8969408000,0.006471315,-0.0068002697,0.00095176476
8969420000,8969420000,0.011175185,-0.008317674,-0.0042848494
8969432000,8969432000,0.011991747,-0.0006613266,-0.0014234342
8969444000,8969444000,0.006241091,-0.0032564788,0.0022603832
8969456000,8969456000,0.005312657,-0.011067197,-0.0002370585
8969468000,8969468000,0.00014186953,-0.011682525,-0.0024641412
8969480000,8969480000,-0.0016130686,-0.00713315,0.0010437316
8969492000,8969492000,-0.00026289443,-0.00682968,0.0011005396
8969500000,8969500000,-0.004685198,-0.0028641727,0.0032304758
8969516000,8969516000,-0.004949242,-0.0037795529,0.0016012328
8969528000,8969528000,-0.00723269,-0.01127048,0.0025022924
8969540000,8969540000,-0.0044086566,-0.012393182,0.0002887973
8969552000,8969552000,-0.0056420886,-0.006837841,0.0019299407
8969560000,8969560000,-0.0039676973,-0.0063366527,0.006868572
8969576000,8969576000,-0.0027593572,-0.0015546186,0.0017138651
8969588000,8969588000,0.001998285,-0.00044388417,0.001433908
8969600000,8969600000,0.00079443376,-0.0056589395,-0.0007370268
8969608000,8969608000,-0.0022069765,-0.0047086,-0.0013611332
8969620000,8969620000,-0.0010737563,-0.0007580202,-0.0050876127
8969632000,8969632000,-0.0021283228,-0.0035376963,-0.00088185875
8969648000,8969648000,0.00066196383,0.0009861812,0.001561107
8969660000,8969660000,0.004196385,0.0074932985,-0.0043501244
8969672000,8969672000,0.0042896066,0.009076875,-6.4757885e-05
8969684000,8969684000,0.0016762358,0.008447662,-0.002147268
8969696000,8969696000,0.0021702982,0.0067148646,-0.0033486695
8969708000,8969708000,0.0025780243,0.006295804,-0.0025649555
8969720000,8969720000,-0.0009217276,0.0030651516,-0.0013468971
8969732000,8969732000,0.00034346757,0.0012756968,0.0010205145
8969744000,8969744000,0.0054249093,0.0070271734,0.00067540654
8969756000,8969756000,0.0077896845,0.005062528,0.0017953955
8969764000,8969764000,0.0030686413,0.0074666585,0.00060821325
8969780000,8969780000,0.0019511846,0.0045567695,0.0026073921
8969792000,8969792000,0.0021970111,0.0023974776,0.0011888145
8969804000,8969804000,0.003630029,0.00021245424,0.0027559039
8969816000,8969816000,0.0035769835,0.0061389017,0.0025579403
8969828000,8969828000,0.002715607,0.009836937,-0.004098078
8969840000,8969840000,0.0026352077,0.00055666454,0.00024507247
8969852000,8969852000,0.0007671162,0.006292131,0.0051067984
8969864000,8969864000,-0.0025924246,-0.0014969534,-0.006508947
8969876000,8969876000,0.0006923869,-0.0030800882,-0.008590091
8969884000,8969884000,0.0013299014,0.00040403148,0.00036858534
8969900000,8969900000,0.00144992,0.0006594956,-0.00033829804
8969912000,8969912000,0.0025714973,0.0006522429,-0.0028672856
8969924000,8969924000,0.0017777632,0.0010495852,-0.0025124839
8969936000,8969936000,0.000222489,-0.007843125,-0.0017050667
8969948000,8969948000,-0.0025824897,-0.001544666,0.0021413844
8969960000,8969960000,-0.007691343,-0.0007178746,-0.0009824868
8969968000,8969968000,-0.0075110914,-0.0017326926,-0.005338998
8969984000,8969984000,-0.004158903,-0.00016402965,-0.0005955392
8969996000,8969996000,-0.0053456705,0.0068415776,0.007020632
8970008000,8970008000,-0.0059227427,0.0035346933,-0.0009962114
8970016000,8970016000,-0.006941929,0.005930253,0.0027886392
8970032000,8970032000,-0.0066841617,0.0025320267,0.006585793
8970044000,8970044000,-0.009347945,0.0033743405,9.050919e-05
8970056000,8970056000,-0.0028108463,0.006188462,-0.0021128557
8970068000,8970068000,0.0027746318,0.003056781,0.0017673417
8970080000,8970080000,-0.0031760747,0.0034865267,-0.0014681363
8970092000,8970092000,-0.0061685024,0.005501734,0.00019247353
8970104000,8970104000,-0.0015892358,0.006741481,-0.006298744
8970116000,8970116000,0.0029776513,0.012587698,0.0006167926
8970128000,8970128000,0.001583505,0.0049678376,0.0024550185
8970140000,8970140000,0.0030347796,0.0022015804,0.001480687
8970152000,8970152000,-0.0010684237,0.003068054,0.00022546848
8970164000,8970164000,-0.0018776997,-0.0008667689,0.0044167624
8970176000,8970176000,-0.0031408896,0.0038883407,0.0006788713
8970184000,8970184000,-0.005096216,2.8839335e-05,-0.0016214747
8970200000,8970200000,-0.0018531708,-0.005342129,0.0034361775
8970212000,8970212000,-0.0070068864,-0.006283411,-0.002737651
8970224000,8970224000,-0.010902604,-0.009200654,-0.003593443
8970236000,8970236000,-0.003984683,-0.010714682,0.0022434653
8970244000,8970244000,-0.000108770095,-0.008039799,0.0016558114
8970260000,8970260000,-0.007349048,-0.007872947,0.0022677677
8970272000,8970272000,-0.011373149,-0.0062369346,0.002735202
8970280000,8970280000,-0.008594737,-0.0022857948,0.003993395
8970296000,8970296000,-0.010289626,-0.004910259,0.0004982786
8970304000,8970304000,-0.009432398,-0.0016588666,0.0003813511
8970320000,8970320000,-0.009033254,-0.0032982677,-0.0017872755
8970332000,8970332000,-0.0010143372,-0.0006273426,0.0014555042
8970344000,8970344000,0.003004687,-0.0011204868,0.0030931695
8970356000,8970356000,-0.003250834,-0.0021853964,-0.0029716166
8970368000,8970368000,-0.0017462077,-0.0038054208,0.0025033834
8970380000,8970380000,-0.004765737,-0.0029445826,-0.0023891593
8970392000,8970392000,-0.0037223597,-0.004320968,-0.0012226253
8970404000,8970404000,-0.0012706376,-0.007645713,0.0037446655
8970412000,8970412000,-0.0031226315,-0.008474728,0.002590789
8970428000,8970428000,0.0024576609,-0.0086046,0.0005208382
8970436000,8970436000,0.0055063576,-0.014746053,0.0001488977
8970452000,8970452000,0.0027910417,-0.006251816,-0.0029755645
8970464000,8970464000,0.004638033,-0.00025306502,0.00040145172
8970476000,8970476000,0.008440882,0.005806369,0.0008282169
8970488000,8970488000,0.009816807,0.0024989755,0.0045260997
8970500000,8970500000,0.0069191298,0.0015457347,-0.002975481
8970512000,8970512000,0.007854106,0.0013111415,0.00028383528
8970520000,8970520000,0.006596823,-0.0011103968,0.0049033524
8970536000,8970536000,0.0030904764,-0.006745645,0.0007659397
8970548000,8970548000,0.0017567244,-0.009268997,0.0011602168
8970560000,8970560000,-0.0020078402,-0.00519833,0.0008085817
8970568000,8970568000,-9.7264536e-05,-0.0035702926,0.0028342823
8970584000,8970584000,4.7247857e-05,0.0025917774,-0.001115495
8970596000,8970596000,-0.0025625334,0.0025293613,-0.0016101972
8970604000,8970604000,-0.0016171457,0.0065187523,-0.0010275583
8970620000,8970620000,-0.0011338135,0.0029012456,-0.000721324
8970632000,8970632000,0.0014740189,0.002805063,-0.0022443207
8970644000,8970644000,0.0025297387,0.0031695026,-0.0025923983
8970656000,8970656000,0.0024407886,0.008564541,0.0009543002
8970668000,8970668000,0.004839033,0.004905156,-0.0009470708
8970680000,8970680000,-0.0007489177,0.0031302755,0.004940063
8970692000,8970692000,-0.0035703746,-0.0011303029,0.0012200446
8970704000,8970704000,0.0012356368,-0.005091193,-0.004834476
8970716000,8970716000,2.4932437e-05,-0.0025807717,-0.00013870862
8970724000,8970724000,-0.00422752,-0.0059058177,0.00073332095
8970736000,8970736000,-0.0095101725,0.005267543,-0.0068951864
8970752000,8970752000,-0.008699343,0.0084494045,0.0023670606
8970764000,8970764000,-0.007108706,0.0062898416,-0.00064969924
8970776000,8970776000,-0.0034242475,0.005686079,0.0020625596
8970788000,8970788000,-0.004215597,0.007290827,-4.756835e-05
8970800000,8970800000,-0.0073247976,0.009500691,-0.0019482567
8970812000,8970812000,-0.010329315,0.012639437,-0.004001913
8970824000,8970824000,-0.008633019,0.0135780275,-0.006381563
8970836000,8970836000,-0.0017993057,0.014862819,0.0030331877
8970848000,8970848000,0.0019837092,0.011038886,0.0014901677
8970860000,8970860000,0.009822911,0.016784012,-0.0031187667
8970872000,8970872000,0.00785185,0.0124872755,-0.00087763614
8970880000,8970880000,0.006301675,0.009088865,-0.0023865784
8970896000,8970896000,0.0058123143,0.009659708,0.0011985025
8970908000,8970908000,-0.001036051,0.0047437884,0.0023127706
8970920000,8970920000,-0.0033425197,0.0016897675,0.002197642
8970928000,8970928000,-0.002455036,0.00505278,0.0021218932
8970944000,8970944000,-0.0102314055,0.0028100854,0.0030545942
8970956000,8970956000,-0.010357775,0.0026518304,-0.0025551564
8970968000,8970968000,-0.012008544,0.0059490716,0.00076316827
8970980000,8970980000,-0.0110095255,-0.0010293,0.0036298009
8970992000,8970992000,-0.014190665,-0.0043332246,0.0024854718
8971004000,8971004000,-0.007892656,-0.0008797953,0.00039580627
8971016000,8971016000,-0.003879787,-0.001780651,0.0008841307
8971028000,8971028000,-0.005767913,0.0004839669,-0.00031182007
8971040000,8971040000,-0.0016936653,0.0071473727,0.0027100542
8971052000,8971052000,-0.00067048543,0.008557687,-0.0024915952
8971060000,8971060000,9.755348e-05,0.007271001,-0.0018076361
8971076000,8971076000,-0.0031438551,0.0034086765,0.003965297
8971088000,8971088000,0.00010217447,0.0035094628,0.00048082374
8971096000,8971096000,-0.00030709826,-0.00087517034,-0.0016144923
8971112000,8971112000,0.00055541005,-0.0058587026,-0.002059011
8971124000,8971124000,-0.0018369802,-0.004484862,-0.0017664758
8971136000,8971136000,-0.0016558464,-0.005671931,-0.0016261308
8971148000,8971148000,-0.0035073142,-0.011907274,-0.0018164978
8971160000,8971160000,-3.5879202e-06,-0.0075185183,0.0005178381
8971172000,8971172000,-0.003881762,-0.008272586,0.00083235686
8971184000,8971184000,-0.0033093079,-0.006309922,-0.0007681191
8971196000,8971196000,-0.00702189,-0.006065688,-0.000287905
8971208000,8971208000,-0.005894242,-0.0020838738,-0.0013021717
8971220000,8971220000,-0.0012525893,-0.008996762,-0.00081413623
8971232000,8971232000,0.0018708224,-0.0077227736,-0.004467535
8971244000,8971244000,0.0052147973,-0.005368808,-0.0018359534
8971256000,8971256000,0.0013003249,0.00043381425,0.0027366865
8971268000,8971268000,-0.004261451,0.0038903882,0.0011772854
8971280000,8971280000,-0.006366701,-0.0011961539,0.00028717925
8971292000,8971292000,-0.008107868,0.0041500046,0.00018740288
8971304000,8971304000,-0.005107059,0.004791531,0.001585349
8971316000,8971316000,-0.0082554575,-0.00038056495,0.0031749106
8971328000,8971328000,0.0010782084,-0.0064670965,6.90138e-05
8971340000,8971340000,0.0070251534,-0.0029453058,-0.0030653663
8971352000,8971352000,0.0005532936,-0.0061488342,-0.0005774781
8971364000,8971364000,-0.0053483946,-0.008579785,-0.00023608934
8971376000,8971376000,-0.004582064,-0.0049631614,-0.0012887907
8971388000,8971388000,0.0021420643,-0.009486429,0.00397386
8971400000,8971400000,0.0030863413,-0.003716473,-0.00015871157
8971408000,8971408000,0.0023925775,-0.0029676058,-0.0018566375
8971424000,8971424000,0.007173,-0.005212125,-0.003240095
8971436000,8971436000,-0.002622431,-0.0063663884,-0.0022114695
8971448000,8971448000,-0.0015830612,0.0030916152,-0.001206685
8971460000,8971460000,-0.005168082,-0.0010381895,0.003658596
8971472000,8971472000,-0.00332403,-0.00070443284,0.0018195297
