timestamp,roll,pitch,yaw,thrust_body[0],thrust_body[1],thrust_body[2]
8959828000,-0.008372408,0.04575119,-1.1378763,0.0,0.0,0.0
8959852000,-0.008175001,0.04556918,-1.1380235,0.0,0.0,0.0
8959872000,-0.007926267,0.04520746,-1.1381185,0.0,0.0,0.0
8959892000,-0.008046302,0.045001194,-1.1382694,0.0,0.0,0.0
8959912000,-0.008312017,0.044304308,-1.138351,0.0,0.0,0.0
8959932000,-0.008058921,0.04452756,-1.1387024,0.0,0.0,0.0
8959948000,-0.0075292625,0.04436482,-1.1384761,0.0,0.0,0.0
8959972000,-0.008303631,0.044025,-1.1383876,0.0,0.0,0.0
8959988000,-0.008645337,0.04363343,-1.1385329,0.0,0.0,0.0
8960012000,-0.008210419,0.043804552,-1.1387289,0.0,0.0,0.0
8960028000,-0.008444844,0.043577634,-1.138563,0.0,0.0,0.0
8960052000,-0.008226095,0.043261334,-1.1386313,0.0,0.0,0.0
8960064000,-0.008334151,0.043086324,-1.1387289,0.0,0.0,0.0
8960088000,-0.008317344,0.04248873,-1.13853,0.0,0.0,0.0
8960108000,-0.008700392,0.04233615,-1.1385053,0.0,0.0,0.0
8960132000,-0.008390541,0.042237062,-1.1384702,0.0,0.0,0.0
8960152000,-0.008250022,0.041797556,-1.1384636,0.0,0.0,0.0
8960168000,-0.008339465,0.041691076,-1.1383526,0.0,0.0,0.0
8960188000,-0.0084341355,0.041246086,-1.1383917,0.0,0.0,0.0
8960208000,-0.008861975,0.04083573,-1.1384048,0.0,0.0,0.0
8960224000,-0.008899397,0.040720545,-1.138391,0.0,0.0,0.0
8960252000,-0.008787161,0.04031316,-1.1384578,0.0,0.0,0.0
8960272000,-0.008914845,0.040309507,-1.1383995,0.0,0.0,0.0
8960292000,-0.009018167,0.04017029,-1.138549,0.0,0.0,0.0
8960308000,-0.00936118,0.040035047,-1.1386544,0.0,0.0,0.0
8960328000,-0.00914653,0.040440865,-1.1384368,0.0,0.0,0.0
8960352000,-0.009181791,0.04008182,-1.1385586,0.0,0.0,0.0
8960372000,-0.009045656,0.039835785,-1.1385136,0.0,0.0,0.0
8960388000,-0.009071674,0.039665647,-1.1383129,0.0,0.0,0.0
8960408000,-0.008979346,0.0397003,-1.1382885,0.0,0.0,0.0
8960428000,-0.008759344,0.039437834,-1.1381099,0.0,0.0,0.0
8960452000,-0.009122351,0.039442584,-1.1379524,0.0,0.0,0.0
8960472000,-0.009135528,0.03948045,-1.137835,0.0,0.0,0.0
8960492000,-0.009397075,0.03929935,-1.1378977,0.0,0.0,0.0
8960508000,-0.008745401,0.039468966,-1.1380478,0.0,0.0,0.0
8960532000,-0.008412568,0.03931603,-1.137998,0.0,0.0,0.0
8960548000,-0.008902578,0.039309625,-1.1382242,0.0,0.0,0.0
8960572000,-0.009104844,0.03954178,-1.1381552,0.0,0.0,0.0
8960588000,-0.009184154,0.03949873,-1.1380408,0.0,0.0,0.0
8960612000,-0.009119173,0.039238103,-1.1381929,0.0,0.0,0.0
8960628000,-0.009178927,0.039198782,-1.138231,0.0,0.0,0.0
8960652000,-0.009723781,0.039200075,-1.1384356,0.0,0.0,0.0
8960672000,-0.010006944,0.03909109,-1.1386807,0.0,0.0,0.0
8960688000,-0.009651884,0.039459415,-1.1388012,0.0,0.0,0.0
8960712000,-0.009402734,0.039507866,-1.1390684,0.0,0.0,0.0
8960732000,-0.0088091055,0.03934867,-1.1388911,0.0,0.0,0.0
8960752000,-0.00876478,0.03930586,-1.1387603,0.0,0.0,0.0
8960768000,-0.008709569,0.03924462,-1.1386659,0.0,0.0,0.0
8960788000,-0.008772681,0.039875742,-1.1390274,0.0,0.0,0.0
8960812000,-0.0090271905,0.040478464,-1.1389772,0.0,0.0,0.0
8960832000,-0.009020768,0.040845383,-1.1388919,0.0,0.0,0.0
8960852000,-0.009116414,0.04096018,-1.1388477,0.0,0.0,0.0
8960868000,0.14994532,-0.20790377,0.0012731552,0.0,0.0,-0.12014386
8960888000,0.0935972,-0.108919755,-0.0007701516,0.0,0.0,-0.120054014
8960908000,0.062039442,0.04854881,-0.0014335513,0.0,0.0,-0.120007575
8960932000,0.041147243,0.17589203,-0.0015810728,0.0,0.0,-0.12003376
8960948000,0.082262166,0.3050019,-0.002273798,0.0,0.0,-0.12012849
8960968000,0.085011125,0.39642665,-0.0024781823,0.0,0.0,-0.120223984
8960992000,0.10165642,0.44085544,-0.0030616522,0.0,0.0,-0.12028596
8961008000,0.10741837,0.46011928,-0.0032256246,0.0,0.0,-0.120315164
8961032000,0.12085323,0.47098655,-0.0036301017,0.0,0.0,-0.12033689
8961048000,0.12331377,0.44528192,-0.0035766363,0.0,0.0,-0.12068977
8961072000,0.09982263,0.38594955,-0.0029491782,0.0,0.0,-0.13274394
8961088000,0.09116076,0.35499614,-0.0025624037,0.0,0.0,-0.14890595
8961112000,0.1014856,0.3261251,-0.0025155544,0.0,0.0,-0.16492
8961132000,0.074980885,0.27070582,-0.0020973086,0.0,0.0,-0.19521564
8961152000,0.07435602,0.27102774,-0.0021956563,0.0,0.0,-0.19521564
8961172000,0.06586578,0.24567187,-0.0019168854,0.0,0.0,-0.22606304
8961192000,0.06444515,0.2369569,-0.0017030239,0.0,0.0,-0.24379198
8961212000,0.052839674,0.21319945,-0.0015063286,0.0,0.0,-0.26156816
8961232000,0.055454083,0.19348669,-0.0014285445,0.0,0.0,-0.27568638
8961252000,0.046139434,0.18100685,-0.0014750361,0.0,0.0,-0.29373878
8961268000,0.04505645,0.1766988,-0.0014446378,0.0,0.0,-0.30818903
8961288000,0.04751409,0.1774314,-0.001455903,0.0,0.0,-0.3200431
8961312000,0.049647227,0.17131102,-0.0015504956,0.0,0.0,-0.33497018
8961332000,0.0438902,0.16462032,-0.0014206767,0.0,0.0,-0.3505534
8961348000,0.03891919,0.16347478,-0.0016286373,0.0,0.0,-0.36266106
8961368000,0.037215646,0.15522403,-0.0015528202,0.0,0.0,-0.37756437
8961388000,0.0383963,0.14853491,-0.0014244318,0.0,0.0,-0.39240435
8961408000,0.036536157,0.14223784,-0.0012338161,0.0,0.0,-0.40413493
8961432000,0.023537004,0.1356251,-0.0009521842,0.0,0.0,-0.43528372
8961452000,0.024063595,0.122961506,-0.0010088682,0.0,0.0,-0.44790277
8961468000,0.02495843,0.117146894,-0.0010120869,0.0,0.0,-0.46369383
8961492000,0.026412722,0.1191248,-0.0011184812,0.0,0.0,-0.4793809
8961508000,0.020240083,0.11559099,-0.0010383725,0.0,0.0,-0.49108404
8961532000,0.023774676,0.113538116,-0.0009976029,0.0,0.0,-0.5069713
8961552000,0.024040584,0.11268745,-0.0009886622,0.0,0.0,-0.52275676
8961572000,0.026818011,0.11205802,-0.00086295605,0.0,0.0,-0.5357737
8961592000,0.022849219,0.1096929,-0.0007959008,0.0,0.0,-0.5513626
8961612000,0.022110092,0.106173165,-0.0010161996,0.0,0.0,-0.5669239
8961632000,0.022740245,0.10244672,-0.0011512041,0.0,0.0,-0.58014417
8961652000,0.018455643,0.09663361,-0.00094503164,0.0,0.0,-0.5943849
8961668000,0.020365214,0.08527021,-0.0008414984,0.0,0.0,-0.6069888
8961692000,0.0137944035,0.05603741,-0.00094646215,0.0,0.0,-0.6106918
8961704000,0.0048375465,0.040498707,-0.0010889769,0.0,0.0,-0.6171013
8961732000,0.0051666712,0.015887825,-0.0014326572,0.0,0.0,-0.61346585
8961748000,-2.0514708e-06,-0.004390588,-0.0016729832,0.0,0.0,-0.6136431
8961768000,-0.0016077566,-0.026859574,-0.0017527342,0.0,0.0,-0.6135375
8961792000,-0.008631765,-0.052175224,-0.0016134381,0.0,0.0,-0.6045339
8961808000,-0.016859444,-0.064592466,-0.0016218424,0.0,0.0,-0.605736
8961832000,-0.022382013,-0.080077276,-0.0015392303,0.0,0.0,-0.60881376
8961852000,-0.026700042,-0.10689374,-0.0016012788,0.0,0.0,-0.60371643
8961868000,-0.025975589,-0.11144243,-0.0016903281,0.0,0.0,-0.60770524
8961892000,-0.026471218,-0.11565842,-0.0016261339,0.0,0.0,-0.6122666
8961908000,-0.021810848,-0.12753871,-0.0016751289,0.0,0.0,-0.6082212
8961932000,-0.021948092,-0.116283,-0.0018916726,0.0,0.0,-0.6126427
8961952000,-0.025601692,-0.11405994,-0.0018526912,0.0,0.0,-0.61680776
8961968000,-0.029675279,-0.1158596,-0.0016819239,0.0,0.0,-0.6110843
8961988000,-0.02729161,-0.11182472,-0.0014877319,0.0,0.0,-0.6145548
8962008000,-0.02493995,-0.10298234,-0.0012792349,0.0,0.0,-0.6171738
8962032000,-0.021958534,-0.1032885,-0.0009766817,0.0,0.0,-0.6146997
8962048000,-0.020309035,-0.096003436,-0.0010303259,0.0,0.0,-0.6146997
8962072000,-0.021154441,-0.092483915,-0.0011495948,0.0,0.0,-0.61334944
8962092000,-0.018388154,-0.08623206,-0.0012112856,0.0,0.0,-0.61677516
8962112000,-0.01806753,-0.08248009,-0.0011048913,0.0,0.0,-0.61949867
8962132000,-0.020401374,-0.0742546,-0.0009902716,0.0,0.0,-0.6135681
8962148000,-0.017547717,-0.06603562,-0.00089138746,0.0,0.0,-0.61680007
8962168000,-0.01635715,-0.065251626,-0.0006149411,0.0,0.0,-0.6194845
8962192000,-0.009399798,-0.06200213,-0.0005636215,0.0,0.0,-0.6135539
8962212000,-0.006136946,-0.054242797,-0.00049477816,0.0,0.0,-0.6165121
8962232000,-0.008162422,-0.05197425,-0.00031918287,0.0,0.0,-0.6200962
8962248000,-0.006545551,-0.047780033,-0.00031542778,0.0,0.0,-0.61535484
8962272000,-0.008224592,-0.046128366,-0.00022745132,0.0,0.0,-0.61886173
8962292000,-0.008329531,-0.04588466,-0.00025463104,0.0,0.0,-0.6160125
8962308000,-0.011993678,-0.043141074,-0.00022602081,0.0,0.0,-0.61911076
8962332000,-0.013316618,-0.04477486,-5.4180622e-05,0.0,0.0,-0.62214696
8962352000,-0.015078655,-0.036045883,9.0658665e-05,0.0,0.0,-0.61639786
8962372000,-0.010074414,-0.036138576,0.00020778179,0.0,0.0,-0.6203904
8962392000,-0.011300478,-0.035222568,0.0001861453,0.0,0.0,-0.62393284
8962412000,-0.0098202005,-0.02698285,2.8431416e-05,0.0,0.0,-0.6182611
8962428000,-0.012843864,-0.036173113,7.0631504e-05,0.0,0.0,-0.62151194
8962448000,-0.014067306,-0.03606434,-2.592802e-05,0.0,0.0,-0.62480384
8962472000,-0.005150944,-0.035796613,9.298325e-06,0.0,0.0,-0.61938864
8962492000,-0.004398455,-0.035284005,-0.00023835897,0.0,0.0,-0.6227681
8962512000,-0.0030095202,-0.033131782,-0.00034940243,0.0,0.0,-0.6254707
8962532000,0.004202554,-0.026011739,-0.00031149387,0.0,0.0,-0.6228268
8962548000,0.0036635622,-0.026017338,-0.00019222498,0.0,0.0,-0.6228268
8962572000,0.003878732,-0.016889995,-0.00018578768,0.0,0.0,-0.62043756
8962588000,0.0014907641,-0.019915864,0.000103354454,0.0,0.0,-0.6237744
8962612000,-0.001169112,-0.025249925,5.2392483e-05,0.0,0.0,-0.6269609
8962632000,-0.0058943597,-0.036830448,6.41942e-05,0.0,0.0,-0.6225945
8962648000,-0.0074848873,-0.039891187,-3.7908554e-05,0.0,0.0,-0.62634367
8962668000,-0.008467514,-0.036177736,-3.9696693e-05,0.0,0.0,-0.6298151
8962692000,-0.008818446,-0.038149845,-6.7055225e-05,0.0,0.0,-0.62436247
8962708000,-0.0057940297,-0.040475573,-3.7372112e-05,0.0,0.0,-0.627539
8962728000,-0.0037903734,-0.03759399,-0.00015431643,0.0,0.0,-0.6242557
8962748000,-0.0061497027,-0.03674348,-0.00020456314,0.0,0.0,-0.6277691
8962764000,-0.007571467,-0.032454945,-0.00010997057,0.0,0.0,-0.6315159
8962788000,-0.007456205,-0.022147585,-0.00040125847,0.0,0.0,-0.6257387
8962808000,-0.007549231,-0.026241705,-0.00041377544,0.0,0.0,-0.62890023
8962832000,-0.0035478983,-0.026855513,-0.0006056428,0.0,0.0,-0.6326355
8962848000,-0.0008443482,-0.023939408,-0.0005954504,0.0,0.0,-0.62681687
8962868000,0.00046447478,-0.023608686,-0.00042790174,0.0,0.0,-0.6307822
8962892000,0.0073473374,-0.019927278,-0.00023299456,0.0,0.0,-0.6287935
8962908000,0.0028248327,-0.019031366,-0.00024855137,0.0,0.0,-0.6317146
8962932000,-0.0019568698,-0.018188652,-0.00043845177,0.0,0.0,-0.6345359
8962952000,-0.005135947,-0.018604077,-0.00038141012,0.0,0.0,-0.62850296
8962968000,-0.0060974974,-0.019126557,-0.00018721819,0.0,0.0,-0.6313915
8962992000,-0.005644646,-0.018720282,-0.00016969442,0.0,0.0,-0.63494235
8963012000,-0.00466846,-0.016060753,-0.0003515482,0.0,0.0,-0.62938315
8963028000,-0.003968165,-0.023077743,-0.00047278404,0.0,0.0,-0.6325339
8963052000,-0.0067362413,-0.024782754,-0.0003014803,0.0,0.0,-0.63579977
8963068000,-0.0038109524,-0.023226395,-0.00019651651,0.0,0.0,-0.63070077
8963088000,-0.009996701,-0.023415443,-0.00029826164,0.0,0.0,-0.6342487
8963112000,-0.0110628735,-0.027356023,-0.00026661158,0.0,0.0,-0.6376243
8963128000,-0.010998165,-0.029013697,-0.00015574694,0.0,0.0,-0.6323846
8963148000,-0.008114956,-0.024457783,0.00014358759,0.0,0.0,-0.63505006
8963172000,-0.004539418,-0.022401076,2.3782253e-05,0.0,0.0,-0.6323711
8963192000,-0.0016062444,-0.020004727,-1.3232231e-05,0.0,0.0,-0.635598
8963212000,-0.0010624949,-0.019886483,-0.00013160706,0.0,0.0,-0.6390723
8963228000,-0.0018344829,-0.019952565,-4.184246e-05,0.0,0.0,-0.6336717
8963252000,-0.0004975002,-0.0156197455,0.00015878677,0.0,0.0,-0.6369837
8963268000,-0.0012487534,-0.014556164,0.00015002489,0.0,0.0,-0.640347
8963288000,0.002913618,-0.012216127,0.00015413761,0.0,0.0,-0.6357635
8963312000,0.0013383448,-0.010703259,0.00012052059,0.0,0.0,-0.63937646
8963332000,0.004681628,-0.011307477,0.00023639202,0.0,0.0,-0.64259815
8963352000,0.005353023,-0.0055642566,-0.009121299,0.0,0.0,-0.63606805
8963372000,0.0033401123,-0.008214548,-0.009008646,0.0,0.0,-0.63891363
8963392000,-2.2594118e-05,-0.009559916,-0.009118438,0.0,0.0,-0.64163774
8963412000,-0.0022813145,-0.013182675,-0.009339094,0.0,0.0,-0.63608664
8963432000,0.0015691307,-0.009153228,-0.009423494,0.0,0.0,-0.6398433
8963448000,0.0015703405,-0.0094248615,-0.00932157,0.0,0.0,-0.6398433
8963472000,0.012615614,-0.0036619836,-0.009085,0.0,0.0,-0.653859
8963488000,0.01625672,0.0023858096,-0.008708954,0.0,0.0,-0.64803255
8963508000,0.015047765,0.0010933578,-0.008300185,0.0,0.0,-0.64901257
8963532000,0.01356547,-0.004286853,-0.007923424,0.0,0.0,-0.6309404
8963552000,0.01351571,-0.0093959775,-0.007407367,0.0,0.0,-0.5845198
8963568000,0.010000959,-0.018466936,-0.006877005,0.0,0.0,-0.55966014
8963592000,0.006851953,-0.02057436,-0.0061873198,0.0,0.0,-0.5387606
8963608000,0.00028233044,-0.030100001,-0.005774796,0.0,0.0,-0.5111536
8963628000,-0.0038666097,-0.031101728,-0.0049980283,0.0,0.0,-0.50487447
8963652000,-0.004261358,-0.03430472,-0.0041232705,0.0,0.0,-0.5039743
8963668000,0.00049103424,-0.034668133,-0.0034514666,0.0,0.0,-0.5036116
8963692000,0.00053674076,-0.029326083,-0.0027871728,0.0,0.0,-0.51169807
8963708000,-0.0022244663,-0.027227495,-0.002163291,0.0,0.0,-0.52188057
8963732000,-0.0059637506,-0.021129265,-0.0010798573,0.0,0.0,-0.54149806
8963752000,-0.009194082,-0.01992049,-0.00033277273,0.0,0.0,-0.5505538
8963772000,-0.011132745,-0.0222133,0.00036549568,0.0,0.0,-0.55182236
8963788000,-0.01262748,-0.020249613,0.0010344386,0.0,0.0,-0.5550082
8963804000,-0.010217076,-0.019673608,0.0017069578,0.0,0.0,-0.55672175
8963832000,-0.0065894094,-0.019997712,0.0023086667,0.0,0.0,-0.5511726
8963848000,-0.003723194,-0.020696193,0.0029461384,0.0,0.0,-0.5513062
8963868000,-0.0057596406,-0.01803294,0.003696978,0.0,0.0,-0.55170393
8963892000,0.0016035237,-0.0157044,0.0045356154,0.0,0.0,-0.54539245
8963912000,0.0039021727,-0.014486851,0.0053467155,0.0,0.0,-0.5465289
8963924000,0.004596264,-0.01112911,0.005748868,0.0,0.0,-0.54774356
8963948000,0.008012826,-0.01635393,0.006686926,0.0,0.0,-0.5441511
8963972000,0.0034451173,-0.011842065,0.0068728924,0.0,0.0,-0.54621327
8963988000,-0.0031259023,-0.014965276,0.00691545,0.0,0.0,-0.54877883
8964012000,-0.0019266238,-0.019922484,0.0070517063,0.0,0.0,-0.54831433
8964032000,-0.006342347,-0.013660591,0.0070796013,0.0,0.0,-0.55054015
8964048000,-0.0011465298,-0.013021574,0.0070629716,0.0,0.0,-0.5466913
8964068000,-0.0021825463,-0.01039596,0.007067442,0.0,0.0,-0.54836375
8964088000,-0.00037362892,-0.009024136,0.006902039,0.0,0.0,-0.5511053
8964108000,0.003621052,-0.006641601,0.0067749023,0.0,0.0,-0.54808444
8964128000,0.004427486,-0.0075248303,0.006292641,0.0,0.0,-0.5497029
8964148000,0.0030888459,-0.005893737,0.0058654547,0.0,0.0,-0.5525816
8964164000,0.0016372357,-0.009966309,0.005518019,0.0,0.0,-0.5490512
8964192000,-0.004782176,-0.011448683,0.005443454,0.0,0.0,-0.5509896
8964212000,0.000725226,-0.012973149,0.005231023,0.0,0.0,-0.5526856
8964232000,-0.0039462824,-0.0077852122,0.004861057,0.0,0.0,-0.5506632
8964248000,-0.004553012,-0.006966754,0.0047126412,0.0,0.0,-0.5506632
8964268000,-0.005128473,-0.005620168,0.0040685534,0.0,0.0,-0.5526122
8964288000,-0.005261368,-0.002631259,0.0039494634,0.0,0.0,-0.55150425
8964308000,-0.0065974323,-0.004408935,0.0035737753,0.0,0.0,-0.5533308
8964328000,-0.009441714,0.0012395305,0.0033954978,0.0,0.0,-0.5502448
8964348000,-0.0060483436,-0.006102414,0.0029044747,0.0,0.0,-0.5518307
8964372000,-0.0036456822,-0.010330614,0.0027616024,0.0,0.0,-0.55382425
8964392000,-0.005853013,-0.011654172,0.0023099184,0.0,0.0,-0.55129015
8964408000,-0.0058741844,-0.012399838,0.0020202398,0.0,0.0,-0.5536902
8964432000,-0.0029127058,-0.01134046,0.0018228292,0.0,0.0,-0.55617565
8964452000,-0.0021058903,-0.010793615,0.00155586,0.0,0.0,-0.55376285
8964468000,-0.00040729763,-0.009567602,0.0012187958,0.0,0.0,-0.55553573
8964492000,8.983025e-05,-0.009085945,0.0009741783,0.0,0.0,-0.55756885
8964508000,0.00046769762,-0.004256511,0.00059491396,0.0,0.0,-0.5543547
8964528000,-0.0007068389,-0.001176873,0.00017434359,0.0,0.0,-0.555774
8964548000,-0.0034765564,-0.0042171828,9.2446804e-05,0.0,0.0,-0.55718136
8964572000,0.00016278354,-0.005042982,2.8431416e-05,0.0,0.0,-0.55464077
8964588000,0.0004311204,-0.004679491,0.00011086464,0.0,0.0,-0.55464077
8964608000,-0.002374216,-0.007210633,6.991625e-05,0.0,0.0,-0.5530776
8964632000,3.824383e-05,-0.009430235,1.4662743e-05,0.0,0.0,-0.55459255
8964652000,0.00024848012,-0.009460498,-0.00016397238,0.0,0.0,-0.5564254
8964672000,-0.000891794,-0.00704902,-0.00038605928,0.0,0.0,-0.55342007
8964692000,0.0045162854,-0.0063404012,-0.00035226345,0.0,0.0,-0.5552608
8964708000,0.006216905,-0.00886055,-0.0003772974,0.0,0.0,-0.5573544
8964732000,0.0058612484,-0.009608272,-0.0003182888,0.0,0.0,-0.5548178
8964748000,0.002812211,-0.007437949,-0.00034976006,0.0,0.0,-0.55729806
8964768000,-0.0010060729,-0.0054876124,-0.0003540516,0.0,0.0,-0.55956143
8964788000,-0.0028507174,-0.0072424994,-0.00047457218,0.0,0.0,-0.55732906
8964812000,-0.0044225114,-0.0099388,-0.00033259392,0.0,0.0,-0.5590064
8964828000,-0.0006188303,-0.011128879,-0.00034797192,0.0,0.0,-0.5608638
8964848000,8.723466e-05,-0.012299066,-0.0002694726,0.0,0.0,-0.5577975
8964872000,0.0011824016,-0.01181503,-0.00023782253,0.0,0.0,-0.5610453
8964892000,0.006768183,-0.0099073835,-0.00049996376,0.0,0.0,-0.5583262
8964912000,0.0077337753,-0.0055795955,-0.00047421455,0.0,0.0,-0.55957806
8964932000,0.005134167,-0.007464327,-0.00048601627,0.0,0.0,-0.5607339
8964952000,0.002812394,-0.010877835,-0.00059866905,0.0,0.0,-0.5572641
8964964000,-0.0026338887,-0.010136892,-0.00067681074,0.0,0.0,-0.5585988
8964988000,-0.0029210276,-0.006556697,-0.00081288815,0.0,0.0,-0.5599839
8965012000,-0.004653293,0.00059931655,-0.00053697824,0.0,0.0,-0.55715805
8965028000,-0.0064924434,0.0004304191,-0.0005798936,0.0,0.0,-0.5587199
8965052000,-0.0053053647,0.0022693863,-0.00041788816,0.0,0.0,-0.5607697
8965068000,-0.004621101,-0.001381075,-0.00030237436,0.0,0.0,-0.5589426
8965088000,-0.0026920256,-0.003417297,-0.00045704842,0.0,0.0,-0.5607899
8965112000,-0.0016532857,-0.0051266663,-0.0004080534,0.0,0.0,-0.5603904
8965124000,-0.00107614,-0.005509946,-0.0005457401,0.0,0.0,-0.5603904
8965148000,-0.005001064,-0.008038667,-0.0005675554,0.0,0.0,-0.56247145
8965168000,-0.0045432053,0.0002516443,-0.0008533001,0.0,0.0,-0.5600709
8965188000,-0.0007146802,-0.0014902235,-0.00075888634,0.0,0.0,-0.56111854
8965212000,-0.00047588395,-0.00080775074,-0.00034689903,0.0,0.0,-0.5618428
8965232000,0.00029621925,0.00031517493,-0.00040215254,0.0,0.0,-0.558675
8965252000,0.0016312986,-0.001327465,-0.00023049116,0.0,0.0,-0.55925983
8965272000,0.0016081422,-0.0020121792,-0.00019437075,0.0,0.0,-0.5608372
8965292000,-0.0004319488,-0.0021774124,-0.00035834312,0.0,0.0,-0.55852747
8965312000,-0.0004566363,-0.0036215682,-0.000351727,0.0,0.0,-0.55974233
8965328000,-0.0056718607,-0.003692461,-0.00048726797,0.0,0.0,-0.56180197
8965352000,0.005768775,0.0010058479,-0.00034689903,0.0,0.0,-0.56100786
8965368000,0.0043662786,0.002352838,-0.0002680421,0.0,0.0,-0.5634473
8965388000,0.003369377,0.00012991461,4.541874e-05,0.0,0.0,-0.5651995
8965412000,0.0025595552,-0.0062221885,0.00018453598,0.0,0.0,-0.5635878
8965428000,0.0022004507,-0.0032531451,3.5762787e-06,0.0,0.0,-0.56463724
8965452000,-0.0017549708,-0.0055099186,0.00017666817,0.0,0.0,-0.5622594
8965472000,0.0014647683,-0.0021834571,0.00016182661,0.0,0.0,-0.5627227
8965488000,0.0028373944,-0.00047005503,0.00017935038,0.0,0.0,-0.5633475
8965512000,0.00011631148,-0.003345759,0.00013536215,0.0,0.0,-0.5610254
8965532000,-0.0052500316,-0.0066269524,6.186962e-05,0.0,0.0,-0.562261
8965552000,-0.0069688386,-0.008600563,2.270937e-05,0.0,0.0,-0.5633245
8965568000,-0.008381365,-0.0055909404,5.4180622e-05,0.0,0.0,-0.56124604
8965592000,-0.0056352597,-0.0005705834,-5.811453e-05,0.0,0.0,-0.5620771
8965612000,-0.0044521946,0.0021241922,0.00017595291,0.0,0.0,-0.5639084
8965628000,-0.003513142,0.002809331,0.00027751923,0.0,0.0,-0.5613611
8965648000,-0.0024846,0.0042972635,0.0001757741,0.0,0.0,-0.5625922
8965672000,-0.0026215897,0.0011099798,6.5624714e-05,0.0,0.0,-0.5620511
8965692000,-0.0047386335,0.0039019862,-1.1444092e-05,0.0,0.0,-0.5632628
8965712000,-0.00037928252,0.001551222,0.00014197826,0.0,0.0,-0.5645037
8965732000,-0.01006313,0.0025878386,4.3809414e-05,0.0,0.0,-0.5627585
8965752000,-0.013025056,0.0021946917,-7.778406e-05,0.0,0.0,-0.5638853
8965768000,-0.012594734,0.0017198855,-3.504753e-05,0.0,0.0,-0.56477547
8965792000,-0.0034844647,-0.0017251605,5.90086e-05,0.0,0.0,-0.5627478
8965808000,-0.00555185,-0.0052718604,0.00028699636,0.0,0.0,-0.56408614
8965832000,-0.006262761,2.4915906e-05,0.000467062,0.0,0.0,-0.5651236
8965848000,-0.0062938747,-0.0003734026,0.00044703484,0.0,0.0,-0.562537
8965872000,-0.003475552,-0.0037527988,0.00049620867,0.0,0.0,-0.5632755
8965892000,-0.004394932,-0.007352139,0.0004838705,0.0,0.0,-0.5641007
8965908000,0.001674531,-0.006070588,0.00033706427,0.0,0.0,-0.56174606
8965928000,0.00027798023,-0.0035722847,2.4318695e-05,0.0,0.0,-0.5625623
8965952000,0.0066908193,-0.0026257276,0.00019830465,0.0,0.0,-0.5622212
8965972000,0.0044909525,0.0007105011,0.00041520596,0.0,0.0,-0.562675
8965992000,0.0010666209,0.0037369947,0.0004207492,0.0,0.0,-0.56425965
8966008000,0.0041775503,0.0043267314,0.0004338026,0.0,0.0,-0.5625527
8966032000,0.0028254138,0.0033639036,0.0003222227,0.0,0.0,-0.5638838
8966048000,-0.0023651537,0.0027028474,0.00060492754,0.0,0.0,-0.56498253
8966064000,-0.0031461278,0.0035235349,0.0007485151,0.0,0.0,-0.563341
8966088000,-0.0031688944,0.007256696,0.0009280443,0.0,0.0,-0.563675
8966108000,-0.0015793336,0.005747469,0.0009276867,0.0,0.0,-0.56448823
8966132000,-0.0035914953,0.008904266,0.0009237528,0.0,0.0,-0.5622661
8966148000,-0.0057010287,0.0049617067,0.0008878112,0.0,0.0,-0.5635355
8966172000,-0.011201642,0.00019758102,0.0008559823,0.0,0.0,-0.5650013
8966192000,-0.0108086625,-0.005215509,0.00071775913,0.0,0.0,-0.5634667
8966212000,-0.009353131,-0.0056022895,0.0007174015,0.0,0.0,-0.5642899
8966232000,-0.015430655,-0.008624217,0.00076407194,0.0,0.0,-0.5623709
8966248000,-0.015059349,-0.0017381472,0.0007535219,0.0,0.0,-0.5629965
8966272000,-0.016961105,-0.0010760163,0.0006633997,0.0,0.0,-0.5639644
8966292000,-0.015049123,0.0032875272,0.0005940199,0.0,0.0,-0.56249416
8966312000,-0.007814262,0.0019014609,0.00025105476,0.0,0.0,-0.56359243
8966332000,-0.006730393,0.0035979748,0.00018203259,0.0,0.0,-0.5643377
8966352000,-0.0071261753,0.0046803523,0.0002424717,0.0,0.0,-0.5629965
8966372000,-0.0033891555,0.008639011,0.00023317337,0.0,0.0,-0.5637755
8966388000,-0.00026318966,0.009028904,0.00042450428,0.0,0.0,-0.5650924
8966408000,-0.0047078007,0.011344484,0.0004643798,0.0,0.0,-0.5633379
8966424000,0.0012517108,0.0077068834,0.00041377544,0.0,0.0,-0.56380135
8966452000,0.0026995288,0.0023432903,9.3340874e-05,0.0,0.0,-0.5648637
8966472000,-0.00017046835,0.0014494591,-7.241964e-05,0.0,0.0,-0.56349605
8966488000,0.002717747,-0.0013038581,-3.415346e-05,0.0,0.0,-0.56441545
8966512000,0.008334838,-0.008050371,-0.00030004978,0.0,0.0,-0.56367135
8966532000,0.006622847,-0.00041506416,-0.00054198503,0.0,0.0,-0.5643626
8966548000,0.0005452079,-0.0052338513,-0.00039696693,0.0,0.0,-0.56501627
8966568000,-0.0015601809,-0.00503896,-0.0004618764,0.0,0.0,-0.5635851
8966592000,-0.005402175,-0.0049994765,-0.00027430058,0.0,0.0,-0.5640492
8966608000,-0.0051385714,-0.0047033364,-0.00032007694,0.0,0.0,-0.56504714
8966628000,-0.01237607,-0.0042626867,-0.00010728836,0.0,0.0,-0.562963
8966652000,-0.011047379,0.0002506727,-0.00023245811,0.0,0.0,-0.56288254
8966668000,-0.0077067115,0.004871833,-0.00027680397,0.0,0.0,-0.5631423
8966692000,-0.005098635,0.0037707842,-0.0002619624,0.0,0.0,-0.5615811
8966712000,-0.0030550857,0.009214329,-0.00045007467,0.0,0.0,-0.56272113
8966728000,-0.0034132653,0.0069298306,-0.00039607286,0.0,0.0,-0.56370777
8966748000,-0.0024113778,0.008531675,-0.0005298257,0.0,0.0,-0.56275755
8966768000,-0.0043915347,0.002711515,-0.0005212426,0.0,0.0,-0.5642269
8966788000,-0.0021588884,0.0039010462,-0.0007778406,0.0,0.0,-0.56582844
8966812000,0.0008641728,0.005437255,-0.00057041645,0.0,0.0,-0.5654615
8966832000,0.00047004176,0.00398801,-0.000554502,0.0,0.0,-0.56595445
8966852000,0.0004948522,0.00036216143,-0.00065267086,0.0,0.0,-0.5642224
8966868000,-0.00021291082,0.00054080354,-0.00064980984,0.0,0.0,-0.5642324
8966888000,-0.0037991123,-0.0014829839,-0.00059223175,0.0,0.0,-0.56467056
8966912000,-0.0017216275,-0.0061664083,-0.00052785873,0.0,0.0,-0.56288767
8966932000,-0.002410819,-0.0021420917,-0.00064355135,0.0,0.0,-0.56355065
8966952000,-0.005414134,-0.0020962395,-0.0006735921,0.0,0.0,-0.56454974
8966968000,-0.012422461,-0.0050447057,-0.0004951358,0.0,0.0,-0.5632158
8966992000,-0.011868655,-0.0046158265,-0.00041359663,0.0,0.0,-0.56433886
8967008000,-0.011692241,-0.0019423752,-0.0002297759,0.0,0.0,-0.5656862
8967032000,-0.011477163,-9.102293e-05,-0.00036120415,0.0,0.0,-0.56475973
8967048000,-0.009892024,0.0001682585,-0.00043290854,0.0,0.0,-0.56475973
8967068000,-0.009007659,0.0011605318,-0.0005275011,0.0,0.0,-0.5652654
8967092000,-0.007222009,-0.0056079742,-0.0005992055,0.0,0.0,-0.5645145
8967112000,-0.0043460624,-0.0061210906,-0.0007787347,0.0,0.0,-0.5652849
8967128000,-0.007840484,-0.0059385523,-0.00058078766,0.0,0.0,-0.56407857
8967148000,-0.0060027684,-0.004456656,-0.00025248528,0.0,0.0,-0.5643093
8967168000,-0.0038331016,-0.0033336435,-0.00029164553,0.0,0.0,-0.56485116
8967192000,-0.0068552634,-0.0008668797,-0.00029683113,0.0,0.0,-0.5633095
8967212000,-0.0067549283,-0.003059123,-5.954504e-05,0.0,0.0,-0.56407344
8967228000,-0.008722398,0.0007570229,0.00011444092,0.0,0.0,-0.56458706
8967252000,-0.009606101,0.004890104,0.00026375055,0.0,0.0,-0.56361556
8967268000,-0.0031502664,0.008271743,0.00038194656,0.0,0.0,-0.5640916
8967288000,-0.0013868487,0.003539302,0.00041627884,0.0,0.0,-0.5645597
8967308000,0.0004950729,0.011123465,0.00032937527,0.0,0.0,-0.5630623
8967328000,0.00087957736,0.010760734,0.00026106834,0.0,0.0,-0.5634723
8967352000,0.002287223,0.017539613,0.00020742416,0.0,0.0,-0.56397694
8967368000,-0.00059274933,0.011024881,0.0003079176,0.0,0.0,-0.5646797
8967392000,0.0022199128,0.011545043,0.0002655387,0.0,0.0,-0.56536806
8967412000,0.007466669,0.009845529,0.00019687414,0.0,0.0,-0.5641295
8967432000,0.005696887,0.0032872532,0.00029075146,0.0,0.0,-0.5646676
8967448000,0.005879594,0.0098358,0.00022906065,0.0,0.0,-0.56483513
8967472000,0.007236937,0.0057814145,8.100271e-05,0.0,0.0,-0.56348777
8967488000,0.0035720305,0.0025346421,0.00029236078,0.0,0.0,-0.56377494
8967512000,-0.00040494092,0.002269173,0.0006186962,0.0,0.0,-0.56470424
8967532000,-0.0102158,0.006127681,0.00087726116,0.0,0.0,-0.5631777
8967552000,-0.012795358,0.0056429096,0.00089889765,0.0,0.0,-0.5638109
8967572000,-0.010895137,0.0030203816,0.0009925961,0.0,0.0,-0.56459147
8967592000,-0.010764241,0.004681887,0.0012708306,0.0,0.0,-0.56497216
8967608000,-0.009900821,0.0037855557,0.0011265278,0.0,0.0,-0.56497216
8967632000,-0.0056416467,0.0048449803,0.0010294318,0.0,0.0,-0.5648157
8967648000,-0.004526009,0.004625259,0.0007209778,0.0,0.0,-0.5648157
8967672000,-0.0003680368,-0.0007845508,0.0004722476,0.0,0.0,-0.56534517
8967692000,-0.0014900244,-0.003035574,0.00048798323,0.0,0.0,-0.5634435
8967712000,-0.00088278553,-0.00050233165,0.0006002784,0.0,0.0,-0.56381696
8967732000,-0.0012912552,0.0029377588,0.00074118376,0.0,0.0,-0.56478876
8967752000,-0.00011246628,0.0004910461,0.0005430579,0.0,0.0,-0.5635557
8967772000,-0.0020616262,-0.0016770411,0.0007651448,0.0,0.0,-0.56366557
8967788000,0.0010670589,0.0005874791,0.0007093549,0.0,0.0,-0.5643374
8967808000,0.0071363365,0.00083856017,0.00057023764,0.0,0.0,-0.56348795
8967828000,0.007058369,2.6469002e-05,0.00053197145,0.0,0.0,-0.5637966
8967852000,0.008433417,-0.00412775,0.00045722723,0.0,0.0,-0.5647081
8967868000,0.012614122,-0.0083537195,0.00042253733,0.0,0.0,-0.56417465
8967892000,0.011029519,-0.0072644986,-3.3795834e-05,0.0,0.0,-0.5647732
8967912000,0.013939014,-0.003193932,-2.9683113e-05,0.0,0.0,-0.5645853
8967932000,0.0083568115,-0.0040579704,9.691715e-05,0.0,0.0,-0.56522506
8967952000,0.005886389,-0.0050661582,0.00024569035,0.0,0.0,-0.56640065
8967968000,0.006199022,0.002941828,0.00018829107,0.0,0.0,-0.5650812
8967992000,0.005098843,0.0038679587,0.00033849478,0.0,0.0,-0.5646435
8968012000,0.0013809814,0.005036265,0.0002655387,0.0,0.0,-0.564976
8968032000,-0.0022694268,0.009362778,0.00015699863,0.0,0.0,-0.5639025
8968048000,0.0017320903,0.0065989634,0.00015377998,0.0,0.0,-0.56439584
8968068000,-0.0007148946,0.00706424,0.00013196468,0.0,0.0,-0.56574315
8968092000,0.000733858,0.008200298,0.00026535988,0.0,0.0,-0.5650865
8968112000,0.00066031655,0.00506236,0.00022315979,0.0,0.0,-0.56467664
8968128000,0.0048766006,0.0035147048,0.00014930964,0.0,0.0,-0.56493455
8968148000,-0.0030206123,0.0058717756,6.8843365e-05,0.0,0.0,-0.5637096
8968172000,-0.001577917,0.009325128,-0.00016129017,0.0,0.0,-0.56426907
8968192000,-0.007181297,0.0055112448,-7.992983e-05,0.0,0.0,-0.56342083
8968212000,-0.009701052,0.009430941,-0.00028824806,0.0,0.0,-0.5640656
8968232000,-0.00689778,0.004376576,-0.00025105476,0.0,0.0,-0.56540895
8968252000,-0.0064657805,0.00066212425,-0.0001834631,0.0,0.0,-0.5645819
8968272000,-0.0060299095,-0.0035015966,-0.0003772974,0.0,0.0,-0.56502676
8968292000,-0.004951546,-0.003841237,-0.00016486645,0.0,0.0,-0.56547046
8968312000,0.0035639985,-0.0022650152,-0.0001308918,0.0,0.0,-0.5641885
8968332000,0.0040261196,-0.0026981975,-0.00013750792,0.0,0.0,-0.56437457
8968352000,0.0011168271,0.0031264331,-0.0003080964,0.0,0.0,-0.5645354
8968368000,-0.0065601063,0.005206669,-0.00026732683,0.0,0.0,-0.5631745
8968392000,-0.0062444354,0.0036052633,-0.00027126074,0.0,0.0,-0.56334406
8968412000,-0.0040979558,0.0041461876,-0.0004143119,0.0,0.0,-0.5638939
8968428000,-0.003808389,0.0028748135,-0.00037890673,0.0,0.0,-0.56278616
8968448000,0.0021104696,0.002752003,-0.00053966045,0.0,0.0,-0.56314987
8968472000,0.000106100575,0.0100382855,-0.00046384335,0.0,0.0,-0.56344235
8968488000,0.0002669905,0.009942075,-0.00034189224,0.0,0.0,-0.56344235
8968508000,0.003587672,0.009251125,-0.00020992756,0.0,0.0,-0.5636177
8968532000,0.0040154564,0.00572605,-9.870529e-05,0.0,0.0,-0.56420755
8968552000,0.00018328044,0.005584612,2.1457672e-06,0.0,0.0,-0.5647268
8968572000,-0.003566956,0.003923517,0.00010961294,0.0,0.0,-0.56550545
8968588000,-0.00832293,0.0042851716,4.720688e-05,0.0,0.0,-0.5645234
8968612000,-0.012871298,-0.0005479383,2.9683113e-05,0.0,0.0,-0.56454223
8968632000,-0.0106819365,0.0040121293,-4.1127205e-05,0.0,0.0,-0.5649282
8968652000,-0.008060528,0.0028802664,-3.2544136e-05,0.0,0.0,-0.56448954
8968672000,-0.0060337605,-0.0004481181,-9.4771385e-05,0.0,0.0,-0.5644582
8968692000,-0.0047106477,-0.0021705898,-0.00010085106,0.0,0.0,-0.56528294
8968708000,-0.0033535317,-0.0049528927,-0.00012356043,0.0,0.0,-0.56402993
8968732000,-0.00017709215,-0.0026218724,-0.0002696514,0.0,0.0,-0.5639634
8968748000,0.0039362162,-0.0026616368,-0.0003426075,0.0,0.0,-0.56431603
8968768000,0.009745206,-0.007641105,-0.00037246943,0.0,0.0,-0.5643063
8968792000,0.012071016,-0.0040974864,-0.00034564734,0.0,0.0,-0.5650251
8968812000,0.009567104,-0.0018050596,-0.0005380511,0.0,0.0,-0.5642625
8968832000,0.006392666,0.003156168,-0.0007921457,0.0,0.0,-0.56509954
8968852000,0.0030345148,0.0048253853,-0.0005133748,0.0,0.0,-0.5650596
8968872000,0.0017380323,0.0026531427,-0.00033545494,0.0,0.0,-0.56402284
8968892000,0.00017916318,0.002546634,-0.00045007467,0.0,0.0,-0.564358
8968908000,-0.0010851711,0.004890782,-0.0004720688,0.0,0.0,-0.5650066
8968928000,-0.005955117,-0.0039877733,-0.00064605474,0.0,0.0,-0.56438667
8968952000,-0.0061349906,-0.0009756317,-0.0006272793,0.0,0.0,-0.5649033
8968968000,-0.007899026,0.0012283336,-0.0006542802,0.0,0.0,-0.5651316
8968988000,-0.005227982,0.006342484,-0.0004976392,0.0,0.0,-0.56485075
8969012000,-0.00128891,0.007168793,-0.00067949295,0.0,0.0,-0.56526935
8969032000,0.001596104,0.009800516,-0.0006625056,0.0,0.0,-0.5639138
8969052000,0.004435515,0.0058544762,-0.0005913377,0.0,0.0,-0.5637877
8969072000,0.0029143477,0.005291592,-0.00047957897,0.0,0.0,-0.5645214
8969088000,0.000552497,0.0038763124,-0.0005861521,0.0,0.0,-0.5635902
8969112000,-0.00224052,8.5615204e-05,-0.00049585104,0.0,0.0,-0.5639096
8969132000,-0.0050301277,0.0052094003,-0.0004938841,0.0,0.0,-0.5649586
8969152000,-0.008231825,0.004329657,-0.0005262494,0.0,0.0,-0.5637975
8969168000,-0.0073426887,0.004575898,-0.0005366206,0.0,0.0,-0.56429136
8969188000,-0.009478223,0.0068609957,-0.00063693523,0.0,0.0,-0.5655159
8969208000,-0.014050299,0.004977268,-0.0006290674,0.0,0.0,-0.5646121
8969232000,-0.013278939,0.000835466,-0.0005425215,0.0,0.0,-0.5650825
8969252000,-0.012091496,0.0023170472,-0.0005106926,0.0,0.0,-0.565592
8969268000,-0.012864141,0.0025184413,-0.00046992302,0.0,0.0,-0.5649651
8969292000,-0.0005231736,0.0052103545,-0.00032418966,0.0,0.0,-0.56488824
8969308000,0.0001304741,0.004953242,-0.0003322363,0.0,0.0,-0.56488824
8969332000,0.007481211,0.0022964093,-0.00034850836,0.0,0.0,-0.5637035
8969352000,0.0064088297,-0.0010016505,-0.0005169511,0.0,0.0,-0.56440896
8969372000,0.0037215273,-0.0059744623,-0.000539124,0.0,0.0,-0.56372505
8969392000,0.0067852894,-0.008431656,-0.0004734993,0.0,0.0,-0.56387883
8969412000,0.008253546,-0.007511215,-0.0005251765,0.0,0.0,-0.56461155
8969428000,-9.268918e-05,-0.005368584,-0.00026786327,0.0,0.0,-0.5641498
8969452000,-0.0042823018,-0.0071342923,-0.0003567338,0.0,0.0,-0.5641421
8969468000,-0.007525593,-0.008085395,0.00010764599,0.0,0.0,-0.5647952
8969488000,-0.006169213,-0.0041094786,8.332729e-05,0.0,0.0,-0.5648884
8969512000,-0.0039145546,-0.0027461029,-1.8775463e-05,0.0,0.0,-0.56504667
8969528000,-0.002669327,-0.0030996788,-0.000110685825,0.0,0.0,-0.5653654
8969552000,-0.0008334308,-0.0034723198,-0.00011444092,0.0,0.0,-0.5639814
8969572000,9.604683e-05,0.0018831831,-0.00043916702,0.0,0.0,-0.5641319
8969588000,0.0005977261,0.0027287474,-0.00047922134,0.0,0.0,-0.564657
8969608000,-0.00041893765,0.0032580257,-0.0004068017,0.0,0.0,-0.56370825
8969632000,0.0035451148,0.008698154,-0.00020474195,0.0,0.0,-0.5650238
8969652000,0.0049763755,0.0025060955,-0.00023156404,0.0,0.0,-0.5641896
8969672000,0.001177692,0.0034492754,-0.00018328428,0.0,0.0,-0.5649056
8969692000,0.001501867,0.0043518017,4.1127205e-05,0.0,0.0,-0.56592727
8969712000,0.0003310726,0.006636562,0.00014126301,0.0,0.0,-0.5656025
8969724000,0.0033797238,0.0054609366,0.000156641,0.0,0.0,-0.5656292
8969752000,0.0012683059,0.005931424,8.225441e-05,0.0,0.0,-0.56639147
8969768000,-0.0010266127,0.0067806887,6.1154366e-05,0.0,0.0,-0.56535256
8969792000,0.000994503,0.004019215,-1.6629696e-05,0.0,0.0,-0.56505394
8969808000,0.00034340587,-0.0017492085,-0.00012660027,0.0,0.0,-0.56515115
8969828000,0.005941772,0.0038227066,-3.7372112e-05,0.0,0.0,-0.5644285
8969848000,0.0024721525,0.0019370036,-0.00015538931,0.0,0.0,-0.56501496
8969868000,0.0020808543,-0.0036127167,0.00023138523,0.0,0.0,-0.564923
8969892000,-0.003929444,0.0012215015,0.00021654367,0.0,0.0,-0.56429464
8969912000,-0.0059621385,0.0012691966,0.00038945675,0.0,0.0,-0.5646487
8969932000,-0.006235158,-0.00074879546,0.0005105138,0.0,0.0,-0.5641791
8969948000,-0.0054318793,0.003203351,0.000554502,0.0,0.0,-0.56376654
8969968000,-0.0055901236,0.0039001897,0.0007445812,0.0,0.0,-0.5644348
8969988000,-0.003962078,0.0071045887,0.0008946061,0.0,0.0,-0.564033
8970008000,-0.0081279855,0.003495342,0.00081700087,0.0,0.0,-0.5646627
8970032000,-0.004732941,0.0081519615,0.0005596876,0.0,0.0,-0.5649494
8970048000,-0.0020898422,0.0062412266,0.00055253506,0.0,0.0,-0.56495804
8970068000,0.001489622,0.009146022,0.000605464,0.0,0.0,-0.5649838
8970088000,0.0023094958,0.004057197,0.00066554546,0.0,0.0,-0.5651401
8970108000,-0.0047011087,0.00027969969,0.0009493232,0.0,0.0,-0.5642824
8970132000,-0.002546824,-0.0033490257,0.0008711815,0.0,0.0,-0.5643576
8970148000,-0.0032485637,-0.0022420255,0.0009069443,0.0,0.0,-0.5641847
8970168000,-0.006051111,-0.007842488,0.00070899725,0.0,0.0,-0.56432444
8970188000,-0.0052702343,-0.0022550235,0.0007599592,0.0,0.0,-0.5653015
8970208000,-0.007476409,-0.0044549415,0.0006828904,0.0,0.0,-0.56530845
8970232000,-0.005939717,-0.0046248995,0.00086295605,0.0,0.0,-0.5648027
8970248000,-0.0061760843,-0.0032704556,0.00082075596,0.0,0.0,-0.5651278
8970268000,-0.0072452426,-0.0058186273,0.0006585717,0.0,0.0,-0.56402445
8970288000,-0.005441949,-0.0029193154,0.00049352646,0.0,0.0,-0.56407046
8970312000,-0.00642212,-0.0037025954,0.00047761202,0.0,0.0,-0.56411374
8970332000,-0.0029585594,-0.0039302455,0.00043809414,0.0,0.0,-0.56302047
8970352000,-0.0028267908,-0.0031535476,0.00036013126,0.0,0.0,-0.5628029
8970372000,-0.0027169338,-0.003339633,0.00030505657,0.0,0.0,-0.56307155
8970392000,0.00624148,-0.0054800035,0.00038301945,0.0,0.0,-0.5635739
8970412000,0.006548531,-0.0044904253,0.00019955635,0.0,0.0,-0.5635739
8970432000,0.0065274863,0.0012670902,0.00013840199,0.0,0.0,-0.5637428
8970448000,0.0032138536,-0.00023100988,4.184246e-05,0.0,0.0,-0.563887
8970468000,0.0075425087,-0.0023994194,7.5280666e-05,0.0,0.0,-0.5638117
8970492000,0.0020632732,-0.0072069773,-9.816885e-05,0.0,0.0,-0.56343234
8970508000,-0.004443687,-0.003123268,5.7935715e-05,0.0,0.0,-0.56322414
8970532000,-0.002322675,0.0007476782,-0.00014483929,0.0,0.0,-0.56350696
8970552000,-0.0030471687,0.007096872,-0.00021743774,0.0,0.0,-0.5629706
8970568000,0.00018157472,0.005853115,-0.00033080578,0.0,0.0,-0.5632574
8970592000,0.004283767,0.005029305,-0.00026392937,0.0,0.0,-0.56360614
8970604000,-5.4489705e-05,0.0050862413,-0.00022995472,0.0,0.0,-0.5634262
8970632000,0.0010242804,-0.00033722317,-4.184246e-05,0.0,0.0,-0.56344366
8970648000,0.0010476506,-0.003702011,2.6106834e-05,0.0,0.0,-0.5637616
8970672000,-0.0038856477,0.0005070057,3.3080578e-05,0.0,0.0,-0.5627478
8970692000,-0.007198366,0.0030704602,-0.00019937754,0.0,0.0,-0.56261975
8970712000,-0.0074115163,0.008837975,-5.00679e-06,0.0,0.0,-0.5625124
8970728000,-0.009832045,0.0123944655,0.00011354685,0.0,0.0,-0.5627482
8970748000,-0.0055344244,0.011228399,0.00031346083,0.0,0.0,-0.56332844
8970768000,-0.0050559603,0.012910064,0.00027054548,0.0,0.0,-0.562973
8970788000,0.00088700914,0.014522454,0.0002297759,0.0,0.0,-0.5634371
8970808000,0.0026021325,0.011329403,0.00036871433,0.0,0.0,-0.5639042
8970828000,0.005638703,0.011146542,0.0006245971,0.0,0.0,-0.5637092
8970848000,-0.0003721118,0.0064889872,0.00047582388,0.0,0.0,-0.5640505
8970868000,-0.0043425485,0.0043126643,0.0006120801,0.0,0.0,-0.564428
8970888000,-0.007558472,0.004374531,0.0006927252,0.0,0.0,-0.5632975
8970912000,-0.012428476,0.0031297335,0.00057059526,0.0,0.0,-0.5632251
8970928000,-0.011885224,0.0022453251,0.00042253733,0.0,0.0,-0.5633906
8970952000,-0.006995323,-0.0019750732,0.00033903122,0.0,0.0,-0.5629091
8970968000,-0.005706109,-0.0026133463,0.00029879808,0.0,0.0,-0.5629091
8970992000,0.0032207484,0.00804871,0.00013715029,0.0,0.0,-0.5627514
8971008000,0.0039929273,0.008111126,7.760525e-05,0.0,0.0,-0.5627514
8971032000,-0.0026649665,0.0039957147,-3.2186508e-06,0.0,0.0,-0.5628924
8971048000,-0.0029400063,-0.0039829756,-6.222725e-05,0.0,0.0,-0.56291014
8971072000,-0.0061715133,-0.006685726,-0.00022047758,0.0,0.0,-0.5634569
8971092000,-0.00047035958,-0.0064730216,-0.00030344725,0.0,0.0,-0.563612
8971112000,-0.00050408347,-0.008580793,-0.00027179718,0.0,0.0,-0.5639518
8971132000,0.00015123433,-0.007845921,-0.00015163422,0.0,0.0,-0.5640736
8971152000,-0.002326834,-0.0066589876,-7.492304e-05,0.0,0.0,-0.563613
8971172000,-0.0030486668,-0.0032505784,-0.00012481213,0.0,0.0,-0.5638984
8971188000,-0.003057314,-0.0023369216,-6.7055225e-05,0.0,0.0,-0.56426823
8971212000,-0.003206416,-0.0015382357,-9.655952e-06,0.0,0.0,-0.5643214
8971232000,-0.0058763986,0.0019376429,0.00017309189,0.0,0.0,-0.5645799
8971252000,-0.00695847,0.004499297,0.0002630353,0.0,0.0,-0.56517094
8971268000,0.00016484444,0.0007140633,0.00016862154,0.0,0.0,-0.5643037
8971292000,-0.00013647135,-0.004729951,0.00016611814,0.0,0.0,-0.56421316
8971312000,0.0006900835,-0.009572359,4.1484833e-05,0.0,0.0,-0.5644567
8971328000,0.0010834923,-0.009096842,3.0398369e-06,0.0,0.0,-0.5644567
8971348000,0.0026183515,-0.0018481618,0.000187397,0.0,0.0,-0.5645983
8971372000,-0.00085399195,-4.191039e-05,0.0002490878,0.0,0.0,-0.56323355
8971392000,-0.0016559155,-0.0018301038,0.00011497736,0.0,0.0,-0.56284565
8971408000,0.0001190342,-0.0055132173,0.00017774105,0.0,0.0,-0.5630516
8971432000,0.0026267585,-0.0036933145,0.00032150745,0.0,0.0,-0.5626488
8971448000,0.0047002207,-0.0027281102,0.0004414916,0.0,0.0,-0.56342024
8971472000,0.0041483687,-0.0033970212,0.0003016591,0.0,0.0,-0.564346
8971492000,0.009887302,-0.0025675222,9.2983246e-05,0.0,0.0,-0.564287
8971512000,0.00971454,-0.003190758,0.00015485287,0.0,0.0,-0.5648615
8971528000,0.012282034,0.00071153714,0.00023406744,0.0,0.0,-0.5646383
8971548000,0.0072324285,-0.0035355545,0.00015163422,0.0,0.0,-0.56417656
8971568000,0.005354749,-0.003831829,0.00023245811,0.0,0.0,-0.5643925
8971592000,0.002879892,-0.003047866,0.00026893616,0.0,0.0,-0.56396693
8971608000,0.0017197388,-0.0028666216,0.00033044815,0.0,0.0,-0.56396693
8971632000,0.00054994505,-0.006620445,0.00039750338,0.0,0.0,-0.5630415
8971648000,-0.0005865453,-0.0044844234,0.0003592372,0.0,0.0,-0.56222355
8971672000,0.0050978074,-0.0054522064,-3.5762787e-07,0.0,0.0,-0.56269914
8971692000,-0.0003655753,-0.0050812946,-9.137392e-05,0.0,0.0,-0.5632271
8971712000,-0.004339533,-0.0015941832,-0.00019901991,0.0,0.0,-0.56351966
8971728000,-0.0049162833,-0.000119894874,3.325939e-05,0.0,0.0,-0.5642051
8971752000,-0.0018865205,-0.0040998617,7.045269e-05,0.0,0.0,-0.5643308
8971772000,-0.0019332961,-0.0033504688,2.5749207e-05,0.0,0.0,-0.564773
8971792000,-0.0027197897,-0.001826357,9.5665455e-05,0.0,0.0,-0.56479484
8971804000,-0.006166137,0.002007799,0.00011712313,0.0,0.0,-0.56487924
8971832000,-0.008504533,0.0010286282,0.0003554821,0.0,0.0,-0.564092
8971852000,-0.0030204263,-0.0005772958,0.00048351288,0.0,0.0,-0.56360716
8971872000,-0.009833237,-0.0025550397,0.0007068515,0.0,0.0,-0.56260306
8971892000,-0.010470083,-0.0048581366,0.00076013803,0.0,0.0,-0.56255937
8971912000,-0.013493076,-0.007031436,0.00081914663,0.0,0.0,-0.5634906
8971932000,-0.008132562,-0.003819905,0.00054234266,0.0,0.0,-0.56363845
8971948000,-0.008376798,-0.0042783236,0.00051927567,0.0,0.0,-0.56350535
8971968000,-0.006739109,-0.0015744513,0.00039052963,0.0,0.0,-0.5637794
8971992000,-0.00010945788,0.007268736,0.00048333406,0.0,0.0,-0.5633122
8972012000,0.0011173789,0.010445369,0.00034993887,0.0,0.0,-0.56335247
8972028000,0.006922843,0.0056721168,0.0004491806,0.0,0.0,-0.5638391
8972044000,0.0053715296,-9.672225e-06,0.00045704842,0.0,0.0,-0.5639434
8972068000,0.0046297666,-0.0027478414,0.00049084425,0.0,0.0,-0.5644975
8972092000,0.006921365,-0.00035780275,0.00033080578,0.0,0.0,-0.5655101
8972112000,-0.0026877387,-0.0005593732,0.000295043,0.0,0.0,-0.56471276
8972132000,-0.0036944812,-0.00015178841,0.00044184923,0.0,0.0,-0.56471276
8972152000,-0.006769306,-0.0016805062,0.00038570166,0.0,0.0,-0.563377
8972168000,-0.006557888,-0.0011888755,0.0003105998,0.0,0.0,-0.5629401
8972192000,-0.0111519415,-0.0054875417,0.00023585558,0.0,0.0,-0.5629882
8972208000,-0.009081662,-0.0064837527,0.00025177002,0.0,0.0,-0.563
8972228000,-0.008499721,-0.004388199,0.000109255314,0.0,0.0,-0.563662
8972252000,-0.0038143354,0.00052512065,-4.827976e-06,0.0,0.0,-0.5637947
8972272000,-0.0060588066,-0.00036060694,-0.00019848347,0.0,0.0,-0.564239
8972288000,-0.0024613347,-0.0010577106,-0.00027537346,0.0,0.0,-0.5644721
8972312000,-0.0059727924,0.00031914184,-0.0003350973,0.0,0.0,-0.5649262
8972324000,-0.006969178,-0.0027763578,-0.00014841557,0.0,0.0,-0.5651649
8972352000,-0.009116336,0.0011170506,-2.8967857e-05,0.0,0.0,-0.5657335
8972368000,-0.007571928,0.0025111665,3.1113625e-05,0.0,0.0,-0.56632316
8972392000,-0.005104324,0.006541807,0.0,0.0,0.0,-0.56522757
8972412000,-0.0061416645,0.000758828,-0.00015681982,0.0,0.0,-0.5649771
8972428000,-0.00548415,0.0004400838,-0.0002862811,0.0,0.0,-0.5649771
8972452000,-0.005857234,-0.0030291327,-0.0002657175,0.0,0.0,-0.56344765
8972468000,-0.005926672,-0.0031034024,-0.00017076731,0.0,0.0,-0.56344765
8972488000,-0.0013914532,0.0015571638,-0.000109791756,0.0,0.0,-0.5619486
8972512000,-0.0030076664,-0.0006043492,-0.00019168854,0.0,0.0,-0.56215954
8972532000,-0.00079584285,-0.00013865135,-0.000382483,0.0,0.0,-0.5629436
8972552000,0.001203341,0.0012021741,-9.512901e-05,0.0,0.0,-0.56359106
8972568000,0.0017650179,0.0004482965,-0.00019812584,0.0,0.0,-0.5641177
8972588000,0.00058009825,0.001174992,-0.00027287006,0.0,0.0,-0.5644259
8972612000,0.0009794917,0.011458137,-0.0005173087,0.0,0.0,-0.5649116
8972632000,-0.008167485,0.010601775,-0.00048297644,0.0,0.0,-0.56529766
8972648000,-0.005140297,0.006200593,-0.00050854683,0.0,0.0,-0.5654491
8972668000,-0.004757653,0.0064292215,-0.0004554391,0.0,0.0,-0.5644922
8972688000,0.0004956953,0.00541512,-0.0005453825,0.0,0.0,-0.5642983
8972712000,-0.0061070086,0.012090032,-0.0006340742,0.0,0.0,-0.5637308
8972732000,-0.0016065576,0.0065926854,-0.0006161928,0.0,0.0,-0.56365913
8972748000,-0.002352444,0.00025512592,-0.0004529357,0.0,0.0,-0.5641582
8972772000,0.0046205968,0.0010597303,-0.0005595088,0.0,0.0,-0.56391126
8972792000,0.007045829,0.005094476,-0.0006262064,0.0,0.0,-0.5642423
8972812000,0.006822049,0.005978047,-0.0005425215,0.0,0.0,-0.56472105
8972828000,0.0073635923,-0.0025217491,-0.00039696693,0.0,0.0,-0.5638977
8972852000,0.006650765,-0.0062391046,-0.000115156174,0.0,0.0,-0.56418854
8972872000,0.00595543,0.000103553524,0.00018453598,0.0,0.0,-0.56350046
8972892000,0.006939641,-0.005189714,0.0003322363,0.0,0.0,-0.5627812
8972908000,0.0056416905,-0.0014692023,0.00018543005,0.0,0.0,-0.5629532
8972928000,0.0075209364,0.0025494178,0.0004377365,0.0,0.0,-0.5631005
8972944000,0.00023295195,0.0012863403,0.0005797148,0.0,0.0,-0.563162
8972968000,0.00018481258,0.0012349663,0.0005527139,0.0,0.0,-0.5633388
8972988000,-3.2341923e-05,0.0015537522,0.00026124716,0.0,0.0,-0.5633792
8973008000,0.002134585,0.0012786104,0.00025069714,0.0,0.0,-0.5637484
8973032000,0.0042887665,-0.0015838658,0.00032043457,0.0,0.0,-0.5644314
8973052000,-0.00049943395,-0.0029095756,0.00042396784,0.0,0.0,-0.5636676
8973072000,0.002233159,0.0012718076,0.00032937527,0.0,0.0,-0.5633771
8973092000,0.0022338652,-0.001858308,0.00026607513,0.0,0.0,-0.56326294
8973108000,0.008769541,-0.0005167511,0.00013393164,0.0,0.0,-0.5627477
8973132000,0.008897276,-0.004553746,0.00017935038,0.0,0.0,-0.5629669
8973152000,0.010160528,-0.0044774185,0.00024479628,0.0,0.0,-0.5628247
8973172000,0.007687918,-0.002250357,0.00028842688,0.0,0.0,-0.56239545
8973192000,0.0092503745,0.0012402749,0.0006008148,0.0,0.0,-0.56217885
8973208000,0.009377286,0.002973183,0.0006072521,0.0,0.0,-0.56231433
8973232000,0.013834732,0.007575768,0.00056290627,0.0,0.0,-0.5621172
8973252000,0.013156671,0.0049622157,0.00072455406,0.0,0.0,-0.563022
8973268000,0.010800917,0.005684225,0.0007647872,0.0,0.0,-0.5636131
8973292000,0.006994342,-0.00036423779,0.00074118376,0.0,0.0,-0.56414217
8973312000,0.002309549,-0.0025677183,0.00052660704,0.0,0.0,-0.5644161
8973332000,0.00059128704,-5.655474e-05,0.000325799,0.0,0.0,-0.56326824
8973348000,0.0059896116,-0.0011468071,0.00014537573,0.0,0.0,-0.56302065
8973372000,0.0023534372,-0.0031834538,8.440018e-05,0.0,0.0,-0.56256574
8973392000,-0.0065317713,-0.007007686,0.00027626753,0.0,0.0,-0.56243044
8973412000,-0.010141548,-0.007146912,0.00023335218,0.0,0.0,-0.5622355
8973428000,-0.007863026,-0.00838914,0.00016611814,0.0,0.0,-0.56222403
8973448000,-0.006461679,-0.002913915,0.00011944771,0.0,0.0,-0.56283385
8973468000,-0.0040168613,-0.0036211577,5.4001808e-05,0.0,0.0,-0.56320274
8973488000,-0.005250141,-0.0009180631,-2.360344e-05,0.0,0.0,-0.56419
8973512000,-6.476871e-05,0.0032392815,-7.081032e-05,0.0,0.0,-0.5642144
8973532000,0.00042360148,0.0033092895,-0.00036978722,0.0,0.0,-0.5642144
8973552000,0.0018002742,-0.0013813693,-0.0003874898,0.0,0.0,-0.56330884
8973572000,0.003927714,-0.0015248962,-0.00037801266,0.0,0.0,-0.5631007
8973592000,0.004399383,0.0029918854,-0.00030612946,0.0,0.0,-0.5626544
8973612000,-0.0019674199,0.009121189,-0.00016576052,0.0,0.0,-0.5626926
8973632000,-7.8939716e-05,0.009712111,-0.00010603666,0.0,0.0,-0.5624974
8973652000,-0.00039630826,0.009004007,-8.422136e-05,0.0,0.0,-0.5630883
8973664000,-0.004944263,0.008412898,-7.83205e-05,0.0,0.0,-0.5632134
8973688000,-0.00339492,0.010826003,-0.00024157763,0.0,0.0,-0.5635122
8973708000,-0.00612651,0.012092842,-0.00028538704,0.0,0.0,-0.56392294
8973732000,-0.006832032,0.008947209,-0.00012660027,0.0,0.0,-0.56364775
8973752000,-0.00015740481,0.0076217744,-1.8239021e-05,0.0,0.0,-0.5639035
8973768000,0.0008605302,0.004318292,0.00017255545,0.0,0.0,-0.5637356
8973792000,0.0010773393,0.0054739513,0.0003540516,0.0,0.0,-0.56284124
8973812000,-9.6619944e-05,-0.003323442,0.00033581257,0.0,0.0,-0.5620784
8973828000,-0.00025701884,-0.0036151295,0.00019866228,0.0,0.0,-0.5620784
8973848000,-0.0033765794,-0.0033830106,0.00019544363,0.0,0.0,-0.56245047
8973872000,-0.003841512,-0.002605102,5.4180622e-05,0.0,0.0,-0.56323874
8973888000,-0.006349453,0.00045985985,-0.00017148256,0.0,0.0,-0.5636076
8973912000,-0.0052140225,-0.0015655995,-0.00034993887,0.0,0.0,-0.56351155
8973932000,-0.0034595768,0.0006105841,-0.00036209822,0.0,0.0,-0.5638689
8973944000,-0.0005939518,-0.00078617653,-0.00030434132,0.0,0.0,-0.5639574
8973972000,0.0024370565,0.002324177,-0.0001269579,0.0,0.0,-0.5640868
8973992000,0.008795913,0.0027417056,-0.00011122227,0.0,0.0,-0.56427294
8974012000,0.007671382,0.00077888183,-0.00017273426,0.0,0.0,-0.56417465
8974032000,0.00817268,0.0007961741,-0.0004350543,0.0,0.0,-0.5641188
8974052000,0.011445432,0.0031883023,-0.0004554391,0.0,0.0,-0.5640239
8974072000,0.009103161,0.0047897417,-0.00058954954,0.0,0.0,-0.56366116
8974092000,0.0035417923,0.0013258631,-0.00057953596,0.0,0.0,-0.5642185
8974108000,0.0037787945,0.0065414784,-0.0005412698,0.0,0.0,-0.5639964
8974128000,0.0027546124,0.0073083797,-0.0006199479,0.0,0.0,-0.56370443
8974152000,-0.0009140483,0.0018814278,-0.0006812811,0.0,0.0,-0.56354326
8974172000,0.004245945,-0.0010088091,-0.00049102306,0.0,0.0,-0.56311667
8974192000,0.0076428624,-0.003189566,-0.0004159212,0.0,0.0,-0.56371087
8974208000,0.009082438,-0.0034711172,-0.00036370754,0.0,0.0,-0.56433034
8974232000,0.0087138,-0.0005219448,-0.00017648935,0.0,0.0,-0.5644172
8974248000,0.008620324,0.0010982559,-0.00014895201,0.0,0.0,-0.5647836
8974272000,0.0041855387,0.00040384874,-4.8995018e-05,0.0,0.0,-0.5651042
8974292000,0.0019857557,-0.0011089494,-9.62019e-05,0.0,0.0,-0.5646155
8974312000,-0.00019623851,0.0003157779,-0.0002603531,0.0,0.0,-0.5644062
8974328000,-3.7510763e-05,0.0021456778,-0.00016522408,0.0,0.0,-0.5644522
8974348000,0.0053930823,-0.0024873107,-0.00040107965,0.0,0.0,-0.5641696
8974372000,0.008690057,-0.0025582449,-0.00031149387,0.0,0.0,-0.5641956
8974392000,0.015969016,0.0004058591,-0.00024425983,0.0,0.0,-0.56397474
8974412000,0.012621278,-0.00036637054,-0.00017631054,0.0,0.0,-0.56374335
8974432000,0.8846421,-0.6191438,3.3554943,0.0,0.0,-0.542699
8974448000,0.8861155,-0.62681735,3.355164,0.0,0.0,-0.54173493
8974472000,0.86499435,-0.60751665,3.352599,0.0,0.0,-0.5418849
8974488000,0.81313634,-0.54378873,3.3434005,0.0,0.0,-0.541708
8974512000,0.6909584,-0.40075552,3.309672,0.0,0.0,-0.52421474
8974532000,0.60957164,-0.27792567,3.2593303,0.0,0.0,-0.49527502
8974552000,0.5409953,-0.1545145,3.189684,0.0,0.0,-0.46514204
8974572000,0.45796216,0.002445817,3.103403,0.0,0.0,-0.42308182
8974592000,0.40422362,0.08673428,3.00218,0.0,0.0,-0.40462333
8974612000,0.34852365,0.15709168,2.8911486,0.0,0.0,-0.39795187
8974632000,0.21512,0.29711476,2.7494395,0.0,0.0,-0.41214943
8974644000,0.1573676,0.3262412,2.6764262,0.0,0.0,-0.43403256
8974668000,0.085295245,0.34689513,2.5528908,0.0,0.0,-0.46149164
8974692000,-0.06892748,0.4499664,2.4030154,0.0,0.0,-0.5364041
8974712000,-0.099928305,0.45017493,2.279458,0.0,0.0,-0.5622582
8974732000,-0.15570989,0.48757815,2.1578708,0.0,0.0,-0.5868232
8974752000,-0.1525726,0.45165586,2.040206,0.0,0.0,-0.5971674
8974772000,-0.14103399,0.41281098,1.9266411,0.0,0.0,-0.60135937
8974788000,-0.15422447,0.41446805,1.8171312,0.0,0.0,-0.59789866
8974812000,-0.124789774,0.34935546,1.7133783,0.0,0.0,-0.59234846
8974832000,-0.09483766,0.2902382,1.614217,0.0,0.0,-0.58501714
8974852000,-0.08447687,0.25710338,1.5199163,0.0,0.0,-0.5751289
8974872000,-0.046475925,0.189091,1.4303656,0.0,0.0,-0.56903374
8974888000,-0.019964615,0.13596316,1.3617014,0.0,0.0,-0.5643184
8974908000,-0.0028074235,0.091068566,1.2798325,0.0,0.0,-0.56110114
8974928000,0.021662928,0.04023652,1.2022194,0.0,0.0,-0.56027097
8974948000,0.043170724,-0.006041184,1.1143745,0.0,0.0,-0.56046295
8974972000,0.05979729,-0.05348983,1.0453151,0.0,0.0,-0.56486505
8974988000,0.06622964,-0.07228713,0.9928987,0.0,0.0,-0.56731004
8975012000,0.0673251,-0.08685528,0.9185425,0.0,0.0,-0.5699524
8975028000,0.06753983,-0.09680775,0.87197936,0.0,0.0,-0.57157737
8975048000,0.069090776,-0.09801179,0.80630136,0.0,0.0,-0.5724958
8975072000,0.06654665,-0.10006374,0.7549292,0.0,0.0,-0.57225555
8975092000,0.06972313,-0.097618885,0.70666015,0.0,0.0,-0.5720595
8975112000,0.07300984,-0.09774741,0.6612997,0.0,0.0,-0.5716065
8975128000,0.07861777,-0.092910305,0.6272031,0.0,0.0,-0.57042915
8975152000,0.076258406,-0.09056494,0.57886326,0.0,0.0,-0.56938183
8975172000,0.06928441,-0.08541657,0.5411471,0.0,0.0,-0.5687767
8975192000,0.06485673,-0.07628088,0.50574946,0.0,0.0,-0.5681704
8975212000,0.059659716,-0.06855923,0.47228622,0.0,0.0,-0.5681704
8975232000,0.0551624,-0.057347886,0.4408636,0.0,0.0,-0.56835335
8975252000,0.047027126,-0.058141083,0.41141367,0.0,0.0,-0.5684828
8975272000,0.043895222,-0.053480767,0.38383734,0.0,0.0,-0.568578
8975292000,0.045523055,-0.044046342,0.35298908,0.0,0.0,-0.5683699
8975308000,0.049165584,-0.048441544,0.3383975,0.0,0.0,-0.56852996
8975332000,0.043602347,-0.04359772,0.30641913,0.0,0.0,-0.5689745
8975344000,0.040225558,-0.04782106,0.29358852,0.0,0.0,-0.5691386
8975372000,0.03405127,-0.05016589,0.26920116,0.0,0.0,-0.56922567
8975392000,0.029572941,-0.052314095,0.25014246,0.0,0.0,-0.56868625
8975412000,0.017042533,-0.03828813,0.23224783,0.0,0.0,-0.568764
8975432000,0.017484583,-0.03838572,0.21573901,0.0,0.0,-0.5683569
8975448000,0.016347192,-0.04048048,0.20325279,0.0,0.0,-0.5680827
8975472000,0.016947024,-0.04426997,0.1854769,0.0,0.0,-0.56805503
8975488000,0.016662821,-0.041549586,0.17132306,0.0,0.0,-0.56805503
8975508000,0.016427346,-0.04235722,0.16067398,0.0,0.0,-0.5683072
8975532000,0.019865826,-0.033333644,0.145733,0.0,0.0,-0.5690699
8975548000,0.025324456,-0.03554421,0.13633347,0.0,0.0,-0.56926423
8975564000,0.024741657,-0.03355848,0.12542582,0.0,0.0,-0.56926423
8975592000,0.018577807,-0.047324315,0.113511086,0.0,0.0,-0.56913555
8975608000,0.016348645,-0.04938651,0.106075644,0.0,0.0,-0.56901807
8975632000,0.012608416,-0.045406714,0.09541941,0.0,0.0,-0.56909883
8975652000,0.008355662,-0.042730227,0.08733988,0.0,0.0,-0.56944007
8975668000,0.010793991,-0.04623478,0.08123267,0.0,0.0,-0.56948924
8975688000,0.011566155,-0.042443052,0.07377577,0.0,0.0,-0.5692346
8975712000,0.012218758,-0.04279326,0.065449834,0.0,0.0,-0.5690639
8975732000,0.008382775,-0.04400014,0.05921638,0.0,0.0,-0.5690616
8975744000,0.0053227097,-0.03968706,0.054530025,0.0,0.0,-0.56848496
8975768000,0.0035874993,-0.044004902,0.047970057,0.0,0.0,-0.56832916
8975788000,0.0035115257,-0.047481157,0.04411304,0.0,0.0,-0.56899697
8975812000,0.012146831,-0.04525564,0.038233638,0.0,0.0,-0.5695677
8975832000,0.014276192,-0.045584947,0.033527613,0.0,0.0,-0.57012784
8975848000,0.015364699,-0.045398623,0.02932942,0.0,0.0,-0.57147753
8975872000,0.0134123415,-0.04991048,0.025361896,0.0,0.0,-0.57181334
8975892000,0.0129772425,-0.05072368,0.020886898,0.0,0.0,-0.5726366
8975912000,0.014136247,-0.042489253,0.01826799,0.0,0.0,-0.5722295
8975932000,0.0137385875,-0.04289934,0.015078306,0.0,0.0,-0.5717409
8975948000,0.011645503,-0.04749544,0.012575269,0.0,0.0,-0.57181764
8975968000,0.0053975657,-0.043629125,0.00899899,0.0,0.0,-0.5710927
8975992000,0.00485605,-0.049051367,0.0064680576,0.0,0.0,-0.57076
8976012000,0.0056859925,-0.054446787,0.004291177,0.0,0.0,-0.5704735
8976032000,0.002824165,-0.04808691,0.0019429922,0.0,0.0,-0.56976724
8976048000,0.003743112,-0.053036883,0.00015985966,0.0,0.0,-0.569299
8976072000,0.0036714524,-0.048433743,-0.0023539066,0.0,0.0,-0.5699106
8976092000,0.007964797,-0.04771433,-0.004594445,0.0,0.0,-0.5697895
8976112000,0.009740755,-0.04614128,-0.005959511,0.0,0.0,-0.5698545
8976132000,0.008889556,-0.046860427,-0.007589221,0.0,0.0,-0.5697591
8976148000,0.0072163045,-0.053102262,-0.008587003,0.0,0.0,-0.5700854
8976172000,0.008365765,-0.054243118,-0.010335445,0.0,0.0,-0.5703457
8976192000,0.01179117,-0.04673747,-0.011682987,0.0,0.0,-0.57051045
8976212000,0.010103457,-0.049509957,-0.01252377,0.0,0.0,-0.5708024
8976232000,0.007153496,-0.051038638,-0.013641357,0.0,0.0,-0.5710052
8976252000,0.009848401,-0.047900945,-0.014436007,0.0,0.0,-0.5714235
8976268000,0.0043933243,-0.049906008,-0.01527071,0.0,0.0,-0.57179666
8976292000,0.0068012774,-0.053522788,-0.015871525,0.0,0.0,-0.57169646
8976308000,0.0069744363,-0.05312285,-0.016629696,0.0,0.0,-0.5718192
8976328000,0.0046471953,-0.05397159,-0.017630696,0.0,0.0,-0.57165533
8976352000,0.0033198148,-0.05019687,-0.018292308,0.0,0.0,-0.5705849
8976372000,0.0020313486,-0.05270333,-0.01907909,0.0,0.0,-0.5704788
8976388000,0.0013271123,-0.049437404,-0.019737482,0.0,0.0,-0.5704788
8976408000,0.0025405437,-0.050251342,-0.020433068,0.0,0.0,-0.57094663
8976428000,0.0046277717,-0.051400602,-0.021081448,0.0,0.0,-0.57112765
8976452000,0.008641832,-0.051956803,-0.021691918,0.0,0.0,-0.5708838
8976472000,0.004365094,-0.047541037,-0.022230506,0.0,0.0,-0.5710373
8976492000,0.001737468,-0.050474145,-0.022936106,0.0,0.0,-0.5716361
8976512000,0.0015806928,-0.050771646,-0.023139954,0.0,0.0,-0.57189244
8976532000,-0.0046257153,-0.046821,-0.023303747,0.0,0.0,-0.57328445
8976552000,-1.8887222e-05,-0.048997723,-0.023488283,0.0,0.0,-0.5739461
8976572000,0.00019412488,-0.05312077,-0.023403168,0.0,0.0,-0.57440275
8976588000,0.0013373047,-0.052100055,-0.023541212,0.0,0.0,-0.5743112
8976604000,0.00045711547,-0.059302054,-0.023674965,0.0,0.0,-0.5744285
8976632000,-0.0020213574,-0.052598722,-0.02386415,0.0,0.0,-0.5724041
8976648000,-0.0014952198,-0.05209042,-0.023958206,0.0,0.0,-0.57238054
8976672000,0.002742514,-0.054518446,-0.023825169,0.0,0.0,-0.57202226
8976692000,0.010167539,-0.048873514,-0.023754716,0.0,0.0,-0.572543
8976712000,0.005737178,-0.054354966,-0.023771524,0.0,0.0,-0.57291347
8976732000,-0.0015211925,-0.061196744,-0.023773313,0.0,0.0,-0.5734107
8976748000,-7.0407987e-06,-0.052273057,-0.0238173,0.0,0.0,-0.5740877
8976768000,-0.0003118515,-0.052504733,-0.024044752,0.0,0.0,-0.57412475
8976788000,-0.0004233867,-0.052802682,-0.024198532,0.0,0.0,-0.5740307
8976812000,-0.00088249147,-0.046409994,-0.024341583,0.0,0.0,-0.57368916
8976828000,-0.0047492757,-0.050471663,-0.024558663,0.0,0.0,-0.57412684
8976852000,-0.0058644265,-0.04737027,-0.02424109,0.0,0.0,-0.57474107
8976872000,0.0046751574,-0.052198112,-0.024039388,0.0,0.0,-0.574623
8976892000,0.005724661,-0.048355624,-0.023888111,0.0,0.0,-0.574623
8976908000,0.0034374073,-0.050954998,-0.023730755,0.0,0.0,-0.5746779
8976932000,0.008034356,-0.052887797,-0.023792982,0.0,0.0,-0.57363266
8976948000,0.0071198344,-0.04943928,-0.023626328,0.0,0.0,-0.57363266
8976964000,0.0019886792,-0.05496727,-0.02376759,0.0,0.0,-0.5737815
8976992000,-0.001589343,-0.057119608,-0.023698926,0.0,0.0,-0.57357174
8977008000,-0.00013569742,-0.059747234,-0.023718238,0.0,0.0,-0.57393616
8977032000,0.0041622296,-0.05005239,-0.023887396,0.0,0.0,-0.57401764
8977048000,0.0027963817,-0.05696842,-0.023671031,0.0,0.0,-0.5742625
8977068000,0.0028338209,-0.060496822,-0.023446798,0.0,0.0,-0.5748037
8977088000,0.003396839,-0.05070488,-0.023488283,0.0,0.0,-0.57514405
8977108000,-0.0013483465,-0.055344746,-0.02320683,0.0,0.0,-0.5755791
8977128000,-0.001307264,-0.05738899,-0.023033738,0.0,0.0,-0.5756136
8977152000,-0.0037549585,-0.050523832,-0.02294004,0.0,0.0,-0.57548404
