timestamp,ref_timestamp,ref_lat,ref_lon,x,y,z,delta_xy[0],delta_xy[1],delta_z,vx,vy,vz,z_deriv,delta_vxy[0],delta_vxy[1],delta_vz,ax,ay,az,yaw,ref_alt,dist_bottom,dist_bottom_rate,eph,epv,evh,evv,vxy_max,vz_max,hagl_min,hagl_max,xy_valid,z_valid,v_xy_valid,v_z_valid,xy_reset_counter,z_reset_counter,vxy_reset_counter,vz_reset_counter,xy_global,z_global,dist_bottom_valid
8959832000,0,47.3977508,8.5456074,0.34470427,0.015053676,0.72598267,0.0,0.0,0.0,0.0,0.0,0.0,0.0,0.0,0.0,0.0,0.0,0.0,0.0,0.39790785,488.83002,0.0,0.0,0.0,0.0,0.0,0.0,inf,inf,inf,inf,1,1,1,1,0,0,0,0,1,1,0
8959932000,0,47.3977508,8.5456074,0.34470427,0.015053676,0.72598267,0.0,0.0,0.0,0.0,0.0,0.0,0.0,0.0,0.0,0.0,0.0,0.0,0.0,0.39790785,488.83002,0.0,0.0,0.0,0.0,0.0,0.0,inf,inf,inf,inf,1,1,1,1,0,0,0,0,1,1,0
8960032000,0,47.3977508,8.5456074,0.34470427,0.015053676,0.72598267,0.0,0.0,0.0,0.0,0.0,0.0,0.0,0.0,0.0,0.0,0.0,0.0,0.0,0.39790785,488.83002,0.0,0.0,0.0,0.0,0.0,0.0,inf,inf,inf,inf,1,1,1,1,0,0,0,0,1,1,0
8960132000,0,47.3977508,8.5456074,0.34470427,0.015053676,0.72598267,0.0,0.0,0.0,0.0,0.0,0.0,0.0,0.0,0.0,0.0,0.0,0.0,0.0,0.39790785,488.83002,0.0,0.0,0.0,0.0,0.0,0.0,inf,inf,inf,inf,1,1,1,1,0,0,0,0,1,1,0
8960228000,0,47.3977508,8.5456074,0.34470427,0.015053676,0.72598267,0.0,0.0,0.0,0.0,0.0,0.0,0.0,0.0,0.0,0.0,0.0,0.0,0.0,0.39790785,488.83002,0.0,0.0,0.0,0.0,0.0,0.0,inf,inf,inf,inf,1,1,1,1,0,0,0,0,1,1,0
8960332000,0,47.3977508,8.5456074,0.34470427,0.015053676,0.72598267,0.0,0.0,0.0,0.0,0.0,0.0,0.0,0.0,0.0,0.0,0.0,0.0,0.0,0.39790785,488.83002,0.0,0.0,0.0,0.0,0.0,0.0,inf,inf,inf,inf,1,1,1,1,0,0,0,0,1,1,0
8960428000,0,47.3977508,8.5456074,0.34470427,0.015053676,0.72598267,0.0,0.0,0.0,0.0,0.0,0.0,0.0,0.0,0.0,0.0,0.0,0.0,0.0,0.39790785,488.83002,0.0,0.0,0.0,0.0,0.0,0.0,inf,inf,inf,inf,1,1,1,1,0,0,0,0,1,1,0
8960532000,0,47.3977508,8.5456074,0.34470427,0.015053676,0.72598267,0.0,0.0,0.0,0.0,0.0,0.0,0.0,0.0,0.0,0.0,0.0,0.0,0.0,0.39790785,488.83002,0.0,0.0,0.0,0.0,0.0,0.0,inf,inf,inf,inf,1,1,1,1,0,0,0,0,1,1,0
8960628000,0,47.3977508,8.5456074,0.34470427,0.015053676,0.72598267,0.0,0.0,0.0,0.0,0.0,0.0,0.0,0.0,0.0,0.0,0.0,0.0,0.0,0.39790785,488.83002,0.0,0.0,0.0,0.0,0.0,0.0,inf,inf,inf,inf,1,1,1,1,0,0,0,0,1,1,0
8960732000,0,47.3977508,8.5456074,0.34470427,0.015053676,0.72598267,0.0,0.0,0.0,0.0,0.0,0.0,0.0,0.0,0.0,0.0,0.0,0.0,0.0,0.39790785,488.83002,0.0,0.0,0.0,0.0,0.0,0.0,inf,inf,inf,inf,1,1,1,1,0,0,0,0,1,1,0
8960832000,0,47.3977508,8.5456074,0.34470427,0.015053676,0.72598267,0.0,0.0,0.0,0.0,0.0,0.0,0.0,0.0,0.0,0.0,0.0,0.0,0.0,0.39790785,488.83002,0.0,0.0,0.0,0.0,0.0,0.0,inf,inf,inf,inf,1,1,1,1,0,0,0,0,1,1,0
8960932000,0,47.3977508,8.5456074,0.34470427,0.015053676,0.72598267,0.0,0.0,0.0,0.0,0.0,0.0,0.0,0.0,0.0,0.0,0.0,0.0,0.0,0.39790785,488.83002,0.0,0.0,0.0,0.0,0.0,0.0,inf,inf,inf,inf,1,1,1,1,0,0,0,0,1,1,0
8961032000,0,47.3977508,8.5456074,0.34470427,0.015053676,0.72598267,0.0,0.0,0.0,0.0,0.0,0.0,0.0,0.0,0.0,0.0,0.0,0.0,0.0,0.39790785,488.83002,0.0,0.0,0.0,0.0,0.0,0.0,inf,inf,inf,inf,1,1,1,1,0,0,0,0,1,1,0
8961132000,0,47.3977508,8.5456074,0.34470427,0.015053676,0.72598267,0.0,0.0,0.0,0.0,0.0,0.0,0.0,0.0,0.0,0.0,0.0,0.0,0.0,0.39790785,488.83002,0.0,0.0,0.0,0.0,0.0,0.0,inf,inf,inf,inf,1,1,1,1,0,0,0,0,1,1,0
8961232000,0,47.3977508,8.5456074,0.34470427,0.015053676,0.72598267,0.0,0.0,0.0,0.0,0.0,0.0,0.0,0.0,0.0,0.0,0.0,0.0,0.0,0.39790782,488.83002,0.0,0.0,0.0,0.0,0.0,0.0,inf,inf,inf,inf,1,1,1,1,0,0,0,0,1,1,0
8961332000,0,47.3977508,8.5456074,0.34470427,0.015053676,0.72598267,0.0,0.0,0.0,0.0,0.0,0.0,0.0,0.0,0.0,0.0,0.0,0.0,0.0,0.39790782,488.83002,0.0,0.0,0.0,0.0,0.0,0.0,inf,inf,inf,inf,1,1,1,1,0,0,0,0,1,1,0
8961432000,0,47.3977508,8.5456074,0.34470427,0.015053676,0.72598267,0.0,0.0,0.0,0.0,0.0,0.0,0.0,0.0,0.0,0.0,0.0,0.0,0.0,0.39790782,488.83002,0.0,0.0,0.0,0.0,0.0,0.0,inf,inf,inf,inf,1,1,1,1,0,0,0,0,1,1,0
8961532000,0,47.3977508,8.5456074,0.34470427,0.015053676,0.72598267,0.0,0.0,0.0,0.0,0.0,0.0,0.0,0.0,0.0,0.0,0.0,0.0,0.0,0.3979078,488.83002,0.0,0.0,0.0,0.0,0.0,0.0,inf,inf,inf,inf,1,1,1,1,0,0,0,0,1,1,0
8961632000,0,47.3977508,8.5456074,0.34470427,0.015053676,0.72598267,0.0,0.0,0.0,0.0,0.0,0.0,0.0,0.0,0.0,0.0,0.0,0.0,0.0,0.3979088,488.83002,0.0,0.0,0.0,0.0,0.0,0.0,inf,inf,inf,inf,1,1,1,1,0,0,0,0,1,1,0
8961732000,0,47.3977508,8.5456074,0.34470427,0.015053676,0.7210083,0.0,0.0,0.0,0.0,0.0,-0.11,0.0,0.0,0.0,0.0,0.0,0.0,0.0,0.3981241,488.83002,0.0,0.0,0.0,0.0,0.0,0.0,inf,inf,inf,inf,1,1,1,1,0,0,0,0,1,1,0
8961832000,0,47.3977508,8.5456074,0.34470427,0.015053676,0.70199585,0.0,0.0,0.0,-0.02,0.0,-0.25,0.0,0.0,0.0,0.0,0.0,0.0,0.0,0.39800727,488.83002,0.0,0.0,0.0,0.0,0.0,0.0,inf,inf,inf,inf,1,1,1,1,0,0,0,0,1,1,0
8961932000,0,47.3977508,8.5456074,0.3335848,0.015053676,0.6699829,0.0,0.0,0.0,-0.04,-0.01,-0.38,0.0,0.0,0.0,0.0,0.0,0.0,0.0,0.39768943,488.83002,0.0,0.0,0.0,0.0,0.0,0.0,inf,inf,inf,inf,1,1,1,1,0,0,0,0,1,1,0
8962032000,0,47.3977508,8.5456074,0.3335848,0.015053676,0.6239929,0.0,0.0,0.0,-0.049999997,-0.01,-0.51,0.0,0.0,0.0,0.0,0.0,0.0,0.0,0.39725703,488.83002,0.0,0.0,0.0,0.0,0.0,0.0,inf,inf,inf,inf,1,1,1,1,0,0,0,0,1,1,0
8962132000,0,47.3977508,8.5456074,0.3224653,0.015053676,0.56799316,0.0,0.0,0.0,-0.049999997,-0.01,-0.65,0.0,0.0,0.0,0.0,0.0,0.0,0.0,0.39693463,488.83002,0.0,0.0,0.0,0.0,0.0,0.0,inf,inf,inf,inf,1,1,1,1,0,0,0,0,1,1,0
8962232000,0,47.3977508,8.5456074,0.3224653,0.015053676,0.49398804,0.0,0.0,0.0,-0.049999997,-0.01,-0.78,0.0,0.0,0.0,0.0,0.0,0.0,0.0,0.39666897,488.83002,0.0,0.0,0.0,0.0,0.0,0.0,inf,inf,inf,inf,1,1,1,1,0,0,0,0,1,1,0
8962332000,0,47.3977508,8.5456074,0.3113458,0.015053676,0.40899658,0.0,0.0,0.0,-0.04,-0.01,-0.90999997,0.0,0.0,0.0,0.0,0.0,0.0,0.0,0.3965503,488.83002,0.0,0.0,0.0,0.0,0.0,0.0,inf,inf,inf,inf,1,1,1,1,0,0,0,0,1,1,0
8962428000,0,47.3977508,8.5456074,0.3113458,0.007526838,0.31500244,0.0,0.0,0.0,-0.04,0.0,-1.03,0.0,0.0,0.0,0.0,0.0,0.0,0.0,0.39651334,488.83002,0.0,0.0,0.0,0.0,0.0,0.0,inf,inf,inf,inf,1,1,1,1,0,0,0,0,1,1,0
8962532000,0,47.3977508,8.5456074,0.3113458,0.007526838,0.20397949,0.0,0.0,0.0,-0.04,0.0,-1.17,0.0,0.0,0.0,0.0,0.0,0.0,0.0,0.396433,488.83002,0.0,0.0,0.0,0.0,0.0,0.0,inf,inf,inf,inf,1,1,1,1,0,0,0,0,1,1,0
8962632000,0,47.3977508,8.5456074,0.3002263,0.007526838,0.07498169,0.0,0.0,0.0,-0.03,0.0,-1.3,0.0,0.0,0.0,0.0,0.0,0.0,0.0,0.39629406,488.83002,0.0,0.0,0.0,0.0,0.0,0.0,inf,inf,inf,inf,1,1,1,1,0,0,0,0,1,1,0
8962732000,0,47.3977508,8.5456074,0.3002263,0.007526838,-0.06201172,0.0,0.0,0.0,-0.03,0.0,-1.43,0.0,0.0,0.0,0.0,0.0,0.0,0.0,0.3962126,488.83002,0.0,0.0,0.0,0.0,0.0,0.0,inf,inf,inf,inf,1,1,1,1,0,0,0,0,1,1,0
8962832000,0,47.3977508,8.5456074,0.3002263,0.007526838,-0.21200562,0.0,0.0,0.0,-0.03,0.0,-1.56,0.0,0.0,0.0,0.0,0.0,0.0,0.0,0.3960792,488.83002,0.0,0.0,0.0,0.0,0.0,0.0,inf,inf,inf,inf,1,1,1,1,0,0,0,0,1,1,0
8962932000,0,47.3977508,8.5456074,0.28910682,0.007526838,-0.36901855,0.0,0.0,0.0,-0.02,0.0,-1.6899999,0.0,0.0,0.0,0.0,0.0,0.0,0.0,0.3958562,488.83002,0.0,0.0,0.0,0.0,0.0,0.0,inf,inf,inf,inf,1,1,1,1,0,0,0,0,1,1,0
8963028000,0,47.3977508,8.5456074,0.28910682,0.007526838,-0.5450134,0.0,0.0,0.0,-0.02,0.0,-1.8199999,0.0,0.0,0.0,0.0,0.0,0.0,0.0,0.39569014,488.83002,0.0,0.0,0.0,0.0,0.0,0.0,inf,inf,inf,inf,1,1,1,1,0,0,0,0,1,1,0
8963132000,0,47.3977508,8.5456074,0.28910682,0.007526838,-0.7420044,0.0,0.0,0.0,-0.02,0.0,-1.9499999,0.0,0.0,0.0,0.0,0.0,0.0,0.0,0.39550218,488.83002,0.0,0.0,0.0,0.0,0.0,0.0,inf,inf,inf,inf,1,1,1,1,0,0,0,0,1,1,0
8963232000,0,47.3977508,8.5456074,0.28910682,0.007526838,-0.94400024,0.0,0.0,0.0,-0.02,0.0,-2.08,0.0,0.0,0.0,0.0,0.0,0.0,0.0,0.39540684,488.83002,0.0,0.0,0.0,0.0,0.0,0.0,inf,inf,inf,inf,1,1,1,1,0,0,0,0,1,1,0
8963328000,0,47.3977508,8.5456074,0.28910682,0.007526838,-1.1499939,0.0,0.0,0.0,-0.02,0.0,-2.2,0.0,0.0,0.0,0.0,0.0,0.0,0.0,0.39532655,488.83002,0.0,0.0,0.0,0.0,0.0,0.0,inf,inf,inf,inf,1,1,1,1,0,0,0,0,1,1,0
8963432000,0,47.3977508,8.5456074,0.27798733,0.007526838,-1.3869934,0.0,0.0,0.0,-0.01,0.0,-2.34,0.0,0.0,0.0,0.0,0.0,0.0,0.0,0.39520383,488.83002,0.0,0.0,0.0,0.0,0.0,0.0,inf,inf,inf,inf,1,1,1,1,0,0,0,0,1,1,0
8963532000,0,47.3977508,8.5456074,0.27798733,0.007526838,-1.6280212,0.0,0.0,0.0,-0.01,0.01,-2.48,0.0,0.0,0.0,0.0,0.0,0.0,0.0,0.39450222,488.83002,0.0,0.0,0.0,0.0,0.0,0.0,inf,inf,inf,inf,1,1,1,1,0,0,0,0,1,1,0
8963632000,0,47.3977508,8.5456074,0.27798733,0.015053676,-1.8789978,0.0,0.0,0.0,-0.01,0.01,-2.47,0.0,0.0,0.0,0.0,0.0,0.0,0.0,0.39374176,488.83002,0.0,0.0,0.0,0.0,0.0,0.0,inf,inf,inf,inf,1,1,1,1,0,0,0,0,1,1,0
8963732000,0,47.3977508,8.5456074,0.27798733,0.015053676,-2.1150208,0.0,0.0,0.0,-0.01,0.01,-2.25,0.0,0.0,0.0,0.0,0.0,0.0,0.0,0.3931004,488.83002,0.0,0.0,0.0,0.0,0.0,0.0,inf,inf,inf,inf,1,1,1,1,0,0,0,0,1,1,0
8963832000,0,47.3977508,8.5456074,0.27798733,0.015053676,-2.334015,0.0,0.0,0.0,-0.01,0.01,-2.12,0.0,0.0,0.0,0.0,0.0,0.0,0.0,0.3928143,488.83002,0.0,0.0,0.0,0.0,0.0,0.0,inf,inf,inf,inf,1,1,1,1,0,0,0,0,1,1,0
8963932000,0,47.3977508,8.5456074,0.27798733,0.015053676,-2.5400085,0.0,0.0,0.0,-0.01,0.01,-2.01,0.0,0.0,0.0,0.0,0.0,0.0,0.0,0.39281702,488.83002,0.0,0.0,0.0,0.0,0.0,0.0,inf,inf,inf,inf,1,1,1,1,0,0,0,0,1,1,0
8964032000,0,47.3977508,8.5456074,0.26686782,0.015053676,-2.7350159,0.0,0.0,0.0,-0.01,0.02,-1.89,0.0,0.0,0.0,0.0,0.0,0.0,0.0,0.39316663,488.83002,0.0,0.0,0.0,0.0,0.0,0.0,inf,inf,inf,inf,1,1,1,1,0,0,0,0,1,1,0
8964132000,0,47.3977508,8.5456074,0.26686782,0.022580516,-2.9179993,0.0,0.0,0.0,0.0,0.02,-1.77,0.0,0.0,0.0,0.0,0.0,0.0,0.0,0.39366218,488.83002,0.0,0.0,0.0,0.0,0.0,0.0,inf,inf,inf,inf,1,1,1,1,0,0,0,0,1,1,0
8964232000,0,47.3977508,8.5456074,0.26686782,0.022580516,-3.0910034,0.0,0.0,0.0,0.0,0.02,-1.67,0.0,0.0,0.0,0.0,0.0,0.0,0.0,0.39415643,488.83002,0.0,0.0,0.0,0.0,0.0,0.0,inf,inf,inf,inf,1,1,1,1,0,0,0,0,1,1,0
8964328000,0,47.3977508,8.5456074,0.26686782,0.022580516,-3.2470093,0.0,0.0,0.0,0.0,0.02,-1.5799999,0.0,0.0,0.0,0.0,0.0,0.0,0.0,0.3945696,488.83002,0.0,0.0,0.0,0.0,0.0,0.0,inf,inf,inf,inf,1,1,1,1,0,0,0,0,1,1,0
8964432000,0,47.3977508,8.5456074,0.26686782,0.030107353,-3.407013,0.0,0.0,0.0,0.0,0.02,-1.49,0.0,0.0,0.0,0.0,0.0,0.0,0.0,0.3948707,488.83002,0.0,0.0,0.0,0.0,0.0,0.0,inf,inf,inf,inf,1,1,1,1,0,0,0,0,1,1,0
8964532000,0,47.3977508,8.5456074,0.26686782,0.030107353,-3.5460205,0.0,0.0,0.0,0.0,0.03,-1.41,0.0,0.0,0.0,0.0,0.0,0.0,0.0,0.39500248,488.83002,0.0,0.0,0.0,0.0,0.0,0.0,inf,inf,inf,inf,1,1,1,1,0,0,0,0,1,1,0
8964632000,0,47.3977508,8.5456074,0.26686782,0.03763419,-3.6889954,0.0,0.0,0.0,0.0,0.03,-1.3299999,0.0,0.0,0.0,0.0,0.0,0.0,0.0,0.3950249,488.83002,0.0,0.0,0.0,0.0,0.0,0.0,inf,inf,inf,inf,1,1,1,1,0,0,0,0,1,1,0
8964732000,0,47.3977508,8.5456074,0.26686782,0.03763419,-3.8190002,0.0,0.0,0.0,0.0,0.03,-1.26,0.0,0.0,0.0,0.0,0.0,0.0,0.0,0.39506936,488.83002,0.0,0.0,0.0,0.0,0.0,0.0,inf,inf,inf,inf,1,1,1,1,0,0,0,0,1,1,0
8964832000,0,47.3977508,8.5456074,0.26686782,0.04516103,-3.9420166,0.0,0.0,0.0,0.0,0.03,-1.1899999,0.0,0.0,0.0,0.0,0.0,0.0,0.0,0.39509812,488.83002,0.0,0.0,0.0,0.0,0.0,0.0,inf,inf,inf,inf,1,1,1,1,0,0,0,0,1,1,0
8964932000,0,47.3977508,8.5456074,0.26686782,0.04516103,-4.059021,0.0,0.0,0.0,0.0,0.03,-1.14,0.0,0.0,0.0,0.0,0.0,0.0,0.0,0.39510086,488.83002,0.0,0.0,0.0,0.0,0.0,0.0,inf,inf,inf,inf,1,1,1,1,0,0,0,0,1,1,0
8965032000,0,47.3977508,8.5456074,0.26686782,0.05268787,-4.1710205,0.0,0.0,0.0,0.01,0.03,-1.0799999,0.0,0.0,0.0,0.0,0.0,0.0,0.0,0.39493886,488.83002,0.0,0.0,0.0,0.0,0.0,0.0,inf,inf,inf,inf,1,1,1,1,0,0,0,0,1,1,0
8965128000,0,47.3977508,8.5456074,0.27798733,0.05268787,-4.2680054,0.0,0.0,0.0,0.01,0.03,-1.03,0.0,0.0,0.0,0.0,0.0,0.0,0.0,0.39478114,488.83002,0.0,0.0,0.0,0.0,0.0,0.0,inf,inf,inf,inf,1,1,1,1,0,0,0,0,1,1,0
8965232000,0,47.3977508,8.5456074,0.27798733,0.060214706,-4.3780212,0.0,0.0,0.0,0.01,0.03,-0.98999995,0.0,0.0,0.0,0.0,0.0,0.0,0.0,0.39458376,488.83002,0.0,0.0,0.0,0.0,0.0,0.0,inf,inf,inf,inf,1,1,1,1,0,0,0,0,1,1,0
8965328000,0,47.3977508,8.5456074,0.27798733,0.060214706,-4.4710083,0.0,0.0,0.0,0.01,0.04,-0.94,0.0,0.0,0.0,0.0,0.0,0.0,0.0,0.39449558,488.83002,0.0,0.0,0.0,0.0,0.0,0.0,inf,inf,inf,inf,1,1,1,1,0,0,0,0,1,1,0
8965432000,0,47.3977508,8.5456074,0.27798733,0.06774154,-4.5639954,0.0,0.0,0.0,0.02,0.04,-0.9,0.0,0.0,0.0,0.0,0.0,0.0,0.0,0.39440167,488.83002,0.0,0.0,0.0,0.0,0.0,0.0,inf,inf,inf,inf,1,1,1,1,0,0,0,0,1,1,0
8965532000,0,47.3977508,8.5456074,0.27798733,0.06774154,-4.656006,0.0,0.0,0.0,0.02,0.04,-0.87,0.0,0.0,0.0,0.0,0.0,0.0,0.0,0.39438102,488.83002,0.0,0.0,0.0,0.0,0.0,0.0,inf,inf,inf,inf,1,1,1,1,0,0,0,0,1,1,0
8965628000,0,47.3977508,8.5456074,0.27798733,0.07526838,-4.7380066,0.0,0.0,0.0,0.02,0.04,-0.83,0.0,0.0,0.0,0.0,0.0,0.0,0.0,0.3943467,488.83002,0.0,0.0,0.0,0.0,0.0,0.0,inf,inf,inf,inf,1,1,1,1,0,0,0,0,1,1,0
8965732000,0,47.3977508,8.5456074,0.28910682,0.07526838,-4.824005,0.0,0.0,0.0,0.02,0.04,-0.79999995,0.0,0.0,0.0,0.0,0.0,0.0,0.0,0.39437366,488.83002,0.0,0.0,0.0,0.0,0.0,0.0,inf,inf,inf,inf,1,1,1,1,0,0,0,0,1,1,0
8965832000,0,47.3977508,8.5456074,0.28910682,0.082795225,-4.8990173,0.0,0.0,0.0,0.02,0.04,-0.77,0.0,0.0,0.0,0.0,0.0,0.0,0.0,0.39435527,488.83002,0.0,0.0,0.0,0.0,0.0,0.0,inf,inf,inf,inf,1,1,1,1,0,0,0,0,1,1,0
8965928000,0,47.3977508,8.5456074,0.28910682,0.082795225,-4.975006,0.0,0.0,0.0,0.02,0.03,-0.74,0.0,0.0,0.0,0.0,0.0,0.0,0.0,0.39438978,488.83002,0.0,0.0,0.0,0.0,0.0,0.0,inf,inf,inf,inf,1,1,1,1,0,0,0,0,1,1,0
8966032000,0,47.3977508,8.5456074,0.28910682,0.09032206,-5.050995,0.0,0.0,0.0,0.02,0.03,-0.71,0.0,0.0,0.0,0.0,0.0,0.0,0.0,0.3943057,488.83002,0.0,0.0,0.0,0.0,0.0,0.0,inf,inf,inf,inf,1,1,1,1,0,0,0,0,1,1,0
8966132000,0,47.3977508,8.5456074,0.3002263,0.09032206,-5.121002,0.0,0.0,0.0,0.02,0.03,-0.68,0.0,0.0,0.0,0.0,0.0,0.0,0.0,0.39429104,488.83002,0.0,0.0,0.0,0.0,0.0,0.0,inf,inf,inf,inf,1,1,1,1,0,0,0,0,1,1,0
8966232000,0,47.3977508,8.5456074,0.3002263,0.0978489,-5.1860046,0.0,0.0,0.0,0.02,0.03,-0.65999997,0.0,0.0,0.0,0.0,0.0,0.0,0.0,0.39432523,488.83002,0.0,0.0,0.0,0.0,0.0,0.0,inf,inf,inf,inf,1,1,1,1,0,0,0,0,1,1,0
8966332000,0,47.3977508,8.5456074,0.3002263,0.0978489,-5.253998,0.0,0.0,0.0,0.02,0.03,-0.63,0.0,0.0,0.0,0.0,0.0,0.0,0.0,0.3943086,488.83002,0.0,0.0,0.0,0.0,0.0,0.0,inf,inf,inf,inf,1,1,1,1,0,0,0,0,1,1,0
8966432000,0,47.3977508,8.5456074,0.3002263,0.10537574,-5.3170166,0.0,0.0,0.0,0.02,0.03,-0.61,0.0,0.0,0.0,0.0,0.0,0.0,0.0,0.3942599,488.83002,0.0,0.0,0.0,0.0,0.0,0.0,inf,inf,inf,inf,1,1,1,1,0,0,0,0,1,1,0
8966532000,0,47.3977508,8.5456074,0.3113458,0.10537574,-5.3780212,0.0,0.0,0.0,0.02,0.02,-0.59,0.0,0.0,0.0,0.0,0.0,0.0,0.0,0.39428568,488.83002,0.0,0.0,0.0,0.0,0.0,0.0,inf,inf,inf,inf,1,1,1,1,0,0,0,0,1,1,0
8966628000,0,47.3977508,8.5456074,0.3113458,0.10537574,-5.434021,0.0,0.0,0.0,0.02,0.02,-0.57,0.0,0.0,0.0,0.0,0.0,0.0,0.0,0.39425033,488.83002,0.0,0.0,0.0,0.0,0.0,0.0,inf,inf,inf,inf,1,1,1,1,0,0,0,0,1,1,0
8966732000,0,47.3977508,8.5456074,0.3113458,0.112902574,-5.4930115,0.0,0.0,0.0,0.02,0.02,-0.55,0.0,0.0,0.0,0.0,0.0,0.0,0.0,0.39432126,488.83002,0.0,0.0,0.0,0.0,0.0,0.0,inf,inf,inf,inf,1,1,1,1,0,0,0,0,1,1,0
8966832000,0,47.3977508,8.5456074,0.3113458,0.112902574,-5.546997,0.0,0.0,0.0,0.02,0.02,-0.53,0.0,0.0,0.0,0.0,0.0,0.0,0.0,0.39431754,488.83002,0.0,0.0,0.0,0.0,0.0,0.0,inf,inf,inf,inf,1,1,1,1,0,0,0,0,1,1,0
8966932000,0,47.3977508,8.5456074,0.3113458,0.112902574,-5.600006,0.0,0.0,0.0,0.02,0.02,-0.52,0.0,0.0,0.0,0.0,0.0,0.0,0.0,0.39427638,488.83002,0.0,0.0,0.0,0.0,0.0,0.0,inf,inf,inf,inf,1,1,1,1,0,0,0,0,1,1,0
8967032000,0,47.3977508,8.5456074,0.3224653,0.12042941,-5.651001,0.0,0.0,0.0,0.02,0.01,-0.5,0.0,0.0,0.0,0.0,0.0,0.0,0.0,0.39425933,488.83002,0.0,0.0,0.0,0.0,0.0,0.0,inf,inf,inf,inf,1,1,1,1,0,0,0,0,1,1,0
8967128000,0,47.3977508,8.5456074,0.3224653,0.12042941,-5.699005,0.0,0.0,0.0,0.02,0.01,-0.48,0.0,0.0,0.0,0.0,0.0,0.0,0.0,0.39424938,488.83002,0.0,0.0,0.0,0.0,0.0,0.0,inf,inf,inf,inf,1,1,1,1,0,0,0,0,1,1,0
8967228000,0,47.3977508,8.5456074,0.3224653,0.12042941,-5.7470093,0.0,0.0,0.0,0.02,0.01,-0.47,0.0,0.0,0.0,0.0,0.0,0.0,0.0,0.3941567,488.83002,0.0,0.0,0.0,0.0,0.0,0.0,inf,inf,inf,inf,1,1,1,1,0,0,0,0,1,1,0
8967332000,0,47.3977508,8.5456074,0.3224653,0.12042941,-5.7929993,0.0,0.0,0.0,0.02,0.01,-0.45,0.0,0.0,0.0,0.0,0.0,0.0,0.0,0.39412773,488.83002,0.0,0.0,0.0,0.0,0.0,0.0,inf,inf,inf,inf,1,1,1,1,0,0,0,0,1,1,0
8967432000,0,47.3977508,8.5456074,0.3335848,0.12795626,-5.8399963,0.0,0.0,0.0,0.02,0.0,-0.44,0.0,0.0,0.0,0.0,0.0,0.0,0.0,0.39404005,488.83002,0.0,0.0,0.0,0.0,0.0,0.0,inf,inf,inf,inf,1,1,1,1,0,0,0,0,1,1,0
8967532000,0,47.3977508,8.5456074,0.3335848,0.12795626,-5.8829956,0.0,0.0,0.0,0.02,0.0,-0.42,0.0,0.0,0.0,0.0,0.0,0.0,0.0,0.39390436,488.83002,0.0,0.0,0.0,0.0,0.0,0.0,inf,inf,inf,inf,1,1,1,1,0,0,0,0,1,1,0
8967632000,0,47.3977508,8.5456074,0.3335848,0.12795626,-5.924011,0.0,0.0,0.0,0.02,0.0,-0.41,0.0,0.0,0.0,0.0,0.0,0.0,0.0,0.39401373,488.83002,0.0,0.0,0.0,0.0,0.0,0.0,inf,inf,inf,inf,1,1,1,1,0,0,0,0,1,1,0
8967728000,0,47.3977508,8.5456074,0.3335848,0.12795626,-5.9649963,0.0,0.0,0.0,0.02,0.0,-0.39999998,0.0,0.0,0.0,0.0,0.0,0.0,0.0,0.39412323,488.83002,0.0,0.0,0.0,0.0,0.0,0.0,inf,inf,inf,inf,1,1,1,1,0,0,0,0,1,1,0
8967832000,0,47.3977508,8.5456074,0.3335848,0.12795626,-6.006012,0.0,0.0,0.0,0.02,0.0,-0.39,0.0,0.0,0.0,0.0,0.0,0.0,0.0,0.39420092,488.83002,0.0,0.0,0.0,0.0,0.0,0.0,inf,inf,inf,inf,1,1,1,1,0,0,0,0,1,1,0
8967932000,0,47.3977508,8.5456074,0.34470427,0.12795626,-6.0440063,0.0,0.0,0.0,0.01,0.0,-0.37,0.0,0.0,0.0,0.0,0.0,0.0,0.0,0.39419204,488.83002,0.0,0.0,0.0,0.0,0.0,0.0,inf,inf,inf,inf,1,1,1,1,0,0,0,0,1,1,0
8968032000,0,47.3977508,8.5456074,0.34470427,0.12795626,-6.0820007,0.0,0.0,0.0,0.01,0.0,-0.37,0.0,0.0,0.0,0.0,0.0,0.0,0.0,0.39415008,488.83002,0.0,0.0,0.0,0.0,0.0,0.0,inf,inf,inf,inf,1,1,1,1,0,0,0,0,1,1,0
8968132000,0,47.3977508,8.5456074,0.34470427,0.12795626,-6.1180115,0.0,0.0,0.0,0.01,0.0,-0.35999998,0.0,0.0,0.0,0.0,0.0,0.0,0.0,0.39416438,488.83002,0.0,0.0,0.0,0.0,0.0,0.0,inf,inf,inf,inf,1,1,1,1,0,0,0,0,1,1,0
8968228000,0,47.3977508,8.5456074,0.34470427,0.12795626,-6.153015,0.0,0.0,0.0,0.01,0.0,-0.35,0.0,0.0,0.0,0.0,0.0,0.0,0.0,0.39417621,488.83002,0.0,0.0,0.0,0.0,0.0,0.0,inf,inf,inf,inf,1,1,1,1,0,0,0,0,1,1,0
8968332000,0,47.3977508,8.5456074,0.34470427,0.12795626,-6.188019,0.0,0.0,0.0,0.01,0.0,-0.34,0.0,0.0,0.0,0.0,0.0,0.0,0.0,0.3941703,488.83002,0.0,0.0,0.0,0.0,0.0,0.0,inf,inf,inf,inf,1,1,1,1,0,0,0,0,1,1,0
8968432000,0,47.3977508,8.5456074,0.34470427,0.12795626,-6.2220154,0.0,0.0,0.0,0.01,0.0,-0.32999998,0.0,0.0,0.0,0.0,0.0,0.0,0.0,0.39419046,488.83002,0.0,0.0,0.0,0.0,0.0,0.0,inf,inf,inf,inf,1,1,1,1,0,0,0,0,1,1,0
8968532000,0,47.3977508,8.5456074,0.34470427,0.12795626,-6.255005,0.0,0.0,0.0,0.01,0.0,-0.31,0.0,0.0,0.0,0.0,0.0,0.0,0.0,0.39410838,488.83002,0.0,0.0,0.0,0.0,0.0,0.0,inf,inf,inf,inf,1,1,1,1,0,0,0,0,1,1,0
8968632000,0,47.3977508,8.5456074,0.35582376,0.12042941,-6.2860107,0.0,0.0,0.0,0.01,0.0,-0.31,0.0,0.0,0.0,0.0,0.0,0.0,0.0,0.39409974,488.83002,0.0,0.0,0.0,0.0,0.0,0.0,inf,inf,inf,inf,1,1,1,1,0,0,0,0,1,1,0
8968732000,0,47.3977508,8.5456074,0.35582376,0.12042941,-6.3170166,0.0,0.0,0.0,0.0,0.0,-0.29999998,0.0,0.0,0.0,0.0,0.0,0.0,0.0,0.39406765,488.83002,0.0,0.0,0.0,0.0,0.0,0.0,inf,inf,inf,inf,1,1,1,1,0,0,0,0,1,1,0
8968832000,0,47.3977508,8.5456074,0.35582376,0.12042941,-6.3470154,0.0,0.0,0.0,0.0,0.0,-0.29,0.0,0.0,0.0,0.0,0.0,0.0,0.0,0.39397073,488.83002,0.0,0.0,0.0,0.0,0.0,0.0,inf,inf,inf,inf,1,1,1,1,0,0,0,0,1,1,0
8968928000,0,47.3977508,8.5456074,0.35582376,0.12042941,-6.375,0.0,0.0,0.0,0.0,0.0,-0.28,0.0,0.0,0.0,0.0,0.0,0.0,0.0,0.39385352,488.83002,0.0,0.0,0.0,0.0,0.0,0.0,inf,inf,inf,inf,1,1,1,1,0,0,0,0,1,1,0
8969028000,0,47.3977508,8.5456074,0.35582376,0.12042941,-6.403015,0.0,0.0,0.0,0.0,0.0,-0.28,0.0,0.0,0.0,0.0,0.0,0.0,0.0,0.39373258,488.83002,0.0,0.0,0.0,0.0,0.0,0.0,inf,inf,inf,inf,1,1,1,1,0,0,0,0,1,1,0
8969132000,0,47.3977508,8.5456074,0.35582376,0.12042941,-6.4309998,0.0,0.0,0.0,0.0,0.0,-0.26999998,0.0,0.0,0.0,0.0,0.0,0.0,0.0,0.39360458,488.83002,0.0,0.0,0.0,0.0,0.0,0.0,inf,inf,inf,inf,1,1,1,1,0,0,0,0,1,1,0
8969232000,0,47.3977508,8.5456074,0.35582376,0.12042941,-6.458008,0.0,0.0,0.0,0.0,-0.01,-0.26,0.0,0.0,0.0,0.0,0.0,0.0,0.0,0.39347512,488.83002,0.0,0.0,0.0,0.0,0.0,0.0,inf,inf,inf,inf,1,1,1,1,0,0,0,0,1,1,0
8969332000,0,47.3977508,8.5456074,0.35582376,0.12042941,-6.484009,0.0,0.0,0.0,0.0,-0.01,-0.26,0.0,0.0,0.0,0.0,0.0,0.0,0.0,0.3933777,488.83002,0.0,0.0,0.0,0.0,0.0,0.0,inf,inf,inf,inf,1,1,1,1,0,0,0,0,1,1,0
8969432000,0,47.3977508,8.5456074,0.35582376,0.12042941,-6.51001,0.0,0.0,0.0,0.0,-0.01,-0.25,0.0,0.0,0.0,0.0,0.0,0.0,0.0,0.393323,488.83002,0.0,0.0,0.0,0.0,0.0,0.0,inf,inf,inf,inf,1,1,1,1,0,0,0,0,1,1,0
8969528000,0,47.3977508,8.5456074,0.35582376,0.112902574,-6.5360107,0.0,0.0,0.0,0.0,-0.01,-0.24,0.0,0.0,0.0,0.0,0.0,0.0,0.0,0.39328188,488.83002,0.0,0.0,0.0,0.0,0.0,0.0,inf,inf,inf,inf,1,1,1,1,0,0,0,0,1,1,0
8969632000,0,47.3977508,8.5456074,0.35582376,0.112902574,-6.5610046,0.0,0.0,0.0,0.0,-0.01,-0.24,0.0,0.0,0.0,0.0,0.0,0.0,0.0,0.3931436,488.83002,0.0,0.0,0.0,0.0,0.0,0.0,inf,inf,inf,inf,1,1,1,1,0,0,0,0,1,1,0
8969728000,0,47.3977508,8.5456074,0.35582376,0.112902574,-6.584015,0.0,0.0,0.0,0.0,-0.01,-0.22999999,0.0,0.0,0.0,0.0,0.0,0.0,0.0,0.39299113,488.83002,0.0,0.0,0.0,0.0,0.0,0.0,inf,inf,inf,inf,1,1,1,1,0,0,0,0,1,1,0
8969832000,0,47.3977508,8.5456074,0.35582376,0.112902574,-6.6080017,0.0,0.0,0.0,0.0,-0.01,-0.22999999,0.0,0.0,0.0,0.0,0.0,0.0,0.0,0.39288655,488.83002,0.0,0.0,0.0,0.0,0.0,0.0,inf,inf,inf,inf,1,1,1,1,0,0,0,0,1,1,0
8969932000,0,47.3977508,8.5456074,0.35582376,0.112902574,-6.631012,0.0,0.0,0.0,0.0,-0.01,-0.22999999,0.0,0.0,0.0,0.0,0.0,0.0,0.0,0.39274478,488.83002,0.0,0.0,0.0,0.0,0.0,0.0,inf,inf,inf,inf,1,1,1,1,0,0,0,0,1,1,0
8970032000,0,47.3977508,8.5456074,0.35582376,0.10537574,-6.654999,0.0,0.0,0.0,0.0,-0.01,-0.22,0.0,0.0,0.0,0.0,0.0,0.0,0.0,0.39273658,488.83002,0.0,0.0,0.0,0.0,0.0,0.0,inf,inf,inf,inf,1,1,1,1,0,0,0,0,1,1,0
8970132000,0,47.3977508,8.5456074,0.35582376,0.10537574,-6.678009,0.0,0.0,0.0,0.0,-0.01,-0.22,0.0,0.0,0.0,0.0,0.0,0.0,0.0,0.39271387,488.83002,0.0,0.0,0.0,0.0,0.0,0.0,inf,inf,inf,inf,1,1,1,1,0,0,0,0,1,1,0
8970228000,0,47.3977508,8.5456074,0.35582376,0.10537574,-6.697998,0.0,0.0,0.0,0.0,-0.01,-0.21,0.0,0.0,0.0,0.0,0.0,0.0,0.0,0.3927279,488.83002,0.0,0.0,0.0,0.0,0.0,0.0,inf,inf,inf,inf,1,1,1,1,0,0,0,0,1,1,0
8970332000,0,47.3977508,8.5456074,0.35582376,0.10537574,-6.7210083,0.0,0.0,0.0,0.0,-0.01,-0.21,0.0,0.0,0.0,0.0,0.0,0.0,0.0,0.3927313,488.83002,0.0,0.0,0.0,0.0,0.0,0.0,inf,inf,inf,inf,1,1,1,1,0,0,0,0,1,1,0
8970432000,0,47.3977508,8.5456074,0.35582376,0.0978489,-6.7420044,0.0,0.0,0.0,0.0,-0.01,-0.19999999,0.0,0.0,0.0,0.0,0.0,0.0,0.0,0.39270097,488.83002,0.0,0.0,0.0,0.0,0.0,0.0,inf,inf,inf,inf,1,1,1,1,0,0,0,0,1,1,0
8970532000,0,47.3977508,8.5456074,0.35582376,0.0978489,-6.7619934,0.0,0.0,0.0,0.0,-0.01,-0.19,0.0,0.0,0.0,0.0,0.0,0.0,0.0,0.39264458,488.83002,0.0,0.0,0.0,0.0,0.0,0.0,inf,inf,inf,inf,1,1,1,1,0,0,0,0,1,1,0
8970632000,0,47.3977508,8.5456074,0.35582376,0.0978489,-6.782013,0.0,0.0,0.0,0.0,-0.01,-0.19,0.0,0.0,0.0,0.0,0.0,0.0,0.0,0.39251265,488.83002,0.0,0.0,0.0,0.0,0.0,0.0,inf,inf,inf,inf,1,1,1,1,0,0,0,0,1,1,0
8970732000,0,47.3977508,8.5456074,0.35582376,0.0978489,-6.8000183,0.0,0.0,0.0,0.0,-0.02,-0.17999999,0.0,0.0,0.0,0.0,0.0,0.0,0.0,0.39239326,488.83002,0.0,0.0,0.0,0.0,0.0,0.0,inf,inf,inf,inf,1,1,1,1,0,0,0,0,1,1,0
8970828000,0,47.3977508,8.5456074,0.35582376,0.09032206,-6.817993,0.0,0.0,0.0,0.0,-0.02,-0.17,0.0,0.0,0.0,0.0,0.0,0.0,0.0,0.39233822,488.83002,0.0,0.0,0.0,0.0,0.0,0.0,inf,inf,inf,inf,1,1,1,1,0,0,0,0,1,1,0
8970932000,0,47.3977508,8.5456074,0.35582376,0.09032206,-6.8359985,0.0,0.0,0.0,0.0,-0.02,-0.17,0.0,0.0,0.0,0.0,0.0,0.0,0.0,0.3923993,488.83002,0.0,0.0,0.0,0.0,0.0,0.0,inf,inf,inf,inf,1,1,1,1,0,0,0,0,1,1,0
8971032000,0,47.3977508,8.5456074,0.35582376,0.09032206,-6.852997,0.0,0.0,0.0,0.0,-0.02,-0.16,0.0,0.0,0.0,0.0,0.0,0.0,0.0,0.3924241,488.83002,0.0,0.0,0.0,0.0,0.0,0.0,inf,inf,inf,inf,1,1,1,1,0,0,0,0,1,1,0
8971132000,0,47.3977508,8.5456074,0.35582376,0.08279522,-6.8690186,0.0,0.0,0.0,0.0,-0.02,-0.14999999,0.0,0.0,0.0,0.0,0.0,0.0,0.0,0.39235532,488.83002,0.0,0.0,0.0,0.0,0.0,0.0,inf,inf,inf,inf,1,1,1,1,0,0,0,0,1,1,0
8971232000,0,47.3977508,8.5456074,0.35582376,0.08279522,-6.88501,0.0,0.0,0.0,0.0,-0.02,-0.14999999,0.0,0.0,0.0,0.0,0.0,0.0,0.0,0.3922766,488.83002,0.0,0.0,0.0,0.0,0.0,0.0,inf,inf,inf,inf,1,1,1,1,0,0,0,0,1,1,0
8971328000,0,47.3977508,8.5456074,0.35582376,0.08279522,-6.899994,0.0,0.0,0.0,0.0,-0.02,-0.14999999,0.0,0.0,0.0,0.0,0.0,0.0,0.0,0.39227676,488.83002,0.0,0.0,0.0,0.0,0.0,0.0,inf,inf,inf,inf,1,1,1,1,0,0,0,0,1,1,0
8971432000,0,47.3977508,8.5456074,0.35582376,0.07526838,-6.9150085,0.0,0.0,0.0,0.0,-0.02,-0.14,0.0,0.0,0.0,0.0,0.0,0.0,0.0,0.39225858,488.83002,0.0,0.0,0.0,0.0,0.0,0.0,inf,inf,inf,inf,1,1,1,1,0,0,0,0,1,1,0
8971532000,0,47.3977508,8.5456074,0.35582376,0.07526838,-6.9299927,0.0,0.0,0.0,0.0,-0.03,-0.14,0.0,0.0,0.0,0.0,0.0,0.0,0.0,0.3922444,488.83002,0.0,0.0,0.0,0.0,0.0,0.0,inf,inf,inf,inf,1,1,1,1,0,0,0,0,1,1,0
8971632000,0,47.3977508,8.5456074,0.35582376,0.07526838,-6.9440002,0.0,0.0,0.0,0.0,-0.03,-0.14,0.0,0.0,0.0,0.0,0.0,0.0,0.0,0.39223048,488.83002,0.0,0.0,0.0,0.0,0.0,0.0,inf,inf,inf,inf,1,1,1,1,0,0,0,0,1,1,0
8971728000,0,47.3977508,8.5456074,0.35582376,0.06774154,-6.958008,0.0,0.0,0.0,0.0,-0.02,-0.13,0.0,0.0,0.0,0.0,0.0,0.0,0.0,0.39224654,488.83002,0.0,0.0,0.0,0.0,0.0,0.0,inf,inf,inf,inf,1,1,1,1,0,0,0,0,1,1,0
8971832000,0,47.3977508,8.5456074,0.35582376,0.06774154,-6.9720154,0.0,0.0,0.0,0.0,-0.02,-0.13,0.0,0.0,0.0,0.0,0.0,0.0,0.0,0.39219096,488.83002,0.0,0.0,0.0,0.0,0.0,0.0,inf,inf,inf,inf,1,1,1,1,0,0,0,0,1,1,0
8971932000,0,47.3977508,8.5456074,0.35582376,0.060214706,-6.985016,0.0,0.0,0.0,0.0,-0.02,-0.13,0.0,0.0,0.0,0.0,0.0,0.0,0.0,0.39223754,488.83002,0.0,0.0,0.0,0.0,0.0,0.0,inf,inf,inf,inf,1,1,1,1,0,0,0,0,1,1,0
8972028000,0,47.3977508,8.5456074,0.35582376,0.060214706,-6.9980164,0.0,0.0,0.0,0.0,-0.02,-0.12,0.0,0.0,0.0,0.0,0.0,0.0,0.0,0.3922906,488.83002,0.0,0.0,0.0,0.0,0.0,0.0,inf,inf,inf,inf,1,1,1,1,0,0,0,0,1,1,0
8972132000,0,47.3977508,8.5456074,0.35582376,0.060214706,-7.01001,0.0,0.0,0.0,0.0,-0.02,-0.12,0.0,0.0,0.0,0.0,0.0,0.0,0.0,0.39231887,488.83002,0.0,0.0,0.0,0.0,0.0,0.0,inf,inf,inf,inf,1,1,1,1,0,0,0,0,1,1,0
8972232000,0,47.3977508,8.5456074,0.35582376,0.05268787,-7.0230103,0.0,0.0,0.0,0.0,-0.03,-0.12,0.0,0.0,0.0,0.0,0.0,0.0,0.0,0.3923433,488.83002,0.0,0.0,0.0,0.0,0.0,0.0,inf,inf,inf,inf,1,1,1,1,0,0,0,0,1,1,0
8972328000,0,47.3977508,8.5456074,0.35582376,0.05268787,-7.0350037,0.0,0.0,0.0,0.0,-0.03,-0.11,0.0,0.0,0.0,0.0,0.0,0.0,0.0,0.39226556,488.83002,0.0,0.0,0.0,0.0,0.0,0.0,inf,inf,inf,inf,1,1,1,1,0,0,0,0,1,1,0
8972432000,0,47.3977508,8.5456074,0.35582376,0.04516103,-7.046997,0.0,0.0,0.0,0.0,-0.03,-0.12,0.0,0.0,0.0,0.0,0.0,0.0,0.0,0.3921693,488.83002,0.0,0.0,0.0,0.0,0.0,0.0,inf,inf,inf,inf,1,1,1,1,0,0,0,0,1,1,0
8972532000,0,47.3977508,8.5456074,0.35582376,0.04516103,-7.0599976,0.0,0.0,0.0,0.0,-0.03,-0.11,0.0,0.0,0.0,0.0,0.0,0.0,0.0,0.39207512,488.83002,0.0,0.0,0.0,0.0,0.0,0.0,inf,inf,inf,inf,1,1,1,1,0,0,0,0,1,1,0
8972632000,0,47.3977508,8.5456074,0.35582376,0.03763419,-7.0710144,0.0,0.0,0.0,0.01,-0.03,-0.11,0.0,0.0,0.0,0.0,0.0,0.0,0.0,0.39198446,488.83002,0.0,0.0,0.0,0.0,0.0,0.0,inf,inf,inf,inf,1,1,1,1,0,0,0,0,1,1,0
8972732000,0,47.3977508,8.5456074,0.35582376,0.03763419,-7.0820007,0.0,0.0,0.0,0.01,-0.03,-0.11,0.0,0.0,0.0,0.0,0.0,0.0,0.0,0.39182535,488.83002,0.0,0.0,0.0,0.0,0.0,0.0,inf,inf,inf,inf,1,1,1,1,0,0,0,0,1,1,0
8972828000,0,47.3977508,8.5456074,0.36694327,0.030107353,-7.0930176,0.0,0.0,0.0,0.01,-0.03,-0.11,0.0,0.0,0.0,0.0,0.0,0.0,0.0,0.39166975,488.83002,0.0,0.0,0.0,0.0,0.0,0.0,inf,inf,inf,inf,1,1,1,1,0,0,0,0,1,1,0
8972928000,0,47.3977508,8.5456074,0.36694327,0.030107353,-7.105011,0.0,0.0,0.0,0.01,-0.04,-0.099999994,0.0,0.0,0.0,0.0,0.0,0.0,0.0,0.39162114,488.83002,0.0,0.0,0.0,0.0,0.0,0.0,inf,inf,inf,inf,1,1,1,1,0,0,0,0,1,1,0
8973032000,0,47.3977508,8.5456074,0.36694327,0.022580514,-7.1159973,0.0,0.0,0.0,0.0,-0.04,-0.099999994,0.0,0.0,0.0,0.0,0.0,0.0,0.0,0.39174148,488.83002,0.0,0.0,0.0,0.0,0.0,0.0,inf,inf,inf,inf,1,1,1,1,0,0,0,0,1,1,0
8973132000,0,47.3977508,8.5456074,0.36694327,0.022580514,-7.126007,0.0,0.0,0.0,0.0,-0.04,-0.099999994,0.0,0.0,0.0,0.0,0.0,0.0,0.0,0.39183414,488.83002,0.0,0.0,0.0,0.0,0.0,0.0,inf,inf,inf,inf,1,1,1,1,0,0,0,0,1,1,0
8973232000,0,47.3977508,8.5456074,0.36694327,0.015053676,-7.136017,0.0,0.0,0.0,0.0,-0.04,-0.089999996,0.0,0.0,0.0,0.0,0.0,0.0,0.0,0.39187884,488.83002,0.0,0.0,0.0,0.0,0.0,0.0,inf,inf,inf,inf,1,1,1,1,0,0,0,0,1,1,0
8973332000,0,47.3977508,8.5456074,0.36694327,0.015053676,-7.1450195,0.0,0.0,0.0,0.0,-0.03,-0.089999996,0.0,0.0,0.0,0.0,0.0,0.0,0.0,0.39198375,488.83002,0.0,0.0,0.0,0.0,0.0,0.0,inf,inf,inf,inf,1,1,1,1,0,0,0,0,1,1,0
8973428000,0,47.3977508,8.5456074,0.36694327,0.007526838,-7.1539917,0.0,0.0,0.0,0.0,-0.03,-0.08,0.0,0.0,0.0,0.0,0.0,0.0,0.0,0.39196295,488.83002,0.0,0.0,0.0,0.0,0.0,0.0,inf,inf,inf,inf,1,1,1,1,0,0,0,0,1,1,0
8973532000,0,47.3977508,8.5456074,0.36694327,0.007526838,-7.1629944,0.0,0.0,0.0,0.0,-0.03,-0.08,0.0,0.0,0.0,0.0,0.0,0.0,0.0,0.39190203,488.83002,0.0,0.0,0.0,0.0,0.0,0.0,inf,inf,inf,inf,1,1,1,1,0,0,0,0,1,1,0
8973632000,0,47.3977508,8.5456074,0.36694327,0.0,-7.1710205,0.0,0.0,0.0,0.0,-0.03,-0.08,0.0,0.0,0.0,0.0,0.0,0.0,0.0,0.39173126,488.83002,0.0,0.0,0.0,0.0,0.0,0.0,inf,inf,inf,inf,1,1,1,1,0,0,0,0,1,1,0
8973732000,0,47.3977508,8.5456074,0.36694327,0.0,-7.1799927,0.0,0.0,0.0,0.0,-0.03,-0.07,0.0,0.0,0.0,0.0,0.0,0.0,0.0,0.39162937,488.83002,0.0,0.0,0.0,0.0,0.0,0.0,inf,inf,inf,inf,1,1,1,1,0,0,0,0,1,1,0
8973832000,0,47.3977508,8.5456074,0.36694327,-0.007526838,-7.1870117,0.0,0.0,0.0,0.0,-0.03,-0.07,0.0,0.0,0.0,0.0,0.0,0.0,0.0,0.39158747,488.83002,0.0,0.0,0.0,0.0,0.0,0.0,inf,inf,inf,inf,1,1,1,1,0,0,0,0,1,1,0
8973932000,0,47.3977508,8.5456074,0.36694327,-0.007526838,-7.1950073,0.0,0.0,0.0,0.0,-0.03,-0.07,0.0,0.0,0.0,0.0,0.0,0.0,0.0,0.3915962,488.83002,0.0,0.0,0.0,0.0,0.0,0.0,inf,inf,inf,inf,1,1,1,1,0,0,0,0,1,1,0
8974028000,0,47.3977508,8.5456074,0.36694327,-0.015053676,-7.201996,0.0,0.0,0.0,0.0,-0.03,-0.07,0.0,0.0,0.0,0.0,0.0,0.0,0.0,0.3915365,488.83002,0.0,0.0,0.0,0.0,0.0,0.0,inf,inf,inf,inf,1,1,1,1,0,0,0,0,1,1,0
8974128000,0,47.3977508,8.5456074,0.36694327,-0.015053676,-7.209015,0.0,0.0,0.0,0.0,-0.03,-0.07,0.0,0.0,0.0,0.0,0.0,0.0,0.0,0.39141938,488.83002,0.0,0.0,0.0,0.0,0.0,0.0,inf,inf,inf,inf,1,1,1,1,0,0,0,0,1,1,0
8974232000,0,47.3977508,8.5456074,0.37806275,-0.022580514,-7.2160034,0.0,0.0,0.0,0.0,-0.03,-0.06,0.0,0.0,0.0,0.0,0.0,0.0,0.0,0.391237,488.83002,0.0,0.0,0.0,0.0,0.0,0.0,inf,inf,inf,inf,1,1,1,1,0,0,0,0,1,1,0
8974332000,0,47.3977508,8.5456074,0.37806275,-0.022580514,-7.222992,0.0,0.0,0.0,0.0,-0.03,-0.07,0.0,0.0,0.0,0.0,0.0,0.0,0.0,0.39116487,488.83002,0.0,0.0,0.0,0.0,0.0,0.0,inf,inf,inf,inf,1,1,1,1,0,0,0,0,1,1,0
8974428000,0,47.3977508,8.5456074,0.37806275,-0.030107353,-7.230011,0.0,0.0,0.0,0.0,-0.03,-0.07,0.0,0.0,0.0,0.0,0.0,0.0,0.0,0.39102858,488.83002,0.0,0.0,0.0,0.0,0.0,0.0,inf,inf,inf,inf,1,1,1,1,0,0,0,0,1,1,0
8974532000,0,47.3977508,8.5456074,0.37806275,-0.030107353,-7.2409973,0.0,0.0,0.0,0.0,0.0,-0.19999999,0.0,0.0,0.0,0.0,0.0,0.0,0.0,0.43373027,488.83002,0.0,0.0,0.0,0.0,0.0,0.0,inf,inf,inf,inf,1,1,1,1,0,0,0,0,1,1,0
8974632000,0,47.3977508,8.5456074,0.37806275,-0.022580514,-7.2660217,0.0,0.0,0.0,0.02,0.11,-0.17,0.0,0.0,0.0,0.0,0.0,0.0,0.0,0.61562335,488.83002,0.0,0.0,0.0,0.0,0.0,0.0,inf,inf,inf,inf,1,1,1,1,0,0,0,0,1,1,0
8974732000,0,47.3977508,8.5456074,0.37806275,-0.007526838,-7.2680054,0.0,0.0,0.0,0.03,0.19999999,0.07,0.0,0.0,0.0,0.0,0.0,0.0,0.0,0.8417609,488.83002,0.0,0.0,0.0,0.0,0.0,0.0,inf,inf,inf,inf,1,1,1,1,0,0,0,0,1,1,0
8974832000,0,47.3977508,8.5456074,0.37806275,0.015053676,-7.2619934,0.0,0.0,0.0,0.01,0.29,0.02,0.0,0.0,0.0,0.0,0.0,0.0,0.0,1.040349,488.83002,0.0,0.0,0.0,0.0,0.0,0.0,inf,inf,inf,inf,1,1,1,1,0,0,0,0,1,1,0
8974928000,0,47.3977508,8.5456074,0.37806275,0.045161027,-7.2619934,0.0,0.0,0.0,0.0,0.32,0.0,0.0,0.0,0.0,0.0,0.0,0.0,0.0,1.1882823,488.83002,0.0,0.0,0.0,0.0,0.0,0.0,inf,inf,inf,inf,1,1,1,1,0,0,0,0,1,1,0
8975032000,0,47.3977508,8.5456074,0.37806275,0.08279522,-7.261017,0.0,0.0,0.0,0.0,0.32,0.01,0.0,0.0,0.0,0.0,0.0,0.0,0.0,1.3087571,488.83002,0.0,0.0,0.0,0.0,0.0,0.0,inf,inf,inf,inf,1,1,1,1,0,0,0,0,1,1,0
8975128000,0,47.3977508,8.5456074,0.37806275,0.112902574,-7.26001,0.0,0.0,0.0,0.0,0.32,0.0,0.0,0.0,0.0,0.0,0.0,0.0,0.0,1.3907945,488.83002,0.0,0.0,0.0,0.0,0.0,0.0,inf,inf,inf,inf,1,1,1,1,0,0,0,0,1,1,0
8975232000,0,47.3977508,8.5456074,0.37806275,0.15053676,-7.26001,0.0,0.0,0.0,-0.01,0.34,0.0,0.0,0.0,0.0,0.0,0.0,0.0,0.0,1.4560677,488.83002,0.0,0.0,0.0,0.0,0.0,0.0,inf,inf,inf,inf,1,1,1,1,0,0,0,0,1,1,0
8975332000,0,47.3977508,8.5456074,0.37806275,0.18064411,-7.26001,0.0,0.0,0.0,-0.02,0.35,0.0,0.0,0.0,0.0,0.0,0.0,0.0,0.0,1.501796,488.83002,0.0,0.0,0.0,0.0,0.0,0.0,inf,inf,inf,inf,1,1,1,1,0,0,0,0,1,1,0
8975432000,0,47.3977508,8.5456074,0.37806275,0.2182783,-7.26001,0.0,0.0,0.0,-0.02,0.37,0.0,0.0,0.0,0.0,0.0,0.0,0.0,0.0,1.5352813,488.83002,0.0,0.0,0.0,0.0,0.0,0.0,inf,inf,inf,inf,1,1,1,1,0,0,0,0,1,1,0
8975532000,0,47.3977508,8.5456074,0.36694327,0.2559125,-7.26001,0.0,0.0,0.0,-0.03,0.38,0.0,0.0,0.0,0.0,0.0,0.0,0.0,0.0,1.5597168,488.83002,0.0,0.0,0.0,0.0,0.0,0.0,inf,inf,inf,inf,1,1,1,1,0,0,0,0,1,1,0
8975632000,0,47.3977508,8.5456074,0.36694327,0.30107352,-7.26001,0.0,0.0,0.0,-0.04,0.39999998,0.0,0.0,0.0,0.0,0.0,0.0,0.0,0.0,1.5772625,488.83002,0.0,0.0,0.0,0.0,0.0,0.0,inf,inf,inf,inf,1,1,1,1,0,0,0,0,1,1,0
8975732000,0,47.3977508,8.5456074,0.36694327,0.33870772,-7.2590027,0.0,0.0,0.0,-0.049999997,0.42,0.0,0.0,0.0,0.0,0.0,0.0,0.0,0.0,1.5898652,488.83002,0.0,0.0,0.0,0.0,0.0,0.0,inf,inf,inf,inf,1,1,1,1,0,0,0,0,1,1,0
8975832000,0,47.3977508,8.5456074,0.35582379,0.38386875,-7.2590027,0.0,0.0,0.0,-0.049999997,0.42999998,0.0,0.0,0.0,0.0,0.0,0.0,0.0,0.0,1.5989189,488.83002,0.0,0.0,0.0,0.0,0.0,0.0,inf,inf,inf,inf,1,1,1,1,0,0,0,0,1,1,0
8975932000,0,47.3977508,8.5456074,0.35582379,0.4290298,-7.2579956,0.0,0.0,0.0,-0.06,0.45,0.0,0.0,0.0,0.0,0.0,0.0,0.0,0.0,1.6054199,488.83002,0.0,0.0,0.0,0.0,0.0,0.0,inf,inf,inf,inf,1,1,1,1,0,0,0,0,1,1,0
8976028000,0,47.3977508,8.5456074,0.3447043,0.4741908,-7.257019,0.0,0.0,0.0,-0.07,0.45999998,0.0,0.0,0.0,0.0,0.0,0.0,0.0,0.0,1.6098751,488.83002,0.0,0.0,0.0,0.0,0.0,0.0,inf,inf,inf,inf,1,1,1,1,0,0,0,0,1,1,0
8976132000,0,47.3977508,8.5456074,0.33358482,0.51935184,-7.257019,0.0,0.0,0.0,-0.07,0.48,0.0,0.0,0.0,0.0,0.0,0.0,0.0,0.0,1.6132551,488.83002,0.0,0.0,0.0,0.0,0.0,0.0,inf,inf,inf,inf,1,1,1,1,0,0,0,0,1,1,0
8976232000,0,47.3977508,8.5456074,0.33358482,0.5720397,-7.256012,0.0,0.0,0.0,-0.08,0.5,0.01,0.0,0.0,0.0,0.0,0.0,0.0,0.0,1.6154277,488.83002,0.0,0.0,0.0,0.0,0.0,0.0,inf,inf,inf,inf,1,1,1,1,0,0,0,0,1,1,0
8976332000,0,47.3977508,8.5456074,0.32246533,0.62472755,-7.255005,0.0,0.0,0.0,-0.08,0.52,0.01,0.0,0.0,0.0,0.0,0.0,0.0,0.0,1.6169888,488.83002,0.0,0.0,0.0,0.0,0.0,0.0,inf,inf,inf,inf,1,1,1,1,0,0,0,0,1,1,0
8976432000,0,47.3977508,8.5456074,0.31134585,0.67741543,-7.253998,0.0,0.0,0.0,-0.089999996,0.53999996,0.01,0.0,0.0,0.0,0.0,0.0,0.0,0.0,1.6180526,488.83002,0.0,0.0,0.0,0.0,0.0,0.0,inf,inf,inf,inf,1,1,1,1,0,0,0,0,1,1,0
8976532000,0,47.3977508,8.5456074,0.30022636,0.7301033,-7.252014,0.0,0.0,0.0,-0.099999994,0.56,0.01,0.0,0.0,0.0,0.0,0.0,0.0,0.0,1.6185126,488.83002,0.0,0.0,0.0,0.0,0.0,0.0,inf,inf,inf,inf,1,1,1,1,0,0,0,0,1,1,0
8976632000,0,47.3977508,8.5456074,0.28910688,0.790318,-7.25,0.0,0.0,0.0,-0.099999994,0.58,0.01,0.0,0.0,0.0,0.0,0.0,0.0,0.0,1.6186554,488.83002,0.0,0.0,0.0,0.0,0.0,0.0,inf,inf,inf,inf,1,1,1,1,0,0,0,0,1,1,0
8976732000,0,47.3977508,8.5456074,0.2779874,0.8505327,-7.248993,0.0,0.0,0.0,-0.099999994,0.59999996,0.01,0.0,0.0,0.0,0.0,0.0,0.0,0.0,1.6187207,488.83002,0.0,0.0,0.0,0.0,0.0,0.0,inf,inf,inf,inf,1,1,1,1,0,0,0,0,1,1,0
8976832000,0,47.3977508,8.5456074,0.2668679,0.91074747,-7.2470093,0.0,0.0,0.0,-0.11,0.63,0.01,0.0,0.0,0.0,0.0,0.0,0.0,0.0,1.6186954,488.83002,0.0,0.0,0.0,0.0,0.0,0.0,inf,inf,inf,inf,1,1,1,1,0,0,0,0,1,1,0
8976932000,0,47.3977508,8.5456074,0.25574842,0.978489,-7.244995,0.0,0.0,0.0,-0.11,0.65,0.01,0.0,0.0,0.0,0.0,0.0,0.0,0.0,1.618485,488.83002,0.0,0.0,0.0,0.0,0.0,0.0,inf,inf,inf,inf,1,1,1,1,0,0,0,0,1,1,0
8977032000,0,47.3977508,8.5456074,0.24462894,1.0462306,-7.2430115,0.0,0.0,0.0,-0.12,0.66999996,0.02,0.0,0.0,0.0,0.0,0.0,0.0,0.0,1.6182495,488.83002,0.0,0.0,0.0,0.0,0.0,0.0,inf,inf,inf,inf,1,1,1,1,0,0,0,0,1,1,0
8977128000,0,47.3977508,8.5456074,0.23350945,1.1139721,-7.2409973,0.0,0.0,0.0,-0.12,0.7,0.02,0.0,0.0,0.0,0.0,0.0,0.0,0.0,1.6178671,488.83002,0.0,0.0,0.0,0.0,0.0,0.0,inf,inf,inf,inf,1,1,1,1,0,0,0,0,1,1,0
8977228000,0,47.3977508,8.5456074,0.22238997,1.1817136,-7.2390137,0.0,0.0,0.0,-0.12,0.71999997,0.02,0.0,0.0,0.0,0.0,0.0,0.0,0.0,1.6174508,488.83002,0.0,0.0,0.0,0.0,0.0,0.0,inf,inf,inf,inf,1,1,1,1,0,0,0,0,1,1,0
8977328000,0,47.3977508,8.5456074,0.2112705,1.256982,-7.2359924,0.0,0.0,0.0,-0.12,0.75,0.02,0.0,0.0,0.0,0.0,0.0,0.0,0.0,1.6170379,488.83002,0.0,0.0,0.0,0.0,0.0,0.0,inf,inf,inf,inf,1,1,1,1,0,0,0,0,1,1,0
8977432000,0,47.3977508,8.5456074,0.18903153,1.3397772,-7.2330017,0.0,0.0,0.0,-0.12,0.78,0.02,0.0,0.0,0.0,0.0,0.0,0.0,0.0,1.6166687,488.83002,0.0,0.0,0.0,0.0,0.0,0.0,inf,inf,inf,inf,1,1,1,1,0,0,0,0,1,1,0
8977528000,0,47.3977508,8.5456074,0.17791206,1.4075187,-7.231018,0.0,0.0,0.0,-0.12,0.81,0.02,0.0,0.0,0.0,0.0,0.0,0.0,0.0,1.6163719,488.83002,0.0,0.0,0.0,0.0,0.0,0.0,inf,inf,inf,inf,1,1,1,1,0,0,0,0,1,1,0
8977632000,0,47.3977508,8.5456074,0.16679259,1.4978409,-7.2270203,0.0,0.0,0.0,-0.12,0.84,0.02,0.0,0.0,0.0,0.0,0.0,0.0,0.0,1.6159636,488.83002,0.0,0.0,0.0,0.0,0.0,0.0,inf,inf,inf,inf,1,1,1,1,0,0,0,0,1,1,0
8977732000,0,47.3977508,8.5456074,0.15567312,1.5881629,-7.225006,0.0,0.0,0.0,-0.12,0.87,0.02,0.0,0.0,0.0,0.0,0.0,0.0,0.0,1.6155007,488.83002,0.0,0.0,0.0,0.0,0.0,0.0,inf,inf,inf,inf,1,1,1,1,0,0,0,0,1,1,0
8977832000,0,47.3977508,8.5456074,0.14455365,1.6709582,-7.2220154,0.0,0.0,0.0,-0.12,0.89,0.02,0.0,0.0,0.0,0.0,0.0,0.0,0.0,1.6149919,488.83002,0.0,0.0,0.0,0.0,0.0,0.0,inf,inf,inf,inf,1,1,1,1,0,0,0,0,1,1,0
8977932000,0,47.3977508,8.5456074,0.13343418,1.768807,-7.218994,0.0,0.0,0.0,-0.12,0.93,0.02,0.0,0.0,0.0,0.0,0.0,0.0,0.0,1.614534,488.83002,0.0,0.0,0.0,0.0,0.0,0.0,inf,inf,inf,inf,1,1,1,1,0,0,0,0,1,1,0
8978032000,0,47.3977508,8.5456074,0.122314714,1.8591291,-7.2160034,0.0,0.0,0.0,-0.12,0.96,0.02,0.0,0.0,0.0,0.0,0.0,0.0,0.0,1.6140501,488.83002,0.0,0.0,0.0,0.0,0.0,0.0,inf,inf,inf,inf,1,1,1,1,0,0,0,0,1,1,0
8978132000,0,47.3977508,8.5456074,0.10007576,1.9569781,-7.21402,0.0,0.0,0.0,-0.12,0.98999995,0.02,0.0,0.0,0.0,0.0,0.0,0.0,0.0,1.6135587,488.83002,0.0,0.0,0.0,0.0,0.0,0.0,inf,inf,inf,inf,1,1,1,1,0,0,0,0,1,1,0
8978232000,0,47.3977508,8.5456074,0.088956304,2.0623538,-7.2109985,0.0,0.0,0.0,-0.12,1.02,0.02,0.0,0.0,0.0,0.0,0.0,0.0,0.0,1.6130846,488.83002,0.0,0.0,0.0,0.0,0.0,0.0,inf,inf,inf,inf,1,1,1,1,0,0,0,0,1,1,0
8978328000,0,47.3977508,8.5456074,0.07783685,2.1602027,-7.208008,0.0,0.0,0.0,-0.12,1.05,0.03,0.0,0.0,0.0,0.0,0.0,0.0,0.0,1.6126204,488.83002,0.0,0.0,0.0,0.0,0.0,0.0,inf,inf,inf,inf,1,1,1,1,0,0,0,0,1,1,0
8978432000,0,47.3977508,8.5456074,0.06671739,2.2655785,-7.205017,0.0,0.0,0.0,-0.11,1.05,0.02,0.0,0.0,0.0,0.0,0.0,0.0,0.0,1.6121479,488.83002,0.0,0.0,0.0,0.0,0.0,0.0,inf,inf,inf,inf,1,1,1,1,0,0,0,0,1,1,0
8978532000,0,47.3977508,8.5456074,0.055597946,2.378481,-7.201996,0.0,0.0,0.0,-0.11,1.03,0.02,0.0,0.0,0.0,0.0,0.0,0.0,0.0,1.6118501,488.83002,0.0,0.0,0.0,0.0,0.0,0.0,inf,inf,inf,inf,1,1,1,1,0,0,0,0,1,1,0
8978632000,0,47.3977508,8.5456074,0.044478495,2.4763298,-7.199005,0.0,0.0,0.0,-0.11,1.0,0.02,0.0,0.0,0.0,0.0,0.0,0.0,0.0,1.6115159,488.83002,0.0,0.0,0.0,0.0,0.0,0.0,inf,inf,inf,inf,1,1,1,1,0,0,0,0,1,1,0
8978732000,0,47.3977508,8.5456074,0.033359043,2.574179,-7.1970215,0.0,0.0,0.0,-0.099999994,0.96999997,0.02,0.0,0.0,0.0,0.0,0.0,0.0,0.0,1.6112272,488.83002,0.0,0.0,0.0,0.0,0.0,0.0,inf,inf,inf,inf,1,1,1,1,0,0,0,0,1,1,0
8978832000,0,47.3977508,8.5456074,0.022239596,2.6720278,-7.1950073,0.0,0.0,0.0,-0.099999994,0.94,0.02,0.0,0.0,0.0,0.0,0.0,0.0,0.0,1.6108569,488.83002,0.0,0.0,0.0,0.0,0.0,0.0,inf,inf,inf,inf,1,1,1,1,0,0,0,0,1,1,0
8978932000,0,47.3977508,8.5456074,0.011120148,2.7698767,-7.1920166,0.0,0.0,0.0,-0.089999996,0.90999997,0.02,0.0,0.0,0.0,0.0,0.0,0.0,0.0,1.6104796,488.83002,0.0,0.0,0.0,0.0,0.0,0.0,inf,inf,inf,inf,1,1,1,1,0,0,0,0,1,1,0
8979032000,0,47.3977508,8.5456074,6.981279e-07,2.8601987,-7.1889954,0.0,0.0,0.0,-0.089999996,0.88,0.02,0.0,0.0,0.0,0.0,0.0,0.0,0.0,1.6100898,488.83002,0.0,0.0,0.0,0.0,0.0,0.0,inf,inf,inf,inf,1,1,1,1,0,0,0,0,1,1,0
8979128000,0,47.3977508,8.5456074,-0.011118753,2.9429939,-7.1870117,0.0,0.0,0.0,-0.08,0.84,0.02,0.0,0.0,0.0,0.0,0.0,0.0,0.0,1.609716,488.83002,0.0,0.0,0.0,0.0,0.0,0.0,inf,inf,inf,inf,1,1,1,1,0,0,0,0,1,1,0
8979228000,0,47.3977508,8.5456074,-0.011118711,3.0257893,-7.184021,0.0,0.0,0.0,-0.08,0.81,0.03,0.0,0.0,0.0,0.0,0.0,0.0,0.0,1.6094017,488.83002,0.0,0.0,0.0,0.0,0.0,0.0,inf,inf,inf,inf,1,1,1,1,0,0,0,0,1,1,0
8979332000,0,47.3977508,8.5456074,-0.022238161,3.1085844,-7.1799927,0.0,0.0,0.0,-0.07,0.78,0.03,0.0,0.0,0.0,0.0,0.0,0.0,0.0,1.6090959,488.83002,0.0,0.0,0.0,0.0,0.0,0.0,inf,inf,inf,inf,1,1,1,1,0,0,0,0,1,1,0
8979432000,0,47.3977508,8.5456074,-0.033357613,3.1838527,-7.177002,0.0,0.0,0.0,-0.07,0.75,0.03,0.0,0.0,0.0,0.0,0.0,0.0,0.0,1.608836,488.83002,0.0,0.0,0.0,0.0,0.0,0.0,inf,inf,inf,inf,1,1,1,1,0,0,0,0,1,1,0
8979532000,0,47.3977508,8.5456074,-0.03335757,3.2591212,-7.174011,0.0,0.0,0.0,-0.06,0.71999997,0.03,0.0,0.0,0.0,0.0,0.0,0.0,0.0,1.6085395,488.83002,0.0,0.0,0.0,0.0,0.0,0.0,inf,inf,inf,inf,1,1,1,1,0,0,0,0,1,1,0
8979632000,0,47.3977508,8.5456074,-0.044477027,3.3268628,-7.1700134,0.0,0.0,0.0,-0.049999997,0.69,0.03,0.0,0.0,0.0,0.0,0.0,0.0,0.0,1.6083167,488.83002,0.0,0.0,0.0,0.0,0.0,0.0,inf,inf,inf,inf,1,1,1,1,0,0,0,0,1,1,0
8979732000,0,47.3977508,8.5456074,-0.044476986,3.3946042,-7.166992,0.0,0.0,0.0,-0.04,0.66999996,0.03,0.0,0.0,0.0,0.0,0.0,0.0,0.0,1.6081272,488.83002,0.0,0.0,0.0,0.0,0.0,0.0,inf,inf,inf,inf,1,1,1,1,0,0,0,0,1,1,0
8979832000,0,47.3977508,8.5456074,-0.05559644,3.4623458,-7.1640015,0.0,0.0,0.0,-0.03,0.64,0.03,0.0,0.0,0.0,0.0,0.0,0.0,0.0,1.6080143,488.83002,0.0,0.0,0.0,0.0,0.0,0.0,inf,inf,inf,inf,1,1,1,1,0,0,0,0,1,1,0
8979928000,0,47.3977508,8.5456074,-0.0555964,3.5300875,-7.1610107,0.0,0.0,0.0,-0.02,0.62,0.02,0.0,0.0,0.0,0.0,0.0,0.0,0.0,1.6079488,488.83002,0.0,0.0,0.0,0.0,0.0,0.0,inf,inf,inf,inf,1,1,1,1,0,0,0,0,1,1,0
8980032000,0,47.3977508,8.5456074,-0.055596363,3.590302,-7.15802,0.0,0.0,0.0,-0.01,0.59,0.02,0.0,0.0,0.0,0.0,0.0,0.0,0.0,1.6077645,488.83002,0.0,0.0,0.0,0.0,0.0,0.0,inf,inf,inf,inf,1,1,1,1,0,0,0,0,1,1,0
8980128000,0,47.3977508,8.5456074,-0.05559633,3.6429899,-7.154999,0.0,0.0,0.0,0.0,0.57,0.02,0.0,0.0,0.0,0.0,0.0,0.0,0.0,1.6075549,488.83002,0.0,0.0,0.0,0.0,0.0,0.0,inf,inf,inf,inf,1,1,1,1,0,0,0,0,1,1,0
8980232000,0,47.3977508,8.5456074,-0.055596292,3.7032046,-7.153015,0.0,0.0,0.0,0.02,0.53999996,0.01,0.0,0.0,0.0,0.0,0.0,0.0,0.0,1.6073325,488.83002,0.0,0.0,0.0,0.0,0.0,0.0,inf,inf,inf,inf,1,1,1,1,0,0,0,0,1,1,0
8980332000,0,47.3977508,8.5456074,-0.05559626,3.7558925,-7.151001,0.0,0.0,0.0,0.049999997,0.51,0.01,0.0,0.0,0.0,0.0,0.0,0.0,0.0,1.6071517,488.83002,0.0,0.0,0.0,0.0,0.0,0.0,inf,inf,inf,inf,1,1,1,1,0,0,0,0,1,1,0
8980432000,0,47.3977508,8.5456074,-0.044476733,3.8085804,-7.149994,0.0,0.0,0.0,0.089999996,0.47,0.01,0.0,0.0,0.0,0.0,0.0,0.0,0.0,1.6067396,488.83002,0.0,0.0,0.0,0.0,0.0,0.0,inf,inf,inf,inf,1,1,1,1,0,0,0,0,1,1,0
8980528000,0,47.3977508,8.5456074,-0.03335721,3.8537414,-7.1480103,0.0,0.0,0.0,0.13,0.42,0.01,0.0,0.0,0.0,0.0,0.0,0.0,0.0,1.6053771,488.83002,0.0,0.0,0.0,0.0,0.0,0.0,inf,inf,inf,inf,1,1,1,1,0,0,0,0,1,1,0
8980632000,0,47.3977508,8.5456074,-0.011118201,3.8913755,-7.147003,0.0,0.0,0.0,0.22,0.32999998,0.01,0.0,0.0,0.0,0.0,0.0,0.0,0.0,1.604464,488.83002,0.0,0.0,0.0,0.0,0.0,0.0,inf,inf,inf,inf,1,1,1,1,0,0,0,0,1,1,0
8980732000,0,47.3977508,8.5456074,0.0111208055,3.921483,-7.1440125,0.0,0.0,0.0,0.35999998,0.22999999,0.049999997,0.0,0.0,0.0,0.0,0.0,0.0,0.0,1.6076899,488.83002,0.0,0.0,0.0,0.0,0.0,0.0,inf,inf,inf,inf,1,1,1,1,0,0,0,0,1,1,0
8980832000,0,47.3977508,8.5456074,0.055598788,3.9365366,-7.1380005,0.0,0.0,0.0,0.48999998,0.14999999,0.06,0.0,0.0,0.0,0.0,0.0,0.0,0.0,1.6138815,488.83002,0.0,0.0,0.0,0.0,0.0,0.0,inf,inf,inf,inf,1,1,1,1,0,0,0,0,1,1,0
8980932000,0,47.3977508,8.5456074,0.11119626,3.9515903,-7.132019,0.0,0.0,0.0,0.58,0.11,0.049999997,0.0,0.0,0.0,0.0,0.0,0.0,0.0,1.6185633,488.83002,0.0,0.0,0.0,0.0,0.0,0.0,inf,inf,inf,inf,1,1,1,1,0,0,0,0,1,1,0
8981032000,0,47.3977508,8.5456074,0.17791322,3.959117,-7.126007,0.0,0.0,0.0,0.62,0.08,0.049999997,0.0,0.0,0.0,0.0,0.0,0.0,0.0,1.6210746,488.83002,0.0,0.0,0.0,0.0,0.0,0.0,inf,inf,inf,inf,1,1,1,1,0,0,0,0,1,1,0
8981132000,0,47.3977508,8.5456074,0.23351069,3.9666438,-7.121002,0.0,0.0,0.0,0.64,0.06,0.04,0.0,0.0,0.0,0.0,0.0,0.0,0.0,1.622592,488.83002,0.0,0.0,0.0,0.0,0.0,0.0,inf,inf,inf,inf,1,1,1,1,0,0,0,0,1,1,0
8981232000,0,47.3977508,8.5456074,0.30022764,3.9741707,-7.1170044,0.0,0.0,0.0,0.65,0.049999997,0.04,0.0,0.0,0.0,0.0,0.0,0.0,0.0,1.6238915,488.83002,0.0,0.0,0.0,0.0,0.0,0.0,inf,inf,inf,inf,1,1,1,1,0,0,0,0,1,1,0
8981332000,0,47.3977508,8.5456074,0.3669446,3.9816973,-7.1119995,0.0,0.0,0.0,0.65999997,0.04,0.04,0.0,0.0,0.0,0.0,0.0,0.0,0.0,1.6253222,488.83002,0.0,0.0,0.0,0.0,0.0,0.0,inf,inf,inf,inf,1,1,1,1,0,0,0,0,1,1,0
8981432000,0,47.3977508,8.5456074,0.43366158,3.9892242,-7.1069946,0.0,0.0,0.0,0.66999996,0.03,0.04,0.0,0.0,0.0,0.0,0.0,0.0,0.0,1.6268593,488.83002,0.0,0.0,0.0,0.0,0.0,0.0,inf,inf,inf,inf,1,1,1,1,0,0,0,0,1,1,0
8981532000,0,47.3977508,8.5456074,0.50037855,3.9892242,-7.102997,0.0,0.0,0.0,0.66999996,0.03,0.03,0.0,0.0,0.0,0.0,0.0,0.0,0.0,1.6285039,488.83002,0.0,0.0,0.0,0.0,0.0,0.0,inf,inf,inf,inf,1,1,1,1,0,0,0,0,1,1,0
8981632000,0,47.3977508,8.5456074,0.56709546,3.9892242,-7.100006,0.0,0.0,0.0,0.68,0.02,0.03,0.0,0.0,0.0,0.0,0.0,0.0,0.0,1.630162,488.83002,0.0,0.0,0.0,0.0,0.0,0.0,inf,inf,inf,inf,1,1,1,1,0,0,0,0,1,1,0
8981732000,0,47.3977508,8.5456074,0.6338124,3.9967508,-7.0970154,0.0,0.0,0.0,0.69,0.02,0.02,0.0,0.0,0.0,0.0,0.0,0.0,0.0,1.6319169,488.83002,0.0,0.0,0.0,0.0,0.0,0.0,inf,inf,inf,inf,1,1,1,1,0,0,0,0,1,1,0
8981832000,0,47.3977508,8.5456074,0.7116489,3.9967508,-7.093994,0.0,0.0,0.0,0.69,0.02,0.02,0.0,0.0,0.0,0.0,0.0,0.0,0.0,1.6338915,488.83002,0.0,0.0,0.0,0.0,0.0,0.0,inf,inf,inf,inf,1,1,1,1,0,0,0,0,1,1,0
8981932000,0,47.3977508,8.5456074,0.77836585,4.0042777,-7.0910034,0.0,0.0,0.0,0.7,0.02,0.02,0.0,0.0,0.0,0.0,0.0,0.0,0.0,1.6359679,488.83002,0.0,0.0,0.0,0.0,0.0,0.0,inf,inf,inf,inf,1,1,1,1,0,0,0,0,1,1,0
8982028000,0,47.3977508,8.5456074,0.8450828,4.0042777,-7.08902,0.0,0.0,0.0,0.7,0.03,0.02,0.0,0.0,0.0,0.0,0.0,0.0,0.0,1.6380049,488.83002,0.0,0.0,0.0,0.0,0.0,0.0,inf,inf,inf,inf,1,1,1,1,0,0,0,0,1,1,0
8982132000,0,47.3977508,8.5456074,0.9229193,4.0042777,-7.0870056,0.0,0.0,0.0,0.71,0.03,0.01,0.0,0.0,0.0,0.0,0.0,0.0,0.0,1.6402495,488.83002,0.0,0.0,0.0,0.0,0.0,0.0,inf,inf,inf,inf,1,1,1,1,0,0,0,0,1,1,0
8982232000,0,47.3977508,8.5456074,0.98963624,4.011804,-7.0849915,0.0,0.0,0.0,0.71,0.03,0.01,0.0,0.0,0.0,0.0,0.0,0.0,0.0,1.6424837,488.83002,0.0,0.0,0.0,0.0,0.0,0.0,inf,inf,inf,inf,1,1,1,1,0,0,0,0,1,1,0
8982332000,0,47.3977508,8.5456074,1.0674727,4.011804,-7.084015,0.0,0.0,0.0,0.71,0.04,0.01,0.0,0.0,0.0,0.0,0.0,0.0,0.0,1.6447077,488.83002,0.0,0.0,0.0,0.0,0.0,0.0,inf,inf,inf,inf,1,1,1,1,0,0,0,0,1,1,0
8982428000,0,47.3977508,8.5456074,1.1341896,4.019331,-7.083008,0.0,0.0,0.0,0.71999997,0.04,0.01,0.0,0.0,0.0,0.0,0.0,0.0,0.0,1.646941,488.83002,0.0,0.0,0.0,0.0,0.0,0.0,inf,inf,inf,inf,1,1,1,1,0,0,0,0,1,1,0
8982528000,0,47.3977508,8.5456074,1.2009066,4.019331,-7.0809937,0.0,0.0,0.0,0.71999997,0.04,0.01,0.0,0.0,0.0,0.0,0.0,0.0,0.0,1.6492848,488.83002,0.0,0.0,0.0,0.0,0.0,0.0,inf,inf,inf,inf,1,1,1,1,0,0,0,0,1,1,0
8982632000,0,47.3977508,8.5456074,1.278743,4.026858,-7.080017,0.0,0.0,0.0,0.72999996,0.049999997,0.0,0.0,0.0,0.0,0.0,0.0,0.0,0.0,1.6517466,488.83002,0.0,0.0,0.0,0.0,0.0,0.0,inf,inf,inf,inf,1,1,1,1,0,0,0,0,1,1,0
8982732000,0,47.3977508,8.5456074,1.3565795,4.0343847,-7.080017,0.0,0.0,0.0,0.72999996,0.049999997,0.0,0.0,0.0,0.0,0.0,0.0,0.0,0.0,1.6540738,488.83002,0.0,0.0,0.0,0.0,0.0,0.0,inf,inf,inf,inf,1,1,1,1,0,0,0,0,1,1,0
8982832000,0,47.3977508,8.5456074,1.4344159,4.0419116,-7.07901,0.0,0.0,0.0,0.74,0.049999997,0.0,0.0,0.0,0.0,0.0,0.0,0.0,0.0,1.6565112,488.83002,0.0,0.0,0.0,0.0,0.0,0.0,inf,inf,inf,inf,1,1,1,1,0,0,0,0,1,1,0
8982932000,0,47.3977508,8.5456074,1.5011328,4.041911,-7.07901,0.0,0.0,0.0,0.74,0.06,0.0,0.0,0.0,0.0,0.0,0.0,0.0,0.0,1.658968,488.83002,0.0,0.0,0.0,0.0,0.0,0.0,inf,inf,inf,inf,1,1,1,1,0,0,0,0,1,1,0
8983032000,0,47.3977508,8.5456074,1.5789694,4.049438,-7.078003,0.0,0.0,0.0,0.74,0.06,0.0,0.0,0.0,0.0,0.0,0.0,0.0,0.0,1.6614074,488.83002,0.0,0.0,0.0,0.0,0.0,0.0,inf,inf,inf,inf,1,1,1,1,0,0,0,0,1,1,0
8983132000,0,47.3977508,8.5456074,1.6568058,4.056965,-7.078003,0.0,0.0,0.0,0.75,0.06,0.0,0.0,0.0,0.0,0.0,0.0,0.0,0.0,1.6638175,488.83002,0.0,0.0,0.0,0.0,0.0,0.0,inf,inf,inf,inf,1,1,1,1,0,0,0,0,1,1,0
8983232000,0,47.3977508,8.5456074,1.7346423,4.0644917,-7.07901,0.0,0.0,0.0,0.75,0.07,0.0,0.0,0.0,0.0,0.0,0.0,0.0,0.0,1.6663764,488.83002,0.0,0.0,0.0,0.0,0.0,0.0,inf,inf,inf,inf,1,1,1,1,0,0,0,0,1,1,0
8983332000,0,47.3977508,8.5456074,1.8013592,4.0720186,-7.07901,0.0,0.0,0.0,0.75,0.07,0.0,0.0,0.0,0.0,0.0,0.0,0.0,0.0,1.6689211,488.83002,0.0,0.0,0.0,0.0,0.0,0.0,inf,inf,inf,inf,1,1,1,1,0,0,0,0,1,1,0
8983432000,0,47.3977508,8.5456074,1.8791957,4.079545,-7.080017,0.0,0.0,0.0,0.76,0.08,0.0,0.0,0.0,0.0,0.0,0.0,0.0,0.0,1.671353,488.83002,0.0,0.0,0.0,0.0,0.0,0.0,inf,inf,inf,inf,1,1,1,1,0,0,0,0,1,1,0
8983532000,0,47.3977508,8.5456074,1.9570321,4.087072,-7.0809937,0.0,0.0,0.0,0.76,0.08,0.0,0.0,0.0,0.0,0.0,0.0,0.0,0.0,1.6738906,488.83002,0.0,0.0,0.0,0.0,0.0,0.0,inf,inf,inf,inf,1,1,1,1,0,0,0,0,1,1,0
8983632000,0,47.3977508,8.5456074,2.0348685,4.094599,-7.0809937,0.0,0.0,0.0,0.76,0.08,0.0,0.0,0.0,0.0,0.0,0.0,0.0,0.0,1.6764159,488.83002,0.0,0.0,0.0,0.0,0.0,0.0,inf,inf,inf,inf,1,1,1,1,0,0,0,0,1,1,0
8983732000,0,47.3977508,8.5456074,2.112705,4.1021256,-7.0820007,0.0,0.0,0.0,0.77,0.08,0.0,0.0,0.0,0.0,0.0,0.0,0.0,0.0,1.6789551,488.83002,0.0,0.0,0.0,0.0,0.0,0.0,inf,inf,inf,inf,1,1,1,1,0,0,0,0,1,1,0
8983828000,0,47.3977508,8.5456074,2.1905415,4.1171794,-7.083008,0.0,0.0,0.0,0.77,0.08,0.0,0.0,0.0,0.0,0.0,0.0,0.0,0.0,1.681489,488.83002,0.0,0.0,0.0,0.0,0.0,0.0,inf,inf,inf,inf,1,1,1,1,0,0,0,0,1,1,0
8983932000,0,47.3977508,8.5456074,2.268378,4.124706,-7.084015,0.0,0.0,0.0,0.77,0.089999996,-0.01,0.0,0.0,0.0,0.0,0.0,0.0,0.0,1.6841862,488.83002,0.0,0.0,0.0,0.0,0.0,0.0,inf,inf,inf,inf,1,1,1,1,0,0,0,0,1,1,0
8984032000,0,47.3977508,8.5456074,2.3462143,4.1322327,-7.0849915,0.0,0.0,0.0,0.78,0.089999996,-0.01,0.0,0.0,0.0,0.0,0.0,0.0,0.0,1.6868031,488.83002,0.0,0.0,0.0,0.0,0.0,0.0,inf,inf,inf,inf,1,1,1,1,0,0,0,0,1,1,0
8984132000,0,47.3977508,8.5456074,2.4240508,4.1397595,-7.0859985,0.0,0.0,0.0,0.78,0.089999996,-0.01,0.0,0.0,0.0,0.0,0.0,0.0,0.0,1.6893964,488.83002,0.0,0.0,0.0,0.0,0.0,0.0,inf,inf,inf,inf,1,1,1,1,0,0,0,0,1,1,0
8984232000,0,47.3977508,8.5456074,2.5018873,4.1548133,-7.0870056,0.0,0.0,0.0,0.78,0.099999994,-0.01,0.0,0.0,0.0,0.0,0.0,0.0,0.0,1.6920877,488.83002,0.0,0.0,0.0,0.0,0.0,0.0,inf,inf,inf,inf,1,1,1,1,0,0,0,0,1,1,0
8984332000,0,47.3977508,8.5456074,2.5797238,4.16234,-7.0880127,0.0,0.0,0.0,0.78,0.099999994,-0.01,0.0,0.0,0.0,0.0,0.0,0.0,0.0,1.6947466,488.83002,0.0,0.0,0.0,0.0,0.0,0.0,inf,inf,inf,inf,1,1,1,1,0,0,0,0,1,1,0
8984432000,0,47.3977508,8.5456074,2.6575603,4.1698666,-7.08902,0.0,0.0,0.0,0.78,0.099999994,-0.01,0.0,0.0,0.0,0.0,0.0,0.0,0.0,1.6973665,488.83002,0.0,0.0,0.0,0.0,0.0,0.0,inf,inf,inf,inf,1,1,1,1,0,0,0,0,1,1,0
8984532000,0,47.3977508,8.5456074,2.7353966,4.1849203,-7.0910034,0.0,0.0,0.0,0.78999996,0.099999994,-0.01,0.0,0.0,0.0,0.0,0.0,0.0,0.0,1.70008,488.83002,0.0,0.0,0.0,0.0,0.0,0.0,inf,inf,inf,inf,1,1,1,1,0,0,0,0,1,1,0
8984632000,0,47.3977508,8.5456074,2.8132331,4.192447,-7.0930176,0.0,0.0,0.0,0.78999996,0.11,-0.01,0.0,0.0,0.0,0.0,0.0,0.0,0.0,1.7027687,488.83002,0.0,0.0,0.0,0.0,0.0,0.0,inf,inf,inf,inf,1,1,1,1,0,0,0,0,1,1,0
8984732000,0,47.3977508,8.5456074,2.902189,4.207501,-7.095001,0.0,0.0,0.0,0.78999996,0.11,-0.01,0.0,0.0,0.0,0.0,0.0,0.0,0.0,1.705347,488.83002,0.0,0.0,0.0,0.0,0.0,0.0,inf,inf,inf,inf,1,1,1,1,0,0,0,0,1,1,0
8984832000,0,47.3977508,8.5456074,2.9800255,4.2150273,-7.0970154,0.0,0.0,0.0,0.78999996,0.11,-0.02,0.0,0.0,0.0,0.0,0.0,0.0,0.0,1.7079743,488.83002,0.0,0.0,0.0,0.0,0.0,0.0,inf,inf,inf,inf,1,1,1,1,0,0,0,0,1,1,0
8984928000,0,47.3977508,8.5456074,3.0467424,4.230081,-7.098999,0.0,0.0,0.0,0.79999995,0.11,-0.02,0.0,0.0,0.0,0.0,0.0,0.0,0.0,1.7105634,488.83002,0.0,0.0,0.0,0.0,0.0,0.0,inf,inf,inf,inf,1,1,1,1,0,0,0,0,1,1,0
8985032000,0,47.3977508,8.5456074,3.1356986,4.245135,-7.101013,0.0,0.0,0.0,0.79999995,0.12,-0.02,0.0,0.0,0.0,0.0,0.0,0.0,0.0,1.7133257,488.83002,0.0,0.0,0.0,0.0,0.0,0.0,inf,inf,inf,inf,1,1,1,1,0,0,0,0,1,1,0
8985132000,0,47.3977508,8.5456074,3.2135348,4.2526617,-7.104004,0.0,0.0,0.0,0.79999995,0.12,-0.02,0.0,0.0,0.0,0.0,0.0,0.0,0.0,1.7160391,488.83002,0.0,0.0,0.0,0.0,0.0,0.0,inf,inf,inf,inf,1,1,1,1,0,0,0,0,1,1,0
8985232000,0,47.3977508,8.5456074,3.302491,4.267715,-7.1069946,0.0,0.0,0.0,0.79999995,0.12,-0.02,0.0,0.0,0.0,0.0,0.0,0.0,0.0,1.7186636,488.83002,0.0,0.0,0.0,0.0,0.0,0.0,inf,inf,inf,inf,1,1,1,1,0,0,0,0,1,1,0
8985332000,0,47.3977508,8.5456074,3.3803272,4.2827687,-7.109009,0.0,0.0,0.0,0.81,0.13,-0.02,0.0,0.0,0.0,0.0,0.0,0.0,0.0,1.7213279,488.83002,0.0,0.0,0.0,0.0,0.0,0.0,inf,inf,inf,inf,1,1,1,1,0,0,0,0,1,1,0
8985432000,0,47.3977508,8.5456074,3.4581637,4.2902956,-7.1130066,0.0,0.0,0.0,0.81,0.13,-0.03,0.0,0.0,0.0,0.0,0.0,0.0,0.0,1.724034,488.83002,0.0,0.0,0.0,0.0,0.0,0.0,inf,inf,inf,inf,1,1,1,1,0,0,0,0,1,1,0
8985532000,0,47.3977508,8.5456074,3.5471199,4.3053493,-7.1159973,0.0,0.0,0.0,0.81,0.13,-0.03,0.0,0.0,0.0,0.0,0.0,0.0,0.0,1.7266364,488.83002,0.0,0.0,0.0,0.0,0.0,0.0,inf,inf,inf,inf,1,1,1,1,0,0,0,0,1,1,0
8985632000,0,47.3977508,8.5456074,3.6249561,4.3204026,-7.1190186,0.0,0.0,0.0,0.81,0.13,-0.03,0.0,0.0,0.0,0.0,0.0,0.0,0.0,1.729245,488.83002,0.0,0.0,0.0,0.0,0.0,0.0,inf,inf,inf,inf,1,1,1,1,0,0,0,0,1,1,0
8985728000,0,47.3977508,8.5456074,3.7027926,4.3354564,-7.1220093,0.0,0.0,0.0,0.82,0.14,-0.02,0.0,0.0,0.0,0.0,0.0,0.0,0.0,1.7318835,488.83002,0.0,0.0,0.0,0.0,0.0,0.0,inf,inf,inf,inf,1,1,1,1,0,0,0,0,1,1,0
8985832000,0,47.3977508,8.5456074,3.7917485,4.35051,-7.125,0.0,0.0,0.0,0.82,0.14,-0.02,0.0,0.0,0.0,0.0,0.0,0.0,0.0,1.7346658,488.83002,0.0,0.0,0.0,0.0,0.0,0.0,inf,inf,inf,inf,1,1,1,1,0,0,0,0,1,1,0
8985932000,0,47.3977508,8.5456074,3.869585,4.3655634,-7.1280212,0.0,0.0,0.0,0.82,0.14,-0.02,0.0,0.0,0.0,0.0,0.0,0.0,0.0,1.73723,488.83002,0.0,0.0,0.0,0.0,0.0,0.0,inf,inf,inf,inf,1,1,1,1,0,0,0,0,1,1,0
8986032000,0,47.3977508,8.5456074,3.958541,4.380617,-7.130005,0.0,0.0,0.0,0.83,0.14,-0.02,0.0,0.0,0.0,0.0,0.0,0.0,0.0,1.7399447,488.83002,0.0,0.0,0.0,0.0,0.0,0.0,inf,inf,inf,inf,1,1,1,1,0,0,0,0,1,1,0
8986132000,0,47.3977508,8.5456074,4.0363774,4.395671,-7.1329956,0.0,0.0,0.0,0.83,0.14,-0.02,0.0,0.0,0.0,0.0,0.0,0.0,0.0,1.7427746,488.83002,0.0,0.0,0.0,0.0,0.0,0.0,inf,inf,inf,inf,1,1,1,1,0,0,0,0,1,1,0
8986232000,0,47.3977508,8.5456074,4.1253333,4.410724,-7.13501,0.0,0.0,0.0,0.83,0.14999999,-0.02,0.0,0.0,0.0,0.0,0.0,0.0,0.0,1.7454648,488.83002,0.0,0.0,0.0,0.0,0.0,0.0,inf,inf,inf,inf,1,1,1,1,0,0,0,0,1,1,0
8986332000,0,47.3977508,8.5456074,4.20317,4.425778,-7.1380005,0.0,0.0,0.0,0.83,0.14999999,-0.02,0.0,0.0,0.0,0.0,0.0,0.0,0.0,1.7480814,488.83002,0.0,0.0,0.0,0.0,0.0,0.0,inf,inf,inf,inf,1,1,1,1,0,0,0,0,1,1,0
8986432000,0,47.3977508,8.5456074,4.2921257,4.4408317,-7.1400146,0.0,0.0,0.0,0.84,0.14999999,-0.02,0.0,0.0,0.0,0.0,0.0,0.0,0.0,1.7508142,488.83002,0.0,0.0,0.0,0.0,0.0,0.0,inf,inf,inf,inf,1,1,1,1,0,0,0,0,1,1,0
8986532000,0,47.3977508,8.5456074,4.3810816,4.455885,-7.1430054,0.0,0.0,0.0,0.84,0.14999999,-0.02,0.0,0.0,0.0,0.0,0.0,0.0,0.0,1.7536056,488.83002,0.0,0.0,0.0,0.0,0.0,0.0,inf,inf,inf,inf,1,1,1,1,0,0,0,0,1,1,0
8986632000,0,47.3977508,8.5456074,4.458918,4.4709387,-7.145996,0.0,0.0,0.0,0.84,0.14999999,-0.03,0.0,0.0,0.0,0.0,0.0,0.0,0.0,1.7563341,488.83002,0.0,0.0,0.0,0.0,0.0,0.0,inf,inf,inf,inf,1,1,1,1,0,0,0,0,1,1,0
8986732000,0,47.3977508,8.5456074,4.5478745,4.4859924,-7.1490173,0.0,0.0,0.0,0.84,0.16,-0.03,0.0,0.0,0.0,0.0,0.0,0.0,0.0,1.7590727,488.83002,0.0,0.0,0.0,0.0,0.0,0.0,inf,inf,inf,inf,1,1,1,1,0,0,0,0,1,1,0
8986832000,0,47.3977508,8.5456074,4.6368303,4.501046,-7.152008,0.0,0.0,0.0,0.84,0.16,-0.03,0.0,0.0,0.0,0.0,0.0,0.0,0.0,1.7618943,488.83002,0.0,0.0,0.0,0.0,0.0,0.0,inf,inf,inf,inf,1,1,1,1,0,0,0,0,1,1,0
8986932000,0,47.3977508,8.5456074,4.714667,4.5160995,-7.156006,0.0,0.0,0.0,0.84,0.16,-0.03,0.0,0.0,0.0,0.0,0.0,0.0,0.0,1.7646312,488.83002,0.0,0.0,0.0,0.0,0.0,0.0,inf,inf,inf,inf,1,1,1,1,0,0,0,0,1,1,0
8987032000,0,47.3977508,8.5456074,4.8036227,4.531153,-7.1600037,0.0,0.0,0.0,0.84999996,0.16,-0.03,0.0,0.0,0.0,0.0,0.0,0.0,0.0,1.7675194,488.83002,0.0,0.0,0.0,0.0,0.0,0.0,inf,inf,inf,inf,1,1,1,1,0,0,0,0,1,1,0
8987132000,0,47.3977508,8.5456074,4.8925786,4.553734,-7.1629944,0.0,0.0,0.0,0.84999996,0.16,-0.03,0.0,0.0,0.0,0.0,0.0,0.0,0.0,1.7703985,488.83002,0.0,0.0,0.0,0.0,0.0,0.0,inf,inf,inf,inf,1,1,1,1,0,0,0,0,1,1,0
8987232000,0,47.3977508,8.5456074,4.970415,4.568787,-7.166992,0.0,0.0,0.0,0.84999996,0.16,-0.03,0.0,0.0,0.0,0.0,0.0,0.0,0.0,1.7733489,488.83002,0.0,0.0,0.0,0.0,0.0,0.0,inf,inf,inf,inf,1,1,1,1,0,0,0,0,1,1,0
8987332000,0,47.3977508,8.5456074,5.059371,4.583841,-7.1700134,0.0,0.0,0.0,0.84999996,0.16,-0.03,0.0,0.0,0.0,0.0,0.0,0.0,0.0,1.7761611,488.83002,0.0,0.0,0.0,0.0,0.0,0.0,inf,inf,inf,inf,1,1,1,1,0,0,0,0,1,1,0
8987432000,0,47.3977508,8.5456074,5.148327,4.5988946,-7.173004,0.0,0.0,0.0,0.84999996,0.17,-0.03,0.0,0.0,0.0,0.0,0.0,0.0,0.0,1.7789167,488.83002,0.0,0.0,0.0,0.0,0.0,0.0,inf,inf,inf,inf,1,1,1,1,0,0,0,0,1,1,0
8987532000,0,47.3977508,8.5456074,5.2261634,4.6214747,-7.177002,0.0,0.0,0.0,0.84999996,0.17,-0.03,0.0,0.0,0.0,0.0,0.0,0.0,0.0,1.781789,488.83002,0.0,0.0,0.0,0.0,0.0,0.0,inf,inf,inf,inf,1,1,1,1,0,0,0,0,1,1,0
8987632000,0,47.3977508,8.5456074,5.3151193,4.6365285,-7.1799927,0.0,0.0,0.0,0.84999996,0.17,-0.03,0.0,0.0,0.0,0.0,0.0,0.0,0.0,1.7847697,488.83002,0.0,0.0,0.0,0.0,0.0,0.0,inf,inf,inf,inf,1,1,1,1,0,0,0,0,1,1,0
8987728000,0,47.3977508,8.5456074,5.392956,4.6515822,-7.183014,0.0,0.0,0.0,0.84999996,0.17,-0.03,0.0,0.0,0.0,0.0,0.0,0.0,0.0,1.7877394,488.83002,0.0,0.0,0.0,0.0,0.0,0.0,inf,inf,inf,inf,1,1,1,1,0,0,0,0,1,1,0
8987832000,0,47.3977508,8.5456074,5.4819117,4.6741624,-7.1860046,0.0,0.0,0.0,0.84999996,0.17,-0.03,0.0,0.0,0.0,0.0,0.0,0.0,0.0,1.7909565,488.83002,0.0,0.0,0.0,0.0,0.0,0.0,inf,inf,inf,inf,1,1,1,1,0,0,0,0,1,1,0
8987932000,0,47.3977508,8.5456074,5.5708675,4.689216,-7.1900024,0.0,0.0,0.0,0.84999996,0.17,-0.03,0.0,0.0,0.0,0.0,0.0,0.0,0.0,1.7940143,488.83002,0.0,0.0,0.0,0.0,0.0,0.0,inf,inf,inf,inf,1,1,1,1,0,0,0,0,1,1,0
8988032000,0,47.3977508,8.5456074,5.6598234,4.7042694,-7.192993,0.0,0.0,0.0,0.84999996,0.17999999,-0.03,0.0,0.0,0.0,0.0,0.0,0.0,0.0,1.7970225,488.83002,0.0,0.0,0.0,0.0,0.0,0.0,inf,inf,inf,inf,1,1,1,1,0,0,0,0,1,1,0
8988132000,0,47.3977508,8.5456074,5.74878,4.72685,-7.1960144,0.0,0.0,0.0,0.84999996,0.17999999,-0.02,0.0,0.0,0.0,0.0,0.0,0.0,0.0,1.8000782,488.83002,0.0,0.0,0.0,0.0,0.0,0.0,inf,inf,inf,inf,1,1,1,1,0,0,0,0,1,1,0
8988228000,0,47.3977508,8.5456074,5.8266163,4.741904,-7.199005,0.0,0.0,0.0,0.84999996,0.19,-0.02,0.0,0.0,0.0,0.0,0.0,0.0,0.0,1.8029708,488.83002,0.0,0.0,0.0,0.0,0.0,0.0,inf,inf,inf,inf,1,1,1,1,0,0,0,0,1,1,0
8988332000,0,47.3977508,8.5456074,5.915572,4.764484,-7.201996,0.0,0.0,0.0,0.84999996,0.19,-0.02,0.0,0.0,0.0,0.0,0.0,0.0,0.0,1.806038,488.83002,0.0,0.0,0.0,0.0,0.0,0.0,inf,inf,inf,inf,1,1,1,1,0,0,0,0,1,1,0
8988432000,0,47.3977508,8.5456074,6.004528,4.7870646,-7.20401,0.0,0.0,0.0,0.84999996,0.19999999,-0.02,0.0,0.0,0.0,0.0,0.0,0.0,0.0,1.8089651,488.83002,0.0,0.0,0.0,0.0,0.0,0.0,inf,inf,inf,inf,1,1,1,1,0,0,0,0,1,1,0
8988532000,0,47.3977508,8.5456074,6.0823646,4.8021183,-7.2059937,0.0,0.0,0.0,0.84999996,0.19999999,-0.02,0.0,0.0,0.0,0.0,0.0,0.0,0.0,1.8118879,488.83002,0.0,0.0,0.0,0.0,0.0,0.0,inf,inf,inf,inf,1,1,1,1,0,0,0,0,1,1,0
8988632000,0,47.3977508,8.5456074,6.1713204,4.8246984,-7.208008,0.0,0.0,0.0,0.84999996,0.21,-0.02,0.0,0.0,0.0,0.0,0.0,0.0,0.0,1.8148466,488.83002,0.0,0.0,0.0,0.0,0.0,0.0,inf,inf,inf,inf,1,1,1,1,0,0,0,0,1,1,0
