timestamp,timestamp_sample,control[0],control[1],control[2],control[3],control[4],control[5],control[6],control[7]
9232328000,9232328000,0.005565054,0.004020977,-0.2348107,-0.0,0.0,0.0,0.0,-1.0
9232428000,9232428000,0.009104452,0.0004053758,-0.2354542,-0.0,0.0,0.0,0.0,-1.0
9232524000,9232524000,0.0069150133,0.0041139117,-0.23468433,-0.0,0.0,0.0,0.0,-1.0
9232628000,9232628000,0.005347636,0.001080863,-0.23449777,-0.0,0.0,0.0,0.0,-1.0
9232728000,9232728000,0.0081395,0.0022848756,-0.23394775,-0.0,0.0,0.0,0.0,-1.0
9232828000,9232828000,0.0076968065,0.0010943324,-0.2359968,-0.0,0.0,0.0,0.0,-1.0
9232924000,9232924000,0.0060129026,0.0024478056,-0.23552957,-0.0,0.0,0.0,0.0,-1.0
9233028000,9233028000,0.0060775303,0.002331226,-0.23473299,-0.0,0.0,0.0,0.0,-1.0
9233124000,9233124000,0.006690104,0.003658026,-0.235339,-0.0,0.0,0.0,0.0,-1.0
9233228000,9233228000,0.0061982335,0.0015793924,-0.23489378,-0.0,0.0,0.0,0.0,-1.0
9233328000,9233328000,0.0051954677,-0.0007393708,-0.2351139,-0.0,0.0,0.0,0.0,-1.0
9233428000,9233428000,0.020953793,-0.048148114,0.0010394809,0.12011667,0.0,0.0,0.0,-1.0
9233528000,9233528000,0.05451498,-0.054618735,0.0016708653,0.1623975,0.0,0.0,0.0,-1.0
9233624000,9233624000,0.04231694,-0.03839855,0.00038554939,0.23209538,0.0,0.0,0.0,-1.0
9233728000,9233728000,0.03561035,-0.03216199,-0.0006848192,0.30331105,0.0,0.0,0.0,-1.0
9233828000,9233828000,0.029360667,-0.026388124,7.0867e-05,0.38753334,0.0,0.0,0.0,-1.0
9233928000,9233928000,0.02821204,-0.025885107,0.00071030937,0.45791367,0.0,0.0,0.0,-1.0
9234028000,9234028000,0.02495861,-0.026841726,0.00011492535,0.5317002,0.0,0.0,0.0,-1.0
9234124000,9234124000,0.007825766,-0.011766281,0.00046850732,0.61315817,0.0,0.0,0.0,-1.0
9234228000,9234228000,-0.0052094674,0.0028443504,-0.0003182055,0.6103981,0.0,0.0,0.0,-1.0
9234328000,9234328000,-0.0010147775,0.004096955,0.00023121518,0.60833776,0.0,0.0,0.0,-1.0
9234428000,9234428000,0.00049539935,0.0010909038,-0.00029544934,0.6116886,0.0,0.0,0.0,-1.0
9234528000,9234528000,-0.0014283699,-0.0020107464,-0.00010027412,0.6170777,0.0,0.0,0.0,-1.0
9234628000,9234628000,0.0012602587,-0.0015802146,-0.0005575987,0.6163787,0.0,0.0,0.0,-1.0
9234724000,9234724000,0.0022980636,-0.001391755,0.00083588046,0.62311935,0.0,0.0,0.0,-1.0
9234828000,9234828000,0.0021936558,-0.00045423442,0.000743896,0.6202908,0.0,0.0,0.0,-1.0
9234924000,9234924000,-0.00061265845,0.0022360678,0.0001968311,0.6187814,0.0,0.0,0.0,-1.0
9235028000,9235028000,0.0029692708,-0.00030322745,-0.00074987713,0.62138575,0.0,0.0,0.0,-1.0
9235124000,9235124000,0.00048055453,0.00039337575,0.00043603504,0.6281145,0.0,0.0,0.0,-1.0
9235228000,9235228000,-0.0010171239,0.0026618908,-0.00082434807,0.6282349,0.0,0.0,0.0,-1.0
9235324000,9235324000,-0.0024477853,0.0014675299,0.00011915912,0.63015664,0.0,0.0,0.0,-1.0
9235428000,9235428000,0.00026895897,0.0012036986,0.0005534684,0.62867594,0.0,0.0,0.0,-1.0
9235528000,9235528000,0.0015287182,-6.219023e-05,-0.0006443634,0.62940156,0.0,0.0,0.0,-1.0
9235624000,9235624000,0.0005025335,-0.000115297036,-0.00056078914,0.6393753,0.0,0.0,0.0,-1.0
9235728000,9235728000,-0.0015202586,0.0019457699,-2.9971681e-05,0.6371405,0.0,0.0,0.0,-1.0
9235824000,9235824000,0.0025145744,-0.0018910334,0.0010561979,0.6368985,0.0,0.0,0.0,-1.0
9235928000,9235928000,-0.0009327561,-0.0016166767,-0.00096864084,0.6376396,0.0,0.0,0.0,1.0
9236028000,9236028000,0.002347699,0.0007249678,0.0005323222,0.6301262,0.0,0.0,0.0,1.0
9236128000,9236128000,0.0028250692,7.72092e-05,0.0006428358,0.5334271,0.0,0.0,0.0,1.0
9236228000,9236228000,-0.0007924974,-0.00061941723,-0.0006086706,0.5622089,0.0,0.0,0.0,1.0
9236328000,9236328000,-0.0007230756,0.0014289157,-0.00046555727,0.5679614,0.0,0.0,0.0,1.0
9236428000,9236428000,-0.0017512807,0.0004668358,0.0006862173,0.5625229,0.0,0.0,0.0,1.0
9236524000,9236524000,-6.171921e-05,0.00023516302,-0.00011325355,0.5703908,0.0,0.0,0.0,1.0
9236624000,9236624000,-0.00022880017,-0.0017657491,-0.00053861475,0.5690805,0.0,0.0,0.0,1.0
9236728000,9236728000,-0.0011667832,-0.0008249313,0.00040192142,0.57137555,0.0,0.0,0.0,1.0
9236828000,9236828000,-0.0020794175,0.000902595,-0.0004641398,0.5691356,0.0,0.0,0.0,1.0
9236928000,9236928000,-0.0054185437,0.00048009667,-0.00033757204,0.5695387,0.0,0.0,0.0,1.0
9237028000,9237028000,-0.00066063326,-0.0016506717,-2.0715539e-05,0.5784037,0.0,0.0,0.0,1.0
9237128000,9237128000,0.00036926926,0.0008590453,0.0004200632,0.57467085,0.0,0.0,0.0,1.0
9237228000,9237228000,0.0017000933,0.0014705434,-0.0012861098,0.5772521,0.0,0.0,0.0,1.0
9237328000,9237328000,-0.0023253988,-0.001553132,0.00016248158,0.5742728,0.0,0.0,0.0,1.0
9237428000,9237428000,0.00078382535,-0.0009907285,-0.00012120053,0.5801947,0.0,0.0,0.0,1.0
9237524000,9237524000,0.0009077719,0.0020981499,-0.00032768663,0.57891965,0.0,0.0,0.0,1.0
9237628000,9237628000,0.0022638973,0.00027656235,-0.00028776116,0.5785281,0.0,0.0,0.0,1.0
9237728000,9237728000,-0.00016549867,-0.0003712089,0.0014610101,0.58070904,0.0,0.0,0.0,1.0
9237828000,9237828000,0.0013535686,-0.0017984634,0.00048514968,0.5775766,0.0,0.0,0.0,1.0
9237928000,9237928000,-0.00023607365,-0.0029964794,0.00021347956,0.5841761,0.0,0.0,0.0,1.0
9238028000,9238028000,-0.0035908816,-0.0012734215,-0.000112213005,0.5824785,0.0,0.0,0.0,1.0
9238128000,9238128000,-0.003288865,0.0011763377,0.0005402546,0.5794589,0.0,0.0,0.0,1.0
9238228000,9238228000,-0.001378733,-0.0007954093,0.00046271694,0.577518,0.0,0.0,0.0,1.0
9238324000,9238324000,0.0015961871,-0.0021995741,-0.00059350446,0.58318657,0.0,0.0,0.0,1.0
9238424000,9238424000,-0.0031623722,0.0017667867,-0.000609024,0.5842491,0.0,0.0,0.0,1.0
9238528000,9238528000,-0.0006385415,0.0009970913,-0.0012380255,0.5810181,0.0,0.0,0.0,1.0
9238628000,9238628000,0.0015540919,0.00023648783,-0.00039305814,0.5824436,0.0,0.0,0.0,1.0
9238724000,9238724000,-0.0003485939,0.00018047911,-0.00039926756,0.58209056,0.0,0.0,0.0,1.0
9238828000,9238828000,-0.0017454083,0.0021230825,0.0010478382,0.579081,0.0,0.0,0.0,1.0
9238928000,9238928000,-0.0023752663,-0.00011981715,0.0005729085,0.5795361,0.0,0.0,0.0,1.0
9239024000,9239024000,0.0019725026,-0.0018435576,-0.00037924465,0.5859066,0.0,0.0,0.0,1.0
9239124000,9239124000,0.0014705317,0.0012845134,-0.0005721489,0.5830212,0.0,0.0,0.0,1.0
9239228000,9239228000,0.00066227606,0.0024237668,0.000128527,0.5828086,0.0,0.0,0.0,1.0
9239328000,9239328000,-0.00047796528,0.0013558056,-0.0001968535,0.5813338,0.0,0.0,0.0,1.0
9239428000,9239428000,-0.0034480433,0.0036878146,0.0005223888,0.5872411,0.0,0.0,0.0,1.0
9239528000,9239528000,-0.0027279584,-0.0021650477,0.00043286843,0.58595556,0.0,0.0,0.0,1.0
9239624000,9239624000,-0.0018638799,0.0011856635,0.0006882325,0.5851794,0.0,0.0,0.0,1.0
9239728000,9239728000,0.001211598,0.00067849096,-0.0007163191,0.5839773,0.0,0.0,0.0,1.0
9239828000,9239828000,0.0024137413,0.00039309677,-0.00013511982,0.5800767,0.0,0.0,0.0,1.0
9239928000,9239928000,-0.0015474386,3.228319e-05,0.00037352162,0.587763,0.0,0.0,0.0,1.0
9240024000,9240024000,-0.0015919084,-0.0005589021,-0.00045995382,0.5846545,0.0,0.0,0.0,1.0
9240128000,9240128000,0.0016575255,0.0016716524,-0.00042518196,0.5840013,0.0,0.0,0.0,1.0
9240228000,9240228000,0.0019588815,0.0025479791,-0.00049117615,0.58044255,0.0,0.0,0.0,1.0
9240324000,9240324000,-0.0013354481,0.0011649358,-6.696252e-05,0.5867082,0.0,0.0,0.0,1.0
9240424000,9240424000,0.003073464,0.0014859452,0.00042341393,0.5865292,0.0,0.0,0.0,1.0
9240528000,9240528000,-0.0008562729,-0.00066324964,0.00049319555,0.582533,0.0,0.0,0.0,1.0
9240628000,9240628000,-0.000660196,-0.0009229376,0.00080980995,0.5943676,0.0,0.0,0.0,1.0
9240728000,9240728000,-0.0035089294,-0.00059782085,0.0005692129,0.5581684,0.0,0.0,0.0,1.0
9240828000,9240828000,0.0013278971,-0.0017142597,0.00026968573,0.55465806,0.0,0.0,0.0,1.0
9240924000,9240924000,-4.3069536e-05,-0.0022891604,-0.0004159417,0.5680328,0.0,0.0,0.0,1.0
9241028000,9241028000,-0.0016219781,0.0029463712,-0.00045304876,0.5646653,0.0,0.0,0.0,1.0
9241128000,9241128000,-0.002025868,0.0015991153,0.00091897446,0.5657213,0.0,0.0,0.0,1.0
9241224000,9241224000,-0.0012259015,-0.0010807548,-0.000677685,0.5630972,0.0,0.0,0.0,1.0
9241324000,9241324000,0.0007409194,0.00090371375,-0.0007572237,0.5649518,0.0,0.0,0.0,1.0
9241424000,9241424000,-0.0014012988,0.0002260168,-0.00035672405,0.56207526,0.0,0.0,0.0,1.0
9241524000,9241524000,0.0003174285,-0.0011740064,-0.00017162897,0.5642276,0.0,0.0,0.0,1.0
9241628000,9241628000,0.001963304,0.0011530723,-0.00052875624,0.5631743,0.0,0.0,0.0,1.0
9241728000,9241728000,-0.0004588368,0.0032181158,0.000724368,0.5649061,0.0,0.0,0.0,1.0
9241824000,9241824000,0.0010105794,0.00046111183,0.0011179084,0.5671787,0.0,0.0,0.0,1.0
9241928000,9241928000,-0.00083360885,0.0028275691,0.00016991117,0.56454796,0.0,0.0,0.0,1.0
9242028000,9242028000,-0.0005921529,5.534688e-05,0.00020005333,0.56696594,0.0,0.0,0.0,1.0
9242128000,9242128000,-0.0019723165,-0.00026280255,-0.00014047133,0.56456655,0.0,0.0,0.0,1.0
9242228000,9242228000,0.0008198056,0.0011012986,-0.0006511213,0.5672469,0.0,0.0,0.0,1.0
9242328000,9242328000,0.0032155993,-0.002749562,0.00074274297,0.5652962,0.0,0.0,0.0,1.0
9242424000,9242424000,-0.0022793778,0.0015528124,-0.00019234023,0.5650477,0.0,0.0,0.0,1.0
9242524000,9242524000,-0.0009407012,-0.00046912636,0.00040836062,0.5664513,0.0,0.0,0.0,1.0
9242628000,9242628000,0.0010130763,0.0005172627,9.025647e-05,0.56829715,0.0,0.0,0.0,1.0
9242728000,9242728000,-0.00029560406,-0.0030616908,0.0010575204,0.5669596,0.0,0.0,0.0,1.0
9242824000,9242824000,0.00016788894,-0.0005887058,0.0008441531,0.5637383,0.0,0.0,0.0,1.0
9242928000,9242928000,-0.00020654226,0.00015891882,-0.0002965844,0.56535345,0.0,0.0,0.0,1.0
9243028000,9243028000,-0.0013527509,0.0005460237,0.00030741867,0.56752104,0.0,0.0,0.0,1.0
9243128000,9243128000,0.00047474704,0.002288638,0.00015049911,0.56604195,0.0,0.0,0.0,1.0
9243228000,9243228000,1.3712681e-05,-0.0032608062,-2.3212106e-05,0.56749654,0.0,0.0,0.0,1.0
9243324000,9243324000,0.0013273036,-0.00063113717,0.0005472774,0.56495005,0.0,0.0,0.0,1.0
9243424000,9243424000,-0.0015013353,-0.0011594761,0.0008129042,0.5655914,0.0,0.0,0.0,1.0
9243528000,9243528000,0.000586932,0.00013302025,-0.00054243463,0.5680368,0.0,0.0,0.0,1.0
9243624000,9243624000,0.00029684725,0.0041951155,5.0087998e-05,0.565079,0.0,0.0,0.0,1.0
9243724000,9243724000,-0.0008274084,-0.000817559,0.00081699266,0.564829,0.0,0.0,0.0,1.0
9243828000,9243828000,0.0005626543,-0.0016383319,-0.0009347199,0.563391,0.0,0.0,0.0,1.0
9243928000,9243928000,-0.0025824716,-0.000189386,0.00071809586,0.56580585,0.0,0.0,0.0,1.0
9244024000,9244024000,-0.002209215,0.00017959422,-0.0010860384,0.5659975,0.0,0.0,0.0,1.0
9244128000,9244128000,-0.0004905643,0.0022480292,-0.00039046528,0.564224,0.0,0.0,0.0,1.0
9244228000,9244228000,0.00069668476,-0.0011251547,0.0011505116,0.5644494,0.0,0.0,0.0,1.0
9244328000,9244328000,-0.0007842147,0.001604218,-0.00027569555,0.5659604,0.0,0.0,0.0,1.0
9244428000,9244428000,-0.0005120849,-0.00017439184,-8.9952475e-05,0.56637585,0.0,0.0,0.0,1.0
9244528000,9244528000,0.0012168165,0.0012945468,2.5561074e-05,0.5650244,0.0,0.0,0.0,1.0
9244624000,9244624000,-0.0037491042,0.00044104666,-0.0013544026,0.5638813,0.0,0.0,0.0,1.0
9244728000,9244728000,-0.001725864,0.000940909,0.00020361398,0.5640967,0.0,0.0,0.0,1.0
9244828000,9244828000,-0.0018607499,-0.0009093003,0.00033403543,0.5658687,0.0,0.0,0.0,1.0
9244928000,9244928000,-0.00027451542,0.0007545014,0.0008110309,0.56497955,0.0,0.0,0.0,1.0
9245028000,9245028000,-0.0008588681,0.0013577765,-0.0005731294,0.56422174,0.0,0.0,0.0,1.0
9245128000,9245128000,-0.00029581902,-0.0028089322,0.0012884658,0.56430084,0.0,0.0,0.0,1.0
9245228000,9245228000,9.1426555e-05,0.003209202,0.00016429649,0.56503695,0.0,0.0,0.0,1.0
9245328000,9245328000,-0.0016711884,-0.00040260534,-0.00025254476,0.56515986,0.0,0.0,0.0,1.0
9245428000,9245428000,0.0013411562,0.0015894962,0.00040382237,0.5639865,0.0,0.0,0.0,1.0
9245524000,9245524000,0.00048951624,0.0004305761,0.00040243403,0.5645562,0.0,0.0,0.0,1.0
9245628000,9245628000,0.004815842,-0.0009849936,-0.00049970445,0.5646008,0.0,0.0,0.0,1.0
9245728000,9245728000,-0.00096263865,0.0014185009,8.435227e-05,0.56428134,0.0,0.0,0.0,1.0
9245828000,9245828000,0.0034708087,0.00068117084,-0.00044780588,0.5658797,0.0,0.0,0.0,1.0
9245928000,9245928000,0.00096361036,0.0014364027,0.0018506058,0.5631346,0.0,0.0,0.0,1.0
9246024000,9246024000,-0.0025917916,0.0010134476,-0.0012620541,0.56487733,0.0,0.0,0.0,1.0
9246128000,9246128000,0.0021255242,0.0025523545,-0.00021885775,0.5635656,0.0,0.0,0.0,1.0
9246228000,9246228000,0.00032248616,-0.0019247103,0.00013612761,0.56370217,0.0,0.0,0.0,1.0
9246324000,9246324000,-1.9451603e-05,0.0014015706,-0.00028494565,0.565092,0.0,0.0,0.0,1.0
9246428000,9246428000,0.0015197359,0.0022147808,0.00011943305,0.5630727,0.0,0.0,0.0,1.0
9246524000,9246524000,0.0021220485,0.0014687311,0.0004135504,0.5634829,0.0,0.0,0.0,1.0
9246624000,9246624000,0.0004760185,0.0029403446,0.00047284106,0.5636476,0.0,0.0,0.0,1.0
9246728000,9246728000,-0.00023995666,-0.00072581053,0.00053163944,0.56333363,0.0,0.0,0.0,1.0
9246828000,9246828000,0.00023785463,-0.001461358,-0.00031918287,0.5641556,0.0,0.0,0.0,1.0
9246928000,9246928000,0.00022781592,0.004169323,-0.00019103664,0.56330895,0.0,0.0,0.0,1.0
9247028000,9247028000,0.0029017231,0.002035989,0.00038455983,0.5629864,0.0,0.0,0.0,1.0
9247128000,9247128000,0.0008608768,-0.0016479994,0.00024618182,0.56348926,0.0,0.0,0.0,1.0
9247228000,9247228000,0.0008638453,-0.0010764409,-0.0009053709,0.5634482,0.0,0.0,0.0,1.0
9247328000,9247328000,-0.001081191,0.0011809046,0.00054702675,0.56404704,0.0,0.0,0.0,1.0
9247424000,9247424000,-0.0020453678,0.0003087775,-0.00048041483,0.56368583,0.0,0.0,0.0,1.0
9247528000,9247528000,3.1107076e-05,0.002140438,-0.00051501935,0.5633209,0.0,0.0,0.0,1.0
9247628000,9247628000,-0.00023513762,-0.00024766938,0.00097192026,0.56254995,0.0,0.0,0.0,1.0
9247728000,9247728000,0.00033578963,0.0010466237,-0.00037132663,0.5644751,0.0,0.0,0.0,1.0
9247828000,9247828000,-0.0010059699,-0.00033487502,0.00054208154,0.56419307,0.0,0.0,0.0,1.0
9247928000,9247928000,0.0019320631,-0.002204614,0.0003794404,0.5630871,0.0,0.0,0.0,1.0
9248028000,9248028000,0.00040742935,-0.001618183,-0.00012593891,0.5637264,0.0,0.0,0.0,1.0
9248124000,9248124000,-0.00064887054,0.0038855327,-0.0004638723,0.5632528,0.0,0.0,0.0,1.0
9248228000,9248228000,0.0001197423,-0.0013337098,0.00082759897,0.56505996,0.0,0.0,0.0,1.0
9248328000,9248328000,-0.00058582285,-0.0013022652,0.0010454544,0.56308645,0.0,0.0,0.0,1.0
9248428000,9248428000,0.0022572186,-0.0012248236,0.0002353204,0.5621075,0.0,0.0,0.0,1.0
9248528000,9248528000,0.00024330997,0.002322293,0.00015860009,0.5629611,0.0,0.0,0.0,1.0
9248628000,9248628000,-0.0016615815,0.003011907,0.0005031484,0.5628287,0.0,0.0,0.0,1.0
9248724000,9248724000,0.00039114922,-0.00021558172,0.00016908525,0.5629495,0.0,0.0,0.0,1.0
9248828000,9248828000,0.0021971255,-0.0020250818,-0.00041943052,0.5638387,0.0,0.0,0.0,1.0
9248928000,9248928000,0.00093738956,-0.0008443603,9.080464e-05,0.56375206,0.0,0.0,0.0,1.0
9249024000,9249024000,-0.0021852031,-3.722361e-05,0.00034362308,0.56277686,0.0,0.0,0.0,1.0
9249128000,9249128000,0.0009237618,0.0016171351,-0.00022687454,0.5635269,0.0,0.0,0.0,1.0
9249228000,9249228000,0.0023097047,-0.00049043394,0.0001591051,0.5636264,0.0,0.0,0.0,1.0
9249324000,9249324000,0.0027128023,-0.0006750951,-0.00016099862,0.56351215,0.0,0.0,0.0,1.0
9249428000,9249428000,0.004364214,-0.0006947485,-0.00033343802,0.56275415,0.0,0.0,0.0,1.0
9249528000,9249528000,0.0023704784,0.00075559394,0.00093733193,0.563248,0.0,0.0,0.0,1.0
9249628000,9249628000,0.00026536154,-0.00080612564,-3.2320335e-05,0.564918,0.0,0.0,0.0,1.0
9249724000,9249724000,0.00225973,0.0024510701,-0.00041173626,0.56311655,0.0,0.0,0.0,1.0
9249828000,9249828000,0.0010145218,-0.00022960172,8.448169e-06,0.56259847,0.0,0.0,0.0,1.0
9249928000,9249928000,0.0008244873,-0.00032089258,-0.00020035593,0.56296146,0.0,0.0,0.0,1.0
9250028000,9250028000,0.0010024197,0.0022000044,0.00020398112,0.5642974,0.0,0.0,0.0,1.0
9250128000,9250128000,-0.0011519294,-0.0012464356,-1.7459222e-05,0.5619164,0.0,0.0,0.0,1.0
9250228000,9250228000,0.00047933997,-3.377707e-05,0.000685013,0.56363785,0.0,0.0,0.0,1.0
9250328000,9250328000,0.000517516,-1.6015954e-05,0.0005612152,0.5620644,0.0,0.0,0.0,1.0
9250424000,9250424000,-0.0016049222,0.0021651592,-0.0009656603,0.561923,0.0,0.0,0.0,1.0
9250528000,9250528000,-0.0035978877,-0.0015038337,-0.00076793303,0.5636387,0.0,0.0,0.0,1.0
9250624000,9250624000,-0.0002685994,-0.00052135834,0.0001869193,0.5635478,0.0,0.0,0.0,1.0
9250728000,9250728000,0.0034716113,-0.0013211208,0.0005283749,0.5634142,0.0,0.0,0.0,1.0
9250828000,9250828000,0.0001066018,0.0005145651,0.00063195656,0.5637882,0.0,0.0,0.0,1.0
9250924000,9250924000,0.0004501206,0.0013528392,-0.0003976046,0.5633292,0.0,0.0,0.0,1.0
9251024000,9251024000,0.0011918296,-0.0012779318,-0.0007054859,0.5612663,0.0,0.0,0.0,1.0
9251124000,9251124000,-0.0018081713,0.0019792835,-0.00091370003,0.5631318,0.0,0.0,0.0,1.0
9251224000,9251224000,0.0006232697,0.0025254516,0.00044690596,0.5640008,0.0,0.0,0.0,1.0
9251328000,9251328000,-0.00012192008,0.0006503344,0.00034591302,0.5607423,0.0,0.0,0.0,1.0
9251428000,9251428000,-0.0014064845,0.00053917425,8.595857e-05,0.56347346,0.0,0.0,0.0,1.0
9251524000,9251524000,0.0020383727,0.00013019738,0.0007323138,0.56259304,0.0,0.0,0.0,1.0
9251628000,9251628000,-0.0020496522,0.00040090657,0.00039182257,0.56381625,0.0,0.0,0.0,1.0
9251724000,9251724000,0.00038047103,0.0023489292,-2.761072e-05,0.561858,0.0,0.0,0.0,1.0
9251824000,9251824000,-0.0007513824,0.00010746533,0.00056628685,0.5622914,0.0,0.0,0.0,1.0
9251924000,9251924000,0.0010030426,0.0007458994,-0.0012069306,0.56450695,0.0,0.0,0.0,1.0
9252028000,9252028000,-0.0013479583,-0.0010462113,0.00024185074,0.5639854,0.0,0.0,0.0,1.0
9252128000,9252128000,-0.037610546,0.079921044,0.6379959,0.5552675,0.0,0.0,0.0,1.0
9252228000,9252228000,0.0016949149,0.091272056,0.3283554,0.39810312,0.0,0.0,0.0,1.0
9252324000,9252324000,-0.060552835,0.018999852,0.17360045,0.4689063,0.0,0.0,0.0,1.0
9252424000,9252424000,0.00020384975,-0.0082433075,0.03241149,0.58238155,0.0,0.0,0.0,1.0
9252528000,9252528000,0.03093718,-0.018575847,-0.00936706,0.5745586,0.0,0.0,0.0,1.0
9252628000,9252628000,0.025610846,-0.014628255,-0.02154143,0.56692153,0.0,0.0,0.0,1.0
9252728000,9252728000,0.012705496,-0.0044362727,-0.016767772,0.57310027,0.0,0.0,0.0,1.0
9252828000,9252828000,0.009452246,-0.0031561144,-0.012152001,0.57047904,0.0,0.0,0.0,1.0
9252928000,9252928000,0.0036891543,-0.0045426036,-0.009552352,0.571509,0.0,0.0,0.0,1.0
9253028000,9253028000,0.0071865013,-0.003054305,-0.0089395195,0.57226336,0.0,0.0,0.0,1.0
9253128000,9253128000,0.0008227895,-0.005340078,-0.005014456,0.5719897,0.0,0.0,0.0,1.0
9253224000,9253224000,0.004874189,-0.006070422,-0.0036209999,0.5727036,0.0,0.0,0.0,1.0
9253328000,9253328000,0.00033560384,-0.006879244,-0.003854259,0.5729801,0.0,0.0,0.0,1.0
9253424000,9253424000,0.003207786,-0.004259609,-0.0024185032,0.5727959,0.0,0.0,0.0,1.0
9253528000,9253528000,0.0029394715,-0.004828991,-0.0033816062,0.57339996,0.0,0.0,0.0,1.0
9253628000,9253628000,0.0017861364,-0.005945474,-0.0011877492,0.5745074,0.0,0.0,0.0,1.0
9253724000,9253724000,0.0013462655,-0.007917307,-0.0008918671,0.575405,0.0,0.0,0.0,1.0
9253828000,9253828000,0.0023026443,-0.00980846,-0.00012284145,0.57613313,0.0,0.0,0.0,1.0
9253928000,9253928000,-0.0023607328,-0.004663337,-0.0021839738,0.57623416,0.0,0.0,0.0,1.0
9254028000,9254028000,0.0010395704,-0.010051184,0.00019900035,0.576373,0.0,0.0,0.0,1.0
9254128000,9254128000,0.0026740534,-0.01066424,0.00042559626,0.5775086,0.0,0.0,0.0,1.0
9254228000,9254228000,0.00066794135,-0.009360531,-0.0005519972,0.57849604,0.0,0.0,0.0,1.0
9254328000,9254328000,0.0017498021,-0.007373635,-0.0009255791,0.57734567,0.0,0.0,0.0,1.0
9254428000,9254428000,-0.0013870298,-0.010027293,-0.0004701144,0.5782176,0.0,0.0,0.0,1.0
9254524000,9254524000,0.0003820412,-0.009065837,-0.0012169289,0.5782912,0.0,0.0,0.0,1.0
9254624000,9254624000,-0.0025745677,-0.011533146,0.00025234115,0.57982785,0.0,0.0,0.0,1.0
9254728000,9254728000,-0.00034902093,-0.011415616,-0.0006109914,0.5799691,0.0,0.0,0.0,1.0
9254828000,9254828000,-0.000886116,-0.010753875,-7.341546e-05,0.58091646,0.0,0.0,0.0,1.0
9254928000,9254928000,0.0035558217,-0.013368685,8.824142e-05,0.58240515,0.0,0.0,0.0,1.0
9255028000,9255028000,-0.00096043776,-0.011980783,-0.0011158385,0.5811295,0.0,0.0,0.0,1.0
9255128000,9255128000,-0.0015371024,-0.011652082,-0.0002933531,0.5814661,0.0,0.0,0.0,1.0
9255228000,9255228000,-0.0012704715,-0.014729833,-0.0009373487,0.5834984,0.0,0.0,0.0,1.0
9255328000,9255328000,0.00013191067,-0.012336933,0.0006592028,0.58379877,0.0,0.0,0.0,1.0
9255428000,9255428000,-0.0008154241,-0.0140451975,0.0005635908,0.5855242,0.0,0.0,0.0,1.0
9255528000,9255528000,0.0011420088,-0.014445751,7.586554e-05,0.58476543,0.0,0.0,0.0,1.0
9255624000,9255624000,-0.0009465543,-0.013271353,6.808969e-05,0.5866203,0.0,0.0,0.0,1.0
9255728000,9255728000,0.00085187505,-0.01643478,-0.00053774635,0.5889168,0.0,0.0,0.0,1.0
9255824000,9255824000,0.002457437,-0.016848719,-0.00050660165,0.58877575,0.0,0.0,0.0,1.0
9255928000,9255928000,-0.0026024869,-0.016785491,-0.00094573584,0.5896539,0.0,0.0,0.0,1.0
9256024000,9256024000,0.0003353845,-0.011274372,-0.00060800125,0.59033996,0.0,0.0,0.0,1.0
9256128000,9256128000,0.00038918277,-0.015781851,-0.00019351928,0.5934155,0.0,0.0,0.0,1.0
9256228000,9256228000,-0.001747522,-0.017379308,-0.00023589644,0.59439075,0.0,0.0,0.0,1.0
9256328000,9256328000,0.001134089,-0.018766418,0.00010918907,0.5961289,0.0,0.0,0.0,1.0
9256428000,9256428000,0.002270616,-0.020142782,-6.416498e-05,0.5990319,0.0,0.0,0.0,1.0
9256528000,9256528000,0.0037553052,-0.01634422,-0.00021105423,0.59793735,0.0,0.0,0.0,1.0
9256624000,9256624000,0.0023996597,-0.0198139,-0.00011254125,0.6019009,0.0,0.0,0.0,1.0
9256724000,9256724000,-0.00043853378,-0.023731498,0.00045952498,0.6025318,0.0,0.0,0.0,1.0
9256828000,9256828000,0.0006576475,-0.022725448,-0.0008651265,0.60386616,0.0,0.0,0.0,1.0
9256928000,9256928000,0.003358581,-0.021596499,3.684993e-05,0.60719913,0.0,0.0,0.0,1.0
9257028000,9257028000,0.0018372402,-0.021425828,-0.0013260648,0.60804385,0.0,0.0,0.0,1.0
9257124000,9257124000,0.0031575123,-0.0259865,-0.0007156205,0.6114138,0.0,0.0,0.0,1.0
9257224000,9257224000,0.0022979819,-0.024013873,-0.00032577367,0.6147132,0.0,0.0,0.0,1.0
9257328000,9257328000,0.0038847404,-0.026759356,-0.00042539957,0.6182327,0.0,0.0,0.0,1.0
9257424000,9257424000,-0.0019268944,-0.026076248,-0.0010652466,0.6212076,0.0,0.0,0.0,1.0
9257524000,9257524000,0.0012193022,-0.028607415,-0.0006605599,0.6241663,0.0,0.0,0.0,1.0
9257628000,9257628000,-0.0014067739,-0.029025208,-0.00097058126,0.62623554,0.0,0.0,0.0,1.0
9257724000,9257724000,0.0023552263,-0.02674021,-0.00091897714,0.6289583,0.0,0.0,0.0,1.0
9257828000,9257828000,0.003516179,-0.028492747,-0.0008858151,0.6321612,0.0,0.0,0.0,1.0
9257928000,9257928000,0.0036971797,-0.026447995,-0.00011211229,0.6351262,0.0,0.0,0.0,1.0
9258024000,9258024000,0.0020255866,-0.030743156,-0.0012118204,0.6417474,0.0,0.0,0.0,1.0
9258124000,9258124000,0.0045303754,-0.037071817,4.5275956e-06,0.6445907,0.0,0.0,0.0,1.0
9258228000,9258228000,0.0022272982,-0.030555403,-9.972372e-05,0.6492162,0.0,0.0,0.0,1.0
9258324000,9258324000,0.0034245881,-0.028448578,-0.0012602747,0.65097225,0.0,0.0,0.0,1.0
9258428000,9258428000,0.0033515845,-0.03269257,-0.00012578075,0.655923,0.0,0.0,0.0,1.0
9258528000,9258528000,0.0022905415,-0.03765363,-0.0017113779,0.6628148,0.0,0.0,0.0,1.0
9258628000,9258628000,0.003998764,-0.0401849,-0.00042004022,0.66737366,0.0,0.0,0.0,1.0
9258728000,9258728000,0.0065577277,-0.035331815,-0.0005472339,0.67199665,0.0,0.0,0.0,1.0
9258824000,9258824000,0.0076135583,-0.0115104,-0.0011908072,0.66712123,0.0,0.0,0.0,1.0
9258924000,9258924000,0.0024055524,-0.028642254,-1.0518284e-05,0.66576654,0.0,0.0,0.0,1.0
9259024000,9259024000,-0.0010569321,-0.0426835,-0.0007809327,0.67554516,0.0,0.0,0.0,1.0
9259124000,9259124000,0.00048469123,-0.0465725,-0.0010401774,0.668679,0.0,0.0,0.0,1.0
9259228000,9259228000,0.004930663,-0.025585322,-0.0021277098,0.65445596,0.0,0.0,0.0,1.0
9259324000,9259324000,0.0013259178,-0.039389133,-0.0014774349,0.65564,0.0,0.0,0.0,1.0
9259428000,9259428000,-0.0008099298,-0.06106361,-0.0009029801,0.65158665,0.0,0.0,0.0,1.0
9259524000,9259524000,0.0024097424,-0.055412017,-0.0007531941,0.6414434,0.0,0.0,0.0,1.0
9259628000,9259628000,0.003938587,-0.045946434,-0.0010674291,0.6377469,0.0,0.0,0.0,1.0
9259728000,9259728000,-0.0013526022,-0.044331647,0.00091679353,0.6359395,0.0,0.0,0.0,1.0
9259828000,9259828000,0.0037967302,-0.042232398,7.613853e-06,0.630532,0.0,0.0,0.0,1.0
9259928000,9259928000,0.0034748362,-0.0371435,-0.00028600582,0.6277051,0.0,0.0,0.0,1.0
9260028000,9260028000,0.00365514,-0.040326297,-0.00026788094,0.6249781,0.0,0.0,0.0,1.0
9260124000,9260124000,-0.00012581679,-0.035961024,-0.0016777212,0.62003154,0.0,0.0,0.0,1.0
9260228000,9260228000,0.0009085777,-0.039309755,-0.00012332783,0.61841404,0.0,0.0,0.0,1.0
9260328000,9260328000,0.0040100627,-0.032663886,0.00016346312,0.61409193,0.0,0.0,0.0,1.0
9260428000,9260428000,0.001013068,-0.032847468,0.00011051062,0.61223406,0.0,0.0,0.0,1.0
9260528000,9260528000,0.0031773779,-0.030955171,-0.0012700842,0.60994834,0.0,0.0,0.0,1.0
9260628000,9260628000,0.0028479677,-0.03017114,-0.0001838736,0.6083645,0.0,0.0,0.0,1.0
9260728000,9260728000,0.0008988471,-0.03175338,-0.0006720484,0.6046021,0.0,0.0,0.0,1.0
9260828000,9260828000,0.0019541217,-0.02693903,-0.0006825471,0.602821,0.0,0.0,0.0,1.0
9260924000,9260924000,0.0029639886,-0.02667591,-0.00010048886,0.60125625,0.0,0.0,0.0,1.0
9261024000,9261024000,0.002548792,-0.027492417,0.00047798562,0.5983465,0.0,0.0,0.0,1.0
9261128000,9261128000,-0.0005903363,-0.023445629,-0.0006240378,0.5963955,0.0,0.0,0.0,1.0
9261228000,9261228000,0.0002499685,-0.02234799,-0.00082549977,0.5941006,0.0,0.0,0.0,1.0
9261328000,9261328000,0.001919892,-0.021357626,-0.0008980136,0.59133923,0.0,0.0,0.0,1.0
9261428000,9261428000,0.0008771154,-0.017723415,0.00044106346,0.5911093,0.0,0.0,0.0,1.0
9261528000,9261528000,0.00010792399,-0.018607099,0.00064263516,0.5900361,0.0,0.0,0.0,1.0
9261628000,9261628000,0.0015281282,-0.022077072,-0.0006841151,0.5901459,0.0,0.0,0.0,1.0
9261728000,9261728000,0.0016442344,-0.020875214,0.00016405078,0.58770883,0.0,0.0,0.0,1.0
9261828000,9261828000,0.003915534,-0.016035035,-5.5507262e-05,0.5858319,0.0,0.0,0.0,1.0
9261928000,9261928000,0.00031091785,-0.016928878,3.784444e-05,0.58455384,0.0,0.0,0.0,1.0
9262028000,9262028000,0.002810162,-0.017092705,-0.001386628,0.58442205,0.0,0.0,0.0,1.0
9262128000,9262128000,0.0009995492,-0.018491643,0.00021526738,0.5819556,0.0,0.0,0.0,1.0
9262228000,9262228000,0.0040615536,-0.01344667,-2.5836489e-05,0.58184683,0.0,0.0,0.0,1.0
9262328000,9262328000,-0.0008878986,-0.012416767,-5.725486e-05,0.58120614,0.0,0.0,0.0,1.0
9262428000,9262428000,-0.001255648,-0.013509086,-0.00030288054,0.57978666,0.0,0.0,0.0,1.0
9262528000,9262528000,0.0030390383,-0.011134732,-0.0010167032,0.57952553,0.0,0.0,0.0,1.0
9262628000,9262628000,0.0023986842,-0.0138603635,0.00011299018,0.580226,0.0,0.0,0.0,1.0
9262728000,9262728000,0.0023459475,-0.013279043,-0.00038020918,0.5789241,0.0,0.0,0.0,1.0
9262828000,9262828000,0.0018358653,-0.00982585,-0.0012997093,0.5792364,0.0,0.0,0.0,1.0
9262928000,9262928000,0.00489832,-0.01298775,0.00020894296,0.5751755,0.0,0.0,0.0,1.0
9263028000,9263028000,0.0017641797,-0.0101281665,-0.0005576066,0.5796862,0.0,0.0,0.0,1.0
9263124000,9263124000,0.0068849064,-0.005070962,-0.00029853196,0.58355707,0.0,0.0,0.0,1.0
9263224000,9263224000,0.006811357,-0.004099353,0.00050014677,0.59441364,0.0,0.0,0.0,1.0
9263328000,9263328000,-0.6464888,0.07628268,0.033125836,0.5061199,0.0,0.0,0.0,1.0
9263424000,9263424000,0.23787928,-0.11981073,-0.017710505,0.46787104,0.0,0.0,0.0,1.0
9263528000,9263528000,0.14477769,-0.058165334,-0.012848847,0.5543967,0.0,0.0,0.0,1.0
9263628000,9263628000,-0.03566683,0.013534348,-0.0040820725,0.5928159,0.0,0.0,0.0,1.0
9263724000,9263724000,-0.054246344,0.021456925,-0.00312421,0.58087987,0.0,0.0,0.0,1.0
9263828000,9263828000,-0.032028094,0.011647392,-0.0012852198,0.5749108,0.0,0.0,0.0,1.0
9263928000,9263928000,-0.016593087,0.0022228928,-0.00024236873,0.57783705,0.0,0.0,0.0,1.0
9264028000,9264028000,-0.0047628405,-0.0047643716,0.00046724523,0.5767126,0.0,0.0,0.0,1.0
9264128000,9264128000,-0.0040499023,-0.00070680864,0.000731194,0.5752963,0.0,0.0,0.0,1.0
9264228000,9264228000,-0.0053468533,-0.0005835807,0.0018399991,0.5773097,0.0,0.0,0.0,1.0
9264324000,9264324000,-0.008587571,3.4816563e-05,0.0018048943,0.57594055,0.0,0.0,0.0,1.0
9264428000,9264428000,-0.009921172,-0.00056550186,0.0013894844,0.5757253,0.0,0.0,0.0,1.0
9264528000,9264528000,-0.0058729267,-0.0013635843,0.0005698752,0.57726175,0.0,0.0,0.0,1.0
9264628000,9264628000,-0.0061423723,0.0016037342,0.0016733971,0.5760011,0.0,0.0,0.0,1.0
9264724000,9264724000,-0.011229281,-0.0033062752,0.002016509,0.57463896,0.0,0.0,0.0,1.0
9264828000,9264828000,-0.009024048,-0.0016209423,0.0012135782,0.5752815,0.0,0.0,0.0,1.0
9264928000,9264928000,-0.0085986145,0.00014377618,0.0016567346,0.5763309,0.0,0.0,0.0,1.0
9265028000,9265028000,-0.004067514,-0.00065462384,0.0008402595,0.5767746,0.0,0.0,0.0,1.0
9265128000,9265128000,-0.008765772,-0.0025717528,0.00068299007,0.57679856,0.0,0.0,0.0,1.0
9265228000,9265228000,-0.007077633,0.002221845,0.0013603277,0.57510155,0.0,0.0,0.0,1.0
9265328000,9265328000,-0.008570129,-0.0019338928,0.0010964149,0.5769695,0.0,0.0,0.0,1.0
9265428000,9265428000,-0.009970839,-0.00010966114,0.0012027691,0.57678837,0.0,0.0,0.0,1.0
9265528000,9265528000,-0.005783826,0.001443171,0.0006082959,0.57748157,0.0,0.0,0.0,1.0
9265628000,9265628000,-0.008538551,0.0012371291,0.001631071,0.57657766,0.0,0.0,0.0,1.0
9265724000,9265724000,-0.0068516238,0.0027711221,0.0015095939,0.5774055,0.0,0.0,0.0,1.0
9265828000,9265828000,-0.009087588,0.00026788493,0.0021744932,0.57745266,0.0,0.0,0.0,1.0
9265928000,9265928000,-0.010534204,0.0003665057,0.0008906722,0.57553834,0.0,0.0,0.0,1.0
9266028000,9266028000,-0.008456811,0.0009203431,0.0013844064,0.5747531,0.0,0.0,0.0,1.0
9266124000,9266124000,-0.005636743,-0.0005918909,0.00065841945,0.5771042,0.0,0.0,0.0,1.0
9266228000,9266228000,-0.008978845,0.00082545006,0.0011136961,0.5771731,0.0,0.0,0.0,1.0
9266328000,9266328000,-0.007910399,0.00063634885,0.0018916423,0.57806724,0.0,0.0,0.0,1.0
9266424000,9266424000,-0.009951743,0.0023449375,0.00063208776,0.5773694,0.0,0.0,0.0,1.0
9266528000,9266528000,-0.010793755,0.00021397718,0.0014121423,0.57801694,0.0,0.0,0.0,1.0
9266624000,9266624000,-0.008445017,0.0011913362,0.0013460934,0.5783915,0.0,0.0,0.0,1.0
9266728000,9266728000,-0.009733718,0.0011173204,0.001402175,0.5770213,0.0,0.0,0.0,1.0
9266828000,9266828000,-0.0070333853,0.0003020605,0.0009525736,0.57748437,0.0,0.0,0.0,1.0
9266928000,9266928000,-0.010659694,-0.00013065565,0.0005720329,0.5780684,0.0,0.0,0.0,1.0
9267028000,9267028000,-0.008914741,-1.3093813e-06,0.00092671096,0.5769405,0.0,0.0,0.0,1.0
9267124000,9267124000,-0.0078676855,0.00056158187,0.0009054256,0.57740945,0.0,0.0,0.0,1.0
9267228000,9267228000,-0.00987303,0.0006079455,4.218379e-05,0.5781654,0.0,0.0,0.0,1.0
9267328000,9267328000,-0.010959177,0.0016261858,0.00086338475,0.5793646,0.0,0.0,0.0,1.0
9267428000,9267428000,-0.010111716,-0.002279322,0.00040681966,0.5773356,0.0,0.0,0.0,1.0
9267524000,9267524000,-0.008998286,-0.000503866,0.0011592059,0.5774571,0.0,0.0,0.0,1.0
9267628000,9267628000,-0.0061005466,-8.133374e-05,0.001328106,0.57852924,0.0,0.0,0.0,1.0
9267728000,9267728000,-0.010408261,-0.00032628092,0.0019160167,0.57732457,0.0,0.0,0.0,1.0
9267828000,9267828000,-0.007844811,-0.0019717033,0.0013906746,0.57736456,0.0,0.0,0.0,1.0
9267928000,9267928000,-0.007826821,0.00029655587,0.0008326118,0.5770212,0.0,0.0,0.0,1.0
9268024000,9268024000,-0.010923854,-0.0013152313,0.0013815394,0.57793057,0.0,0.0,0.0,1.0
9268128000,9268128000,-0.007694379,-5.017061e-05,0.0007229691,0.57759035,0.0,0.0,0.0,1.0
9268228000,9268228000,-0.0060585714,-0.0014691666,0.0003426196,0.5781911,0.0,0.0,0.0,1.0
9268328000,9268328000,-0.009347862,0.0028699534,0.0006271963,0.57939625,0.0,0.0,0.0,1.0
9268428000,9268428000,-0.010199537,0.0014388495,0.0023349407,0.57734686,0.0,0.0,0.0,1.0
9268528000,9268528000,-0.00979473,-0.00039217155,0.0021876895,0.57982063,0.0,0.0,0.0,1.0
9268628000,9268628000,-0.010793507,-0.0028119725,0.0014682229,0.58006257,0.0,0.0,0.0,1.0
9268724000,9268724000,-0.011723321,-0.0026969565,0.00241277,0.57866156,0.0,0.0,0.0,1.0
9268828000,9268828000,-0.0073973387,0.0005722053,0.00015512743,0.5783342,0.0,0.0,0.0,1.0
9268928000,9268928000,-0.007601261,-0.0023632736,0.0007673075,0.5794765,0.0,0.0,0.0,1.0
9269028000,9269028000,-0.00872043,0.0013127918,0.0020650206,0.57766837,0.0,0.0,0.0,1.0
9269128000,9269128000,-0.010759511,-0.0019362979,0.0010531542,0.5786754,0.0,0.0,0.0,1.0
9269228000,9269228000,-0.009403003,-0.000996797,0.0014369353,0.5775132,0.0,0.0,0.0,1.0
9269324000,9269324000,-0.010976937,-0.005326362,0.00094278954,0.57775503,0.0,0.0,0.0,1.0
9269424000,9269424000,-0.009371489,-0.0018651464,0.00014403037,0.575708,0.0,0.0,0.0,1.0
9269524000,9269524000,-0.011202534,0.0020225174,0.001218544,0.5784296,0.0,0.0,0.0,1.0
9269628000,9269628000,-0.008927957,0.00023856299,0.0012174405,0.57793325,0.0,0.0,0.0,1.0
9269728000,9269728000,-0.009977653,-0.00106025,0.0018562821,0.5769638,0.0,0.0,0.0,1.0
9269828000,9269828000,-0.007361795,-0.001682558,0.0019684208,0.57893825,0.0,0.0,0.0,1.0
9269924000,9269924000,-0.0074949386,-0.0022333756,0.00021675183,0.57941556,0.0,0.0,0.0,1.0
9270024000,9270024000,-0.011199618,0.0016270571,0.0023640273,0.5792331,0.0,0.0,0.0,1.0
9270128000,9270128000,-0.008640292,0.0005207591,0.0018415472,0.5791612,0.0,0.0,0.0,1.0
9270224000,9270224000,-0.008472565,0.0005195505,0.00075824093,0.5796487,0.0,0.0,0.0,1.0
9270328000,9270328000,-0.011421206,-0.0019053069,0.0012651247,0.5770527,0.0,0.0,0.0,1.0
9270424000,9270424000,-0.011083222,0.0011449289,0.00063196867,0.5790682,0.0,0.0,0.0,1.0
9270524000,9270524000,-0.007948001,-0.0002256278,0.0015435033,0.5779141,0.0,0.0,0.0,1.0
9270628000,9270628000,-0.008919317,-0.0014584273,0.00076783705,0.57865083,0.0,0.0,0.0,1.0
9270728000,9270728000,-0.009545745,-0.000872422,0.0012993345,0.5780856,0.0,0.0,0.0,1.0
9270828000,9270828000,-0.010055956,-0.00016593433,0.0016380751,0.578189,0.0,0.0,0.0,1.0
9270928000,9270928000,-0.0077081667,-0.00055937906,0.0012188032,0.57916677,0.0,0.0,0.0,1.0
9271028000,9271028000,-0.0133438455,-0.0009803032,0.0007184368,0.57866997,0.0,0.0,0.0,1.0
9271128000,9271128000,-0.008114213,0.0014386071,0.0010203131,0.57759124,0.0,0.0,0.0,1.0
9271224000,9271224000,-0.007982351,-0.0008906542,0.0021315524,0.57803696,0.0,0.0,0.0,1.0
9271328000,9271328000,-0.008087784,0.001073265,0.0009866185,0.57864296,0.0,0.0,0.0,1.0
9271428000,9271428000,-0.012784561,-0.001619712,0.0010099004,0.57740897,0.0,0.0,0.0,1.0
9271524000,9271524000,-0.011025274,0.0010300085,0.0016450881,0.5781893,0.0,0.0,0.0,1.0
9271624000,9271624000,-0.0062119868,-0.0007662718,0.0011267952,0.5791046,0.0,0.0,0.0,1.0
9271724000,9271724000,-0.0106254965,-2.485275e-05,0.0013687012,0.5787122,0.0,0.0,0.0,1.0
9271828000,9271828000,-0.008377252,0.0012243495,0.001840214,0.5779524,0.0,0.0,0.0,1.0
9271924000,9271924000,-0.009611805,-0.0011311404,0.0018374175,0.57907605,0.0,0.0,0.0,1.0
9272028000,9272028000,-0.008065314,0.0010664584,0.0014121035,0.57914305,0.0,0.0,0.0,1.0
9272124000,9272124000,-0.010003498,-0.0018581286,0.0010527003,0.5791395,0.0,0.0,0.0,1.0
9272228000,9272228000,-0.011138823,-0.0028195619,0.0012114593,0.57875514,0.0,0.0,0.0,1.0
9272328000,9272328000,-0.008579995,0.0011128734,0.000682788,0.57762355,0.0,0.0,0.0,1.0
9272428000,9272428000,-0.005478285,0.0020938248,0.0018988177,0.5786441,0.0,0.0,0.0,1.0
9272524000,9272524000,-0.01126828,-0.00057426223,0.0013900193,0.5794072,0.0,0.0,0.0,1.0
9272628000,9272628000,-0.007429818,-0.0018476176,0.0013826702,0.5783776,0.0,0.0,0.0,1.0
9272728000,9272728000,-0.008365225,-0.0016880549,0.00087516825,0.57843417,0.0,0.0,0.0,1.0
9272828000,9272828000,-0.011975761,6.9475034e-05,0.0013896489,0.5783398,0.0,0.0,0.0,1.0
9272928000,9272928000,-0.010206563,-0.0030708693,0.00097607216,0.57801926,0.0,0.0,0.0,1.0
9273028000,9273028000,-0.006905308,0.00029245586,0.0008151455,0.57841486,0.0,0.0,0.0,1.0
9273128000,9273128000,-0.00965823,-0.0021465716,-0.0003358369,0.576934,0.0,0.0,0.0,1.0
9273224000,9273224000,-0.008372422,-0.0017261796,0.00059263327,0.5776036,0.0,0.0,0.0,1.0
9273328000,9273328000,-0.00694891,-0.0045701256,0.0009932088,0.577451,0.0,0.0,0.0,1.0
9273424000,9273424000,-0.011013933,0.0018319564,0.00031087466,0.5783132,0.0,0.0,0.0,1.0
9273528000,9273528000,-0.011153927,0.00081862335,0.001839947,0.5779757,0.0,0.0,0.0,1.0
9273624000,9273624000,-0.00928975,0.00017954555,0.0013694183,0.5781028,0.0,0.0,0.0,1.0
9273728000,9273728000,-0.008759437,0.0011228693,0.00064401625,0.5789833,0.0,0.0,0.0,1.0
9273828000,9273828000,-0.032803822,-0.030836357,0.0025613117,0.52432466,0.0,0.0,0.0,1.0
9273924000,9273924000,0.0074797627,0.01493155,0.004225406,0.5631101,0.0,0.0,0.0,1.0
9274028000,9274028000,-0.010496691,0.0058298423,0.0014994524,0.5758337,0.0,0.0,0.0,1.0
9274128000,9274128000,-0.014529976,-0.003278577,0.0006661939,0.5688399,0.0,0.0,0.0,1.0
9274228000,9274228000,-0.011673584,-0.0031181388,0.0016084139,0.57565284,0.0,0.0,0.0,1.0
9274328000,9274328000,-0.010710681,0.00042200973,0.0020551041,0.5750409,0.0,0.0,0.0,1.0
9274428000,9274428000,-0.009501498,-0.002774792,0.0014010521,0.5759681,0.0,0.0,0.0,1.0
9274528000,9274528000,-0.024586324,0.021546913,0.005083966,0.57002646,0.0,0.0,0.0,1.0
9274628000,9274628000,-0.0031574983,-0.003029294,0.0032633177,0.5640511,0.0,0.0,0.0,1.0
9274724000,9274724000,-0.007223514,-0.0006143494,0.0021543351,0.58405507,0.0,0.0,0.0,1.0
9274828000,9274828000,-0.018437456,0.06412856,0.0065498864,0.5333511,0.0,0.0,0.0,1.0
9274924000,9274924000,-0.006553216,-0.0052967537,-0.0003698134,0.573606,0.0,0.0,0.0,1.0
9275028000,9275028000,52.46238,26.170042,0.00025845668,0.58691716,0.0,0.0,0.0,1.0
9275124000,9275124000,-0.011738098,0.04446459,0.0030738055,0.5267215,0.0,0.0,0.0,1.0
9275228000,9275228000,-0.00094024185,-0.0070092874,-0.0016620222,0.5897746,0.0,0.0,0.0,1.0
9275324000,9275324000,-0.011991864,-0.014860852,-0.00059395644,0.5850323,0.0,0.0,0.0,1.0
9275428000,9275428000,-0.012225378,-0.0064154477,0.0013068528,0.5789233,0.0,0.0,0.0,1.0
9275528000,9275528000,-0.0148381945,-0.0011906154,0.0007697599,0.5819562,0.0,0.0,0.0,1.0
9275628000,9275628000,-0.009722041,0.000424386,0.0007052695,0.5819632,0.0,0.0,0.0,1.0
9275728000,9275728000,-0.012794552,0.0008702895,0.0015352106,0.58305085,0.0,0.0,0.0,1.0
9275828000,9275828000,-0.013529735,-0.00017689634,-0.00020032155,0.58175945,0.0,0.0,0.0,1.0
9275928000,9275928000,-0.010225201,0.00027414318,0.00096156425,0.5828858,0.0,0.0,0.0,1.0
9276024000,9276024000,-0.013080969,0.0030701724,0.00063235126,0.5828075,0.0,0.0,0.0,1.0
9276124000,9276124000,-0.009701321,0.0018467722,0.0012214734,0.58303785,0.0,0.0,0.0,1.0
9276228000,9276228000,-0.011027458,0.0003506723,0.00039195828,0.58202195,0.0,0.0,0.0,1.0
9276324000,9276324000,-0.002169473,-0.013747817,0.0019314578,0.51101726,0.0,0.0,0.0,1.0
9276428000,9276428000,-0.00017009117,0.0020243055,0.00021703681,0.6004587,0.0,0.0,0.0,1.0
9276528000,9276528000,-0.028728936,-0.0003547737,0.0008847128,0.53025204,0.0,0.0,0.0,1.0
9276628000,9276628000,-0.009381298,0.00044403342,0.0010205145,0.56724185,0.0,0.0,0.0,1.0
9276728000,9276728000,-0.013280074,0.0030403482,0.00207852,0.59979355,0.0,0.0,0.0,1.0
9276828000,9276828000,-0.01756418,-0.021170173,0.0005700996,0.46751225,0.0,0.0,0.0,1.0
9276928000,9276928000,0.006972192,-0.0049819057,-0.00042200147,0.61359435,0.0,0.0,0.0,1.0
9277028000,9277028000,-0.018383093,0.0007533202,0.0001747834,0.58884645,0.0,0.0,0.0,1.0
9277124000,9277124000,-0.017116033,0.0007089521,-0.0016892278,0.584478,0.0,0.0,0.0,1.0
9277224000,9277224000,-0.007260793,0.0067736646,0.0008121085,0.58862996,0.0,0.0,0.0,1.0
9277328000,9277328000,-0.0084298495,-0.00018377183,-0.0006959345,0.5915371,0.0,0.0,0.0,1.0
9277428000,9277428000,-0.008897958,0.0033512488,5.033234e-05,0.587227,0.0,0.0,0.0,1.0
9277524000,9277524000,-0.007131583,0.000705248,-0.000365083,0.5892319,0.0,0.0,0.0,1.0
9277628000,9277628000,-0.010203482,0.00495728,2.3983186e-05,0.5862473,0.0,0.0,0.0,1.0
9277728000,9277728000,-0.0068448884,0.0035195127,-0.0010656938,0.5885964,0.0,0.0,0.0,1.0
9277828000,9277828000,-0.021740811,0.0018912861,0.0025539729,0.487458,0.0,0.0,0.0,1.0
9277928000,9277928000,-0.001461139,-0.014687952,-0.0004448687,0.628337,0.0,0.0,0.0,1.0
9278028000,9278028000,-0.020036822,-0.0067321155,0.0011076423,0.5892742,0.0,0.0,0.0,1.0
9278128000,9278128000,-0.008130082,-0.0016486973,-0.00041075127,0.5867057,0.0,0.0,0.0,1.0
9278228000,9278228000,-0.004780895,0.00531884,0.00019108376,0.5946995,0.0,0.0,0.0,1.0
9278328000,9278328000,-0.008604363,0.005139294,0.0012961379,0.59196657,0.0,0.0,0.0,1.0
9278428000,9278428000,-0.0066305418,-0.001591184,-0.00025503035,0.5888466,0.0,0.0,0.0,1.0
9278528000,9278528000,-0.0078281,-0.002500814,-0.0018224088,0.59016037,0.0,0.0,0.0,1.0
9278628000,9278628000,-0.03469571,0.19371144,0.012103986,0.39924705,0.0,0.0,0.0,1.0
9278724000,9278724000,0.03641236,-0.0367256,-0.0021631913,0.5532902,0.0,0.0,0.0,1.0
9278828000,9278828000,-0.012344196,-0.007654074,-0.0006647033,0.64331436,0.0,0.0,0.0,1.0
9278928000,9278928000,-0.27018166,-0.061927754,-0.013145751,0.14065929,0.0,0.0,0.0,1.0
9279024000,9279024000,0.084378555,0.10796316,0.009539599,0.5471642,0.0,0.0,0.0,1.0
9279128000,9279128000,-0.012110287,-0.002985471,0.0011652417,0.6529012,0.0,0.0,0.0,1.0
9279228000,9279228000,-0.034534164,-0.033292424,0.00077931886,0.5823786,0.0,0.0,0.0,1.0
9279328000,9279328000,-0.007916058,-0.008146309,0.0007105145,0.6117473,0.0,0.0,0.0,1.0
9279428000,9279428000,-0.009689085,0.0028811581,0.0012543072,0.6084167,0.0,0.0,0.0,1.0
9279528000,9279528000,-0.0021222755,0.00436816,0.00087321544,0.6064245,0.0,0.0,0.0,1.0
9279628000,9279628000,-0.0042838873,0.0047634216,0.0008775787,0.603133,0.0,0.0,0.0,1.0
9279728000,9279728000,-0.005865063,-0.0011504712,0.00072918023,0.6057861,0.0,0.0,0.0,1.0
9279828000,9279828000,-0.006692087,-0.0017355839,0.0010522313,0.5985062,0.0,0.0,0.0,1.0
9279928000,9279928000,-0.011195257,-0.000710974,0.0014537424,0.5977042,0.0,0.0,0.0,1.0
9280024000,9280024000,-0.007371455,-0.0018753675,0.0011592266,0.6017366,0.0,0.0,0.0,1.0
9280128000,9280128000,-0.008152505,-0.002498747,0.0007415051,0.5953704,0.0,0.0,0.0,1.0
9280224000,9280224000,-0.00543568,-0.0006561491,0.00060160033,0.5983718,0.0,0.0,0.0,1.0
9280328000,9280328000,-0.009498535,-0.0013809883,0.00032795986,0.5945573,0.0,0.0,0.0,1.0
9280428000,9280428000,-0.0055884896,0.0002980454,0.0010028201,0.5966151,0.0,0.0,0.0,1.0
9280524000,9280524000,-0.010263133,-0.00011534087,0.001740697,0.5914348,0.0,0.0,0.0,1.0
9280628000,9280628000,-0.007675189,-5.8770704e-05,0.0014884197,0.5980096,0.0,0.0,0.0,1.0
9280728000,9280728000,-0.0071273264,0.0015728303,0.0011704825,0.59304404,0.0,0.0,0.0,1.0
9280828000,9280828000,-0.009242334,-0.0019623693,0.0004484432,0.6021499,0.0,0.0,0.0,1.0
9280924000,9280924000,-0.008806087,0.0007166348,0.00092264474,0.6006397,0.0,0.0,0.0,1.0
9281028000,9281028000,-0.008222533,-0.00054231304,0.00032731585,0.60950255,0.0,0.0,0.0,1.0
9281128000,9281128000,-0.010702201,-0.0027612252,0.0005123581,0.6083979,0.0,0.0,0.0,1.0
9281224000,9281224000,-0.00808492,0.000775929,0.0006119285,0.619571,0.0,0.0,0.0,1.0
9281328000,9281328000,-0.008149654,-0.0016336805,0.0008769123,0.61562335,0.0,0.0,0.0,1.0
9281428000,9281428000,-0.011071382,0.001043203,0.000908392,0.6286549,0.0,0.0,0.0,1.0
9281528000,9281528000,-0.010689092,0.0007045365,0.0006612089,0.626387,0.0,0.0,0.0,1.0
9281628000,9281628000,-0.009219075,-0.0014918321,0.001153925,0.6340029,0.0,0.0,0.0,1.0
9281724000,9281724000,-0.0071344366,-0.0012609747,0.00062507595,0.62955976,0.0,0.0,0.0,1.0
9281828000,9281828000,-0.006725126,-0.00070928957,0.00012184668,0.6347106,0.0,0.0,0.0,1.0
9281924000,9281924000,-0.00935794,-0.0013012537,0.0011902543,0.62709284,0.0,0.0,0.0,1.0
9282028000,9282028000,-0.006608515,-0.0037685065,0.0016590013,0.6286324,0.0,0.0,0.0,1.0
9282128000,9282128000,-0.009739306,-0.0025070684,-0.00023294584,0.6238045,0.0,0.0,0.0,1.0
9282228000,9282228000,-0.0085916985,0.0006465432,0.0007445404,0.62028754,0.0,0.0,0.0,1.0
9282328000,9282328000,-0.010100214,-0.0027222452,0.0008061691,0.61524177,0.0,0.0,0.0,1.0
9282428000,9282428000,-0.00490513,-0.0027904604,0.00032873976,0.6066782,0.0,0.0,0.0,1.0
9282528000,9282528000,-0.008104267,-0.0018348816,-0.0002678216,0.6045864,0.0,0.0,0.0,1.0
9282628000,9282628000,-0.008691659,-0.0005026491,0.00019422203,0.5930786,0.0,0.0,0.0,1.0
9282724000,9282724000,-0.007215536,-0.0011812956,0.0015536963,0.5946641,0.0,0.0,0.0,1.0
9282828000,9282828000,-0.010307713,-0.0029125,-9.177788e-05,0.584318,0.0,0.0,0.0,1.0
9282924000,9282924000,-0.009740156,-0.0024307494,0.00011706451,0.5823742,0.0,0.0,0.0,1.0
9283028000,9283028000,-0.008664581,-0.002535694,0.0012993673,0.56841135,0.0,0.0,0.0,1.0
9283124000,9283124000,-0.0052660485,-0.0049214135,0.00087538623,0.5769422,0.0,0.0,0.0,1.0
9283224000,9283224000,-0.010325798,0.0005747406,0.0011160711,0.5587172,0.0,0.0,0.0,1.0
9283328000,9283328000,-0.0075248564,-0.00025716447,0.0015641756,0.5650114,0.0,0.0,0.0,1.0
9283424000,9283424000,-0.00942853,-0.00090754835,0.001387669,0.55886555,0.0,0.0,0.0,1.0
9283528000,9283528000,-0.0068025384,-0.0017623088,0.0019267409,0.5616825,0.0,0.0,0.0,1.0
9283628000,9283628000,-0.009798904,-0.0037747778,0.0009367145,0.55449796,0.0,0.0,0.0,1.0
9283724000,9283724000,-0.011807632,0.0008365747,0.0016778858,0.56104106,0.0,0.0,0.0,1.0
9283828000,9283828000,-0.011091272,0.0030458493,0.0024515346,0.53880024,0.0,0.0,0.0,1.0
9283928000,9283928000,-0.00706146,-0.00026168802,0.0022499345,0.5324208,0.0,0.0,0.0,1.0
9284028000,9284028000,-0.00736525,0.00020207954,0.0021269016,0.5337248,0.0,0.0,0.0,1.0
9284128000,9284128000,-0.0081375865,0.0009048189,0.001742031,0.54187816,0.0,0.0,0.0,1.0
9284224000,9284224000,-0.012058012,-0.0065001445,0.0025326454,0.53988856,0.0,0.0,0.0,1.0
9284324000,9284324000,-0.01114401,-0.0015136276,0.0018365267,0.54574996,0.0,0.0,0.0,1.0
9284428000,9284428000,-0.010995086,-0.0024584609,0.001202486,0.5411097,0.0,0.0,0.0,1.0
9284528000,9284528000,-0.0056868354,-0.0029177181,0.0022987805,0.54822004,0.0,0.0,0.0,1.0
9284628000,9284628000,-0.0109776985,-0.0039942986,0.001183536,0.5477639,0.0,0.0,0.0,1.0
9284728000,9284728000,-0.007052959,0.00092664454,0.00093596656,0.5542773,0.0,0.0,0.0,1.0
9284828000,9284828000,-0.007616885,-0.0014407152,0.0018427272,0.5507863,0.0,0.0,0.0,1.0
9284928000,9284928000,-0.0069281477,-8.521602e-06,0.0025061164,0.55628794,0.0,0.0,0.0,1.0
9285028000,9285028000,-0.008725502,1.8195482e-05,0.001046112,0.5592365,0.0,0.0,0.0,1.0
9285128000,9285128000,-0.012345606,-0.0011233739,0.0010968654,0.55473787,0.0,0.0,0.0,1.0
9285228000,9285228000,-0.007322966,0.0035041838,0.0016698338,0.56057465,0.0,0.0,0.0,1.0
9285328000,9285328000,-0.007853386,0.0009634814,0.0010492355,0.5606836,0.0,0.0,0.0,1.0
9285428000,9285428000,-0.008533707,0.00070341467,0.0012782054,0.5627863,0.0,0.0,0.0,1.0
9285524000,9285524000,-0.009711818,0.00077551755,0.0007574032,0.56357557,0.0,0.0,0.0,1.0
9285624000,9285624000,-0.0051339986,0.0054955813,0.0009399204,0.5658568,0.0,0.0,0.0,1.0
9285728000,9285728000,-0.009681771,-0.0011859414,0.0007138935,0.5715665,0.0,0.0,0.0,1.0
9285828000,9285828000,-0.008688016,0.0023793525,0.0007058126,0.5707679,0.0,0.0,0.0,1.0
9285924000,9285924000,-0.01007113,-0.0018120846,0.00030944013,0.5754734,0.0,0.0,0.0,1.0
9286024000,9286024000,-0.007044768,0.00068075303,0.001085431,0.5764406,0.0,0.0,0.0,1.0
9286128000,9286128000,-0.009051502,0.0012152107,0.00055273453,0.57980406,0.0,0.0,0.0,1.0
9286228000,9286228000,-0.009125205,-0.0006975344,0.000961948,0.57815737,0.0,0.0,0.0,1.0
9286328000,9286328000,-0.007919754,-0.001754195,0.0009403237,0.5826536,0.0,0.0,0.0,1.0
9286424000,9286424000,-0.008877624,0.0031273009,0.0007252054,0.58052844,0.0,0.0,0.0,1.0
9286528000,9286528000,-0.011248602,0.00076752005,0.0007341475,0.5867138,0.0,0.0,0.0,1.0
9286628000,9286628000,-0.008021846,-0.0010661574,0.0012731653,0.58460444,0.0,0.0,0.0,1.0
9286728000,9286728000,-0.010231186,0.001739956,0.0012748707,0.5865087,0.0,0.0,0.0,1.0
9286824000,9286824000,-0.012031986,-0.00022890879,0.0022339732,0.58569074,0.0,0.0,0.0,1.0
9286928000,9286928000,-0.0075076898,0.00024204352,0.0014212745,0.58813864,0.0,0.0,0.0,1.0
9287028000,9287028000,-0.007996705,-0.004829808,0.0016031093,0.586194,0.0,0.0,0.0,1.0
9287128000,9287128000,-0.012208459,-0.0013862784,0.001014181,0.5889151,0.0,0.0,0.0,1.0
9287228000,9287228000,-0.009026469,-0.0004194553,0.0029462387,0.58409154,0.0,0.0,0.0,1.0
9287328000,9287328000,-0.01076137,-0.0022625327,0.00091301335,0.59032166,0.0,0.0,0.0,1.0
9287428000,9287428000,-0.012600819,-0.0021333937,0.0020099485,0.58387965,0.0,0.0,0.0,1.0
9287528000,9287528000,-0.007385276,-0.0032670014,0.0017344719,0.58650285,0.0,0.0,0.0,1.0
9287628000,9287628000,-0.008013181,-0.0041383924,0.0020361072,0.5847297,0.0,0.0,0.0,1.0
9287728000,9287728000,-0.010336626,-0.0018358355,0.00073191617,0.5873627,0.0,0.0,0.0,1.0
9287824000,9287824000,-0.012727217,0.00028774096,0.0024996032,0.58434534,0.0,0.0,0.0,1.0
9287924000,9287924000,-0.013608839,-0.0057006776,0.0021277603,0.5886836,0.0,0.0,0.0,1.0
9288024000,9288024000,-0.009177306,-0.0037706597,0.002204718,0.5835551,0.0,0.0,0.0,1.0
9288128000,9288128000,-0.009184055,-0.0015387203,0.0021522518,0.58749914,0.0,0.0,0.0,1.0
9288228000,9288228000,-0.010613887,-0.004463004,0.00039710262,0.58265555,0.0,0.0,0.0,1.0
9288328000,9288328000,-0.00841667,-0.004395696,0.0018505328,0.5864844,0.0,0.0,0.0,1.0
9288428000,9288428000,-0.009858792,-0.004534626,0.0016036214,0.5818003,0.0,0.0,0.0,1.0
9288524000,9288524000,-0.0106558185,-0.0001241708,0.0019673917,0.5843564,0.0,0.0,0.0,1.0
9288628000,9288628000,-0.013346972,-0.00023215346,0.0026342159,0.5805537,0.0,0.0,0.0,1.0
9288728000,9288728000,-0.0066485414,-5.002506e-05,0.000613836,0.5830356,0.0,0.0,0.0,1.0
9288828000,9288828000,-0.012064474,-0.0024452594,0.001970186,0.5792826,0.0,0.0,0.0,1.0
9288928000,9288928000,-0.010076631,-0.0036479156,0.00072899205,0.5834965,0.0,0.0,0.0,1.0
9289028000,9289028000,-0.008766534,-0.0032389397,0.0022566407,0.5814758,0.0,0.0,0.0,1.0
9289128000,9289128000,-0.0107478695,-0.00074164546,0.0013314845,0.5815509,0.0,0.0,0.0,1.0
9289228000,9289228000,-0.0101561975,-0.0032827812,0.0017448134,0.58119947,0.0,0.0,0.0,1.0
9289328000,9289328000,-0.009750487,-0.00033419917,0.0012834842,0.58315265,0.0,0.0,0.0,1.0
9289424000,9289424000,-0.0070785405,-0.001618089,0.0011807475,0.58010066,0.0,0.0,0.0,1.0
9289524000,9289524000,-0.011050754,-0.0006790599,0.0032362295,0.58247495,0.0,0.0,0.0,1.0
9289628000,9289628000,-0.012153275,-0.003722935,0.0018916992,0.578549,0.0,0.0,0.0,1.0
9289724000,9289724000,-0.009102923,-0.0041602417,0.001907744,0.5810801,0.0,0.0,0.0,1.0
9289824000,9289824000,-0.01011722,-0.003340411,0.0029286826,0.5783603,0.0,0.0,0.0,1.0
9289928000,9289928000,-0.009438468,-0.0033853399,0.002241558,0.5824292,0.0,0.0,0.0,1.0
9290028000,9290028000,-0.011930737,-0.0027333351,0.00062766904,0.58014566,0.0,0.0,0.0,1.0
9290128000,9290128000,-0.009959707,-0.0036731274,0.0026896144,0.57958406,0.0,0.0,0.0,1.0
9290228000,9290228000,-0.011708517,0.0018760031,0.0020231316,0.58235574,0.0,0.0,0.0,1.0
9290328000,9290328000,-0.010268339,-0.0018548795,0.0018244182,0.579244,0.0,0.0,0.0,1.0
9290428000,9290428000,-0.010148928,-0.00019999873,0.0017187727,0.5822076,0.0,0.0,0.0,1.0
9290528000,9290528000,-0.009299704,-0.0020212338,0.0014867923,0.5817769,0.0,0.0,0.0,1.0
9290628000,9290628000,-0.007755308,-0.0023635444,0.0010869906,0.5835286,0.0,0.0,0.0,1.0
9290728000,9290728000,-0.008668754,-0.0040328884,0.0020254492,0.5812863,0.0,0.0,0.0,1.0
9290828000,9290828000,-0.010961243,-0.003283436,4.039018e-05,0.5819417,0.0,0.0,0.0,1.0
9290928000,9290928000,-0.01064876,-0.0017284839,0.0019311297,0.58155954,0.0,0.0,0.0,1.0
9291028000,9291028000,-0.009709217,-0.00140156,0.0012888402,0.58237094,0.0,0.0,0.0,1.0
9291128000,9291128000,-0.011143409,-0.0023468635,0.0022501359,0.58077514,0.0,0.0,0.0,1.0
9291228000,9291228000,-0.010249653,0.00084317406,0.0016401379,0.5810746,0.0,0.0,0.0,1.0
9291324000,9291324000,-0.011475442,-0.0026685437,0.0015571394,0.5792587,0.0,0.0,0.0,1.0
9291428000,9291428000,-0.010135505,-0.00179424,0.0024553484,0.5820325,0.0,0.0,0.0,1.0
9291524000,9291524000,-0.012353166,-0.0022903685,0.00069498835,0.5799459,0.0,0.0,0.0,1.0
9291628000,9291628000,-0.007881777,-0.0027835602,0.002245672,0.5807698,0.0,0.0,0.0,1.0
9291724000,9291724000,-0.009724901,-0.004158367,0.0015111046,0.581015,0.0,0.0,0.0,1.0
9291828000,9291828000,-0.011766374,0.0008631414,0.001469429,0.5809845,0.0,0.0,0.0,1.0
9291928000,9291928000,-0.009192575,-0.0015377225,0.0012879539,0.5793648,0.0,0.0,0.0,1.0
9292028000,9292028000,-0.010807068,-0.001560261,0.0023434702,0.5817105,0.0,0.0,0.0,1.0
9292128000,9292128000,-0.008229576,-0.0030898124,0.0017074202,0.5786289,0.0,0.0,0.0,1.0
9292228000,9292228000,-0.009406105,-0.00070785044,0.0013947417,0.57966596,0.0,0.0,0.0,1.0
9292324000,9292324000,-0.010416754,0.0013435396,0.00062559603,0.5797106,0.0,0.0,0.0,1.0
9292428000,9292428000,-0.012698099,-0.004032376,0.0034965319,0.5806367,0.0,0.0,0.0,1.0
9292524000,9292524000,-0.012723339,-0.0010866416,0.00027543132,0.5796385,0.0,0.0,0.0,1.0
9292624000,9292624000,-0.011796991,-0.0045109997,0.0023065105,0.5812589,0.0,0.0,0.0,1.0
9292728000,9292728000,-0.008581613,-0.0010899327,0.0013770062,0.58092517,0.0,0.0,0.0,1.0
9292828000,9292828000,-0.011636654,0.00029649923,0.0005439796,0.58054864,0.0,0.0,0.0,1.0
9292928000,9292928000,-0.008556839,0.0006560404,0.0019017601,0.5791002,0.0,0.0,0.0,1.0
9293028000,9293028000,-0.010365966,-0.0016925449,0.0005769429,0.5802176,0.0,0.0,0.0,1.0
9293124000,9293124000,-0.009234521,-0.0041386383,0.0011541971,0.5803795,0.0,0.0,0.0,1.0
9293228000,9293228000,-0.010968226,-0.002746265,0.0018822362,0.58058274,0.0,0.0,0.0,1.0
9293324000,9293324000,-0.008169828,-0.0013113562,0.0024207153,0.5796073,0.0,0.0,0.0,1.0
9293428000,9293428000,-0.009336191,-0.0021084314,0.0012617661,0.57985425,0.0,0.0,0.0,1.0
9293528000,9293528000,-0.009199748,0.0002534939,0.0022845864,0.5803774,0.0,0.0,0.0,1.0
9293624000,9293624000,-0.010650381,-0.001068423,0.0025530702,0.58047235,0.0,0.0,0.0,1.0
9293724000,9293724000,-0.013844496,-0.0016219643,0.0002942331,0.5795372,0.0,0.0,0.0,1.0
9293828000,9293828000,-0.010050564,-0.0004173487,0.00092980784,0.58003336,0.0,0.0,0.0,1.0
9293928000,9293928000,-0.008006288,-0.001271438,0.0018920128,0.57885385,0.0,0.0,0.0,1.0
9294028000,9294028000,-0.00902525,-0.00040364597,0.0014303313,0.57966703,0.0,0.0,0.0,1.0
9294128000,9294128000,-0.0095045185,-0.0010075726,0.00058759464,0.58155835,0.0,0.0,0.0,1.0
9294228000,9294228000,-0.009550388,0.0005819652,0.00077638857,0.58004683,0.0,0.0,0.0,1.0
9294328000,9294328000,-0.010219951,-0.005285347,0.0010714772,0.5797855,0.0,0.0,0.0,1.0
9294424000,9294424000,-0.013132548,0.0030213422,0.0026894885,0.5804903,0.0,0.0,0.0,1.0
9294528000,9294528000,-0.009523667,-0.0009200265,0.0017546945,0.58096486,0.0,0.0,0.0,1.0
9294624000,9294624000,-0.0098137865,-0.0025678237,0.0009041413,0.58014244,0.0,0.0,0.0,1.0
9294728000,9294728000,-0.009895725,-0.0011064067,0.0015288581,0.58106506,0.0,0.0,0.0,1.0
9294828000,9294828000,-0.008944184,-0.0027879486,0.0020428782,0.5806533,0.0,0.0,0.0,1.0
9294928000,9294928000,-0.010377212,-0.0020873288,0.0012888537,0.5800514,0.0,0.0,0.0,1.0
9295028000,9295028000,-0.01249568,-0.003195764,0.0012796952,0.581102,0.0,0.0,0.0,1.0
9295128000,9295128000,-0.012508867,-0.0038811779,0.0018285606,0.5790033,0.0,0.0,0.0,1.0
9295228000,9295228000,-0.008060755,-0.001858696,0.0010308464,0.579573,0.0,0.0,0.0,1.0
9295324000,9295324000,-0.010683205,0.0017040728,0.0014439872,0.57976675,0.0,0.0,0.0,1.0
9295428000,9295428000,-0.012003513,-0.0016822758,0.001664938,0.57891166,0.0,0.0,0.0,1.0
9295524000,9295524000,-0.008284625,-0.0027515655,0.0010241856,0.5804652,0.0,0.0,0.0,1.0
9295628000,9295628000,-0.009260688,-0.002205478,0.0011420588,0.58044136,0.0,0.0,0.0,1.0
9295728000,9295728000,-0.013765512,-0.0014355497,0.0019519085,0.579305,0.0,0.0,0.0,1.0
9295828000,9295828000,-0.014154207,-0.003908906,0.001223266,0.57980907,0.0,0.0,0.0,1.0
9295924000,9295924000,-0.00980333,0.0004684406,0.0014917761,0.5798553,0.0,0.0,0.0,1.0
9296028000,9296028000,-0.009443767,-0.0009937019,0.00043640647,0.57935053,0.0,0.0,0.0,1.0
9296124000,9296124000,-0.0099439025,-0.002423175,0.0014440775,0.5811295,0.0,0.0,0.0,1.0
9296228000,9296228000,-0.009684382,-0.0024254797,0.00088211376,0.5804304,0.0,0.0,0.0,1.0
9296328000,9296328000,-0.008151819,0.0012739433,0.0011592655,0.580149,0.0,0.0,0.0,1.0
9296428000,9296428000,-0.011581388,0.0010339774,0.0011145612,0.57894933,0.0,0.0,0.0,1.0
9296528000,9296528000,-0.011112363,-0.0024026625,0.000609479,0.58183014,0.0,0.0,0.0,1.0
9296628000,9296628000,-0.0100459065,-0.00082027656,0.0011713014,0.5788938,0.0,0.0,0.0,1.0
9296728000,9296728000,-0.0068433844,-0.00018854882,0.0014545611,0.57935286,0.0,0.0,0.0,1.0
9296824000,9296824000,-0.013298076,-0.000110794674,0.00065999245,0.5790688,0.0,0.0,0.0,1.0
9296928000,9296928000,-0.013344961,-0.0031825374,0.002188133,0.5804687,0.0,0.0,0.0,1.0
9297024000,9297024000,-0.014225726,-0.00042590254,0.0019182474,0.57999355,0.0,0.0,0.0,1.0
9297128000,9297128000,-0.008046743,-0.003358839,0.0013133856,0.5785338,0.0,0.0,0.0,1.0
9297228000,9297228000,-0.010868816,-0.001259432,0.0007421191,0.57996655,0.0,0.0,0.0,1.0
9297328000,9297328000,-0.00971061,-0.0008378001,0.0022977921,0.57969433,0.0,0.0,0.0,1.0
9297428000,9297428000,-0.012560198,-0.00065870956,0.0012346837,0.58128536,0.0,0.0,0.0,1.0
9297528000,9297528000,-0.012043055,-0.004696481,0.001759812,0.5792144,0.0,0.0,0.0,1.0
9297628000,9297628000,-0.0134099,-0.0014798642,0.00093110604,0.58113295,0.0,0.0,0.0,1.0
9297728000,9297728000,-0.0111153545,-0.00092280447,0.001964493,0.5816367,0.0,0.0,0.0,1.0
9297828000,9297828000,-0.011858046,-0.0028568679,0.0018759335,0.5786524,0.0,0.0,0.0,1.0
9297924000,9297924000,-0.009595566,-0.0006704285,0.00071741466,0.5791475,0.0,0.0,0.0,1.0
9298028000,9298028000,-0.012300306,-0.0018225115,0.0022904049,0.57924026,0.0,0.0,0.0,1.0
9298128000,9298128000,-0.0106603475,-0.0037212532,0.0017689709,0.5794208,0.0,0.0,0.0,1.0
9298228000,9298228000,-0.008900613,-0.0015226298,0.0012382687,0.5788553,0.0,0.0,0.0,1.0
9298324000,9298324000,-0.0101834,0.0011678116,0.0017227834,0.5802763,0.0,0.0,0.0,1.0
9298424000,9298424000,-0.0107857175,0.00010768464,0.0017096964,0.5799673,0.0,0.0,0.0,1.0
9298524000,9298524000,-0.010170654,-0.0034196458,0.00064638094,0.580027,0.0,0.0,0.0,1.0
9298624000,9298624000,-0.007037223,-0.0018834447,0.002065832,0.5787461,0.0,0.0,0.0,1.0
9298728000,9298728000,-0.0115791755,-0.0018716484,0.00030960783,0.57986754,0.0,0.0,0.0,1.0
9298828000,9298828000,-0.012093515,-0.0016004473,0.0006637469,0.5803516,0.0,0.0,0.0,1.0
9298928000,9298928000,-0.011616534,-0.0015627807,0.0013550589,0.5809775,0.0,0.0,0.0,1.0
9299024000,9299024000,-0.009550824,-0.002062702,0.001985313,0.58133465,0.0,0.0,0.0,1.0
9299124000,9299124000,-0.011511039,-0.0021899347,0.0026761699,0.58035344,0.0,0.0,0.0,1.0
9299228000,9299228000,-0.009086333,-0.0020011142,0.0013356174,0.5799951,0.0,0.0,0.0,1.0
9299328000,9299328000,-0.009028586,0.00017540623,0.0015271755,0.58031964,0.0,0.0,0.0,1.0
9299428000,9299428000,-0.009962827,0.0019748725,0.0022953127,0.5802301,0.0,0.0,0.0,1.0
9299528000,9299528000,-0.011687957,0.00023280364,0.0013408639,0.5801177,0.0,0.0,0.0,1.0
9299628000,9299628000,-0.010196872,0.0008505597,0.0017737285,0.5781437,0.0,0.0,0.0,1.0
9299728000,9299728000,-0.0083745625,0.00075310585,0.0010054024,0.57882977,0.0,0.0,0.0,1.0
9299828000,9299828000,-0.009133075,-0.002585321,0.00034804211,0.5797337,0.0,0.0,0.0,1.0
9299928000,9299928000,-0.0104557695,-0.0049787806,0.0026528325,0.57851654,0.0,0.0,0.0,1.0
