timestamp,noutputs,output[0],output[1],output[2],output[3],output[4],output[5],output[6],output[7],output[8],output[9],output[10],output[11],output[12],output[13],output[14],output[15]
9232328000,6,900.0,900.0,900.0,900.0,900.0,900.0,nan,nan,nan,nan,nan,nan,nan,nan,nan,nan
9232424000,6,1000.0,1000.0,1000.0,1000.0,1500.0,1500.0,nan,nan,nan,nan,nan,nan,nan,nan,nan,nan
9232524000,6,1000.0,1000.0,1000.0,1000.0,1500.0,1500.0,nan,nan,nan,nan,nan,nan,nan,nan,nan,nan
9232624000,6,1000.0,1000.0,1000.0,1000.0,1500.0,1500.0,nan,nan,nan,nan,nan,nan,nan,nan,nan,nan
9232724000,6,1000.0,1000.0,1000.0,1000.0,1500.0,1500.0,nan,nan,nan,nan,nan,nan,nan,nan,nan,nan
9232824000,6,1000.0,1000.0,1000.0,1000.0,1500.0,1500.0,nan,nan,nan,nan,nan,nan,nan,nan,nan,nan
9232924000,6,1000.0,1000.0,1000.0,1000.0,1500.0,1500.0,nan,nan,nan,nan,nan,nan,nan,nan,nan,nan
9233024000,6,1000.0,1000.0,1000.0,1000.0,1500.0,1500.0,nan,nan,nan,nan,nan,nan,nan,nan,nan,nan
9233124000,6,1000.0,1000.0,1000.0,1000.0,1500.0,1500.0,nan,nan,nan,nan,nan,nan,nan,nan,nan,nan
9233228000,6,1000.0,1000.0,1000.0,1000.0,1500.0,1500.0,nan,nan,nan,nan,nan,nan,nan,nan,nan,nan
9233328000,6,1000.0,1000.0,1000.0,1000.0,1500.0,1500.0,nan,nan,nan,nan,nan,nan,nan,nan,nan,nan
9233428000,6,1076.4862,1165.5822,1095.6555,1142.7429,1500.0,1500.0,nan,nan,nan,nan,nan,nan,nan,nan,nan,nan
9233524000,6,1077.8267,1226.0847,1134.3773,1164.4545,1500.0,1500.0,nan,nan,nan,nan,nan,nan,nan,nan,nan,nan
9233624000,6,1184.2754,1280.596,1225.6116,1237.8987,1500.0,1500.0,nan,nan,nan,nan,nan,nan,nan,nan,nan,nan
9233724000,6,1264.2697,1341.1548,1300.5089,1307.3108,1500.0,1500.0,nan,nan,nan,nan,nan,nan,nan,nan,nan,nan
9233828000,6,1354.3835,1420.8082,1383.3646,1391.5769,1500.0,1500.0,nan,nan,nan,nan,nan,nan,nan,nan,nan,nan
9233928000,6,1426.178,1490.9033,1453.0422,1461.5311,1500.0,1500.0,nan,nan,nan,nan,nan,nan,nan,nan,nan,nan
9234024000,6,1499.7123,1563.9246,1524.498,1538.6659,1500.0,1500.0,nan,nan,nan,nan,nan,nan,nan,nan,nan,nan
9234124000,6,1601.32,1625.8235,1608.3563,1617.1329,1500.0,1500.0,nan,nan,nan,nan,nan,nan,nan,nan,nan,nan
9234228000,6,1614.7465,1605.4879,1610.0723,1611.2858,1500.0,1500.0,nan,nan,nan,nan,nan,nan,nan,nan,nan,nan
9234328000,6,1611.9144,1605.1693,1610.555,1605.7123,1500.0,1500.0,nan,nan,nan,nan,nan,nan,nan,nan,nan,nan
9234424000,6,1612.661,1609.8315,1612.267,1611.9948,1500.0,1500.0,nan,nan,nan,nan,nan,nan,nan,nan,nan,nan
9234524000,6,1616.14,1618.0763,1615.6469,1618.4476,1500.0,1500.0,nan,nan,nan,nan,nan,nan,nan,nan,nan,nan
9234628000,6,1614.2103,1617.5629,1616.3124,1617.4293,1500.0,1500.0,nan,nan,nan,nan,nan,nan,nan,nan,nan,nan
9234724000,6,1621.6365,1626.0778,1622.634,1622.1292,1500.0,1500.0,nan,nan,nan,nan,nan,nan,nan,nan,nan,nan
9234824000,6,1619.6815,1621.7776,1620.5083,1619.1959,1500.0,1500.0,nan,nan,nan,nan,nan,nan,nan,nan,nan,nan
9234924000,6,1620.8167,1617.0935,1619.9084,1617.3069,1500.0,1500.0,nan,nan,nan,nan,nan,nan,nan,nan,nan,nan
9235024000,6,1620.3788,1621.6116,1621.9756,1621.5771,1500.0,1500.0,nan,nan,nan,nan,nan,nan,nan,nan,nan,nan
9235124000,6,1628.4884,1628.5104,1628.297,1627.1622,1500.0,1500.0,nan,nan,nan,nan,nan,nan,nan,nan,nan,nan
9235228000,6,1629.9901,1625.0245,1630.2441,1627.6809,1500.0,1500.0,nan,nan,nan,nan,nan,nan,nan,nan,nan,nan
9235324000,6,1632.4982,1628.0255,1629.8906,1630.2124,1500.0,1500.0,nan,nan,nan,nan,nan,nan,nan,nan,nan,nan
9235424000,6,1629.3539,1629.8027,1630.0764,1625.4707,1500.0,1500.0,nan,nan,nan,nan,nan,nan,nan,nan,nan,nan
9235528000,6,1628.1072,1629.5585,1630.608,1629.3326,1500.0,1500.0,nan,nan,nan,nan,nan,nan,nan,nan,nan,nan
9235624000,6,1638.6157,1639.145,1639.9719,1639.7687,1500.0,1500.0,nan,nan,nan,nan,nan,nan,nan,nan,nan,nan
9235728000,6,1639.2466,1634.9816,1637.7863,1636.5477,1500.0,1500.0,nan,nan,nan,nan,nan,nan,nan,nan,nan,nan
9235824000,6,1635.124,1640.5376,1635.9988,1635.9338,1500.0,1500.0,nan,nan,nan,nan,nan,nan,nan,nan,nan,nan
9235928000,6,1636.2172,1637.352,1636.7756,1640.2134,1500.0,1500.0,nan,nan,nan,nan,nan,nan,nan,nan,nan,nan
9236024000,6,1629.0465,1631.8682,1631.8412,1627.7489,1500.0,1500.0,nan,nan,nan,nan,nan,nan,nan,nan,nan,nan
9236128000,6,1532.5742,1535.4149,1534.3893,1531.3302,1500.0,1500.0,nan,nan,nan,nan,nan,nan,nan,nan,nan,nan
9236228000,6,1561.6976,1561.6456,1561.8441,1563.6482,1500.0,1500.0,nan,nan,nan,nan,nan,nan,nan,nan,nan,nan
9236328000,6,1568.9736,1566.1272,1568.9698,1567.7748,1500.0,1500.0,nan,nan,nan,nan,nan,nan,nan,nan,nan,nan
9236428000,6,1564.2457,1562.0115,1561.4602,1562.3741,1500.0,1500.0,nan,nan,nan,nan,nan,nan,nan,nan,nan,nan
9236524000,6,1570.501,1570.0807,1570.6132,1570.3684,1500.0,1500.0,nan,nan,nan,nan,nan,nan,nan,nan,nan,nan
9236624000,6,1567.533,1569.6771,1568.1307,1570.981,1500.0,1500.0,nan,nan,nan,nan,nan,nan,nan,nan,nan,nan
9236724000,6,1570.9453,1572.3252,1568.3488,1573.883,1500.0,1500.0,nan,nan,nan,nan,nan,nan,nan,nan,nan,nan
9236828000,6,1570.4487,1567.0032,1569.0989,1569.9917,1500.0,1500.0,nan,nan,nan,nan,nan,nan,nan,nan,nan,nan
9236928000,6,1572.3041,1566.1774,1567.4523,1572.2211,1500.0,1500.0,nan,nan,nan,nan,nan,nan,nan,nan,nan,nan
9237028000,6,1577.5479,1579.2229,1576.925,1579.919,1500.0,1500.0,nan,nan,nan,nan,nan,nan,nan,nan,nan,nan
9237128000,6,1575.4167,1574.6664,1575.1398,1573.4604,1500.0,1500.0,nan,nan,nan,nan,nan,nan,nan,nan,nan,nan
9237224000,6,1576.0498,1577.5039,1578.0491,1577.4055,1500.0,1500.0,nan,nan,nan,nan,nan,nan,nan,nan,nan,nan
9237324000,6,1575.1161,1573.3564,1572.4923,1576.1265,1500.0,1500.0,nan,nan,nan,nan,nan,nan,nan,nan,nan,nan
9237428000,6,1579.0131,1581.1624,1579.9752,1580.6282,1500.0,1500.0,nan,nan,nan,nan,nan,nan,nan,nan,nan,nan
9237524000,6,1579.7028,1577.5581,1581.1038,1577.314,1500.0,1500.0,nan,nan,nan,nan,nan,nan,nan,nan,nan,nan
9237624000,6,1578.0968,1579.3274,1580.0027,1576.6855,1500.0,1500.0,nan,nan,nan,nan,nan,nan,nan,nan,nan,nan
9237724000,6,1579.743,1576.9492,1576.3403,1576.6359,1500.0,1500.0,nan,nan,nan,nan,nan,nan,nan,nan,nan,nan
9237824000,6,1577.6008,1578.7871,1576.9631,1576.9552,1500.0,1500.0,nan,nan,nan,nan,nan,nan,nan,nan,nan,nan
9237928000,6,1582.3376,1586.3915,1581.777,1586.1984,1500.0,1500.0,nan,nan,nan,nan,nan,nan,nan,nan,nan,nan
9238024000,6,1578.9603,1578.9154,1577.1494,1581.8738,1500.0,1500.0,nan,nan,nan,nan,nan,nan,nan,nan,nan,nan
9238124000,6,1580.678,1578.8782,1577.9581,1580.3213,1500.0,1500.0,nan,nan,nan,nan,nan,nan,nan,nan,nan,nan
9238224000,6,1578.7285,1577.19,1577.078,1577.0754,1500.0,1500.0,nan,nan,nan,nan,nan,nan,nan,nan,nan,nan
9238324000,6,1580.3864,1584.9391,1582.8761,1584.5447,1500.0,1500.0,nan,nan,nan,nan,nan,nan,nan,nan,nan,nan
9238424000,6,1586.5989,1580.8241,1584.398,1585.1754,1500.0,1500.0,nan,nan,nan,nan,nan,nan,nan,nan,nan,nan
9238528000,6,1581.092,1578.7587,1582.3542,1581.8674,1500.0,1500.0,nan,nan,nan,nan,nan,nan,nan,nan,nan,nan
9238628000,6,1581.5402,1582.6532,1583.6815,1581.8995,1500.0,1500.0,nan,nan,nan,nan,nan,nan,nan,nan,nan,nan
9238724000,6,1582.0853,1581.391,1582.3511,1582.5349,1500.0,1500.0,nan,nan,nan,nan,nan,nan,nan,nan,nan,nan
9238828000,6,1582.2488,1577.763,1578.9156,1577.3966,1500.0,1500.0,nan,nan,nan,nan,nan,nan,nan,nan,nan,nan
9238928000,6,1581.0665,1579.0171,1577.8362,1580.2246,1500.0,1500.0,nan,nan,nan,nan,nan,nan,nan,nan,nan,nan
9239024000,6,1583.3357,1587.8081,1585.8704,1586.6123,1500.0,1500.0,nan,nan,nan,nan,nan,nan,nan,nan,nan,nan
9239124000,6,1582.7632,1582.2693,1585.0958,1581.9567,1500.0,1500.0,nan,nan,nan,nan,nan,nan,nan,nan,nan,nan
9239224000,6,1583.6853,1582.2549,1584.6937,1580.6005,1500.0,1500.0,nan,nan,nan,nan,nan,nan,nan,nan,nan,nan
9239328000,6,1582.3787,1579.9414,1582.2064,1580.8087,1500.0,1500.0,nan,nan,nan,nan,nan,nan,nan,nan,nan,nan
9239428000,6,1591.9567,1583.4478,1587.7408,1585.8192,1500.0,1500.0,nan,nan,nan,nan,nan,nan,nan,nan,nan,nan
9239528000,6,1586.1073,1586.568,1582.742,1588.405,1500.0,1500.0,nan,nan,nan,nan,nan,nan,nan,nan,nan,nan
9239624000,6,1587.4679,1584.106,1584.5677,1584.576,1500.0,1500.0,nan,nan,nan,nan,nan,nan,nan,nan,nan,nan
9239724000,6,1581.0493,1579.6481,1580.6495,1581.3319,1500.0,1500.0,nan,nan,nan,nan,nan,nan,nan,nan,nan,nan
9239828000,6,1579.0555,1580.8594,1581.6538,1578.7382,1500.0,1500.0,nan,nan,nan,nan,nan,nan,nan,nan,nan,nan
9239924000,6,1589.2246,1587.4229,1588.3481,1586.0565,1500.0,1500.0,nan,nan,nan,nan,nan,nan,nan,nan,nan,nan
9240024000,6,1584.6959,1583.8011,1583.8228,1586.2983,1500.0,1500.0,nan,nan,nan,nan,nan,nan,nan,nan,nan,nan
9240124000,6,1585.2496,1582.4872,1585.8656,1582.4028,1500.0,1500.0,nan,nan,nan,nan,nan,nan,nan,nan,nan,nan
9240224000,6,1579.5724,1580.3661,1583.6215,1578.2102,1500.0,1500.0,nan,nan,nan,nan,nan,nan,nan,nan,nan,nan
9240324000,6,1588.1422,1585.156,1586.9216,1586.6129,1500.0,1500.0,nan,nan,nan,nan,nan,nan,nan,nan,nan,nan
9240424000,6,1586.3815,1587.4244,1588.7783,1583.5325,1500.0,1500.0,nan,nan,nan,nan,nan,nan,nan,nan,nan,nan
9240524000,6,1581.9696,1583.574,1582.3275,1582.261,1500.0,1500.0,nan,nan,nan,nan,nan,nan,nan,nan,nan,nan
9240624000,6,1592.7982,1596.6749,1592.8466,1595.1509,1500.0,1500.0,nan,nan,nan,nan,nan,nan,nan,nan,nan,nan
9240724000,6,1559.7286,1558.1138,1556.1185,1558.7126,1500.0,1500.0,nan,nan,nan,nan,nan,nan,nan,nan,nan,nan
9240824000,6,1553.9912,1556.281,1554.4825,1553.8774,1500.0,1500.0,nan,nan,nan,nan,nan,nan,nan,nan,nan,nan
9240924000,6,1566.1171,1569.2142,1566.7112,1570.0887,1500.0,1500.0,nan,nan,nan,nan,nan,nan,nan,nan,nan,nan
9241024000,6,1566.5254,1562.0347,1566.5428,1563.5585,1500.0,1500.0,nan,nan,nan,nan,nan,nan,nan,nan,nan,nan
9241128000,6,1568.5588,1564.506,1565.1451,1564.6752,1500.0,1500.0,nan,nan,nan,nan,nan,nan,nan,nan,nan,nan
9241224000,6,1562.4216,1562.5764,1562.2443,1565.1464,1500.0,1500.0,nan,nan,nan,nan,nan,nan,nan,nan,nan,nan
9241324000,6,1564.6442,1563.9226,1566.5374,1564.7029,1500.0,1500.0,nan,nan,nan,nan,nan,nan,nan,nan,nan,nan
9241424000,6,1562.6562,1560.8645,1561.8138,1562.9663,1500.0,1500.0,nan,nan,nan,nan,nan,nan,nan,nan,nan,nan
9241524000,6,1563.1088,1565.0433,1563.686,1565.072,1500.0,1500.0,nan,nan,nan,nan,nan,nan,nan,nan,nan,nan
9241628000,6,1562.6124,1562.8027,1565.367,1561.915,1500.0,1500.0,nan,nan,nan,nan,nan,nan,nan,nan,nan,nan
9241724000,6,1571.5789,1565.896,1569.7542,1565.0574,1500.0,1500.0,nan,nan,nan,nan,nan,nan,nan,nan,nan,nan
9241824000,6,1567.8597,1568.4712,1567.1498,1565.2341,1500.0,1500.0,nan,nan,nan,nan,nan,nan,nan,nan,nan,nan
9241928000,6,1567.0903,1562.3055,1566.0044,1562.7916,1500.0,1500.0,nan,nan,nan,nan,nan,nan,nan,nan,nan,nan
9242024000,6,1566.8923,1567.011,1566.9224,1567.0382,1500.0,1500.0,nan,nan,nan,nan,nan,nan,nan,nan,nan,nan
9242124000,6,1564.0289,1564.5062,1563.9663,1565.7646,1500.0,1500.0,nan,nan,nan,nan,nan,nan,nan,nan,nan,nan
9242228000,6,1567.1212,1566.2231,1568.93,1566.7131,1500.0,1500.0,nan,nan,nan,nan,nan,nan,nan,nan,nan,nan
9242324000,6,1565.7782,1572.2104,1567.5013,1568.1089,1500.0,1500.0,nan,nan,nan,nan,nan,nan,nan,nan,nan,nan
9242424000,6,1567.1277,1562.6282,1565.1637,1565.2712,1500.0,1500.0,nan,nan,nan,nan,nan,nan,nan,nan,nan,nan
9242524000,6,1566.8981,1566.7253,1565.3411,1566.8407,1500.0,1500.0,nan,nan,nan,nan,nan,nan,nan,nan,nan,nan
9242628000,6,1568.2301,1568.5234,1569.0957,1567.3394,1500.0,1500.0,nan,nan,nan,nan,nan,nan,nan,nan,nan,nan
9242728000,6,1565.7504,1570.0356,1563.8389,1568.2135,1500.0,1500.0,nan,nan,nan,nan,nan,nan,nan,nan,nan,nan
9242824000,6,1563.8849,1565.0819,1562.7592,1563.2273,1500.0,1500.0,nan,nan,nan,nan,nan,nan,nan,nan,nan,nan
9242928000,6,1565.3412,1564.8422,1565.5905,1565.64,1500.0,1500.0,nan,nan,nan,nan,nan,nan,nan,nan,nan,nan
9243028000,6,1568.8125,1566.7722,1567.0017,1567.4976,1500.0,1500.0,nan,nan,nan,nan,nan,nan,nan,nan,nan,nan
9243124000,6,1567.9353,1564.5026,1568.3856,1563.3442,1500.0,1500.0,nan,nan,nan,nan,nan,nan,nan,nan,nan,nan
9243228000,6,1565.1663,1569.7859,1565.2153,1569.8187,1500.0,1500.0,nan,nan,nan,nan,nan,nan,nan,nan,nan,nan
9243324000,6,1564.2651,1566.6012,1564.7424,1564.1915,1500.0,1500.0,nan,nan,nan,nan,nan,nan,nan,nan,nan,nan
9243424000,6,1566.1373,1566.4803,1563.4056,1566.3422,1500.0,1500.0,nan,nan,nan,nan,nan,nan,nan,nan,nan,nan
9243524000,6,1566.4244,1566.5128,1566.9828,1567.9989,1500.0,1500.0,nan,nan,nan,nan,nan,nan,nan,nan,nan,nan
9243624000,6,1567.9366,1562.3097,1568.154,1561.9154,1500.0,1500.0,nan,nan,nan,nan,nan,nan,nan,nan,nan,nan
9243724000,6,1565.286,1565.8142,1563.2157,1565.0,1500.0,1500.0,nan,nan,nan,nan,nan,nan,nan,nan,nan,nan
9243824000,6,1565.0087,1565.0807,1565.9733,1566.4792,1500.0,1500.0,nan,nan,nan,nan,nan,nan,nan,nan,nan,nan
9243928000,6,1567.5009,1565.3785,1563.843,1566.501,1500.0,1500.0,nan,nan,nan,nan,nan,nan,nan,nan,nan,nan
9244024000,6,1566.3878,1563.6901,1565.8612,1568.051,1500.0,1500.0,nan,nan,nan,nan,nan,nan,nan,nan,nan,nan
9244128000,6,1565.7578,1562.001,1565.8694,1563.268,1500.0,1500.0,nan,nan,nan,nan,nan,nan,nan,nan,nan,nan
9244228000,6,1564.1892,1566.7406,1563.1184,1563.7494,1500.0,1500.0,nan,nan,nan,nan,nan,nan,nan,nan,nan,nan
9244324000,6,1567.2062,1564.4342,1564.6439,1567.5574,1500.0,1500.0,nan,nan,nan,nan,nan,nan,nan,nan,nan,nan
9244424000,6,1567.562,1565.2566,1565.8729,1566.8119,1500.0,1500.0,nan,nan,nan,nan,nan,nan,nan,nan,nan,nan
9244524000,6,1565.5413,1564.4265,1566.4536,1563.6761,1500.0,1500.0,nan,nan,nan,nan,nan,nan,nan,nan,nan,nan
9244624000,6,1565.0139,1560.3578,1563.3724,1566.781,1500.0,1500.0,nan,nan,nan,nan,nan,nan,nan,nan,nan,nan
9244728000,6,1565.7728,1562.78,1563.7512,1564.0828,1500.0,1500.0,nan,nan,nan,nan,nan,nan,nan,nan,nan,nan
9244828000,6,1566.4032,1565.9238,1564.0483,1567.0994,1500.0,1500.0,nan,nan,nan,nan,nan,nan,nan,nan,nan,nan
9244928000,6,1566.2697,1565.1211,1564.7563,1563.771,1500.0,1500.0,nan,nan,nan,nan,nan,nan,nan,nan,nan,nan
9245028000,6,1565.1687,1562.2631,1565.1951,1564.2603,1500.0,1500.0,nan,nan,nan,nan,nan,nan,nan,nan,nan,nan
9245124000,6,1563.1982,1567.5392,1559.7338,1565.6323,1500.0,1500.0,nan,nan,nan,nan,nan,nan,nan,nan,nan,nan
9245228000,6,1567.3867,1562.9773,1567.2257,1562.5581,1500.0,1500.0,nan,nan,nan,nan,nan,nan,nan,nan,nan,nan
9245328000,6,1565.5098,1564.3641,1564.2406,1566.525,1500.0,1500.0,nan,nan,nan,nan,nan,nan,nan,nan,nan,nan
9245424000,6,1563.9329,1564.0956,1565.6726,1562.245,1500.0,1500.0,nan,nan,nan,nan,nan,nan,nan,nan,nan,nan
9245524000,6,1564.9261,1564.8966,1564.7952,1563.6068,1500.0,1500.0,nan,nan,nan,nan,nan,nan,nan,nan,nan,nan
9245628000,6,1561.1362,1567.1832,1566.6725,1563.4114,1500.0,1500.0,nan,nan,nan,nan,nan,nan,nan,nan,nan,nan
9245724000,6,1565.4714,1564.717,1564.8824,1565.427,1500.0,1500.0,nan,nan,nan,nan,nan,nan,nan,nan,nan,nan
9245824000,6,1564.2468,1567.1041,1568.1654,1564.0026,1500.0,1500.0,nan,nan,nan,nan,nan,nan,nan,nan,nan,nan
9245928000,6,1565.0892,1564.4469,1563.2114,1559.791,1500.0,1500.0,nan,nan,nan,nan,nan,nan,nan,nan,nan,nan
9246024000,6,1565.9121,1561.6147,1565.2759,1566.7067,1500.0,1500.0,nan,nan,nan,nan,nan,nan,nan,nan,nan,nan
9246128000,6,1564.15,1562.5948,1566.5908,1560.9268,1500.0,1500.0,nan,nan,nan,nan,nan,nan,nan,nan,nan,nan
9246228000,6,1562.2856,1565.359,1562.3967,1564.7672,1500.0,1500.0,nan,nan,nan,nan,nan,nan,nan,nan,nan,nan
9246324000,6,1565.8746,1563.8064,1566.2916,1564.3955,1500.0,1500.0,nan,nan,nan,nan,nan,nan,nan,nan,nan,nan
9246428000,6,1563.9773,1562.3789,1565.3002,1560.6343,1500.0,1500.0,nan,nan,nan,nan,nan,nan,nan,nan,nan,nan
9246524000,6,1563.7867,1563.909,1565.2562,1560.9795,1500.0,1500.0,nan,nan,nan,nan,nan,nan,nan,nan,nan,nan
9246624000,6,1565.8528,1562.2771,1565.6007,1560.8599,1500.0,1500.0,nan,nan,nan,nan,nan,nan,nan,nan,nan,nan
9246724000,6,1562.8346,1565.4652,1561.4293,1563.6055,1500.0,1500.0,nan,nan,nan,nan,nan,nan,nan,nan,nan,nan
9246824000,6,1563.3341,1564.449,1565.0968,1563.5126,1500.0,1500.0,nan,nan,nan,nan,nan,nan,nan,nan,nan,nan
9246928000,6,1565.998,1560.2826,1566.5161,1560.439,1500.0,1500.0,nan,nan,nan,nan,nan,nan,nan,nan,nan,nan
9247028000,6,1563.283,1563.3688,1565.5692,1559.7247,1500.0,1500.0,nan,nan,nan,nan,nan,nan,nan,nan,nan,nan
9247128000,6,1562.0858,1565.3273,1562.562,1563.9819,1500.0,1500.0,nan,nan,nan,nan,nan,nan,nan,nan,nan,nan
9247224000,6,1561.6527,1563.0232,1564.9983,1564.1187,1500.0,1500.0,nan,nan,nan,nan,nan,nan,nan,nan,nan,nan
9247324000,6,1566.1692,1563.5107,1564.9753,1561.5328,1500.0,1500.0,nan,nan,nan,nan,nan,nan,nan,nan,nan,nan
9247424000,6,1564.5498,1561.9739,1563.2585,1564.9612,1500.0,1500.0,nan,nan,nan,nan,nan,nan,nan,nan,nan,nan
9247524000,6,1565.4747,1559.4602,1565.6484,1562.7001,1500.0,1500.0,nan,nan,nan,nan,nan,nan,nan,nan,nan,nan
9247628000,6,1563.2351,1563.5806,1561.5145,1561.8696,1500.0,1500.0,nan,nan,nan,nan,nan,nan,nan,nan,nan,nan
9247724000,6,1563.3269,1564.5933,1564.7087,1565.2715,1500.0,1500.0,nan,nan,nan,nan,nan,nan,nan,nan,nan,nan
9247824000,6,1564.9137,1564.4982,1561.2938,1566.0667,1500.0,1500.0,nan,nan,nan,nan,nan,nan,nan,nan,nan,nan
9247928000,6,1560.8615,1565.9825,1562.195,1563.3094,1500.0,1500.0,nan,nan,nan,nan,nan,nan,nan,nan,nan,nan
9248024000,6,1563.646,1562.5759,1563.4342,1565.2496,1500.0,1500.0,nan,nan,nan,nan,nan,nan,nan,nan,nan,nan
9248124000,6,1565.9667,1559.7201,1566.0338,1561.2906,1500.0,1500.0,nan,nan,nan,nan,nan,nan,nan,nan,nan,nan
9248228000,6,1564.6909,1566.8899,1563.5428,1565.1161,1500.0,1500.0,nan,nan,nan,nan,nan,nan,nan,nan,nan,nan
9248328000,6,1563.2559,1564.7626,1561.0753,1563.2521,1500.0,1500.0,nan,nan,nan,nan,nan,nan,nan,nan,nan,nan
9248424000,6,1560.9022,1563.3538,1562.8081,1561.3658,1500.0,1500.0,nan,nan,nan,nan,nan,nan,nan,nan,nan,nan
9248524000,6,1564.9001,1563.2383,1561.554,1562.6808,1500.0,1500.0,nan,nan,nan,nan,nan,nan,nan,nan,nan,nan
9248624000,6,1565.9125,1560.1051,1562.7584,1562.5388,1500.0,1500.0,nan,nan,nan,nan,nan,nan,nan,nan,nan,nan
9248724000,6,1562.7327,1563.4647,1562.8613,1562.739,1500.0,1500.0,nan,nan,nan,nan,nan,nan,nan,nan,nan,nan
9248828000,6,1560.9973,1565.9397,1563.8162,1564.6017,1500.0,1500.0,nan,nan,nan,nan,nan,nan,nan,nan,nan,nan
9248928000,6,1562.7601,1564.9043,1563.5499,1563.794,1500.0,1500.0,nan,nan,nan,nan,nan,nan,nan,nan,nan,nan
9249024000,6,1564.0961,1562.0643,1561.405,1563.5421,1500.0,1500.0,nan,nan,nan,nan,nan,nan,nan,nan,nan,nan
9249128000,6,1564.0392,1562.6143,1565.3016,1562.1527,1500.0,1500.0,nan,nan,nan,nan,nan,nan,nan,nan,nan,nan
9249224000,6,1564.2471,1563.7712,1564.8932,1561.5942,1500.0,1500.0,nan,nan,nan,nan,nan,nan,nan,nan,nan,nan
9249324000,6,1561.5677,1565.1724,1564.5018,1562.8066,1500.0,1500.0,nan,nan,nan,nan,nan,nan,nan,nan,nan,nan
9249428000,6,1559.8457,1565.074,1564.68,1561.4169,1500.0,1500.0,nan,nan,nan,nan,nan,nan,nan,nan,nan,nan
9249528000,6,1563.3253,1564.8253,1564.2393,1560.602,1500.0,1500.0,nan,nan,nan,nan,nan,nan,nan,nan,nan,nan
9249628000,6,1564.1918,1565.5872,1564.5042,1565.3889,1500.0,1500.0,nan,nan,nan,nan,nan,nan,nan,nan,nan,nan
9249724000,6,1563.4152,1562.0911,1566.2843,1560.6757,1500.0,1500.0,nan,nan,nan,nan,nan,nan,nan,nan,nan,nan
9249828000,6,1561.94,1563.2719,1562.9323,1562.2498,1500.0,1500.0,nan,nan,nan,nan,nan,nan,nan,nan,nan,nan
9249924000,6,1560.6932,1564.8274,1561.7135,1564.9739,1500.0,1500.0,nan,nan,nan,nan,nan,nan,nan,nan,nan,nan
9250024000,6,1565.0397,1564.6332,1565.6345,1561.8822,1500.0,1500.0,nan,nan,nan,nan,nan,nan,nan,nan,nan,nan
9250128000,6,1561.5923,1562.2097,1560.4778,1563.3859,1500.0,1500.0,nan,nan,nan,nan,nan,nan,nan,nan,nan,nan
9250224000,6,1563.1372,1564.196,1560.9845,1563.8463,1500.0,1500.0,nan,nan,nan,nan,nan,nan,nan,nan,nan,nan
9250324000,6,1561.7097,1563.6459,1561.7275,1561.1746,1500.0,1500.0,nan,nan,nan,nan,nan,nan,nan,nan,nan,nan
9250424000,6,1563.51,1558.6313,1563.398,1562.1527,1500.0,1500.0,nan,nan,nan,nan,nan,nan,nan,nan,nan,nan
9250528000,6,1563.7699,1562.1517,1561.3807,1567.2523,1500.0,1500.0,nan,nan,nan,nan,nan,nan,nan,nan,nan,nan
9250624000,6,1563.4552,1563.9703,1562.9031,1563.8625,1500.0,1500.0,nan,nan,nan,nan,nan,nan,nan,nan,nan,nan
9250724000,6,1559.6349,1567.1407,1561.6403,1564.5093,1500.0,1500.0,nan,nan,nan,nan,nan,nan,nan,nan,nan,nan
9250828000,6,1564.5828,1564.1091,1563.7212,1562.7396,1500.0,1500.0,nan,nan,nan,nan,nan,nan,nan,nan,nan,nan
9250924000,6,1563.7585,1562.198,1564.8131,1562.5472,1500.0,1500.0,nan,nan,nan,nan,nan,nan,nan,nan,nan,nan
9251024000,6,1559.2323,1562.0549,1561.4929,1562.285,1500.0,1500.0,nan,nan,nan,nan,nan,nan,nan,nan,nan,nan
9251124000,6,1564.7278,1559.9229,1564.335,1563.5416,1500.0,1500.0,nan,nan,nan,nan,nan,nan,nan,nan,nan,nan
9251224000,6,1565.8198,1562.9707,1565.7533,1561.4594,1500.0,1500.0,nan,nan,nan,nan,nan,nan,nan,nan,nan,nan
9251328000,6,1561.5272,1560.568,1560.8771,1559.997,1500.0,1500.0,nan,nan,nan,nan,nan,nan,nan,nan,nan,nan
9251424000,6,1564.9314,1561.8298,1564.8114,1562.3213,1500.0,1500.0,nan,nan,nan,nan,nan,nan,nan,nan,nan,nan
9251524000,6,1562.2357,1564.243,1563.1344,1560.7589,1500.0,1500.0,nan,nan,nan,nan,nan,nan,nan,nan,nan,nan
9251628000,6,1565.4149,1562.9093,1562.7845,1564.1562,1500.0,1500.0,nan,nan,nan,nan,nan,nan,nan,nan,nan,nan
9251724000,6,1563.3093,1560.3579,1563.7285,1560.0361,1500.0,1500.0,nan,nan,nan,nan,nan,nan,nan,nan,nan,nan
9251824000,6,1563.173,1562.4094,1561.5618,1562.0214,1500.0,1500.0,nan,nan,nan,nan,nan,nan,nan,nan,nan,nan
9251924000,6,1563.6138,1563.2695,1566.455,1564.6896,1500.0,1500.0,nan,nan,nan,nan,nan,nan,nan,nan,nan,nan
9252024000,6,1563.0145,1564.4896,1565.1512,1563.2863,1500.0,1500.0,nan,nan,nan,nan,nan,nan,nan,nan,nan,nan
9252128000,6,2000.0,1984.3242,1184.0043,1000.0,1500.0,1500.0,nan,nan,nan,nan,nan,nan,nan,nan,nan,nan
9252228000,6,1713.095,1662.759,1212.1895,1004.369,1500.0,1500.0,nan,nan,nan,nan,nan,nan,nan,nan,nan,nan
9252324000,6,1645.1956,1599.075,1319.4869,1311.8678,1500.0,1500.0,nan,nan,nan,nan,nan,nan,nan,nan,nan,nan
9252424000,6,1601.2563,1620.7229,1551.849,1555.6979,1500.0,1500.0,nan,nan,nan,nan,nan,nan,nan,nan,nan,nan
9252524000,6,1533.1073,1592.467,1585.6311,1587.0289,1500.0,1500.0,nan,nan,nan,nan,nan,nan,nan,nan,nan,nan
9252624000,6,1528.921,1573.2925,1581.7417,1583.731,1500.0,1500.0,nan,nan,nan,nan,nan,nan,nan,nan,nan,nan
9252724000,6,1549.0469,1566.3861,1589.1597,1585.2657,1500.0,1500.0,nan,nan,nan,nan,nan,nan,nan,nan,nan,nan
9252828000,6,1554.2649,1565.2412,1582.2297,1580.1803,1500.0,1500.0,nan,nan,nan,nan,nan,nan,nan,nan,nan,nan
9252924000,6,1559.4675,1565.5814,1577.716,1583.271,1500.0,1500.0,nan,nan,nan,nan,nan,nan,nan,nan,nan,nan
9253024000,6,1562.5669,1567.0946,1581.8033,1578.9352,1500.0,1500.0,nan,nan,nan,nan,nan,nan,nan,nan,nan,nan
9253128000,6,1563.9685,1571.1588,1572.4589,1580.3727,1500.0,1500.0,nan,nan,nan,nan,nan,nan,nan,nan,nan,nan
9253224000,6,1563.2253,1575.7897,1573.5969,1578.2024,1500.0,1500.0,nan,nan,nan,nan,nan,nan,nan,nan,nan,nan
9253328000,6,1564.9998,1574.1565,1571.2317,1581.5325,1500.0,1500.0,nan,nan,nan,nan,nan,nan,nan,nan,nan,nan
9253424000,6,1566.344,1574.9785,1573.2239,1576.6375,1500.0,1500.0,nan,nan,nan,nan,nan,nan,nan,nan,nan,nan
9253528000,6,1565.9412,1574.8892,1574.0295,1578.74,1500.0,1500.0,nan,nan,nan,nan,nan,nan,nan,nan,nan,nan
9253624000,6,1568.0188,1578.0581,1571.2134,1580.7395,1500.0,1500.0,nan,nan,nan,nan,nan,nan,nan,nan,nan,nan
9253724000,6,1568.4572,1580.7784,1571.1561,1581.2283,1500.0,1500.0,nan,nan,nan,nan,nan,nan,nan,nan,nan,nan
9253828000,6,1567.9628,1584.0865,1570.4321,1582.0509,1500.0,1500.0,nan,nan,nan,nan,nan,nan,nan,nan,nan,nan
9253928000,6,1572.4347,1576.1782,1573.4386,1582.8851,1500.0,1500.0,nan,nan,nan,nan,nan,nan,nan,nan,nan,nan
9254024000,6,1567.9573,1584.6326,1569.0421,1583.86,1500.0,1500.0,nan,nan,nan,nan,nan,nan,nan,nan,nan,nan
9254128000,6,1568.969,1586.7996,1570.9668,1583.2991,1500.0,1500.0,nan,nan,nan,nan,nan,nan,nan,nan,nan,nan
9254228000,6,1571.1238,1584.8938,1572.6305,1585.336,1500.0,1500.0,nan,nan,nan,nan,nan,nan,nan,nan,nan,nan
9254324000,6,1569.424,1583.4875,1573.2031,1583.268,1500.0,1500.0,nan,nan,nan,nan,nan,nan,nan,nan,nan,nan
9254428000,6,1571.4546,1584.1508,1570.7999,1586.4652,1500.0,1500.0,nan,nan,nan,nan,nan,nan,nan,nan,nan,nan
9254524000,6,1570.76,1583.6741,1573.0012,1585.7294,1500.0,1500.0,nan,nan,nan,nan,nan,nan,nan,nan,nan,nan
9254624000,6,1573.1412,1586.96,1570.2041,1589.0061,1500.0,1500.0,nan,nan,nan,nan,nan,nan,nan,nan,nan,nan
9254728000,6,1571.6023,1587.2573,1572.1918,1588.8251,1500.0,1500.0,nan,nan,nan,nan,nan,nan,nan,nan,nan,nan
9254824000,6,1573.1458,1588.3784,1572.1333,1590.0084,1500.0,1500.0,nan,nan,nan,nan,nan,nan,nan,nan,nan,nan
9254924000,6,1573.0349,1590.9338,1575.715,1588.8643,1500.0,1500.0,nan,nan,nan,nan,nan,nan,nan,nan,nan,nan
9255024000,6,1571.6351,1590.3234,1572.8776,1592.096,1500.0,1500.0,nan,nan,nan,nan,nan,nan,nan,nan,nan,nan
9255128000,6,1573.7637,1588.6505,1572.69,1590.7601,1500.0,1500.0,nan,nan,nan,nan,nan,nan,nan,nan,nan,nan
9255224000,6,1573.4395,1592.5194,1572.4471,1595.5875,1500.0,1500.0,nan,nan,nan,nan,nan,nan,nan,nan,nan,nan
9255328000,6,1575.5144,1593.2468,1574.6361,1591.7977,1500.0,1500.0,nan,nan,nan,nan,nan,nan,nan,nan,nan,nan
9255428000,6,1576.428,1595.6152,1574.7576,1595.296,1500.0,1500.0,nan,nan,nan,nan,nan,nan,nan,nan,nan,nan
9255524000,6,1575.489,1593.9114,1575.8218,1593.8395,1500.0,1500.0,nan,nan,nan,nan,nan,nan,nan,nan,nan,nan
9255624000,6,1577.757,1595.6038,1576.715,1596.4054,1500.0,1500.0,nan,nan,nan,nan,nan,nan,nan,nan,nan,nan
9255728000,6,1576.462,1600.4222,1578.1293,1600.6537,1500.0,1500.0,nan,nan,nan,nan,nan,nan,nan,nan,nan,nan
9255824000,6,1575.2568,1601.4004,1578.467,1599.9788,1500.0,1500.0,nan,nan,nan,nan,nan,nan,nan,nan,nan,nan
9255924000,6,1578.062,1600.4174,1577.4456,1602.6907,1500.0,1500.0,nan,nan,nan,nan,nan,nan,nan,nan,nan,nan
9256024000,6,1581.7363,1597.8702,1582.9993,1598.754,1500.0,1500.0,nan,nan,nan,nan,nan,nan,nan,nan,nan,nan
9256128000,6,1581.9152,1604.5742,1582.5969,1604.5757,1500.0,1500.0,nan,nan,nan,nan,nan,nan,nan,nan,nan,nan
9256224000,6,1582.7572,1605.9794,1581.155,1607.6714,1500.0,1500.0,nan,nan,nan,nan,nan,nan,nan,nan,nan,nan
9256324000,6,1583.6699,1608.4728,1583.6841,1608.6887,1500.0,1500.0,nan,nan,nan,nan,nan,nan,nan,nan,nan,nan
9256428000,6,1583.6149,1614.3357,1585.9628,1612.2144,1500.0,1500.0,nan,nan,nan,nan,nan,nan,nan,nan,nan,nan
9256524000,6,1585.6893,1610.2902,1587.2721,1608.4978,1500.0,1500.0,nan,nan,nan,nan,nan,nan,nan,nan,nan,nan
9256624000,6,1586.6155,1616.9877,1589.1652,1614.8352,1500.0,1500.0,nan,nan,nan,nan,nan,nan,nan,nan,nan,nan
9256724000,6,1586.32,1619.5548,1585.1821,1619.0702,1500.0,1500.0,nan,nan,nan,nan,nan,nan,nan,nan,nan,nan
9256828000,6,1586.809,1619.3961,1588.7847,1620.4749,1500.0,1500.0,nan,nan,nan,nan,nan,nan,nan,nan,nan,nan
9256924000,6,1592.3154,1620.5444,1593.935,1617.9321,1500.0,1500.0,nan,nan,nan,nan,nan,nan,nan,nan,nan,nan
9257028000,6,1590.9685,1622.7782,1594.8185,1623.6101,1500.0,1500.0,nan,nan,nan,nan,nan,nan,nan,nan,nan,nan
9257124000,6,1590.9268,1630.6376,1595.1504,1628.9404,1500.0,1500.0,nan,nan,nan,nan,nan,nan,nan,nan,nan,nan
9257224000,6,1596.3451,1632.5061,1599.1205,1630.881,1500.0,1500.0,nan,nan,nan,nan,nan,nan,nan,nan,nan,nan
9257328000,6,1597.061,1638.6536,1601.561,1635.6554,1500.0,1500.0,nan,nan,nan,nan,nan,nan,nan,nan,nan,nan
9257424000,6,1602.9082,1637.6265,1602.6295,1641.6661,1500.0,1500.0,nan,nan,nan,nan,nan,nan,nan,nan,nan,nan
9257524000,6,1602.8282,1644.3383,1605.0474,1644.4513,1500.0,1500.0,nan,nan,nan,nan,nan,nan,nan,nan,nan,nan
9257624000,6,1605.5322,1645.8402,1604.665,1648.9048,1500.0,1500.0,nan,nan,nan,nan,nan,nan,nan,nan,nan,nan
9257724000,6,1608.18,1648.1143,1611.9202,1647.6187,1500.0,1500.0,nan,nan,nan,nan,nan,nan,nan,nan,nan,nan
9257824000,6,1610.1366,1649.8094,1613.571,1648.3855,1500.0,1500.0,nan,nan,nan,nan,nan,nan,nan,nan,nan,nan
9257924000,6,1613.4763,1656.8038,1617.1072,1653.1174,1500.0,1500.0,nan,nan,nan,nan,nan,nan,nan,nan,nan,nan
9258024000,6,1618.0779,1663.2777,1621.9396,1663.6945,1500.0,1500.0,nan,nan,nan,nan,nan,nan,nan,nan,nan,nan
9258124000,6,1616.1361,1673.0532,1620.6178,1668.5557,1500.0,1500.0,nan,nan,nan,nan,nan,nan,nan,nan,nan,nan
9258224000,6,1628.083,1671.1292,1627.7828,1669.8696,1500.0,1500.0,nan,nan,nan,nan,nan,nan,nan,nan,nan,nan
9258324000,6,1628.1951,1671.5247,1633.5171,1670.6522,1500.0,1500.0,nan,nan,nan,nan,nan,nan,nan,nan,nan,nan
9258424000,6,1629.4707,1682.557,1633.1046,1678.5596,1500.0,1500.0,nan,nan,nan,nan,nan,nan,nan,nan,nan,nan
9258528000,6,1633.7452,1688.8633,1638.634,1690.0166,1500.0,1500.0,nan,nan,nan,nan,nan,nan,nan,nan,nan,nan
9258628000,6,1636.6562,1697.3496,1641.261,1694.2278,1500.0,1500.0,nan,nan,nan,nan,nan,nan,nan,nan,nan,nan
9258728000,6,1643.346,1699.6814,1650.6807,1694.2787,1500.0,1500.0,nan,nan,nan,nan,nan,nan,nan,nan,nan,nan
9258824000,6,1654.2991,1677.8412,1663.6652,1672.6794,1500.0,1500.0,nan,nan,nan,nan,nan,nan,nan,nan,nan,nan
9258924000,6,1644.3137,1687.2008,1646.7131,1684.8385,1500.0,1500.0,nan,nan,nan,nan,nan,nan,nan,nan,nan,nan
9259024000,6,1645.2893,1704.4224,1645.4374,1707.0315,1500.0,1500.0,nan,nan,nan,nan,nan,nan,nan,nan,nan,nan
9259124000,6,1634.711,1700.8107,1636.7834,1702.4108,1500.0,1500.0,nan,nan,nan,nan,nan,nan,nan,nan,nan,nan
9259228000,6,1632.2935,1672.8623,1640.4353,1672.2327,1500.0,1500.0,nan,nan,nan,nan,nan,nan,nan,nan,nan,nan
9259324000,6,1626.0001,1682.6718,1629.5752,1684.313,1500.0,1500.0,nan,nan,nan,nan,nan,nan,nan,nan,nan,nan
9259424000,6,1608.4048,1693.2682,1607.0463,1697.6273,1500.0,1500.0,nan,nan,nan,nan,nan,nan,nan,nan,nan,nan
9259524000,6,1600.491,1681.0662,1604.0314,1680.185,1500.0,1500.0,nan,nan,nan,nan,nan,nan,nan,nan,nan,nan
9259628000,6,1602.4899,1671.1196,1608.0258,1669.3523,1500.0,1500.0,nan,nan,nan,nan,nan,nan,nan,nan,nan,nan
9259728000,6,1605.964,1667.5334,1603.2206,1667.04,1500.0,1500.0,nan,nan,nan,nan,nan,nan,nan,nan,nan,nan
9259824000,6,1598.5251,1662.8115,1600.9031,1659.8884,1500.0,1500.0,nan,nan,nan,nan,nan,nan,nan,nan,nan,nan
9259928000,6,1599.5004,1655.4049,1603.3809,1652.5342,1500.0,1500.0,nan,nan,nan,nan,nan,nan,nan,nan,nan,nan
9260024000,6,1593.6277,1656.3696,1597.4221,1652.4932,1500.0,1500.0,nan,nan,nan,nan,nan,nan,nan,nan,nan,nan
9260124000,6,1593.3816,1643.7197,1595.8248,1647.1998,1500.0,1500.0,nan,nan,nan,nan,nan,nan,nan,nan,nan,nan
9260228000,6,1590.0734,1646.537,1591.1622,1645.8835,1500.0,1500.0,nan,nan,nan,nan,nan,nan,nan,nan,nan,nan
9260324000,6,1589.771,1639.4109,1592.5469,1635.9874,1500.0,1500.0,nan,nan,nan,nan,nan,nan,nan,nan,nan,nan
9260424000,6,1590.4037,1633.3279,1590.8616,1634.3431,1500.0,1500.0,nan,nan,nan,nan,nan,nan,nan,nan,nan,nan
9260528000,6,1585.5137,1632.1409,1590.6058,1631.533,1500.0,1500.0,nan,nan,nan,nan,nan,nan,nan,nan,nan,nan
9260628000,6,1585.4788,1630.9258,1588.5819,1628.4718,1500.0,1500.0,nan,nan,nan,nan,nan,nan,nan,nan,nan,nan
9260724000,6,1579.7521,1626.9084,1582.8594,1628.8884,1500.0,1500.0,nan,nan,nan,nan,nan,nan,nan,nan,nan,nan
9260828000,6,1582.2819,1622.1553,1585.2627,1621.5842,1500.0,1500.0,nan,nan,nan,nan,nan,nan,nan,nan,nan,nan
9260924000,6,1580.8484,1621.4868,1583.9387,1618.7512,1500.0,1500.0,nan,nan,nan,nan,nan,nan,nan,nan,nan,nan
9261024000,6,1578.0095,1619.5271,1579.8032,1616.0459,1500.0,1500.0,nan,nan,nan,nan,nan,nan,nan,nan,nan,nan
9261128000,6,1579.6318,1612.0576,1580.002,1613.8906,1500.0,1500.0,nan,nan,nan,nan,nan,nan,nan,nan,nan,nan
9261228000,6,1577.5426,1609.2013,1579.0537,1610.6047,1500.0,1500.0,nan,nan,nan,nan,nan,nan,nan,nan,nan,nan
9261328000,6,1574.5988,1606.4944,1577.8755,1606.3883,1500.0,1500.0,nan,nan,nan,nan,nan,nan,nan,nan,nan,nan
9261424000,6,1573.5093,1609.329,1574.6337,1606.3558,1500.0,1500.0,nan,nan,nan,nan,nan,nan,nan,nan,nan,nan
9261524000,6,1577.8837,1602.8533,1576.6035,1602.804,1500.0,1500.0,nan,nan,nan,nan,nan,nan,nan,nan,nan,nan
9261624000,6,1574.0043,1606.0219,1576.6012,1603.9562,1500.0,1500.0,nan,nan,nan,nan,nan,nan,nan,nan,nan,nan
9261724000,6,1575.6516,1599.8804,1575.5432,1599.1659,1500.0,1500.0,nan,nan,nan,nan,nan,nan,nan,nan,nan,nan
9261828000,6,1572.5112,1599.0546,1576.4756,1595.2861,1500.0,1500.0,nan,nan,nan,nan,nan,nan,nan,nan,nan,nan
9261928000,6,1572.4583,1596.7162,1572.7084,1596.3325,1500.0,1500.0,nan,nan,nan,nan,nan,nan,nan,nan,nan,nan
9262024000,6,1568.7262,1598.9142,1570.7551,1601.1162,1500.0,1500.0,nan,nan,nan,nan,nan,nan,nan,nan,nan,nan
9262128000,6,1568.5497,1595.7416,1569.2104,1594.3207,1500.0,1500.0,nan,nan,nan,nan,nan,nan,nan,nan,nan,nan
9262224000,6,1569.1636,1595.076,1574.3038,1588.8439,1500.0,1500.0,nan,nan,nan,nan,nan,nan,nan,nan,nan,nan
9262328000,6,1572.8223,1589.489,1572.0302,1590.4833,1500.0,1500.0,nan,nan,nan,nan,nan,nan,nan,nan,nan,nan
9262424000,6,1570.9285,1588.4031,1572.2471,1587.568,1500.0,1500.0,nan,nan,nan,nan,nan,nan,nan,nan,nan,nan
9262528000,6,1569.3685,1587.8878,1573.9357,1586.9102,1500.0,1500.0,nan,nan,nan,nan,nan,nan,nan,nan,nan,nan
9262624000,6,1569.4528,1591.5289,1569.7085,1590.2139,1500.0,1500.0,nan,nan,nan,nan,nan,nan,nan,nan,nan,nan
9262728000,6,1568.0813,1589.0958,1570.9875,1587.532,1500.0,1500.0,nan,nan,nan,nan,nan,nan,nan,nan,nan,nan
9262828000,6,1570.3843,1585.7941,1574.1926,1586.5746,1500.0,1500.0,nan,nan,nan,nan,nan,nan,nan,nan,nan,nan
9262924000,6,1565.3938,1586.4587,1567.1471,1581.7025,1500.0,1500.0,nan,nan,nan,nan,nan,nan,nan,nan,nan,nan
9263024000,6,1568.7703,1589.1346,1569.8419,1588.3363,1500.0,1500.0,nan,nan,nan,nan,nan,nan,nan,nan,nan,nan
9263124000,6,1576.3323,1590.2549,1583.6105,1584.0306,1500.0,1500.0,nan,nan,nan,nan,nan,nan,nan,nan,nan,nan
9263224000,6,1588.5236,1601.1866,1594.5063,1593.438,1500.0,1500.0,nan,nan,nan,nan,nan,nan,nan,nan,nan,nan
9263324000,6,1919.7664,1190.3483,1262.942,1741.0905,1500.0,1500.0,nan,nan,nan,nan,nan,nan,nan,nan,nan,nan
9263424000,6,1251.7567,1652.7208,1514.5474,1452.4592,1500.0,1500.0,nan,nan,nan,nan,nan,nan,nan,nan,nan,nan
9263528000,6,1431.7139,1654.3973,1594.8213,1536.6543,1500.0,1500.0,nan,nan,nan,nan,nan,nan,nan,nan,nan,nan
9263624000,6,1613.7316,1564.3564,1586.5939,1606.5815,1500.0,1500.0,nan,nan,nan,nan,nan,nan,nan,nan,nan,nan
9263724000,6,1620.5339,1535.7106,1571.5704,1595.7045,1500.0,1500.0,nan,nan,nan,nan,nan,nan,nan,nan,nan,nan
9263824000,6,1598.7305,1548.2501,1568.8153,1583.8474,1500.0,1500.0,nan,nan,nan,nan,nan,nan,nan,nan,nan,nan
9263924000,6,1587.9767,1567.998,1571.119,1584.2544,1500.0,1500.0,nan,nan,nan,nan,nan,nan,nan,nan,nan,nan
9264028000,6,1576.0607,1578.1893,1570.6267,1581.9738,1500.0,1500.0,nan,nan,nan,nan,nan,nan,nan,nan,nan,nan
9264124000,6,1578.4409,1573.0049,1573.5238,1576.2156,1500.0,1500.0,nan,nan,nan,nan,nan,nan,nan,nan,nan,nan
9264224000,6,1580.2172,1578.238,1572.4998,1579.3376,1500.0,1500.0,nan,nan,nan,nan,nan,nan,nan,nan,nan,nan
9264324000,6,1581.6006,1573.4667,1570.3297,1578.3652,1500.0,1500.0,nan,nan,nan,nan,nan,nan,nan,nan,nan,nan
9264428000,6,1581.3037,1572.5999,1569.3473,1579.6505,1500.0,1500.0,nan,nan,nan,nan,nan,nan,nan,nan,nan,nan
9264528000,6,1579.6431,1575.8865,1572.9521,1580.5654,1500.0,1500.0,nan,nan,nan,nan,nan,nan,nan,nan,nan,nan
9264624000,6,1580.2441,1574.1128,1571.6144,1578.0331,1500.0,1500.0,nan,nan,nan,nan,nan,nan,nan,nan,nan,nan
9264724000,6,1579.4071,1573.4305,1565.1951,1580.5232,1500.0,1500.0,nan,nan,nan,nan,nan,nan,nan,nan,nan,nan
9264828000,6,1579.5344,1573.1709,1568.7362,1579.6844,1500.0,1500.0,nan,nan,nan,nan,nan,nan,nan,nan,nan,nan
9264928000,6,1581.9601,1573.6263,1570.905,1578.8322,1500.0,1500.0,nan,nan,nan,nan,nan,nan,nan,nan,nan,nan
9265024000,6,1579.9696,1573.3691,1571.46,1578.2491,1500.0,1500.0,nan,nan,nan,nan,nan,nan,nan,nan,nan,nan
9265124000,6,1581.6495,1573.7262,1571.2869,1580.5316,1500.0,1500.0,nan,nan,nan,nan,nan,nan,nan,nan,nan,nan
9265224000,6,1581.3844,1570.9515,1573.0319,1575.0383,1500.0,1500.0,nan,nan,nan,nan,nan,nan,nan,nan,nan,nan
9265324000,6,1581.9264,1572.91,1571.7445,1579.5554,1500.0,1500.0,nan,nan,nan,nan,nan,nan,nan,nan,nan,nan
9265428000,6,1582.5707,1573.1293,1570.851,1580.6025,1500.0,1500.0,nan,nan,nan,nan,nan,nan,nan,nan,nan,nan
9265528000,6,1581.8328,1574.2042,1575.1714,1578.7179,1500.0,1500.0,nan,nan,nan,nan,nan,nan,nan,nan,nan,nan
9265624000,6,1584.2406,1571.2068,1573.038,1577.8252,1500.0,1500.0,nan,nan,nan,nan,nan,nan,nan,nan,nan,nan
9265724000,6,1583.9144,1573.5615,1574.8156,1577.3306,1500.0,1500.0,nan,nan,nan,nan,nan,nan,nan,nan,nan,nan
9265824000,6,1580.4935,1575.8899,1570.0116,1581.7943,1500.0,1500.0,nan,nan,nan,nan,nan,nan,nan,nan,nan,nan
9265928000,6,1581.6976,1570.9514,1569.8975,1579.6069,1500.0,1500.0,nan,nan,nan,nan,nan,nan,nan,nan,nan,nan
9266028000,6,1580.6527,1571.2974,1570.155,1576.9073,1500.0,1500.0,nan,nan,nan,nan,nan,nan,nan,nan,nan,nan
9266124000,6,1579.9819,1575.3888,1573.3894,1579.6567,1500.0,1500.0,nan,nan,nan,nan,nan,nan,nan,nan,nan,nan
9266224000,6,1583.5503,1572.2329,1571.8442,1581.065,1500.0,1500.0,nan,nan,nan,nan,nan,nan,nan,nan,nan,nan
9266324000,6,1584.6757,1575.6013,1571.436,1580.556,1500.0,1500.0,nan,nan,nan,nan,nan,nan,nan,nan,nan,nan
9266424000,6,1584.4412,1571.4135,1573.6138,1580.0092,1500.0,1500.0,nan,nan,nan,nan,nan,nan,nan,nan,nan,nan
9266524000,6,1583.9122,1574.9996,1571.9513,1581.2046,1500.0,1500.0,nan,nan,nan,nan,nan,nan,nan,nan,nan,nan
9266624000,6,1584.4475,1574.7117,1574.0203,1580.3865,1500.0,1500.0,nan,nan,nan,nan,nan,nan,nan,nan,nan,nan
9266728000,6,1583.7064,1572.8115,1571.9164,1579.6509,1500.0,1500.0,nan,nan,nan,nan,nan,nan,nan,nan,nan,nan
9266824000,6,1581.3855,1575.3093,1573.5184,1579.7244,1500.0,1500.0,nan,nan,nan,nan,nan,nan,nan,nan,nan,nan
9266928000,6,1583.6943,1573.4521,1572.2576,1582.8694,1500.0,1500.0,nan,nan,nan,nan,nan,nan,nan,nan,nan,nan
9267024000,6,1580.3013,1574.8258,1572.8828,1579.7521,1500.0,1500.0,nan,nan,nan,nan,nan,nan,nan,nan,nan,nan
9267124000,6,1582.397,1574.0203,1573.2162,1580.0044,1500.0,1500.0,nan,nan,nan,nan,nan,nan,nan,nan,nan,nan
9267224000,6,1583.0614,1573.7734,1574.0394,1581.8842,1500.0,1500.0,nan,nan,nan,nan,nan,nan,nan,nan,nan,nan
9267328000,6,1586.6042,1573.6492,1574.4248,1582.7803,1500.0,1500.0,nan,nan,nan,nan,nan,nan,nan,nan,nan,nan
9267428000,6,1581.0444,1574.345,1570.4034,1583.5497,1500.0,1500.0,nan,nan,nan,nan,nan,nan,nan,nan,nan,nan
9267524000,6,1582.4456,1574.5149,1571.756,1581.1118,1500.0,1500.0,nan,nan,nan,nan,nan,nan,nan,nan,nan,nan
9267624000,6,1583.0372,1577.2639,1573.4426,1580.3733,1500.0,1500.0,nan,nan,nan,nan,nan,nan,nan,nan,nan,nan
9267724000,6,1584.0004,1574.9231,1570.7573,1579.6174,1500.0,1500.0,nan,nan,nan,nan,nan,nan,nan,nan,nan,nan
9267824000,6,1583.1617,1574.4685,1571.5115,1581.9711,1500.0,1500.0,nan,nan,nan,nan,nan,nan,nan,nan,nan,nan
9267924000,6,1582.347,1573.897,1571.6135,1580.227,1500.0,1500.0,nan,nan,nan,nan,nan,nan,nan,nan,nan,nan
9268024000,6,1583.4694,1574.8306,1570.5317,1582.8906,1500.0,1500.0,nan,nan,nan,nan,nan,nan,nan,nan,nan,nan
9268128000,6,1581.9198,1574.5371,1573.19,1580.7145,1500.0,1500.0,nan,nan,nan,nan,nan,nan,nan,nan,nan,nan
9268224000,6,1581.1737,1575.6991,1573.9812,1581.9104,1500.0,1500.0,nan,nan,nan,nan,nan,nan,nan,nan,nan,nan
9268324000,6,1586.4004,1573.0223,1575.2382,1582.9241,1500.0,1500.0,nan,nan,nan,nan,nan,nan,nan,nan,nan,nan
9268424000,6,1584.5936,1574.0227,1570.8162,1579.9548,1500.0,1500.0,nan,nan,nan,nan,nan,nan,nan,nan,nan,nan
9268528000,6,1586.0697,1577.4335,1573.017,1582.7625,1500.0,1500.0,nan,nan,nan,nan,nan,nan,nan,nan,nan,nan
9268628000,6,1584.5448,1578.1722,1571.6036,1585.9297,1500.0,1500.0,nan,nan,nan,nan,nan,nan,nan,nan,nan,nan
9268724000,6,1584.4086,1577.1738,1569.1005,1583.9634,1500.0,1500.0,nan,nan,nan,nan,nan,nan,nan,nan,nan,nan
9268824000,6,1581.32,1575.0671,1574.3711,1582.5786,1500.0,1500.0,nan,nan,nan,nan,nan,nan,nan,nan,nan,nan
9268928000,6,1582.1582,1578.1493,1573.4526,1584.1458,1500.0,1500.0,nan,nan,nan,nan,nan,nan,nan,nan,nan,nan
9269024000,6,1584.735,1574.2372,1573.3491,1578.352,1500.0,1500.0,nan,nan,nan,nan,nan,nan,nan,nan,nan,nan
9269128000,6,1583.4423,1575.7676,1571.1702,1584.3215,1500.0,1500.0,nan,nan,nan,nan,nan,nan,nan,nan,nan,nan
9269228000,6,1582.5662,1574.997,1571.0505,1581.4392,1500.0,1500.0,nan,nan,nan,nan,nan,nan,nan,nan,nan,nan
9269324000,6,1580.1481,1577.0264,1567.8295,1586.0164,1500.0,1500.0,nan,nan,nan,nan,nan,nan,nan,nan,nan,nan
9269424000,6,1579.1418,1572.5283,1569.6364,1581.5254,1500.0,1500.0,nan,nan,nan,nan,nan,nan,nan,nan,nan,nan
9269524000,6,1586.3418,1572.6685,1573.3776,1581.3304,1500.0,1500.0,nan,nan,nan,nan,nan,nan,nan,nan,nan,nan
9269624000,6,1584.315,1573.8867,1572.108,1581.4233,1500.0,1500.0,nan,nan,nan,nan,nan,nan,nan,nan,nan,nan
9269728000,6,1582.5775,1574.627,1569.8507,1580.8,1500.0,1500.0,nan,nan,nan,nan,nan,nan,nan,nan,nan,nan
9269828000,6,1582.9019,1578.4496,1572.5951,1581.8065,1500.0,1500.0,nan,nan,nan,nan,nan,nan,nan,nan,nan,nan
9269924000,6,1581.7151,1577.4987,1573.9575,1584.491,1500.0,1500.0,nan,nan,nan,nan,nan,nan,nan,nan,nan,nan
9270024000,6,1587.7408,1574.8986,1573.0264,1581.2666,1500.0,1500.0,nan,nan,nan,nan,nan,nan,nan,nan,nan,nan
9270124000,6,1584.2087,1575.925,1571.5616,1582.5525,1500.0,1500.0,nan,nan,nan,nan,nan,nan,nan,nan,nan,nan
9270224000,6,1584.7935,1575.8424,1575.2385,1582.7202,1500.0,1500.0,nan,nan,nan,nan,nan,nan,nan,nan,nan,nan
9270328000,6,1582.3315,1574.0072,1569.0793,1582.7927,1500.0,1500.0,nan,nan,nan,nan,nan,nan,nan,nan,nan,nan
9270424000,6,1585.8518,1573.4001,1573.9037,1583.1171,1500.0,1500.0,nan,nan,nan,nan,nan,nan,nan,nan,nan,nan
9270524000,6,1582.873,1575.6799,1572.636,1580.4674,1500.0,1500.0,nan,nan,nan,nan,nan,nan,nan,nan,nan,nan
9270628000,6,1582.6257,1576.0315,1572.6134,1583.3328,1500.0,1500.0,nan,nan,nan,nan,nan,nan,nan,nan,nan,nan
9270724000,6,1583.5249,1575.6843,1570.3262,1582.807,1500.0,1500.0,nan,nan,nan,nan,nan,nan,nan,nan,nan,nan
9270828000,6,1584.3069,1574.9629,1571.8365,1581.6499,1500.0,1500.0,nan,nan,nan,nan,nan,nan,nan,nan,nan,nan
9270924000,6,1585.0717,1574.0975,1573.666,1581.5135,1500.0,1500.0,nan,nan,nan,nan,nan,nan,nan,nan,nan,nan
9271028000,6,1585.137,1573.4712,1570.8167,1585.255,1500.0,1500.0,nan,nan,nan,nan,nan,nan,nan,nan,nan,nan
9271128000,6,1583.409,1573.5747,1573.808,1579.5734,1500.0,1500.0,nan,nan,nan,nan,nan,nan,nan,nan,nan,nan
9271224000,6,1582.9928,1576.844,1571.8215,1580.4895,1500.0,1500.0,nan,nan,nan,nan,nan,nan,nan,nan,nan,nan
9271328000,6,1584.1635,1574.8641,1574.6403,1580.9039,1500.0,1500.0,nan,nan,nan,nan,nan,nan,nan,nan,nan,nan
9271424000,6,1583.7646,1572.2046,1569.695,1583.9717,1500.0,1500.0,nan,nan,nan,nan,nan,nan,nan,nan,nan,nan
9271524000,6,1585.6383,1573.6443,1572.197,1581.2776,1500.0,1500.0,nan,nan,nan,nan,nan,nan,nan,nan,nan,nan
9271624000,6,1582.5024,1577.6959,1574.623,1581.5969,1500.0,1500.0,nan,nan,nan,nan,nan,nan,nan,nan,nan,nan
9271724000,6,1585.0059,1574.8348,1572.3834,1582.6248,1500.0,1500.0,nan,nan,nan,nan,nan,nan,nan,nan,nan,nan
9271828000,6,1584.3763,1574.777,1573.2598,1579.3964,1500.0,1500.0,nan,nan,nan,nan,nan,nan,nan,nan,nan,nan
9271924000,6,1584.444,1576.9518,1572.1085,1582.7999,1500.0,1500.0,nan,nan,nan,nan,nan,nan,nan,nan,nan,nan
9272024000,6,1585.0804,1576.1033,1573.1106,1583.1422,1500.0,1500.0,nan,nan,nan,nan,nan,nan,nan,nan,nan,nan
9272124000,6,1583.5868,1576.5505,1572.0645,1584.3562,1500.0,1500.0,nan,nan,nan,nan,nan,nan,nan,nan,nan,nan
9272228000,6,1583.2065,1576.4424,1570.3163,1585.0554,1500.0,1500.0,nan,nan,nan,nan,nan,nan,nan,nan,nan,nan
9272328000,6,1583.1833,1573.269,1573.6376,1580.4042,1500.0,1500.0,nan,nan,nan,nan,nan,nan,nan,nan,nan,nan
9272424000,6,1585.3119,1575.9729,1575.2068,1578.0848,1500.0,1500.0,nan,nan,nan,nan,nan,nan,nan,nan,nan,nan
9272524000,6,1585.6471,1575.6212,1572.3552,1584.0054,1500.0,1500.0,nan,nan,nan,nan,nan,nan,nan,nan,nan,nan
9272628000,6,1581.8099,1577.3861,1572.3324,1581.982,1500.0,1500.0,nan,nan,nan,nan,nan,nan,nan,nan,nan,nan
9272724000,6,1581.5042,1576.6472,1571.1931,1584.3922,1500.0,1500.0,nan,nan,nan,nan,nan,nan,nan,nan,nan,nan
9272828000,6,1585.3851,1573.7477,1571.3928,1582.8336,1500.0,1500.0,nan,nan,nan,nan,nan,nan,nan,nan,nan,nan
9272924000,6,1582.2823,1575.6836,1572.9415,1581.1696,1500.0,1500.0,nan,nan,nan,nan,nan,nan,nan,nan,nan,nan
9273028000,6,1582.6663,1575.6024,1574.577,1580.8137,1500.0,1500.0,nan,nan,nan,nan,nan,nan,nan,nan,nan,nan
9273128000,6,1579.9436,1573.3314,1570.8887,1583.5721,1500.0,1500.0,nan,nan,nan,nan,nan,nan,nan,nan,nan,nan
9273224000,6,1580.984,1575.2693,1571.7819,1582.3792,1500.0,1500.0,nan,nan,nan,nan,nan,nan,nan,nan,nan,nan
9273324000,6,1578.8142,1578.1013,1569.5117,1583.3767,1500.0,1500.0,nan,nan,nan,nan,nan,nan,nan,nan,nan,nan
9273424000,6,1585.3026,1571.8726,1573.9146,1582.163,1500.0,1500.0,nan,nan,nan,nan,nan,nan,nan,nan,nan,nan
9273528000,6,1585.488,1573.7113,1571.621,1581.0824,1500.0,1500.0,nan,nan,nan,nan,nan,nan,nan,nan,nan,nan
9273624000,6,1583.8798,1574.7433,1572.5798,1581.2084,1500.0,1500.0,nan,nan,nan,nan,nan,nan,nan,nan,nan,nan
9273728000,6,1584.6095,1574.494,1574.9452,1581.8845,1500.0,1500.0,nan,nan,nan,nan,nan,nan,nan,nan,nan,nan
9273824000,6,1520.6157,1532.0813,1478.774,1565.8275,1500.0,1500.0,nan,nan,nan,nan,nan,nan,nan,nan,nan,nan
9273924000,6,1573.1967,1560.4827,1574.1399,1544.6211,1500.0,1500.0,nan,nan,nan,nan,nan,nan,nan,nan,nan,nan
9274024000,6,1586.1085,1571.7501,1576.324,1576.7029,1500.0,1500.0,nan,nan,nan,nan,nan,nan,nan,nan,nan,nan
9274124000,6,1574.664,1565.0695,1557.5074,1578.1188,1500.0,1500.0,nan,nan,nan,nan,nan,nan,nan,nan,nan,nan
9274224000,6,1580.137,1572.1924,1566.1528,1580.5925,1500.0,1500.0,nan,nan,nan,nan,nan,nan,nan,nan,nan,nan
9274328000,6,1582.2179,1571.4917,1568.4606,1577.9933,1500.0,1500.0,nan,nan,nan,nan,nan,nan,nan,nan,nan,nan
9274428000,6,1579.7852,1574.6244,1568.2269,1581.236,1500.0,1500.0,nan,nan,nan,nan,nan,nan,nan,nan,nan,nan
9274524000,6,1587.525,1569.635,1573.6929,1578.2678,1500.0,1500.0,nan,nan,nan,nan,nan,nan,nan,nan,nan,nan
9274628000,6,1565.9707,1567.8922,1557.8474,1564.494,1500.0,1500.0,nan,nan,nan,nan,nan,nan,nan,nan,nan,nan
9274724000,6,1588.8478,1583.0654,1578.3936,1585.9136,1500.0,1500.0,nan,nan,nan,nan,nan,nan,nan,nan,nan,nan
9274828000,6,1592.8431,1485.4216,1564.5505,1490.5891,1500.0,1500.0,nan,nan,nan,nan,nan,nan,nan,nan,nan,nan
9274924000,6,1572.824,1573.7352,1566.8972,1580.9675,1500.0,1500.0,nan,nan,nan,nan,nan,nan,nan,nan,nan,nan
9275024000,6,1000.0,1999.9998,1000.00006,2000.0,1500.0,1500.0,nan,nan,nan,nan,nan,nan,nan,nan,nan,nan
9275124000,6,1566.33,1492.5392,1549.9954,1498.0214,1500.0,1500.0,nan,nan,nan,nan,nan,nan,nan,nan,nan,nan
9275228000,6,1584.0121,1592.6031,1585.6245,1596.8588,1500.0,1500.0,nan,nan,nan,nan,nan,nan,nan,nan,nan,nan
9275324000,6,1580.0101,1589.006,1569.0381,1602.0751,1500.0,1500.0,nan,nan,nan,nan,nan,nan,nan,nan,nan,nan
9275428000,6,1581.4434,1578.7102,1567.3304,1588.2091,1500.0,1500.0,nan,nan,nan,nan,nan,nan,nan,nan,nan,nan
9275528000,6,1589.054,1576.2173,1573.1747,1589.3789,1500.0,1500.0,nan,nan,nan,nan,nan,nan,nan,nan,nan,nan
9275628000,6,1587.6191,1577.5522,1576.9073,1585.774,1500.0,1500.0,nan,nan,nan,nan,nan,nan,nan,nan,nan,nan
9275724000,6,1591.6885,1577.1562,1577.1914,1586.1672,1500.0,1500.0,nan,nan,nan,nan,nan,nan,nan,nan,nan,nan
9275828000,6,1588.1835,1574.9818,1575.0853,1588.7872,1500.0,1500.0,nan,nan,nan,nan,nan,nan,nan,nan,nan,nan
9275928000,6,1588.8809,1578.5881,1577.2783,1586.7958,1500.0,1500.0,nan,nan,nan,nan,nan,nan,nan,nan,nan,nan
9276024000,6,1591.9424,1574.7888,1578.0144,1586.4844,1500.0,1500.0,nan,nan,nan,nan,nan,nan,nan,nan,nan,nan
9276124000,6,1590.0844,1578.1476,1578.603,1585.3164,1500.0,1500.0,nan,nan,nan,nan,nan,nan,nan,nan,nan,nan
9276228000,6,1588.0327,1576.7031,1576.5071,1586.8448,1500.0,1500.0,nan,nan,nan,nan,nan,nan,nan,nan,nan,nan
9276328000,6,1501.9406,1523.1967,1501.5895,1517.3423,1500.0,1500.0,nan,nan,nan,nan,nan,nan,nan,nan,nan,nan
9276424000,6,1597.4664,1589.2137,1593.2095,1592.4618,1500.0,1500.0,nan,nan,nan,nan,nan,nan,nan,nan,nan,nan
9276524000,6,1545.164,1516.7899,1516.7247,1542.3296,1500.0,1500.0,nan,nan,nan,nan,nan,nan,nan,nan,nan,nan
9276628000,6,1572.9841,1563.301,1562.1274,1570.5547,1500.0,1500.0,nan,nan,nan,nan,nan,nan,nan,nan,nan,nan
9276728000,6,1610.1128,1593.1436,1593.7739,1602.1439,1500.0,1500.0,nan,nan,nan,nan,nan,nan,nan,nan,nan,nan
9276824000,6,1465.6816,1470.1741,1443.326,1490.8672,1500.0,1500.0,nan,nan,nan,nan,nan,nan,nan,nan,nan,nan
9276928000,6,1606.2948,1620.149,1613.8484,1614.0852,1500.0,1500.0,nan,nan,nan,nan,nan,nan,nan,nan,nan,nan
9277024000,6,1600.2998,1578.5216,1579.5082,1597.0562,1500.0,1500.0,nan,nan,nan,nan,nan,nan,nan,nan,nan,nan
9277124000,6,1592.1655,1573.8085,1577.7931,1594.1449,1500.0,1500.0,nan,nan,nan,nan,nan,nan,nan,nan,nan,nan
9277224000,6,1597.6381,1581.0555,1589.2013,1586.625,1500.0,1500.0,nan,nan,nan,nan,nan,nan,nan,nan,nan,nan
9277324000,6,1594.0176,1587.2102,1587.4702,1597.4504,1500.0,1500.0,nan,nan,nan,nan,nan,nan,nan,nan,nan,nan
9277428000,6,1594.0431,1580.4998,1585.1503,1589.2148,1500.0,1500.0,nan,nan,nan,nan,nan,nan,nan,nan,nan,nan
9277524000,6,1592.984,1584.8353,1586.4772,1592.6311,1500.0,1500.0,nan,nan,nan,nan,nan,nan,nan,nan,nan,nan
9277624000,6,1595.0215,1576.9503,1585.6519,1587.3655,1500.0,1500.0,nan,nan,nan,nan,nan,nan,nan,nan,nan,nan
9277724000,6,1592.17,1582.4995,1589.0356,1590.6804,1500.0,1500.0,nan,nan,nan,nan,nan,nan,nan,nan,nan,nan
9277824000,6,1483.5603,1435.6823,1450.5098,1456.2285,1500.0,1500.0,nan,nan,nan,nan,nan,nan,nan,nan,nan,nan
9277928000,6,1618.3345,1637.5543,1617.5677,1639.8917,1500.0,1500.0,nan,nan,nan,nan,nan,nan,nan,nan,nan,nan
9278028000,6,1595.2875,1585.2163,1573.7404,1602.8528,1500.0,1500.0,nan,nan,nan,nan,nan,nan,nan,nan,nan,nan
9278128000,6,1589.253,1583.4332,1581.8268,1592.3097,1500.0,1500.0,nan,nan,nan,nan,nan,nan,nan,nan,nan,nan
9278224000,6,1599.9825,1589.2151,1596.1663,1593.4341,1500.0,1500.0,nan,nan,nan,nan,nan,nan,nan,nan,nan,nan
9278324000,6,1600.586,1586.1173,1589.481,1591.682,1500.0,1500.0,nan,nan,nan,nan,nan,nan,nan,nan,nan,nan
9278428000,6,1590.8109,1586.432,1584.6321,1593.5115,1500.0,1500.0,nan,nan,nan,nan,nan,nan,nan,nan,nan,nan
9278524000,6,1590.9446,1585.814,1586.358,1597.5249,1500.0,1500.0,nan,nan,nan,nan,nan,nan,nan,nan,nan,nan
9278624000,6,1558.6812,1260.568,1506.5579,1271.1813,1500.0,1500.0,nan,nan,nan,nan,nan,nan,nan,nan,nan,nan
9278724000,6,1507.6277,1595.134,1547.0149,1563.3843,1500.0,1500.0,nan,nan,nan,nan,nan,nan,nan,nan,nan,nan
9278824000,6,1642.5323,1642.4502,1633.3844,1654.8905,1500.0,1500.0,nan,nan,nan,nan,nan,nan,nan,nan,nan,nan
9278924000,6,1091.1201,1138.4148,1011.14343,1269.7999,1500.0,1500.0,nan,nan,nan,nan,nan,nan,nan,nan,nan,nan
9279024000,6,1589.0067,1522.162,1658.0046,1419.4834,1500.0,1500.0,nan,nan,nan,nan,nan,nan,nan,nan,nan,nan
9279124000,6,1675.5204,1666.5017,1662.2983,1675.873,1500.0,1500.0,nan,nan,nan,nan,nan,nan,nan,nan,nan,nan
9279228000,6,1576.5414,1589.5917,1541.1333,1622.2483,1500.0,1500.0,nan,nan,nan,nan,nan,nan,nan,nan,nan,nan
9279328000,6,1610.4523,1614.2966,1601.5217,1620.7186,1500.0,1500.0,nan,nan,nan,nan,nan,nan,nan,nan,nan,nan
9279428000,6,1616.2136,1602.834,1604.6942,1609.9248,1500.0,1500.0,nan,nan,nan,nan,nan,nan,nan,nan,nan,nan
9279528000,6,1611.2329,1603.1576,1607.7936,1603.5139,1500.0,1500.0,nan,nan,nan,nan,nan,nan,nan,nan,nan,nan
9279628000,6,1609.295,1598.5201,1603.7075,1601.0094,1500.0,1500.0,nan,nan,nan,nan,nan,nan,nan,nan,nan,nan
9279728000,6,1608.436,1604.4233,1601.509,1608.7759,1500.0,1500.0,nan,nan,nan,nan,nan,nan,nan,nan,nan,nan
9279828000,6,1601.3994,1597.4706,1593.1586,1601.9963,1500.0,1500.0,nan,nan,nan,nan,nan,nan,nan,nan,nan,nan
9279928000,6,1603.86,1594.1147,1590.543,1602.2991,1500.0,1500.0,nan,nan,nan,nan,nan,nan,nan,nan,nan,nan
9280024000,6,1604.9493,1600.5703,1595.8717,1605.5552,1500.0,1500.0,nan,nan,nan,nan,nan,nan,nan,nan,nan,nan
9280124000,6,1599.8011,1591.9657,1590.4498,1599.2649,1500.0,1500.0,nan,nan,nan,nan,nan,nan,nan,nan,nan,nan
9280224000,6,1601.061,1596.7446,1594.7546,1600.9269,1500.0,1500.0,nan,nan,nan,nan,nan,nan,nan,nan,nan,nan
9280328000,6,1598.5372,1591.1562,1588.6244,1599.9113,1500.0,1500.0,nan,nan,nan,nan,nan,nan,nan,nan,nan,nan
9280428000,6,1600.3618,1594.6387,1593.2899,1598.1699,1500.0,1500.0,nan,nan,nan,nan,nan,nan,nan,nan,nan,nan
9280524000,6,1597.7695,1588.1729,1584.9369,1594.8599,1500.0,1500.0,nan,nan,nan,nan,nan,nan,nan,nan,nan,nan
9280628000,6,1602.9093,1595.7374,1593.0267,1600.3649,1500.0,1500.0,nan,nan,nan,nan,nan,nan,nan,nan,nan,nan
9280728000,6,1598.5828,1589.5715,1589.7296,1594.2921,1500.0,1500.0,nan,nan,nan,nan,nan,nan,nan,nan,nan,nan
9280828000,6,1605.684,1599.4075,1595.8406,1607.6676,1500.0,1500.0,nan,nan,nan,nan,nan,nan,nan,nan,nan,nan
9280924000,6,1606.2148,1596.6932,1596.078,1603.5728,1500.0,1500.0,nan,nan,nan,nan,nan,nan,nan,nan,nan,nan
9281028000,6,1613.4429,1606.14,1604.7953,1613.6321,1500.0,1500.0,nan,nan,nan,nan,nan,nan,nan,nan,nan,nan
9281128000,6,1612.1392,1605.561,1600.7516,1615.1398,1500.0,1500.0,nan,nan,nan,nan,nan,nan,nan,nan,nan,nan
9281224000,6,1624.593,1615.629,1615.6462,1622.4155,1500.0,1500.0,nan,nan,nan,nan,nan,nan,nan,nan,nan,nan
9281324000,6,1619.1844,1613.8197,1609.7351,1619.754,1500.0,1500.0,nan,nan,nan,nan,nan,nan,nan,nan,nan,nan
9281424000,6,1634.4672,1623.6895,1623.3761,1633.0869,1500.0,1500.0,nan,nan,nan,nan,nan,nan,nan,nan,nan,nan
9281528000,6,1632.6864,1621.2548,1621.084,1630.5228,1500.0,1500.0,nan,nan,nan,nan,nan,nan,nan,nan,nan,nan
9281624000,6,1638.3135,1631.5565,1627.1449,1638.9967,1500.0,1500.0,nan,nan,nan,nan,nan,nan,nan,nan,nan,nan
9281724000,6,1632.6808,1627.5422,1624.6554,1633.3606,1500.0,1500.0,nan,nan,nan,nan,nan,nan,nan,nan,nan,nan
9281824000,6,1637.4436,1632.9971,1628.2278,1640.1741,1500.0,1500.0,nan,nan,nan,nan,nan,nan,nan,nan,nan,nan
9281924000,6,1631.7194,1624.5675,1620.626,1631.4585,1500.0,1500.0,nan,nan,nan,nan,nan,nan,nan,nan,nan,nan
9282024000,6,1632.3132,1628.3121,1622.2139,1631.6906,1500.0,1500.0,nan,nan,nan,nan,nan,nan,nan,nan,nan,nan
9282128000,6,1626.6782,1620.5197,1617.3854,1630.6349,1500.0,1500.0,nan,nan,nan,nan,nan,nan,nan,nan,nan,nan
9282224000,6,1626.5215,1614.4366,1615.3162,1624.8759,1500.0,1500.0,nan,nan,nan,nan,nan,nan,nan,nan,nan,nan
9282324000,6,1621.0641,1610.8003,1609.1041,1619.9984,1500.0,1500.0,nan,nan,nan,nan,nan,nan,nan,nan,nan,nan
9282428000,6,1607.3865,1606.5502,1602.0236,1610.7526,1500.0,1500.0,nan,nan,nan,nan,nan,nan,nan,nan,nan,nan
9282524000,6,1612.0247,1605.6698,1607.1552,1609.6222,1500.0,1500.0,nan,nan,nan,nan,nan,nan,nan,nan,nan,nan
9282624000,6,1597.4342,1589.2002,1587.7131,1597.9669,1500.0,1500.0,nan,nan,nan,nan,nan,nan,nan,nan,nan,nan
9282724000,6,1598.5923,1593.4786,1589.0653,1597.5201,1500.0,1500.0,nan,nan,nan,nan,nan,nan,nan,nan,nan,nan
9282828000,6,1587.2946,1581.1794,1577.2224,1591.5754,1500.0,1500.0,nan,nan,nan,nan,nan,nan,nan,nan,nan,nan
9282924000,6,1585.5701,1579.385,1575.7407,1588.801,1500.0,1500.0,nan,nan,nan,nan,nan,nan,nan,nan,nan,nan
9283028000,6,1571.905,1567.2114,1561.3317,1573.1973,1500.0,1500.0,nan,nan,nan,nan,nan,nan,nan,nan,nan,nan
9283124000,6,1576.741,1578.6888,1570.1836,1582.1555,1500.0,1500.0,nan,nan,nan,nan,nan,nan,nan,nan,nan,nan
9283224000,6,1565.093,1554.3116,1553.1542,1562.3099,1500.0,1500.0,nan,nan,nan,nan,nan,nan,nan,nan,nan,nan
9283324000,6,1569.3136,1566.0756,1561.9119,1568.0555,1500.0,1500.0,nan,nan,nan,nan,nan,nan,nan,nan,nan,nan
9283424000,6,1563.9565,1556.2242,1552.4911,1562.7903,1500.0,1500.0,nan,nan,nan,nan,nan,nan,nan,nan,nan,nan
9283528000,6,1565.2808,1561.4855,1555.5919,1564.3718,1500.0,1500.0,nan,nan,nan,nan,nan,nan,nan,nan,nan,nan
9283628000,6,1557.3999,1553.2496,1546.2577,1561.0846,1500.0,1500.0,nan,nan,nan,nan,nan,nan,nan,nan,nan,nan
9283724000,6,1568.766,1556.2781,1554.4993,1564.6208,1500.0,1500.0,nan,nan,nan,nan,nan,nan,nan,nan,nan,nan
9283828000,6,1548.3246,1533.6036,1533.5834,1539.6893,1500.0,1500.0,nan,nan,nan,nan,nan,nan,nan,nan,nan,nan
9283928000,6,1537.4557,1531.3577,1527.0157,1533.854,1500.0,1500.0,nan,nan,nan,nan,nan,nan,nan,nan,nan,nan
9284028000,6,1539.144,1532.0602,1528.5913,1535.1036,1500.0,1500.0,nan,nan,nan,nan,nan,nan,nan,nan,nan,nan
9284128000,6,1547.8823,1538.9491,1537.1536,1543.5276,1500.0,1500.0,nan,nan,nan,nan,nan,nan,nan,nan,nan,nan
9284224000,6,1543.2039,1541.0442,1527.3807,1547.9255,1500.0,1500.0,nan,nan,nan,nan,nan,nan,nan,nan,nan,nan
9284324000,6,1551.6057,1543.1362,1537.7537,1550.5043,1500.0,1500.0,nan,nan,nan,nan,nan,nan,nan,nan,nan,nan
9284424000,6,1546.4333,1538.9418,1532.653,1546.4106,1500.0,1500.0,nan,nan,nan,nan,nan,nan,nan,nan,nan,nan
9284528000,6,1550.7333,1549.7648,1541.5804,1550.8015,1500.0,1500.0,nan,nan,nan,nan,nan,nan,nan,nan,nan,nan
9284628000,6,1551.2834,1546.3336,1538.5956,1554.8429,1500.0,1500.0,nan,nan,nan,nan,nan,nan,nan,nan,nan,nan
9284724000,6,1559.432,1551.3185,1549.8574,1556.5013,1500.0,1500.0,nan,nan,nan,nan,nan,nan,nan,nan,nan,nan
9284828000,6,1554.951,1549.8745,1544.584,1553.7356,1500.0,1500.0,nan,nan,nan,nan,nan,nan,nan,nan,nan,nan
9284928000,6,1561.632,1555.368,1550.9319,1557.22,1500.0,1500.0,nan,nan,nan,nan,nan,nan,nan,nan,nan,nan
9285028000,6,1564.3724,1555.9473,1554.1263,1562.5,1500.0,1500.0,nan,nan,nan,nan,nan,nan,nan,nan,nan,nan
9285124000,6,1560.7173,1550.4216,1545.4847,1562.3278,1500.0,1500.0,nan,nan,nan,nan,nan,nan,nan,nan,nan,nan
9285228000,6,1567.958,1556.139,1558.1469,1560.0547,1500.0,1500.0,nan,nan,nan,nan,nan,nan,nan,nan,nan,nan
9285328000,6,1566.0583,1557.1611,1556.6714,1562.8435,1500.0,1500.0,nan,nan,nan,nan,nan,nan,nan,nan,nan,nan
9285424000,6,1567.0632,1560.8748,1557.9231,1565.284,1500.0,1500.0,nan,nan,nan,nan,nan,nan,nan,nan,nan,nan
9285524000,6,1569.5146,1558.9735,1558.7333,1567.0808,1500.0,1500.0,nan,nan,nan,nan,nan,nan,nan,nan,nan,nan
9285624000,6,1573.0054,1560.3674,1566.4802,1563.5742,1500.0,1500.0,nan,nan,nan,nan,nan,nan,nan,nan,nan,nan
9285728000,6,1576.0704,1568.3229,1565.3854,1576.4874,1500.0,1500.0,nan,nan,nan,nan,nan,nan,nan,nan,nan,nan
9285828000,6,1577.2943,1565.4874,1567.6063,1572.6835,1500.0,1500.0,nan,nan,nan,nan,nan,nan,nan,nan,nan,nan
9285924000,6,1579.418,1572.0752,1568.9662,1581.4343,1500.0,1500.0,nan,nan,nan,nan,nan,nan,nan,nan,nan,nan
9286024000,6,1581.2426,1573.5548,1572.6013,1578.3636,1500.0,1500.0,nan,nan,nan,nan,nan,nan,nan,nan,nan,nan
9286124000,6,1584.7468,1574.8015,1576.3849,1583.283,1500.0,1500.0,nan,nan,nan,nan,nan,nan,nan,nan,nan,nan
9286224000,6,1582.8538,1573.8081,1572.2335,1580.8544,1500.0,1500.0,nan,nan,nan,nan,nan,nan,nan,nan,nan,nan
9286324000,6,1585.4099,1581.408,1575.5232,1588.2733,1500.0,1500.0,nan,nan,nan,nan,nan,nan,nan,nan,nan,nan
9286424000,6,1587.6925,1574.6445,1577.787,1581.9897,1500.0,1500.0,nan,nan,nan,nan,nan,nan,nan,nan,nan,nan
9286524000,6,1592.3193,1582.306,1580.7145,1591.5151,1500.0,1500.0,nan,nan,nan,nan,nan,nan,nan,nan,nan,nan
9286628000,6,1588.7988,1582.6576,1578.9023,1588.0591,1500.0,1500.0,nan,nan,nan,nan,nan,nan,nan,nan,nan,nan
9286728000,6,1593.783,1581.4849,1581.6951,1589.0718,1500.0,1500.0,nan,nan,nan,nan,nan,nan,nan,nan,nan,nan
9286824000,6,1593.199,1582.1261,1577.8588,1589.5791,1500.0,1500.0,nan,nan,nan,nan,nan,nan,nan,nan,nan,nan
9286924000,6,1593.2167,1585.1688,1583.8036,1590.3655,1500.0,1500.0,nan,nan,nan,nan,nan,nan,nan,nan,nan,nan
9287028000,6,1587.967,1587.2509,1577.5906,1591.9674,1500.0,1500.0,nan,nan,nan,nan,nan,nan,nan,nan,nan,nan
9287124000,6,1594.2888,1585.432,1579.3395,1596.6002,1500.0,1500.0,nan,nan,nan,nan,nan,nan,nan,nan,nan,nan
9287224000,6,1591.8805,1581.5975,1577.5775,1585.3107,1500.0,1500.0,nan,nan,nan,nan,nan,nan,nan,nan,nan,nan
9287328000,6,1594.7516,1587.5035,1582.6921,1596.3395,1500.0,1500.0,nan,nan,nan,nan,nan,nan,nan,nan,nan,nan
9287428000,6,1590.1516,1581.1559,1574.5907,1589.6205,1500.0,1500.0,nan,nan,nan,nan,nan,nan,nan,nan,nan,nan
9287528000,6,1589.1787,1586.8889,1579.2068,1590.7369,1500.0,1500.0,nan,nan,nan,nan,nan,nan,nan,nan,nan,nan
9287624000,6,1588.5201,1584.3284,1577.6213,1588.449,1500.0,1500.0,nan,nan,nan,nan,nan,nan,nan,nan,nan,nan
9287724000,6,1591.6573,1585.3566,1580.373,1592.0637,1500.0,1500.0,nan,nan,nan,nan,nan,nan,nan,nan,nan,nan
9287824000,6,1592.7666,1580.3367,1576.331,1587.9471,1500.0,1500.0,nan,nan,nan,nan,nan,nan,nan,nan,nan,nan
9287924000,6,1593.0226,1588.1008,1576.2826,1597.3284,1500.0,1500.0,nan,nan,nan,nan,nan,nan,nan,nan,nan,nan
9288024000,6,1587.1224,1583.8798,1574.6553,1588.5629,1500.0,1500.0,nan,nan,nan,nan,nan,nan,nan,nan,nan,nan
9288128000,6,1592.6079,1586.1898,1580.2144,1590.9845,1500.0,1500.0,nan,nan,nan,nan,nan,nan,nan,nan,nan,nan
9288228000,6,1585.0616,1580.9504,1573.9379,1590.6722,1500.0,1500.0,nan,nan,nan,nan,nan,nan,nan,nan,nan,nan
9288328000,6,1588.9618,1587.2737,1577.7904,1591.9115,1500.0,1500.0,nan,nan,nan,nan,nan,nan,nan,nan,nan,nan
9288424000,6,1582.9362,1582.0221,1570.5403,1589.7972,1500.0,1500.0,nan,nan,nan,nan,nan,nan,nan,nan,nan,nan
9288524000,6,1591.053,1581.1329,1577.4843,1587.7556,1500.0,1500.0,nan,nan,nan,nan,nan,nan,nan,nan,nan,nan
