timestamp,ref_timestamp,ref_lat,ref_lon,x,y,z,delta_xy[0],delta_xy[1],delta_z,vx,vy,vz,z_deriv,delta_vxy[0],delta_vxy[1],delta_vz,ax,ay,az,yaw,ref_alt,dist_bottom,dist_bottom_rate,eph,epv,evh,evv,vxy_max,vz_max,hagl_min,hagl_max,xy_valid,z_valid,v_xy_valid,v_z_valid,xy_reset_counter,z_reset_counter,vxy_reset_counter,vz_reset_counter,xy_global,z_global,dist_bottom_valid
9232328000,0,47.3977508,8.5456074,0.48925766,0.03763419,0.72598267,0.0,0.0,0.0,0.0,0.0,0.0,0.0,0.0,0.0,0.0,0.0,0.0,0.0,0.42380396,488.83002,0.0,0.0,0.0,0.0,0.0,0.0,inf,inf,inf,inf,1,1,1,1,0,0,0,0,1,1,0
9232428000,0,47.3977508,8.5456074,0.48925766,0.03763419,0.72598267,0.0,0.0,0.0,0.0,0.0,0.0,0.0,0.0,0.0,0.0,0.0,0.0,0.0,0.42380393,488.83002,0.0,0.0,0.0,0.0,0.0,0.0,inf,inf,inf,inf,1,1,1,1,0,0,0,0,1,1,0
9232524000,0,47.3977508,8.5456074,0.48925766,0.03763419,0.72598267,0.0,0.0,0.0,0.0,0.0,0.0,0.0,0.0,0.0,0.0,0.0,0.0,0.0,0.42380384,488.83002,0.0,0.0,0.0,0.0,0.0,0.0,inf,inf,inf,inf,1,1,1,1,0,0,0,0,1,1,0
9232628000,0,47.3977508,8.5456074,0.48925766,0.03763419,0.72598267,0.0,0.0,0.0,0.0,0.0,0.0,0.0,0.0,0.0,0.0,0.0,0.0,0.0,0.42380363,488.83002,0.0,0.0,0.0,0.0,0.0,0.0,inf,inf,inf,inf,1,1,1,1,0,0,0,0,1,1,0
9232728000,0,47.3977508,8.5456074,0.48925766,0.03763419,0.72598267,0.0,0.0,0.0,0.0,0.0,0.0,0.0,0.0,0.0,0.0,0.0,0.0,0.0,0.42380363,488.83002,0.0,0.0,0.0,0.0,0.0,0.0,inf,inf,inf,inf,1,1,1,1,0,0,0,0,1,1,0
9232828000,0,47.3977508,8.5456074,0.48925766,0.03763419,0.72598267,0.0,0.0,0.0,0.0,0.0,0.0,0.0,0.0,0.0,0.0,0.0,0.0,0.0,0.42380357,488.83002,0.0,0.0,0.0,0.0,0.0,0.0,inf,inf,inf,inf,1,1,1,1,0,0,0,0,1,1,0
9232928000,0,47.3977508,8.5456074,0.48925766,0.03763419,0.72598267,0.0,0.0,0.0,0.0,0.0,0.0,0.0,0.0,0.0,0.0,0.0,0.0,0.0,0.4238039,488.83002,0.0,0.0,0.0,0.0,0.0,0.0,inf,inf,inf,inf,1,1,1,1,0,0,0,0,1,1,0
9233024000,0,47.3977508,8.5456074,0.48925766,0.03763419,0.72598267,0.0,0.0,0.0,0.0,0.0,0.0,0.0,0.0,0.0,0.0,0.0,0.0,0.0,0.42380387,488.83002,0.0,0.0,0.0,0.0,0.0,0.0,inf,inf,inf,inf,1,1,1,1,0,0,0,0,1,1,0
9233124000,0,47.3977508,8.5456074,0.48925766,0.03763419,0.72598267,0.0,0.0,0.0,0.0,0.0,0.0,0.0,0.0,0.0,0.0,0.0,0.0,0.0,0.42380384,488.83002,0.0,0.0,0.0,0.0,0.0,0.0,inf,inf,inf,inf,1,1,1,1,0,0,0,0,1,1,0
9233228000,0,47.3977508,8.5456074,0.48925766,0.03763419,0.72598267,0.0,0.0,0.0,0.0,0.0,0.0,0.0,0.0,0.0,0.0,0.0,0.0,0.0,0.42380375,488.83002,0.0,0.0,0.0,0.0,0.0,0.0,inf,inf,inf,inf,1,1,1,1,0,0,0,0,1,1,0
9233328000,0,47.3977508,8.5456074,0.48925766,0.03763419,0.72598267,0.0,0.0,0.0,0.0,0.0,0.0,0.0,0.0,0.0,0.0,0.0,0.0,0.0,0.4238037,488.83002,0.0,0.0,0.0,0.0,0.0,0.0,inf,inf,inf,inf,1,1,1,1,0,0,0,0,1,1,0
9233428000,0,47.3977508,8.5456074,0.48925766,0.03763419,0.72598267,0.0,0.0,0.0,0.0,0.0,0.0,0.0,0.0,0.0,0.0,0.0,0.0,0.0,0.42380396,488.83002,0.0,0.0,0.0,0.0,0.0,0.0,inf,inf,inf,inf,1,1,1,1,0,0,0,0,1,1,0
9233528000,0,47.3977508,8.5456074,0.48925766,0.03763419,0.72598267,0.0,0.0,0.0,0.0,0.0,0.0,0.0,0.0,0.0,0.0,0.0,0.0,0.0,0.42380396,488.83002,0.0,0.0,0.0,0.0,0.0,0.0,inf,inf,inf,inf,1,1,1,1,0,0,0,0,1,1,0
9233628000,0,47.3977508,8.5456074,0.48925766,0.03763419,0.72598267,0.0,0.0,0.0,0.0,0.0,0.0,0.0,0.0,0.0,0.0,0.0,0.0,0.0,0.42380396,488.83002,0.0,0.0,0.0,0.0,0.0,0.0,inf,inf,inf,inf,1,1,1,1,0,0,0,0,1,1,0
9233728000,0,47.3977508,8.5456074,0.48925766,0.03763419,0.72598267,0.0,0.0,0.0,0.0,0.0,0.0,0.0,0.0,0.0,0.0,0.0,0.0,0.0,0.42380396,488.83002,0.0,0.0,0.0,0.0,0.0,0.0,inf,inf,inf,inf,1,1,1,1,0,0,0,0,1,1,0
9233828000,0,47.3977508,8.5456074,0.48925766,0.03763419,0.72598267,0.0,0.0,0.0,0.0,0.0,0.0,0.0,0.0,0.0,0.0,0.0,0.0,0.0,0.42380393,488.83002,0.0,0.0,0.0,0.0,0.0,0.0,inf,inf,inf,inf,1,1,1,1,0,0,0,0,1,1,0
9233928000,0,47.3977508,8.5456074,0.48925766,0.03763419,0.72598267,0.0,0.0,0.0,0.0,0.0,0.0,0.0,0.0,0.0,0.0,0.0,0.0,0.0,0.42380393,488.83002,0.0,0.0,0.0,0.0,0.0,0.0,inf,inf,inf,inf,1,1,1,1,0,0,0,0,1,1,0
9234028000,0,47.3977508,8.5456074,0.48925766,0.03763419,0.72598267,0.0,0.0,0.0,0.0,0.0,0.0,0.0,0.0,0.0,0.0,0.0,0.0,0.0,0.42380393,488.83002,0.0,0.0,0.0,0.0,0.0,0.0,inf,inf,inf,inf,1,1,1,1,0,0,0,0,1,1,0
9234128000,0,47.3977508,8.5456074,0.48925766,0.03763419,0.7250061,0.0,0.0,0.0,0.0,0.0,-0.03,0.0,0.0,0.0,0.0,0.0,0.0,0.0,0.4238237,488.83002,0.0,0.0,0.0,0.0,0.0,0.0,inf,inf,inf,inf,1,1,1,1,0,0,0,0,1,1,0
9234228000,0,47.3977508,8.5456074,0.48925766,0.03763419,0.71398926,0.0,0.0,0.0,0.0,0.01,-0.17,0.0,0.0,0.0,0.0,0.0,0.0,0.0,0.4239488,488.83002,0.0,0.0,0.0,0.0,0.0,0.0,inf,inf,inf,inf,1,1,1,1,0,0,0,0,1,1,0
9234328000,0,47.3977508,8.5456074,0.48925766,0.03763419,0.690979,0.0,0.0,0.0,0.0,0.03,-0.29999998,0.0,0.0,0.0,0.0,0.0,0.0,0.0,0.4242542,488.83002,0.0,0.0,0.0,0.0,0.0,0.0,inf,inf,inf,inf,1,1,1,1,0,0,0,0,1,1,0
9234428000,0,47.3977508,8.5456074,0.48925766,0.045161027,0.65200806,0.0,0.0,0.0,0.01,0.04,-0.42999998,0.0,0.0,0.0,0.0,0.0,0.0,0.0,0.42444664,488.83002,0.0,0.0,0.0,0.0,0.0,0.0,inf,inf,inf,inf,1,1,1,1,0,0,0,0,1,1,0
9234528000,0,47.3977508,8.5456074,0.48925766,0.045161027,0.60198975,0.0,0.0,0.0,0.01,0.04,-0.56,0.0,0.0,0.0,0.0,0.0,0.0,0.0,0.42461455,488.83002,0.0,0.0,0.0,0.0,0.0,0.0,inf,inf,inf,inf,1,1,1,1,0,0,0,0,1,1,0
9234628000,0,47.3977508,8.5456074,0.5003772,0.052687865,0.5379944,0.0,0.0,0.0,0.01,0.04,-0.69,0.0,0.0,0.0,0.0,0.0,0.0,0.0,0.42474973,488.83002,0.0,0.0,0.0,0.0,0.0,0.0,inf,inf,inf,inf,1,1,1,1,0,0,0,0,1,1,0
9234728000,0,47.3977508,8.5456074,0.5003772,0.060214706,0.46099854,0.0,0.0,0.0,0.01,0.04,-0.83,0.0,0.0,0.0,0.0,0.0,0.0,0.0,0.42478862,488.83002,0.0,0.0,0.0,0.0,0.0,0.0,inf,inf,inf,inf,1,1,1,1,0,0,0,0,1,1,0
9234828000,0,47.3977508,8.5456074,0.5003772,0.060214706,0.3710022,0.0,0.0,0.0,0.01,0.03,-0.96,0.0,0.0,0.0,0.0,0.0,0.0,0.0,0.4248854,488.83002,0.0,0.0,0.0,0.0,0.0,0.0,inf,inf,inf,inf,1,1,1,1,0,0,0,0,1,1,0
9234928000,0,47.3977508,8.5456074,0.5003772,0.06774154,0.26800537,0.0,0.0,0.0,0.0,0.03,-1.09,0.0,0.0,0.0,0.0,0.0,0.0,0.0,0.4249722,488.83002,0.0,0.0,0.0,0.0,0.0,0.0,inf,inf,inf,inf,1,1,1,1,0,0,0,0,1,1,0
9235028000,0,47.3977508,8.5456074,0.5003772,0.06774154,0.15600586,0.0,0.0,0.0,0.0,0.02,-1.22,0.0,0.0,0.0,0.0,0.0,0.0,0.0,0.42504367,488.83002,0.0,0.0,0.0,0.0,0.0,0.0,inf,inf,inf,inf,1,1,1,1,0,0,0,0,1,1,0
9235128000,0,47.3977508,8.5456074,0.5003772,0.06774154,0.022003174,0.0,0.0,0.0,0.0,0.02,-1.35,0.0,0.0,0.0,0.0,0.0,0.0,0.0,0.42503744,488.83002,0.0,0.0,0.0,0.0,0.0,0.0,inf,inf,inf,inf,1,1,1,1,0,0,0,0,1,1,0
9235228000,0,47.3977508,8.5456074,0.5003772,0.07526838,-0.11401367,0.0,0.0,0.0,0.0,0.02,-1.48,0.0,0.0,0.0,0.0,0.0,0.0,0.0,0.42507797,488.83002,0.0,0.0,0.0,0.0,0.0,0.0,inf,inf,inf,inf,1,1,1,1,0,0,0,0,1,1,0
9235328000,0,47.3977508,8.5456074,0.5003772,0.07526838,-0.27600098,0.0,0.0,0.0,0.0,0.01,-1.61,0.0,0.0,0.0,0.0,0.0,0.0,0.0,0.42505458,488.83002,0.0,0.0,0.0,0.0,0.0,0.0,inf,inf,inf,inf,1,1,1,1,0,0,0,0,1,1,0
9235428000,0,47.3977508,8.5456074,0.5003772,0.07526838,-0.44400024,0.0,0.0,0.0,0.0,0.0,-1.74,0.0,0.0,0.0,0.0,0.0,0.0,0.0,0.42504632,488.83002,0.0,0.0,0.0,0.0,0.0,0.0,inf,inf,inf,inf,1,1,1,1,0,0,0,0,1,1,0
9235528000,0,47.3977508,8.5456074,0.5003772,0.07526838,-0.6260071,0.0,0.0,0.0,0.0,0.0,-1.87,0.0,0.0,0.0,0.0,0.0,0.0,0.0,0.42514178,488.83002,0.0,0.0,0.0,0.0,0.0,0.0,inf,inf,inf,inf,1,1,1,1,0,0,0,0,1,1,0
9235628000,0,47.3977508,8.5456074,0.5003772,0.07526838,-0.8200073,0.0,0.0,0.0,0.0,0.0,-2.0,0.0,0.0,0.0,0.0,0.0,0.0,0.0,0.42507118,488.83002,0.0,0.0,0.0,0.0,0.0,0.0,inf,inf,inf,inf,1,1,1,1,0,0,0,0,1,1,0
9235728000,0,47.3977508,8.5456074,0.5003772,0.07526838,-1.027008,0.0,0.0,0.0,0.0,0.0,-2.1299999,0.0,0.0,0.0,0.0,0.0,0.0,0.0,0.4249747,488.83002,0.0,0.0,0.0,0.0,0.0,0.0,inf,inf,inf,inf,1,1,1,1,0,0,0,0,1,1,0
9235824000,0,47.3977508,8.5456074,0.5003772,0.07526838,-1.2380066,0.0,0.0,0.0,0.0,0.0,-2.25,0.0,0.0,0.0,0.0,0.0,0.0,0.0,0.4250022,488.83002,0.0,0.0,0.0,0.0,0.0,0.0,inf,inf,inf,inf,1,1,1,1,0,0,0,0,1,1,0
9235928000,0,47.3977508,8.5456074,0.5003772,0.07526838,-1.4700012,0.0,0.0,0.0,-0.01,-0.01,-2.3799999,0.0,0.0,0.0,0.0,0.0,0.0,0.0,0.42526025,488.83002,0.0,0.0,0.0,0.0,0.0,0.0,inf,inf,inf,inf,1,1,1,1,0,0,0,0,1,1,0
9236028000,0,47.3977508,8.5456074,0.5003772,0.07526838,-1.7250061,0.0,0.0,0.0,-0.01,-0.01,-2.51,0.0,0.0,0.0,0.0,0.0,0.0,0.0,0.42550215,488.83002,0.0,0.0,0.0,0.0,0.0,0.0,inf,inf,inf,inf,1,1,1,1,0,0,0,0,1,1,0
9236128000,0,47.3977508,8.5456074,0.48925766,0.07526838,-1.9779968,0.0,0.0,0.0,-0.01,-0.01,-2.49,0.0,0.0,0.0,0.0,0.0,0.0,0.0,0.42556217,488.83002,0.0,0.0,0.0,0.0,0.0,0.0,inf,inf,inf,inf,1,1,1,1,0,0,0,0,1,1,0
9236228000,0,47.3977508,8.5456074,0.48925766,0.06774154,-2.2189941,0.0,0.0,0.0,-0.01,-0.01,-2.33,0.0,0.0,0.0,0.0,0.0,0.0,0.0,0.42558923,488.83002,0.0,0.0,0.0,0.0,0.0,0.0,inf,inf,inf,inf,1,1,1,1,0,0,0,0,1,1,0
9236328000,0,47.3977508,8.5456074,0.48925766,0.06774154,-2.447998,0.0,0.0,0.0,-0.01,-0.02,-2.26,0.0,0.0,0.0,0.0,0.0,0.0,0.0,0.42564026,488.83002,0.0,0.0,0.0,0.0,0.0,0.0,inf,inf,inf,inf,1,1,1,1,0,0,0,0,1,1,0
9236428000,0,47.3977508,8.5456074,0.48925766,0.06774154,-2.6700134,0.0,0.0,0.0,-0.01,-0.02,-2.18,0.0,0.0,0.0,0.0,0.0,0.0,0.0,0.42563024,488.83002,0.0,0.0,0.0,0.0,0.0,0.0,inf,inf,inf,inf,1,1,1,1,0,0,0,0,1,1,0
9236528000,0,47.3977508,8.5456074,0.48925766,0.060214706,-2.8850098,0.0,0.0,0.0,-0.01,-0.02,-2.11,0.0,0.0,0.0,0.0,0.0,0.0,0.0,0.42559317,488.83002,0.0,0.0,0.0,0.0,0.0,0.0,inf,inf,inf,inf,1,1,1,1,0,0,0,0,1,1,0
9236624000,0,47.3977508,8.5456074,0.48925766,0.060214706,-3.0769958,0.0,0.0,0.0,-0.01,-0.03,-2.04,0.0,0.0,0.0,0.0,0.0,0.0,0.0,0.42554188,488.83002,0.0,0.0,0.0,0.0,0.0,0.0,inf,inf,inf,inf,1,1,1,1,0,0,0,0,1,1,0
9236728000,0,47.3977508,8.5456074,0.48925766,0.060214706,-3.2870178,0.0,0.0,0.0,-0.01,-0.03,-1.9799999,0.0,0.0,0.0,0.0,0.0,0.0,0.0,0.42540473,488.83002,0.0,0.0,0.0,0.0,0.0,0.0,inf,inf,inf,inf,1,1,1,1,0,0,0,0,1,1,0
9236828000,0,47.3977508,8.5456074,0.48925766,0.052687865,-3.4900208,0.0,0.0,0.0,-0.01,-0.03,-1.93,0.0,0.0,0.0,0.0,0.0,0.0,0.0,0.42522556,488.83002,0.0,0.0,0.0,0.0,0.0,0.0,inf,inf,inf,inf,1,1,1,1,0,0,0,0,1,1,0
9236928000,0,47.3977508,8.5456074,0.47813818,0.052687865,-3.6809998,0.0,0.0,0.0,-0.01,-0.03,-1.88,0.0,0.0,0.0,0.0,0.0,0.0,0.0,0.42513505,488.83002,0.0,0.0,0.0,0.0,0.0,0.0,inf,inf,inf,inf,1,1,1,1,0,0,0,0,1,1,0
9237028000,0,47.3977508,8.5456074,0.47813818,0.045161027,-3.8600159,0.0,0.0,0.0,-0.01,-0.04,-1.8299999,0.0,0.0,0.0,0.0,0.0,0.0,0.0,0.42513385,488.83002,0.0,0.0,0.0,0.0,0.0,0.0,inf,inf,inf,inf,1,1,1,1,0,0,0,0,1,1,0
9237128000,0,47.3977508,8.5456074,0.47813818,0.045161027,-4.049011,0.0,0.0,0.0,-0.01,-0.04,-1.8,0.0,0.0,0.0,0.0,0.0,0.0,0.0,0.42515507,488.83002,0.0,0.0,0.0,0.0,0.0,0.0,inf,inf,inf,inf,1,1,1,1,0,0,0,0,1,1,0
9237228000,0,47.3977508,8.5456074,0.47813818,0.03763419,-4.2270203,0.0,0.0,0.0,-0.02,-0.04,-1.76,0.0,0.0,0.0,0.0,0.0,0.0,0.0,0.42497545,488.83002,0.0,0.0,0.0,0.0,0.0,0.0,inf,inf,inf,inf,1,1,1,1,0,0,0,0,1,1,0
9237328000,0,47.3977508,8.5456074,0.47813818,0.030107353,-4.402008,0.0,0.0,0.0,-0.02,-0.04,-1.73,0.0,0.0,0.0,0.0,0.0,0.0,0.0,0.424595,488.83002,0.0,0.0,0.0,0.0,0.0,0.0,inf,inf,inf,inf,1,1,1,1,0,0,0,0,1,1,0
9237428000,0,47.3977508,8.5456074,0.4670187,0.030107353,-4.575012,0.0,0.0,0.0,-0.02,-0.04,-1.7099999,0.0,0.0,0.0,0.0,0.0,0.0,0.0,0.42417052,488.83002,0.0,0.0,0.0,0.0,0.0,0.0,inf,inf,inf,inf,1,1,1,1,0,0,0,0,1,1,0
9237528000,0,47.3977508,8.5456074,0.4670187,0.022580514,-4.744995,0.0,0.0,0.0,-0.02,-0.049999997,-1.68,0.0,0.0,0.0,0.0,0.0,0.0,0.0,0.4238017,488.83002,0.0,0.0,0.0,0.0,0.0,0.0,inf,inf,inf,inf,1,1,1,1,0,0,0,0,1,1,0
9237624000,0,47.3977508,8.5456074,0.4670187,0.015053676,-4.906006,0.0,0.0,0.0,-0.02,-0.049999997,-1.66,0.0,0.0,0.0,0.0,0.0,0.0,0.0,0.4235757,488.83002,0.0,0.0,0.0,0.0,0.0,0.0,inf,inf,inf,inf,1,1,1,1,0,0,0,0,1,1,0
9237728000,0,47.3977508,8.5456074,0.4670187,0.015053676,-5.0710144,0.0,0.0,0.0,-0.02,-0.049999997,-1.64,0.0,0.0,0.0,0.0,0.0,0.0,0.0,0.42335826,488.83002,0.0,0.0,0.0,0.0,0.0,0.0,inf,inf,inf,inf,1,1,1,1,0,0,0,0,1,1,0
9237828000,0,47.3977508,8.5456074,0.4670187,0.007526838,-5.2420044,0.0,0.0,0.0,-0.02,-0.049999997,-1.63,0.0,0.0,0.0,0.0,0.0,0.0,0.0,0.42324647,488.83002,0.0,0.0,0.0,0.0,0.0,0.0,inf,inf,inf,inf,1,1,1,1,0,0,0,0,1,1,0
9237928000,0,47.3977508,8.5456074,0.4558992,0.0,-5.3980103,0.0,0.0,0.0,-0.02,-0.049999997,-1.62,0.0,0.0,0.0,0.0,0.0,0.0,0.0,0.42306295,488.83002,0.0,0.0,0.0,0.0,0.0,0.0,inf,inf,inf,inf,1,1,1,1,0,0,0,0,1,1,0
9238028000,0,47.3977508,8.5456074,0.4558992,0.0,-5.5660095,0.0,0.0,0.0,-0.02,-0.049999997,-1.5999999,0.0,0.0,0.0,0.0,0.0,0.0,0.0,0.42287084,488.83002,0.0,0.0,0.0,0.0,0.0,0.0,inf,inf,inf,inf,1,1,1,1,0,0,0,0,1,1,0
9238128000,0,47.3977508,8.5456074,0.4558992,-0.007526838,-5.726013,0.0,0.0,0.0,-0.02,-0.049999997,-1.5899999,0.0,0.0,0.0,0.0,0.0,0.0,0.0,0.4226642,488.83002,0.0,0.0,0.0,0.0,0.0,0.0,inf,inf,inf,inf,1,1,1,1,0,0,0,0,1,1,0
9238224000,0,47.3977508,8.5456074,0.4558992,-0.015053676,-5.878998,0.0,0.0,0.0,-0.02,-0.049999997,-1.5699999,0.0,0.0,0.0,0.0,0.0,0.0,0.0,0.42254987,488.83002,0.0,0.0,0.0,0.0,0.0,0.0,inf,inf,inf,inf,1,1,1,1,0,0,0,0,1,1,0
9238328000,0,47.3977508,8.5456074,0.4558992,-0.022580514,-6.0360107,0.0,0.0,0.0,-0.02,-0.049999997,-1.56,0.0,0.0,0.0,0.0,0.0,0.0,0.0,0.4224425,488.83002,0.0,0.0,0.0,0.0,0.0,0.0,inf,inf,inf,inf,1,1,1,1,0,0,0,0,1,1,0
9238428000,0,47.3977508,8.5456074,0.4447797,-0.022580514,-6.1920166,0.0,0.0,0.0,-0.02,-0.049999997,-1.55,0.0,0.0,0.0,0.0,0.0,0.0,0.0,0.4223238,488.83002,0.0,0.0,0.0,0.0,0.0,0.0,inf,inf,inf,inf,1,1,1,1,0,0,0,0,1,1,0
9238528000,0,47.3977508,8.5456074,0.4447797,-0.030107353,-6.352997,0.0,0.0,0.0,-0.02,-0.04,-1.54,0.0,0.0,0.0,0.0,0.0,0.0,0.0,0.42213657,488.83002,0.0,0.0,0.0,0.0,0.0,0.0,inf,inf,inf,inf,1,1,1,1,0,0,0,0,1,1,0
9238628000,0,47.3977508,8.5456074,0.4447797,-0.03763419,-6.507019,0.0,0.0,0.0,-0.01,-0.04,-1.53,0.0,0.0,0.0,0.0,0.0,0.0,0.0,0.42194888,488.83002,0.0,0.0,0.0,0.0,0.0,0.0,inf,inf,inf,inf,1,1,1,1,0,0,0,0,1,1,0
9238724000,0,47.3977508,8.5456074,0.4447797,-0.03763419,-6.653015,0.0,0.0,0.0,-0.01,-0.04,-1.52,0.0,0.0,0.0,0.0,0.0,0.0,0.0,0.42178693,488.83002,0.0,0.0,0.0,0.0,0.0,0.0,inf,inf,inf,inf,1,1,1,1,0,0,0,0,1,1,0
9238828000,0,47.3977508,8.5456074,0.4447797,-0.045161027,-6.8120117,0.0,0.0,0.0,-0.01,-0.04,-1.52,0.0,0.0,0.0,0.0,0.0,0.0,0.0,0.42168337,488.83002,0.0,0.0,0.0,0.0,0.0,0.0,inf,inf,inf,inf,1,1,1,1,0,0,0,0,1,1,0
9238928000,0,47.3977508,8.5456074,0.4447797,-0.045161027,-6.96402,0.0,0.0,0.0,-0.01,-0.04,-1.51,0.0,0.0,0.0,0.0,0.0,0.0,0.0,0.42167538,488.83002,0.0,0.0,0.0,0.0,0.0,0.0,inf,inf,inf,inf,1,1,1,1,0,0,0,0,1,1,0
9239024000,0,47.3977508,8.5456074,0.4336602,-0.05268787,-7.110016,0.0,0.0,0.0,-0.01,-0.03,-1.51,0.0,0.0,0.0,0.0,0.0,0.0,0.0,0.4217379,488.83002,0.0,0.0,0.0,0.0,0.0,0.0,inf,inf,inf,inf,1,1,1,1,0,0,0,0,1,1,0
9239124000,0,47.3977508,8.5456074,0.4336602,-0.05268787,-7.2619934,0.0,0.0,0.0,-0.01,-0.03,-1.51,0.0,0.0,0.0,0.0,0.0,0.0,0.0,0.4218252,488.83002,0.0,0.0,0.0,0.0,0.0,0.0,inf,inf,inf,inf,1,1,1,1,0,0,0,0,1,1,0
9239228000,0,47.3977508,8.5456074,0.4336602,-0.060214706,-7.4190063,0.0,0.0,0.0,-0.01,-0.03,-1.51,0.0,0.0,0.0,0.0,0.0,0.0,0.0,0.42177418,488.83002,0.0,0.0,0.0,0.0,0.0,0.0,inf,inf,inf,inf,1,1,1,1,0,0,0,0,1,1,0
9239328000,0,47.3977508,8.5456074,0.4336602,-0.060214706,-7.5700073,0.0,0.0,0.0,-0.01,-0.03,-1.51,0.0,0.0,0.0,0.0,0.0,0.0,0.0,0.4217023,488.83002,0.0,0.0,0.0,0.0,0.0,0.0,inf,inf,inf,inf,1,1,1,1,0,0,0,0,1,1,0
9239428000,0,47.3977508,8.5456074,0.4336602,-0.06774154,-7.7160034,0.0,0.0,0.0,-0.01,-0.03,-1.51,0.0,0.0,0.0,0.0,0.0,0.0,0.0,0.4216745,488.83002,0.0,0.0,0.0,0.0,0.0,0.0,inf,inf,inf,inf,1,1,1,1,0,0,0,0,1,1,0
9239528000,0,47.3977508,8.5456074,0.4336602,-0.06774154,-7.8730164,0.0,0.0,0.0,0.0,-0.02,-1.51,0.0,0.0,0.0,0.0,0.0,0.0,0.0,0.4216591,488.83002,0.0,0.0,0.0,0.0,0.0,0.0,inf,inf,inf,inf,1,1,1,1,0,0,0,0,1,1,0
9239628000,0,47.3977508,8.5456074,0.4336602,-0.07526838,-8.024017,0.0,0.0,0.0,0.0,-0.02,-1.51,0.0,0.0,0.0,0.0,0.0,0.0,0.0,0.42162743,488.83002,0.0,0.0,0.0,0.0,0.0,0.0,inf,inf,inf,inf,1,1,1,1,0,0,0,0,1,1,0
9239728000,0,47.3977508,8.5456074,0.4336602,-0.07526838,-8.175018,0.0,0.0,0.0,0.0,-0.02,-1.51,0.0,0.0,0.0,0.0,0.0,0.0,0.0,0.42161325,488.83002,0.0,0.0,0.0,0.0,0.0,0.0,inf,inf,inf,inf,1,1,1,1,0,0,0,0,1,1,0
9239824000,0,47.3977508,8.5456074,0.4336602,-0.07526838,-8.321014,0.0,0.0,0.0,0.0,-0.02,-1.51,0.0,0.0,0.0,0.0,0.0,0.0,0.0,0.42151746,488.83002,0.0,0.0,0.0,0.0,0.0,0.0,inf,inf,inf,inf,1,1,1,1,0,0,0,0,1,1,0
9239928000,0,47.3977508,8.5456074,0.4336602,-0.07526838,-8.477997,0.0,0.0,0.0,0.0,-0.02,-1.51,0.0,0.0,0.0,0.0,0.0,0.0,0.0,0.4214837,488.83002,0.0,0.0,0.0,0.0,0.0,0.0,inf,inf,inf,inf,1,1,1,1,0,0,0,0,1,1,0
9240024000,0,47.3977508,8.5456074,0.4336602,-0.08279522,-8.618011,0.0,0.0,0.0,0.0,-0.02,-1.51,0.0,0.0,0.0,0.0,0.0,0.0,0.0,0.42154253,488.83002,0.0,0.0,0.0,0.0,0.0,0.0,inf,inf,inf,inf,1,1,1,1,0,0,0,0,1,1,0
9240128000,0,47.3977508,8.5456074,0.4336602,-0.08279522,-8.782013,0.0,0.0,0.0,0.0,-0.01,-1.51,0.0,0.0,0.0,0.0,0.0,0.0,0.0,0.42149243,488.83002,0.0,0.0,0.0,0.0,0.0,0.0,inf,inf,inf,inf,1,1,1,1,0,0,0,0,1,1,0
9240228000,0,47.3977508,8.5456074,0.42254072,-0.08279522,-8.933014,0.0,0.0,0.0,0.0,-0.01,-1.51,0.0,0.0,0.0,0.0,0.0,0.0,0.0,0.42140985,488.83002,0.0,0.0,0.0,0.0,0.0,0.0,inf,inf,inf,inf,1,1,1,1,0,0,0,0,1,1,0
9240324000,0,47.3977508,8.5456074,0.42254072,-0.08279522,-9.07901,0.0,0.0,0.0,0.0,-0.01,-1.51,0.0,0.0,0.0,0.0,0.0,0.0,0.0,0.42139086,488.83002,0.0,0.0,0.0,0.0,0.0,0.0,inf,inf,inf,inf,1,1,1,1,0,0,0,0,1,1,0
9240424000,0,47.3977508,8.5456074,0.42254072,-0.090322055,-9.230011,0.0,0.0,0.0,0.0,-0.01,-1.51,0.0,0.0,0.0,0.0,0.0,0.0,0.0,0.42139572,488.83002,0.0,0.0,0.0,0.0,0.0,0.0,inf,inf,inf,inf,1,1,1,1,0,0,0,0,1,1,0
9240528000,0,47.3977508,8.5456074,0.42254072,-0.090322055,-9.381012,0.0,0.0,0.0,0.0,-0.01,-1.51,0.0,0.0,0.0,0.0,0.0,0.0,0.0,0.42134026,488.83002,0.0,0.0,0.0,0.0,0.0,0.0,inf,inf,inf,inf,1,1,1,1,0,0,0,0,1,1,0
9240628000,0,47.3977508,8.5456074,0.42254072,-0.090322055,-9.539001,0.0,0.0,0.0,0.0,0.0,-1.51,0.0,0.0,0.0,0.0,0.0,0.0,0.0,0.4212655,488.83002,0.0,0.0,0.0,0.0,0.0,0.0,inf,inf,inf,inf,1,1,1,1,0,0,0,0,1,1,0
9240728000,0,47.3977508,8.5456074,0.42254072,-0.090322055,-9.684998,0.0,0.0,0.0,0.0,0.0,-1.53,0.0,0.0,0.0,0.0,0.0,0.0,0.0,0.42124435,488.83002,0.0,0.0,0.0,0.0,0.0,0.0,inf,inf,inf,inf,1,1,1,1,0,0,0,0,1,1,0
9240828000,0,47.3977508,8.5456074,0.4336602,-0.090322055,-9.841003,0.0,0.0,0.0,0.0,0.0,-1.4499999,0.0,0.0,0.0,0.0,0.0,0.0,0.0,0.42132384,488.83002,0.0,0.0,0.0,0.0,0.0,0.0,inf,inf,inf,inf,1,1,1,1,0,0,0,0,1,1,0
9240928000,0,47.3977508,8.5456074,0.4336602,-0.090322055,-9.977997,0.0,0.0,0.0,0.0,0.0,-1.39,0.0,0.0,0.0,0.0,0.0,0.0,0.0,0.42146397,488.83002,0.0,0.0,0.0,0.0,0.0,0.0,inf,inf,inf,inf,1,1,1,1,0,0,0,0,1,1,0
9241028000,0,47.3977508,8.5456074,0.4336602,-0.090322055,-10.121002,0.0,0.0,0.0,0.01,0.0,-1.35,0.0,0.0,0.0,0.0,0.0,0.0,0.0,0.42155102,488.83002,0.0,0.0,0.0,0.0,0.0,0.0,inf,inf,inf,inf,1,1,1,1,0,0,0,0,1,1,0
9241128000,0,47.3977508,8.5456074,0.4336602,-0.090322055,-10.248993,0.0,0.0,0.0,0.01,0.0,-1.3,0.0,0.0,0.0,0.0,0.0,0.0,0.0,0.42153966,488.83002,0.0,0.0,0.0,0.0,0.0,0.0,inf,inf,inf,inf,1,1,1,1,0,0,0,0,1,1,0
9241228000,0,47.3977508,8.5456074,0.4336602,-0.090322055,-10.382019,0.0,0.0,0.0,0.01,0.0,-1.26,0.0,0.0,0.0,0.0,0.0,0.0,0.0,0.42157242,488.83002,0.0,0.0,0.0,0.0,0.0,0.0,inf,inf,inf,inf,1,1,1,1,0,0,0,0,1,1,0
9241328000,0,47.3977508,8.5456074,0.4336602,-0.09784889,-10.506012,0.0,0.0,0.0,0.01,0.0,-1.2099999,0.0,0.0,0.0,0.0,0.0,0.0,0.0,0.42147464,488.83002,0.0,0.0,0.0,0.0,0.0,0.0,inf,inf,inf,inf,1,1,1,1,0,0,0,0,1,1,0
9241428000,0,47.3977508,8.5456074,0.4336602,-0.09784889,-10.626007,0.0,0.0,0.0,0.01,0.0,-1.17,0.0,0.0,0.0,0.0,0.0,0.0,0.0,0.42137894,488.83002,0.0,0.0,0.0,0.0,0.0,0.0,inf,inf,inf,inf,1,1,1,1,0,0,0,0,1,1,0
9241528000,0,47.3977508,8.5456074,0.4336602,-0.09784889,-10.740021,0.0,0.0,0.0,0.01,0.0,-1.12,0.0,0.0,0.0,0.0,0.0,0.0,0.0,0.42133173,488.83002,0.0,0.0,0.0,0.0,0.0,0.0,inf,inf,inf,inf,1,1,1,1,0,0,0,0,1,1,0
9241628000,0,47.3977508,8.5456074,0.4336602,-0.09784889,-10.851013,0.0,0.0,0.0,0.01,0.0,-1.0799999,0.0,0.0,0.0,0.0,0.0,0.0,0.0,0.42136258,488.83002,0.0,0.0,0.0,0.0,0.0,0.0,inf,inf,inf,inf,1,1,1,1,0,0,0,0,1,1,0
9241728000,0,47.3977508,8.5456074,0.4336602,-0.09784889,-10.957001,0.0,0.0,0.0,0.01,0.0,-1.04,0.0,0.0,0.0,0.0,0.0,0.0,0.0,0.4213857,488.83002,0.0,0.0,0.0,0.0,0.0,0.0,inf,inf,inf,inf,1,1,1,1,0,0,0,0,1,1,0
9241824000,0,47.3977508,8.5456074,0.4447797,-0.09784889,-11.057007,0.0,0.0,0.0,0.01,0.0,-1.01,0.0,0.0,0.0,0.0,0.0,0.0,0.0,0.4213557,488.83002,0.0,0.0,0.0,0.0,0.0,0.0,inf,inf,inf,inf,1,1,1,1,0,0,0,0,1,1,0
9241928000,0,47.3977508,8.5456074,0.4447797,-0.09784889,-11.161011,0.0,0.0,0.0,0.0,0.0,-0.97999996,0.0,0.0,0.0,0.0,0.0,0.0,0.0,0.42134383,488.83002,0.0,0.0,0.0,0.0,0.0,0.0,inf,inf,inf,inf,1,1,1,1,0,0,0,0,1,1,0
9242028000,0,47.3977508,8.5456074,0.4447797,-0.09784889,-11.257996,0.0,0.0,0.0,0.0,0.0,-0.95,0.0,0.0,0.0,0.0,0.0,0.0,0.0,0.4213689,488.83002,0.0,0.0,0.0,0.0,0.0,0.0,inf,inf,inf,inf,1,1,1,1,0,0,0,0,1,1,0
9242128000,0,47.3977508,8.5456074,0.4447797,-0.09784889,-11.35202,0.0,0.0,0.0,0.0,0.0,-0.91999996,0.0,0.0,0.0,0.0,0.0,0.0,0.0,0.42141306,488.83002,0.0,0.0,0.0,0.0,0.0,0.0,inf,inf,inf,inf,1,1,1,1,0,0,0,0,1,1,0
9242228000,0,47.3977508,8.5456074,0.4447797,-0.09784889,-11.442993,0.0,0.0,0.0,0.0,0.0,-0.89,0.0,0.0,0.0,0.0,0.0,0.0,0.0,0.42148727,488.83002,0.0,0.0,0.0,0.0,0.0,0.0,inf,inf,inf,inf,1,1,1,1,0,0,0,0,1,1,0
9242328000,0,47.3977508,8.5456074,0.4447797,-0.09784889,-11.532013,0.0,0.0,0.0,0.0,0.0,-0.87,0.0,0.0,0.0,0.0,0.0,0.0,0.0,0.42153525,488.83002,0.0,0.0,0.0,0.0,0.0,0.0,inf,inf,inf,inf,1,1,1,1,0,0,0,0,1,1,0
9242424000,0,47.3977508,8.5456074,0.4447797,-0.09784889,-11.614014,0.0,0.0,0.0,0.0,0.0,-0.84,0.0,0.0,0.0,0.0,0.0,0.0,0.0,0.42157516,488.83002,0.0,0.0,0.0,0.0,0.0,0.0,inf,inf,inf,inf,1,1,1,1,0,0,0,0,1,1,0
9242528000,0,47.3977508,8.5456074,0.4447797,-0.09784889,-11.701019,0.0,0.0,0.0,0.0,0.0,-0.81,0.0,0.0,0.0,0.0,0.0,0.0,0.0,0.42157453,488.83002,0.0,0.0,0.0,0.0,0.0,0.0,inf,inf,inf,inf,1,1,1,1,0,0,0,0,1,1,0
9242628000,0,47.3977508,8.5456074,0.4447797,-0.09784889,-11.782013,0.0,0.0,0.0,0.0,0.0,-0.78999996,0.0,0.0,0.0,0.0,0.0,0.0,0.0,0.42157644,488.83002,0.0,0.0,0.0,0.0,0.0,0.0,inf,inf,inf,inf,1,1,1,1,0,0,0,0,1,1,0
9242728000,0,47.3977508,8.5456074,0.4447797,-0.09784889,-11.860992,0.0,0.0,0.0,-0.01,0.0,-0.78,0.0,0.0,0.0,0.0,0.0,0.0,0.0,0.4215088,488.83002,0.0,0.0,0.0,0.0,0.0,0.0,inf,inf,inf,inf,1,1,1,1,0,0,0,0,1,1,0
9242824000,0,47.3977508,8.5456074,0.4447797,-0.09784889,-11.934998,0.0,0.0,0.0,-0.01,0.0,-0.76,0.0,0.0,0.0,0.0,0.0,0.0,0.0,0.42147338,488.83002,0.0,0.0,0.0,0.0,0.0,0.0,inf,inf,inf,inf,1,1,1,1,0,0,0,0,1,1,0
9242928000,0,47.3977508,8.5456074,0.4336602,-0.09784889,-12.0130005,0.0,0.0,0.0,-0.01,0.0,-0.72999996,0.0,0.0,0.0,0.0,0.0,0.0,0.0,0.42147118,488.83002,0.0,0.0,0.0,0.0,0.0,0.0,inf,inf,inf,inf,1,1,1,1,0,0,0,0,1,1,0
9243028000,0,47.3977508,8.5456074,0.4336602,-0.09784889,-12.084991,0.0,0.0,0.0,-0.01,0.0,-0.71,0.0,0.0,0.0,0.0,0.0,0.0,0.0,0.42152593,488.83002,0.0,0.0,0.0,0.0,0.0,0.0,inf,inf,inf,inf,1,1,1,1,0,0,0,0,1,1,0
9243128000,0,47.3977508,8.5456074,0.4336602,-0.09784889,-12.156006,0.0,0.0,0.0,-0.01,0.0,-0.7,0.0,0.0,0.0,0.0,0.0,0.0,0.0,0.42156577,488.83002,0.0,0.0,0.0,0.0,0.0,0.0,inf,inf,inf,inf,1,1,1,1,0,0,0,0,1,1,0
9243228000,0,47.3977508,8.5456074,0.4336602,-0.090322055,-12.225006,0.0,0.0,0.0,-0.01,0.0,-0.68,0.0,0.0,0.0,0.0,0.0,0.0,0.0,0.4215777,488.83002,0.0,0.0,0.0,0.0,0.0,0.0,inf,inf,inf,inf,1,1,1,1,0,0,0,0,1,1,0
9243328000,0,47.3977508,8.5456074,0.4336602,-0.090322055,-12.292999,0.0,0.0,0.0,-0.01,0.0,-0.66999996,0.0,0.0,0.0,0.0,0.0,0.0,0.0,0.42166352,488.83002,0.0,0.0,0.0,0.0,0.0,0.0,inf,inf,inf,inf,1,1,1,1,0,0,0,0,1,1,0
9243424000,0,47.3977508,8.5456074,0.4336602,-0.090322055,-12.356995,0.0,0.0,0.0,-0.01,0.0,-0.65,0.0,0.0,0.0,0.0,0.0,0.0,0.0,0.42165697,488.83002,0.0,0.0,0.0,0.0,0.0,0.0,inf,inf,inf,inf,1,1,1,1,0,0,0,0,1,1,0
9243528000,0,47.3977508,8.5456074,0.4336602,-0.090322055,-12.423004,0.0,0.0,0.0,-0.01,0.0,-0.63,0.0,0.0,0.0,0.0,0.0,0.0,0.0,0.42166254,488.83002,0.0,0.0,0.0,0.0,0.0,0.0,inf,inf,inf,inf,1,1,1,1,0,0,0,0,1,1,0
9243624000,0,47.3977508,8.5456074,0.42254072,-0.090322055,-12.481018,0.0,0.0,0.0,-0.01,0.0,-0.61,0.0,0.0,0.0,0.0,0.0,0.0,0.0,0.42165053,488.83002,0.0,0.0,0.0,0.0,0.0,0.0,inf,inf,inf,inf,1,1,1,1,0,0,0,0,1,1,0
9243724000,0,47.3977508,8.5456074,0.42254072,-0.090322055,-12.544006,0.0,0.0,0.0,-0.02,0.0,-0.59999996,0.0,0.0,0.0,0.0,0.0,0.0,0.0,0.4216433,488.83002,0.0,0.0,0.0,0.0,0.0,0.0,inf,inf,inf,inf,1,1,1,1,0,0,0,0,1,1,0
9243828000,0,47.3977508,8.5456074,0.42254072,-0.090322055,-12.606018,0.0,0.0,0.0,-0.02,0.0,-0.58,0.0,0.0,0.0,0.0,0.0,0.0,0.0,0.42165002,488.83002,0.0,0.0,0.0,0.0,0.0,0.0,inf,inf,inf,inf,1,1,1,1,0,0,0,0,1,1,0
9243928000,0,47.3977508,8.5456074,0.42254072,-0.090322055,-12.662994,0.0,0.0,0.0,-0.02,0.0,-0.56,0.0,0.0,0.0,0.0,0.0,0.0,0.0,0.42150903,488.83002,0.0,0.0,0.0,0.0,0.0,0.0,inf,inf,inf,inf,1,1,1,1,0,0,0,0,1,1,0
9244024000,0,47.3977508,8.5456074,0.42254072,-0.090322055,-12.7170105,0.0,0.0,0.0,-0.02,0.0,-0.53999996,0.0,0.0,0.0,0.0,0.0,0.0,0.0,0.4214221,488.83002,0.0,0.0,0.0,0.0,0.0,0.0,inf,inf,inf,inf,1,1,1,1,0,0,0,0,1,1,0
9244128000,0,47.3977508,8.5456074,0.41142124,-0.090322055,-12.77301,0.0,0.0,0.0,-0.02,0.0,-0.53,0.0,0.0,0.0,0.0,0.0,0.0,0.0,0.42143828,488.83002,0.0,0.0,0.0,0.0,0.0,0.0,inf,inf,inf,inf,1,1,1,1,0,0,0,0,1,1,0
9244228000,0,47.3977508,8.5456074,0.41142124,-0.08279522,-12.825012,0.0,0.0,0.0,-0.03,0.0,-0.51,0.0,0.0,0.0,0.0,0.0,0.0,0.0,0.42153108,488.83002,0.0,0.0,0.0,0.0,0.0,0.0,inf,inf,inf,inf,1,1,1,1,0,0,0,0,1,1,0
9244328000,0,47.3977508,8.5456074,0.41142124,-0.08279522,-12.873993,0.0,0.0,0.0,-0.03,0.0,-0.5,0.0,0.0,0.0,0.0,0.0,0.0,0.0,0.42171207,488.83002,0.0,0.0,0.0,0.0,0.0,0.0,inf,inf,inf,inf,1,1,1,1,0,0,0,0,1,1,0
9244424000,0,47.3977508,8.5456074,0.41142124,-0.08279522,-12.924011,0.0,0.0,0.0,-0.03,0.0,-0.48,0.0,0.0,0.0,0.0,0.0,0.0,0.0,0.4218809,488.83002,0.0,0.0,0.0,0.0,0.0,0.0,inf,inf,inf,inf,1,1,1,1,0,0,0,0,1,1,0
9244528000,0,47.3977508,8.5456074,0.40030172,-0.08279522,-12.972015,0.0,0.0,0.0,-0.03,0.01,-0.47,0.0,0.0,0.0,0.0,0.0,0.0,0.0,0.42201,488.83002,0.0,0.0,0.0,0.0,0.0,0.0,inf,inf,inf,inf,1,1,1,1,0,0,0,0,1,1,0
9244628000,0,47.3977508,8.5456074,0.40030172,-0.08279522,-13.020996,0.0,0.0,0.0,-0.03,0.01,-0.45999998,0.0,0.0,0.0,0.0,0.0,0.0,0.0,0.42209792,488.83002,0.0,0.0,0.0,0.0,0.0,0.0,inf,inf,inf,inf,1,1,1,1,0,0,0,0,1,1,0
9244728000,0,47.3977508,8.5456074,0.40030172,-0.08279522,-13.063995,0.0,0.0,0.0,-0.03,0.01,-0.44,0.0,0.0,0.0,0.0,0.0,0.0,0.0,0.42208895,488.83002,0.0,0.0,0.0,0.0,0.0,0.0,inf,inf,inf,inf,1,1,1,1,0,0,0,0,1,1,0
9244828000,0,47.3977508,8.5456074,0.38918224,-0.08279522,-13.110016,0.0,0.0,0.0,-0.03,0.01,-0.42999998,0.0,0.0,0.0,0.0,0.0,0.0,0.0,0.4220919,488.83002,0.0,0.0,0.0,0.0,0.0,0.0,inf,inf,inf,inf,1,1,1,1,0,0,0,0,1,1,0
9244928000,0,47.3977508,8.5456074,0.38918224,-0.08279522,-13.153015,0.0,0.0,0.0,-0.03,0.01,-0.42,0.0,0.0,0.0,0.0,0.0,0.0,0.0,0.4221114,488.83002,0.0,0.0,0.0,0.0,0.0,0.0,inf,inf,inf,inf,1,1,1,1,0,0,0,0,1,1,0
9245028000,0,47.3977508,8.5456074,0.38918224,-0.07526838,-13.195007,0.0,0.0,0.0,-0.03,0.01,-0.41,0.0,0.0,0.0,0.0,0.0,0.0,0.0,0.42218727,488.83002,0.0,0.0,0.0,0.0,0.0,0.0,inf,inf,inf,inf,1,1,1,1,0,0,0,0,1,1,0
9245128000,0,47.3977508,8.5456074,0.37806275,-0.07526838,-13.235016,0.0,0.0,0.0,-0.03,0.01,-0.39,0.0,0.0,0.0,0.0,0.0,0.0,0.0,0.4221227,488.83002,0.0,0.0,0.0,0.0,0.0,0.0,inf,inf,inf,inf,1,1,1,1,0,0,0,0,1,1,0
9245228000,0,47.3977508,8.5456074,0.37806275,-0.07526838,-13.274994,0.0,0.0,0.0,-0.03,0.01,-0.38,0.0,0.0,0.0,0.0,0.0,0.0,0.0,0.42217344,488.83002,0.0,0.0,0.0,0.0,0.0,0.0,inf,inf,inf,inf,1,1,1,1,0,0,0,0,1,1,0
9245328000,0,47.3977508,8.5456074,0.37806275,-0.07526838,-13.313019,0.0,0.0,0.0,-0.03,0.01,-0.37,0.0,0.0,0.0,0.0,0.0,0.0,0.0,0.42222443,488.83002,0.0,0.0,0.0,0.0,0.0,0.0,inf,inf,inf,inf,1,1,1,1,0,0,0,0,1,1,0
9245428000,0,47.3977508,8.5456074,0.36694327,-0.07526838,-13.350006,0.0,0.0,0.0,-0.03,0.01,-0.35999998,0.0,0.0,0.0,0.0,0.0,0.0,0.0,0.42219943,488.83002,0.0,0.0,0.0,0.0,0.0,0.0,inf,inf,inf,inf,1,1,1,1,0,0,0,0,1,1,0
9245528000,0,47.3977508,8.5456074,0.36694327,-0.06774154,-13.386993,0.0,0.0,0.0,-0.03,0.01,-0.35,0.0,0.0,0.0,0.0,0.0,0.0,0.0,0.42226487,488.83002,0.0,0.0,0.0,0.0,0.0,0.0,inf,inf,inf,inf,1,1,1,1,0,0,0,0,1,1,0
9245628000,0,47.3977508,8.5456074,0.36694327,-0.06774154,-13.421997,0.0,0.0,0.0,-0.03,0.01,-0.34,0.0,0.0,0.0,0.0,0.0,0.0,0.0,0.42235512,488.83002,0.0,0.0,0.0,0.0,0.0,0.0,inf,inf,inf,inf,1,1,1,1,0,0,0,0,1,1,0
9245728000,0,47.3977508,8.5456074,0.36694327,-0.06774154,-13.455994,0.0,0.0,0.0,-0.03,0.01,-0.32999998,0.0,0.0,0.0,0.0,0.0,0.0,0.0,0.42235875,488.83002,0.0,0.0,0.0,0.0,0.0,0.0,inf,inf,inf,inf,1,1,1,1,0,0,0,0,1,1,0
9245828000,0,47.3977508,8.5456074,0.35582376,-0.06774154,-13.489014,0.0,0.0,0.0,-0.03,0.02,-0.32,0.0,0.0,0.0,0.0,0.0,0.0,0.0,0.4223173,488.83002,0.0,0.0,0.0,0.0,0.0,0.0,inf,inf,inf,inf,1,1,1,1,0,0,0,0,1,1,0
9245928000,0,47.3977508,8.5456074,0.35582376,-0.060214706,-13.52002,0.0,0.0,0.0,-0.03,0.02,-0.32,0.0,0.0,0.0,0.0,0.0,0.0,0.0,0.4222064,488.83002,0.0,0.0,0.0,0.0,0.0,0.0,inf,inf,inf,inf,1,1,1,1,0,0,0,0,1,1,0
9246024000,0,47.3977508,8.5456074,0.35582376,-0.060214706,-13.552002,0.0,0.0,0.0,-0.03,0.02,-0.29999998,0.0,0.0,0.0,0.0,0.0,0.0,0.0,0.4221584,488.83002,0.0,0.0,0.0,0.0,0.0,0.0,inf,inf,inf,inf,1,1,1,1,0,0,0,0,1,1,0
9246128000,0,47.3977508,8.5456074,0.34470427,-0.060214706,-13.584015,0.0,0.0,0.0,-0.03,0.02,-0.29999998,0.0,0.0,0.0,0.0,0.0,0.0,0.0,0.42208657,488.83002,0.0,0.0,0.0,0.0,0.0,0.0,inf,inf,inf,inf,1,1,1,1,0,0,0,0,1,1,0
9246228000,0,47.3977508,8.5456074,0.34470427,-0.05268787,-13.614014,0.0,0.0,0.0,-0.03,0.02,-0.29,0.0,0.0,0.0,0.0,0.0,0.0,0.0,0.42198145,488.83002,0.0,0.0,0.0,0.0,0.0,0.0,inf,inf,inf,inf,1,1,1,1,0,0,0,0,1,1,0
9246324000,0,47.3977508,8.5456074,0.34470427,-0.05268787,-13.641022,0.0,0.0,0.0,-0.03,0.02,-0.28,0.0,0.0,0.0,0.0,0.0,0.0,0.0,0.42196503,488.83002,0.0,0.0,0.0,0.0,0.0,0.0,inf,inf,inf,inf,1,1,1,1,0,0,0,0,1,1,0
9246428000,0,47.3977508,8.5456074,0.3335848,-0.05268787,-13.670013,0.0,0.0,0.0,-0.03,0.02,-0.26999998,0.0,0.0,0.0,0.0,0.0,0.0,0.0,0.4219337,488.83002,0.0,0.0,0.0,0.0,0.0,0.0,inf,inf,inf,inf,1,1,1,1,0,0,0,0,1,1,0
9246528000,0,47.3977508,8.5456074,0.3335848,-0.04516103,-13.6970215,0.0,0.0,0.0,-0.03,0.02,-0.26,0.0,0.0,0.0,0.0,0.0,0.0,0.0,0.42188323,488.83002,0.0,0.0,0.0,0.0,0.0,0.0,inf,inf,inf,inf,1,1,1,1,0,0,0,0,1,1,0
9246628000,0,47.3977508,8.5456074,0.3335848,-0.04516103,-13.722992,0.0,0.0,0.0,-0.03,0.02,-0.25,0.0,0.0,0.0,0.0,0.0,0.0,0.0,0.42180723,488.83002,0.0,0.0,0.0,0.0,0.0,0.0,inf,inf,inf,inf,1,1,1,1,0,0,0,0,1,1,0
9246728000,0,47.3977508,8.5456074,0.3335848,-0.04516103,-13.748016,0.0,0.0,0.0,-0.03,0.02,-0.24,0.0,0.0,0.0,0.0,0.0,0.0,0.0,0.42178142,488.83002,0.0,0.0,0.0,0.0,0.0,0.0,inf,inf,inf,inf,1,1,1,1,0,0,0,0,1,1,0
9246828000,0,47.3977508,8.5456074,0.3224653,-0.03763419,-13.77301,0.0,0.0,0.0,-0.02,0.02,-0.22999999,0.0,0.0,0.0,0.0,0.0,0.0,0.0,0.42186075,488.83002,0.0,0.0,0.0,0.0,0.0,0.0,inf,inf,inf,inf,1,1,1,1,0,0,0,0,1,1,0
9246928000,0,47.3977508,8.5456074,0.3224653,-0.03763419,-13.7960205,0.0,0.0,0.0,-0.02,0.02,-0.22999999,0.0,0.0,0.0,0.0,0.0,0.0,0.0,0.4218178,488.83002,0.0,0.0,0.0,0.0,0.0,0.0,inf,inf,inf,inf,1,1,1,1,0,0,0,0,1,1,0
9247028000,0,47.3977508,8.5456074,0.3224653,-0.03763419,-13.819,0.0,0.0,0.0,-0.02,0.03,-0.22,0.0,0.0,0.0,0.0,0.0,0.0,0.0,0.42167336,488.83002,0.0,0.0,0.0,0.0,0.0,0.0,inf,inf,inf,inf,1,1,1,1,0,0,0,0,1,1,0
9247128000,0,47.3977508,8.5456074,0.3224653,-0.030107353,-13.841003,0.0,0.0,0.0,-0.02,0.03,-0.21,0.0,0.0,0.0,0.0,0.0,0.0,0.0,0.42159238,488.83002,0.0,0.0,0.0,0.0,0.0,0.0,inf,inf,inf,inf,1,1,1,1,0,0,0,0,1,1,0
9247228000,0,47.3977508,8.5456074,0.3113458,-0.030107353,-13.860992,0.0,0.0,0.0,-0.02,0.03,-0.19999999,0.0,0.0,0.0,0.0,0.0,0.0,0.0,0.42152178,488.83002,0.0,0.0,0.0,0.0,0.0,0.0,inf,inf,inf,inf,1,1,1,1,0,0,0,0,1,1,0
9247328000,0,47.3977508,8.5456074,0.3113458,-0.022580516,-13.882019,0.0,0.0,0.0,-0.02,0.03,-0.19,0.0,0.0,0.0,0.0,0.0,0.0,0.0,0.42143708,488.83002,0.0,0.0,0.0,0.0,0.0,0.0,inf,inf,inf,inf,1,1,1,1,0,0,0,0,1,1,0
9247428000,0,47.3977508,8.5456074,0.3113458,-0.022580516,-13.901001,0.0,0.0,0.0,-0.02,0.03,-0.19,0.0,0.0,0.0,0.0,0.0,0.0,0.0,0.4213736,488.83002,0.0,0.0,0.0,0.0,0.0,0.0,inf,inf,inf,inf,1,1,1,1,0,0,0,0,1,1,0
9247528000,0,47.3977508,8.5456074,0.3113458,-0.015053676,-13.9210205,0.0,0.0,0.0,-0.02,0.03,-0.17999999,0.0,0.0,0.0,0.0,0.0,0.0,0.0,0.42150944,488.83002,0.0,0.0,0.0,0.0,0.0,0.0,inf,inf,inf,inf,1,1,1,1,0,0,0,0,1,1,0
9247628000,0,47.3977508,8.5456074,0.3002263,-0.015053676,-13.938995,0.0,0.0,0.0,-0.02,0.03,-0.17,0.0,0.0,0.0,0.0,0.0,0.0,0.0,0.42157483,488.83002,0.0,0.0,0.0,0.0,0.0,0.0,inf,inf,inf,inf,1,1,1,1,0,0,0,0,1,1,0
9247728000,0,47.3977508,8.5456074,0.3002263,-0.015053676,-13.957001,0.0,0.0,0.0,-0.02,0.03,-0.17,0.0,0.0,0.0,0.0,0.0,0.0,0.0,0.42165378,488.83002,0.0,0.0,0.0,0.0,0.0,0.0,inf,inf,inf,inf,1,1,1,1,0,0,0,0,1,1,0
9247828000,0,47.3977508,8.5456074,0.3002263,-0.007526838,-13.973999,0.0,0.0,0.0,-0.02,0.03,-0.16,0.0,0.0,0.0,0.0,0.0,0.0,0.0,0.4216852,488.83002,0.0,0.0,0.0,0.0,0.0,0.0,inf,inf,inf,inf,1,1,1,1,0,0,0,0,1,1,0
9247928000,0,47.3977508,8.5456074,0.3002263,-0.007526838,-13.990021,0.0,0.0,0.0,-0.02,0.03,-0.16,0.0,0.0,0.0,0.0,0.0,0.0,0.0,0.42169207,488.83002,0.0,0.0,0.0,0.0,0.0,0.0,inf,inf,inf,inf,1,1,1,1,0,0,0,0,1,1,0
9248028000,0,47.3977508,8.5456074,0.3002263,0.0,-14.006012,0.0,0.0,0.0,-0.02,0.03,-0.14999999,0.0,0.0,0.0,0.0,0.0,0.0,0.0,0.4217407,488.83002,0.0,0.0,0.0,0.0,0.0,0.0,inf,inf,inf,inf,1,1,1,1,0,0,0,0,1,1,0
9248124000,0,47.3977508,8.5456074,0.3002263,0.0,-14.022003,0.0,0.0,0.0,-0.01,0.03,-0.14999999,0.0,0.0,0.0,0.0,0.0,0.0,0.0,0.42172095,488.83002,0.0,0.0,0.0,0.0,0.0,0.0,inf,inf,inf,inf,1,1,1,1,0,0,0,0,1,1,0
9248228000,0,47.3977508,8.5456074,0.28910682,0.007526838,-14.037018,0.0,0.0,0.0,-0.01,0.03,-0.14,0.0,0.0,0.0,0.0,0.0,0.0,0.0,0.42173252,488.83002,0.0,0.0,0.0,0.0,0.0,0.0,inf,inf,inf,inf,1,1,1,1,0,0,0,0,1,1,0
9248328000,0,47.3977508,8.5456074,0.28910682,0.007526838,-14.052002,0.0,0.0,0.0,-0.01,0.03,-0.14,0.0,0.0,0.0,0.0,0.0,0.0,0.0,0.42179066,488.83002,0.0,0.0,0.0,0.0,0.0,0.0,inf,inf,inf,inf,1,1,1,1,0,0,0,0,1,1,0
9248428000,0,47.3977508,8.5456074,0.28910682,0.015053676,-14.067017,0.0,0.0,0.0,-0.01,0.03,-0.14,0.0,0.0,0.0,0.0,0.0,0.0,0.0,0.4219704,488.83002,0.0,0.0,0.0,0.0,0.0,0.0,inf,inf,inf,inf,1,1,1,1,0,0,0,0,1,1,0
9248528000,0,47.3977508,8.5456074,0.28910682,0.015053676,-14.080017,0.0,0.0,0.0,-0.01,0.03,-0.13,0.0,0.0,0.0,0.0,0.0,0.0,0.0,0.4221053,488.83002,0.0,0.0,0.0,0.0,0.0,0.0,inf,inf,inf,inf,1,1,1,1,0,0,0,0,1,1,0
9248628000,0,47.3977508,8.5456074,0.28910682,0.022580516,-14.093018,0.0,0.0,0.0,-0.01,0.03,-0.12,0.0,0.0,0.0,0.0,0.0,0.0,0.0,0.42219734,488.83002,0.0,0.0,0.0,0.0,0.0,0.0,inf,inf,inf,inf,1,1,1,1,0,0,0,0,1,1,0
9248728000,0,47.3977508,8.5456074,0.28910682,0.022580516,-14.106018,0.0,0.0,0.0,-0.01,0.03,-0.12,0.0,0.0,0.0,0.0,0.0,0.0,0.0,0.42235872,488.83002,0.0,0.0,0.0,0.0,0.0,0.0,inf,inf,inf,inf,1,1,1,1,0,0,0,0,1,1,0
9248828000,0,47.3977508,8.5456074,0.28910682,0.022580516,-14.118011,0.0,0.0,0.0,-0.01,0.02,-0.11,0.0,0.0,0.0,0.0,0.0,0.0,0.0,0.42253676,488.83002,0.0,0.0,0.0,0.0,0.0,0.0,inf,inf,inf,inf,1,1,1,1,0,0,0,0,1,1,0
9248928000,0,47.3977508,8.5456074,0.28910682,0.030107353,-14.128998,0.0,0.0,0.0,-0.01,0.02,-0.11,0.0,0.0,0.0,0.0,0.0,0.0,0.0,0.4226272,488.83002,0.0,0.0,0.0,0.0,0.0,0.0,inf,inf,inf,inf,1,1,1,1,0,0,0,0,1,1,0
9249024000,0,47.3977508,8.5456074,0.27798733,0.030107353,-14.141022,0.0,0.0,0.0,-0.01,0.02,-0.11,0.0,0.0,0.0,0.0,0.0,0.0,0.0,0.42264265,488.83002,0.0,0.0,0.0,0.0,0.0,0.0,inf,inf,inf,inf,1,1,1,1,0,0,0,0,1,1,0
9249128000,0,47.3977508,8.5456074,0.27798733,0.03763419,-14.152008,0.0,0.0,0.0,-0.01,0.02,-0.099999994,0.0,0.0,0.0,0.0,0.0,0.0,0.0,0.42280734,488.83002,0.0,0.0,0.0,0.0,0.0,0.0,inf,inf,inf,inf,1,1,1,1,0,0,0,0,1,1,0
9249228000,0,47.3977508,8.5456074,0.27798733,0.03763419,-14.162994,0.0,0.0,0.0,-0.01,0.02,-0.099999994,0.0,0.0,0.0,0.0,0.0,0.0,0.0,0.42296147,488.83002,0.0,0.0,0.0,0.0,0.0,0.0,inf,inf,inf,inf,1,1,1,1,0,0,0,0,1,1,0
9249324000,0,47.3977508,8.5456074,0.27798733,0.03763419,-14.173004,0.0,0.0,0.0,-0.01,0.02,-0.099999994,0.0,0.0,0.0,0.0,0.0,0.0,0.0,0.42307997,488.83002,0.0,0.0,0.0,0.0,0.0,0.0,inf,inf,inf,inf,1,1,1,1,0,0,0,0,1,1,0
9249428000,0,47.3977508,8.5456074,0.27798733,0.04516103,-14.183014,0.0,0.0,0.0,-0.01,0.03,-0.089999996,0.0,0.0,0.0,0.0,0.0,0.0,0.0,0.42309916,488.83002,0.0,0.0,0.0,0.0,0.0,0.0,inf,inf,inf,inf,1,1,1,1,0,0,0,0,1,1,0
9249528000,0,47.3977508,8.5456074,0.27798733,0.04516103,-14.192993,0.0,0.0,0.0,-0.01,0.03,-0.089999996,0.0,0.0,0.0,0.0,0.0,0.0,0.0,0.42303762,488.83002,0.0,0.0,0.0,0.0,0.0,0.0,inf,inf,inf,inf,1,1,1,1,0,0,0,0,1,1,0
9249628000,0,47.3977508,8.5456074,0.27798733,0.05268787,-14.201996,0.0,0.0,0.0,-0.01,0.03,-0.089999996,0.0,0.0,0.0,0.0,0.0,0.0,0.0,0.42306072,488.83002,0.0,0.0,0.0,0.0,0.0,0.0,inf,inf,inf,inf,1,1,1,1,0,0,0,0,1,1,0
9249728000,0,47.3977508,8.5456074,0.26686782,0.05268787,-14.210999,0.0,0.0,0.0,-0.01,0.03,-0.08,0.0,0.0,0.0,0.0,0.0,0.0,0.0,0.42303893,488.83002,0.0,0.0,0.0,0.0,0.0,0.0,inf,inf,inf,inf,1,1,1,1,0,0,0,0,1,1,0
9249828000,0,47.3977508,8.5456074,0.26686782,0.05268787,-14.218994,0.0,0.0,0.0,-0.01,0.03,-0.08,0.0,0.0,0.0,0.0,0.0,0.0,0.0,0.42306018,488.83002,0.0,0.0,0.0,0.0,0.0,0.0,inf,inf,inf,inf,1,1,1,1,0,0,0,0,1,1,0
9249928000,0,47.3977508,8.5456074,0.26686782,0.060214706,-14.227997,0.0,0.0,0.0,-0.01,0.03,-0.08,0.0,0.0,0.0,0.0,0.0,0.0,0.0,0.42325455,488.83002,0.0,0.0,0.0,0.0,0.0,0.0,inf,inf,inf,inf,1,1,1,1,0,0,0,0,1,1,0
9250028000,0,47.3977508,8.5456074,0.26686782,0.060214706,-14.235992,0.0,0.0,0.0,-0.01,0.03,-0.07,0.0,0.0,0.0,0.0,0.0,0.0,0.0,0.4233201,488.83002,0.0,0.0,0.0,0.0,0.0,0.0,inf,inf,inf,inf,1,1,1,1,0,0,0,0,1,1,0
9250128000,0,47.3977508,8.5456074,0.26686782,0.06774154,-14.244019,0.0,0.0,0.0,-0.01,0.03,-0.07,0.0,0.0,0.0,0.0,0.0,0.0,0.0,0.42325544,488.83002,0.0,0.0,0.0,0.0,0.0,0.0,inf,inf,inf,inf,1,1,1,1,0,0,0,0,1,1,0
9250224000,0,47.3977508,8.5456074,0.26686782,0.06774154,-14.251007,0.0,0.0,0.0,-0.01,0.02,-0.07,0.0,0.0,0.0,0.0,0.0,0.0,0.0,0.42323583,488.83002,0.0,0.0,0.0,0.0,0.0,0.0,inf,inf,inf,inf,1,1,1,1,0,0,0,0,1,1,0
9250328000,0,47.3977508,8.5456074,0.26686782,0.06774154,-14.257996,0.0,0.0,0.0,0.0,0.02,-0.06,0.0,0.0,0.0,0.0,0.0,0.0,0.0,0.42336836,488.83002,0.0,0.0,0.0,0.0,0.0,0.0,inf,inf,inf,inf,1,1,1,1,0,0,0,0,1,1,0
9250428000,0,47.3977508,8.5456074,0.26686782,0.07526838,-14.265015,0.0,0.0,0.0,0.0,0.02,-0.06,0.0,0.0,0.0,0.0,0.0,0.0,0.0,0.42348605,488.83002,0.0,0.0,0.0,0.0,0.0,0.0,inf,inf,inf,inf,1,1,1,1,0,0,0,0,1,1,0
9250528000,0,47.3977508,8.5456074,0.26686782,0.07526838,-14.270996,0.0,0.0,0.0,0.0,0.02,-0.049999997,0.0,0.0,0.0,0.0,0.0,0.0,0.0,0.42355555,488.83002,0.0,0.0,0.0,0.0,0.0,0.0,inf,inf,inf,inf,1,1,1,1,0,0,0,0,1,1,0
9250628000,0,47.3977508,8.5456074,0.26686782,0.07526838,-14.276001,0.0,0.0,0.0,0.0,0.02,-0.049999997,0.0,0.0,0.0,0.0,0.0,0.0,0.0,0.42360628,488.83002,0.0,0.0,0.0,0.0,0.0,0.0,inf,inf,inf,inf,1,1,1,1,0,0,0,0,1,1,0
9250728000,0,47.3977508,8.5456074,0.26686782,0.082795225,-14.282013,0.0,0.0,0.0,0.0,0.01,-0.049999997,0.0,0.0,0.0,0.0,0.0,0.0,0.0,0.42359287,488.83002,0.0,0.0,0.0,0.0,0.0,0.0,inf,inf,inf,inf,1,1,1,1,0,0,0,0,1,1,0
9250828000,0,47.3977508,8.5456074,0.26686782,0.082795225,-14.287018,0.0,0.0,0.0,0.0,0.01,-0.049999997,0.0,0.0,0.0,0.0,0.0,0.0,0.0,0.42364928,488.83002,0.0,0.0,0.0,0.0,0.0,0.0,inf,inf,inf,inf,1,1,1,1,0,0,0,0,1,1,0
9250924000,0,47.3977508,8.5456074,0.26686782,0.082795225,-14.291992,0.0,0.0,0.0,0.0,0.01,-0.049999997,0.0,0.0,0.0,0.0,0.0,0.0,0.0,0.4237024,488.83002,0.0,0.0,0.0,0.0,0.0,0.0,inf,inf,inf,inf,1,1,1,1,0,0,0,0,1,1,0
9251024000,0,47.3977508,8.5456074,0.26686782,0.082795225,-14.296997,0.0,0.0,0.0,0.0,0.01,-0.049999997,0.0,0.0,0.0,0.0,0.0,0.0,0.0,0.4236837,488.83002,0.0,0.0,0.0,0.0,0.0,0.0,inf,inf,inf,inf,1,1,1,1,0,0,0,0,1,1,0
9251124000,0,47.3977508,8.5456074,0.26686782,0.09032206,-14.302002,0.0,0.0,0.0,0.0,0.01,-0.04,0.0,0.0,0.0,0.0,0.0,0.0,0.0,0.42375764,488.83002,0.0,0.0,0.0,0.0,0.0,0.0,inf,inf,inf,inf,1,1,1,1,0,0,0,0,1,1,0
9251224000,0,47.3977508,8.5456074,0.26686782,0.09032206,-14.306,0.0,0.0,0.0,0.0,0.01,-0.04,0.0,0.0,0.0,0.0,0.0,0.0,0.0,0.4237128,488.83002,0.0,0.0,0.0,0.0,0.0,0.0,inf,inf,inf,inf,1,1,1,1,0,0,0,0,1,1,0
9251328000,0,47.3977508,8.5456074,0.26686782,0.09032206,-14.311005,0.0,0.0,0.0,0.01,0.01,-0.03,0.0,0.0,0.0,0.0,0.0,0.0,0.0,0.42366946,488.83002,0.0,0.0,0.0,0.0,0.0,0.0,inf,inf,inf,inf,1,1,1,1,0,0,0,0,1,1,0
9251424000,0,47.3977508,8.5456074,0.26686782,0.09032206,-14.313995,0.0,0.0,0.0,0.01,0.01,-0.03,0.0,0.0,0.0,0.0,0.0,0.0,0.0,0.42361787,488.83002,0.0,0.0,0.0,0.0,0.0,0.0,inf,inf,inf,inf,1,1,1,1,0,0,0,0,1,1,0
9251524000,0,47.3977508,8.5456074,0.26686782,0.09032206,-14.317993,0.0,0.0,0.0,0.01,0.01,-0.03,0.0,0.0,0.0,0.0,0.0,0.0,0.0,0.42358583,488.83002,0.0,0.0,0.0,0.0,0.0,0.0,inf,inf,inf,inf,1,1,1,1,0,0,0,0,1,1,0
9251628000,0,47.3977508,8.5456074,0.26686782,0.0978489,-14.321014,0.0,0.0,0.0,0.01,0.01,-0.03,0.0,0.0,0.0,0.0,0.0,0.0,0.0,0.4235865,488.83002,0.0,0.0,0.0,0.0,0.0,0.0,inf,inf,inf,inf,1,1,1,1,0,0,0,0,1,1,0
9251728000,0,47.3977508,8.5456074,0.26686782,0.0978489,-14.324005,0.0,0.0,0.0,0.01,0.01,-0.03,0.0,0.0,0.0,0.0,0.0,0.0,0.0,0.42369744,488.83002,0.0,0.0,0.0,0.0,0.0,0.0,inf,inf,inf,inf,1,1,1,1,0,0,0,0,1,1,0
9251828000,0,47.3977508,8.5456074,0.26686782,0.0978489,-14.326996,0.0,0.0,0.0,0.01,0.01,-0.02,0.0,0.0,0.0,0.0,0.0,0.0,0.0,0.4238358,488.83002,0.0,0.0,0.0,0.0,0.0,0.0,inf,inf,inf,inf,1,1,1,1,0,0,0,0,1,1,0
9251928000,0,47.3977508,8.5456074,0.27798733,0.0978489,-14.330017,0.0,0.0,0.0,0.01,0.01,-0.02,0.0,0.0,0.0,0.0,0.0,0.0,0.0,0.42401809,488.83002,0.0,0.0,0.0,0.0,0.0,0.0,inf,inf,inf,inf,1,1,1,1,0,0,0,0,1,1,0
9252028000,0,47.3977508,8.5456074,0.27798733,0.0978489,-14.332001,0.0,0.0,0.0,0.01,0.01,-0.02,0.0,0.0,0.0,0.0,0.0,0.0,0.0,0.42406094,488.83002,0.0,0.0,0.0,0.0,0.0,0.0,inf,inf,inf,inf,1,1,1,1,0,0,0,0,1,1,0
9252128000,0,47.3977508,8.5456074,0.27798733,0.0978489,-14.335999,0.0,0.0,0.0,0.01,0.01,-0.06,0.0,0.0,0.0,0.0,0.0,0.0,0.0,0.43140176,488.83002,0.0,0.0,0.0,0.0,0.0,0.0,inf,inf,inf,inf,1,1,1,1,0,0,0,0,1,1,0
9252228000,0,47.3977508,8.5456074,0.27798733,0.10537574,-14.356018,0.0,0.0,0.0,0.02,0.12,-0.26,0.0,0.0,0.0,0.0,0.0,0.0,0.0,0.5543878,488.83002,0.0,0.0,0.0,0.0,0.0,0.0,inf,inf,inf,inf,1,1,1,1,0,0,0,0,1,1,0
9252324000,0,47.3977508,8.5456074,0.27798733,0.12795626,-14.372009,0.0,0.0,0.0,0.0,0.22999999,-0.04,0.0,0.0,0.0,0.0,0.0,0.0,0.0,0.77491534,488.83002,0.0,0.0,0.0,0.0,0.0,0.0,inf,inf,inf,inf,1,1,1,1,0,0,0,0,1,1,0
9252424000,0,47.3977508,8.5456074,0.27798733,0.1580636,-14.365997,0.0,0.0,0.0,-0.049999997,0.34,0.089999996,0.0,0.0,0.0,0.0,0.0,0.0,0.0,1.0377398,488.83002,0.0,0.0,0.0,0.0,0.0,0.0,inf,inf,inf,inf,1,1,1,1,0,0,0,0,1,1,0
9252528000,0,47.3977508,8.5456074,0.26686782,0.1956978,-14.358002,0.0,0.0,0.0,-0.12,0.39999998,0.049999997,0.0,0.0,0.0,0.0,0.0,0.0,0.0,1.2779411,488.83002,0.0,0.0,0.0,0.0,0.0,0.0,inf,inf,inf,inf,1,1,1,1,0,0,0,0,1,1,0
9252628000,0,47.3977508,8.5456074,0.25574833,0.233332,-14.354004,0.0,0.0,0.0,-0.14999999,0.41,0.049999997,0.0,0.0,0.0,0.0,0.0,0.0,0.0,1.4568837,488.83002,0.0,0.0,0.0,0.0,0.0,0.0,inf,inf,inf,inf,1,1,1,1,0,0,0,0,1,1,0
9252728000,0,47.3977508,8.5456074,0.23350935,0.27849302,-14.347992,0.0,0.0,0.0,-0.16,0.41,0.049999997,0.0,0.0,0.0,0.0,0.0,0.0,0.0,1.5915669,488.83002,0.0,0.0,0.0,0.0,0.0,0.0,inf,inf,inf,inf,1,1,1,1,0,0,0,0,1,1,0
9252828000,0,47.3977508,8.5456074,0.22238986,0.3161272,-14.343018,0.0,0.0,0.0,-0.16,0.41,0.04,0.0,0.0,0.0,0.0,0.0,0.0,0.0,1.6912397,488.83002,0.0,0.0,0.0,0.0,0.0,0.0,inf,inf,inf,inf,1,1,1,1,0,0,0,0,1,1,0
9252928000,0,47.3977508,8.5456074,0.20015088,0.36128825,-14.338013,0.0,0.0,0.0,-0.16,0.42999998,0.04,0.0,0.0,0.0,0.0,0.0,0.0,0.0,1.7646971,488.83002,0.0,0.0,0.0,0.0,0.0,0.0,inf,inf,inf,inf,1,1,1,1,0,0,0,0,1,1,0
9253028000,0,47.3977508,8.5456074,0.18903139,0.4064493,-14.334015,0.0,0.0,0.0,-0.17,0.44,0.04,0.0,0.0,0.0,0.0,0.0,0.0,0.0,1.8188475,488.83002,0.0,0.0,0.0,0.0,0.0,0.0,inf,inf,inf,inf,1,1,1,1,0,0,0,0,1,1,0
9253128000,0,47.3977508,8.5456074,0.16679241,0.4516103,-14.330017,0.0,0.0,0.0,-0.17999999,0.45999998,0.03,0.0,0.0,0.0,0.0,0.0,0.0,0.0,1.8585188,488.83002,0.0,0.0,0.0,0.0,0.0,0.0,inf,inf,inf,inf,1,1,1,1,0,0,0,0,1,1,0
9253224000,0,47.3977508,8.5456074,0.15567292,0.49677134,-14.326019,0.0,0.0,0.0,-0.19,0.48,0.03,0.0,0.0,0.0,0.0,0.0,0.0,0.0,1.8865758,488.83002,0.0,0.0,0.0,0.0,0.0,0.0,inf,inf,inf,inf,1,1,1,1,0,0,0,0,1,1,0
9253328000,0,47.3977508,8.5456074,0.13343394,0.5494592,-14.3220215,0.0,0.0,0.0,-0.19999999,0.5,0.03,0.0,0.0,0.0,0.0,0.0,0.0,0.0,1.9087809,488.83002,0.0,0.0,0.0,0.0,0.0,0.0,inf,inf,inf,inf,1,1,1,1,0,0,0,0,1,1,0
9253428000,0,47.3977508,8.5456074,0.11119496,0.6021471,-14.319,0.0,0.0,0.0,-0.19999999,0.52,0.03,0.0,0.0,0.0,0.0,0.0,0.0,0.0,1.9240247,488.83002,0.0,0.0,0.0,0.0,0.0,0.0,inf,inf,inf,inf,1,1,1,1,0,0,0,0,1,1,0
9253528000,0,47.3977508,8.5456074,0.088955976,0.6548349,-14.3160095,0.0,0.0,0.0,-0.21,0.53999996,0.03,0.0,0.0,0.0,0.0,0.0,0.0,0.0,1.9351615,488.83002,0.0,0.0,0.0,0.0,0.0,0.0,inf,inf,inf,inf,1,1,1,1,0,0,0,0,1,1,0
9253628000,0,47.3977508,8.5456074,0.066717,0.7075228,-14.313019,0.0,0.0,0.0,-0.22,0.56,0.02,0.0,0.0,0.0,0.0,0.0,0.0,0.0,1.9430474,488.83002,0.0,0.0,0.0,0.0,0.0,0.0,inf,inf,inf,inf,1,1,1,1,0,0,0,0,1,1,0
9253728000,0,47.3977508,8.5456074,0.04447802,0.76773757,-14.309998,0.0,0.0,0.0,-0.22999999,0.58,0.02,0.0,0.0,0.0,0.0,0.0,0.0,0.0,1.9486527,488.83002,0.0,0.0,0.0,0.0,0.0,0.0,inf,inf,inf,inf,1,1,1,1,0,0,0,0,1,1,0
9253828000,0,47.3977508,8.5456074,0.022239044,0.82795227,-14.308014,0.0,0.0,0.0,-0.22999999,0.59999996,0.01,0.0,0.0,0.0,0.0,0.0,0.0,0.0,1.9527136,488.83002,0.0,0.0,0.0,0.0,0.0,0.0,inf,inf,inf,inf,1,1,1,1,0,0,0,0,1,1,0
9253928000,0,47.3977508,8.5456074,6.719569e-08,0.88816696,-14.306,0.0,0.0,0.0,-0.24,0.62,0.01,0.0,0.0,0.0,0.0,0.0,0.0,0.0,1.955578,488.83002,0.0,0.0,0.0,0.0,0.0,0.0,inf,inf,inf,inf,1,1,1,1,0,0,0,0,1,1,0
9254028000,0,47.3977508,8.5456074,-0.0333584,0.94838166,-14.304993,0.0,0.0,0.0,-0.25,0.64,0.0,0.0,0.0,0.0,0.0,0.0,0.0,0.0,1.957451,488.83002,0.0,0.0,0.0,0.0,0.0,0.0,inf,inf,inf,inf,1,1,1,1,0,0,0,0,1,1,0
9254128000,0,47.3977508,8.5456074,-0.055597376,1.0161232,-14.304016,0.0,0.0,0.0,-0.25,0.66999996,0.0,0.0,0.0,0.0,0.0,0.0,0.0,0.0,1.9587147,488.83002,0.0,0.0,0.0,0.0,0.0,0.0,inf,inf,inf,inf,1,1,1,1,0,0,0,0,1,1,0
9254228000,0,47.3977508,8.5456074,-0.07783635,1.0838648,-14.304016,0.0,0.0,0.0,-0.26,0.69,0.0,0.0,0.0,0.0,0.0,0.0,0.0,0.0,1.9596132,488.83002,0.0,0.0,0.0,0.0,0.0,0.0,inf,inf,inf,inf,1,1,1,1,0,0,0,0,1,1,0
9254324000,0,47.3977508,8.5456074,-0.10007532,1.1516063,-14.304016,0.0,0.0,0.0,-0.26999998,0.71999997,0.0,0.0,0.0,0.0,0.0,0.0,0.0,0.0,1.9601853,488.83002,0.0,0.0,0.0,0.0,0.0,0.0,inf,inf,inf,inf,1,1,1,1,0,0,0,0,1,1,0
9254428000,0,47.3977508,8.5456074,-0.13343379,1.2344016,-14.304016,0.0,0.0,0.0,-0.26999998,0.74,0.0,0.0,0.0,0.0,0.0,0.0,0.0,0.0,1.9605355,488.83002,0.0,0.0,0.0,0.0,0.0,0.0,inf,inf,inf,inf,1,1,1,1,0,0,0,0,1,1,0
9254528000,0,47.3977508,8.5456074,-0.16679224,1.30967,-14.304993,0.0,0.0,0.0,-0.28,0.77,0.0,0.0,0.0,0.0,0.0,0.0,0.0,0.0,1.960683,488.83002,0.0,0.0,0.0,0.0,0.0,0.0,inf,inf,inf,inf,1,1,1,1,0,0,0,0,1,1,0
9254628000,0,47.3977508,8.5456074,-0.18903121,1.3849384,-14.306,0.0,0.0,0.0,-0.29,0.79999995,0.0,0.0,0.0,0.0,0.0,0.0,0.0,0.0,1.9605583,488.83002,0.0,0.0,0.0,0.0,0.0,0.0,inf,inf,inf,inf,1,1,1,1,0,0,0,0,1,1,0
9254728000,0,47.3977508,8.5456074,-0.22238967,1.4677336,-14.307007,0.0,0.0,0.0,-0.29999998,0.82,-0.01,0.0,0.0,0.0,0.0,0.0,0.0,0.0,1.9603566,488.83002,0.0,0.0,0.0,0.0,0.0,0.0,inf,inf,inf,inf,1,1,1,1,0,0,0,0,1,1,0
9254828000,0,47.3977508,8.5456074,-0.25574812,1.5505289,-14.308014,0.0,0.0,0.0,-0.31,0.84999996,-0.01,0.0,0.0,0.0,0.0,0.0,0.0,0.0,1.9601004,488.83002,0.0,0.0,0.0,0.0,0.0,0.0,inf,inf,inf,inf,1,1,1,1,0,0,0,0,1,1,0
9254928000,0,47.3977508,8.5456074,-0.28910658,1.6408509,-14.309998,0.0,0.0,0.0,-0.32,0.88,-0.01,0.0,0.0,0.0,0.0,0.0,0.0,0.0,1.9598037,488.83002,0.0,0.0,0.0,0.0,0.0,0.0,inf,inf,inf,inf,1,1,1,1,0,0,0,0,1,1,0
9255028000,0,47.3977508,8.5456074,-0.31134555,1.731173,-14.311005,0.0,0.0,0.0,-0.32999998,0.90999997,-0.02,0.0,0.0,0.0,0.0,0.0,0.0,0.0,1.9595671,488.83002,0.0,0.0,0.0,0.0,0.0,0.0,inf,inf,inf,inf,1,1,1,1,0,0,0,0,1,1,0
9255128000,0,47.3977508,8.5456074,-0.3558235,1.8290219,-14.313019,0.0,0.0,0.0,-0.34,0.94,-0.01,0.0,0.0,0.0,0.0,0.0,0.0,0.0,1.9594687,488.83002,0.0,0.0,0.0,0.0,0.0,0.0,inf,inf,inf,inf,1,1,1,1,0,0,0,0,1,1,0
9255228000,0,47.3977508,8.5456074,-0.38918194,1.919344,-14.315002,0.0,0.0,0.0,-0.35,0.97999996,-0.01,0.0,0.0,0.0,0.0,0.0,0.0,0.0,1.9592291,488.83002,0.0,0.0,0.0,0.0,0.0,0.0,inf,inf,inf,inf,1,1,1,1,0,0,0,0,1,1,0
9255328000,0,47.3977508,8.5456074,-0.42254037,2.0247197,-14.317017,0.0,0.0,0.0,-0.35999998,1.01,-0.01,0.0,0.0,0.0,0.0,0.0,0.0,0.0,1.958908,488.83002,0.0,0.0,0.0,0.0,0.0,0.0,inf,inf,inf,inf,1,1,1,1,0,0,0,0,1,1,0
9255428000,0,47.3977508,8.5456074,-0.45589882,2.1300955,-14.319,0.0,0.0,0.0,-0.37,1.04,-0.01,0.0,0.0,0.0,0.0,0.0,0.0,0.0,1.9587069,488.83002,0.0,0.0,0.0,0.0,0.0,0.0,inf,inf,inf,inf,1,1,1,1,0,0,0,0,1,1,0
9255528000,0,47.3977508,8.5456074,-0.50037676,2.2354712,-14.320007,0.0,0.0,0.0,-0.38,1.0799999,-0.01,0.0,0.0,0.0,0.0,0.0,0.0,0.0,1.9586699,488.83002,0.0,0.0,0.0,0.0,0.0,0.0,inf,inf,inf,inf,1,1,1,1,0,0,0,0,1,1,0
9255624000,0,47.3977508,8.5456074,-0.53373516,2.340847,-14.3220215,0.0,0.0,0.0,-0.39999998,1.12,-0.01,0.0,0.0,0.0,0.0,0.0,0.0,0.0,1.9585742,488.83002,0.0,0.0,0.0,0.0,0.0,0.0,inf,inf,inf,inf,1,1,1,1,0,0,0,0,1,1,0
9255728000,0,47.3977508,8.5456074,-0.5782131,2.4537497,-14.322998,0.0,0.0,0.0,-0.41,1.16,-0.01,0.0,0.0,0.0,0.0,0.0,0.0,0.0,1.9584223,488.83002,0.0,0.0,0.0,0.0,0.0,0.0,inf,inf,inf,inf,1,1,1,1,0,0,0,0,1,1,0
9255824000,0,47.3977508,8.5456074,-0.62269104,2.5741792,-14.324005,0.0,0.0,0.0,-0.42,1.1899999,-0.01,0.0,0.0,0.0,0.0,0.0,0.0,0.0,1.9583255,488.83002,0.0,0.0,0.0,0.0,0.0,0.0,inf,inf,inf,inf,1,1,1,1,0,0,0,0,1,1,0
9255928000,0,47.3977508,8.5456074,-0.6671689,2.7021353,-14.326019,0.0,0.0,0.0,-0.44,1.24,-0.01,0.0,0.0,0.0,0.0,0.0,0.0,0.0,1.9582962,488.83002,0.0,0.0,0.0,0.0,0.0,0.0,inf,inf,inf,inf,1,1,1,1,0,0,0,0,1,1,0
9256024000,0,47.3977508,8.5456074,-0.70052737,2.815038,-14.326996,0.0,0.0,0.0,-0.45999998,1.28,0.0,0.0,0.0,0.0,0.0,0.0,0.0,0.0,1.9582199,488.83002,0.0,0.0,0.0,0.0,0.0,0.0,inf,inf,inf,inf,1,1,1,1,0,0,0,0,1,1,0
9256128000,0,47.3977508,8.5456074,-0.75612473,2.9580479,-14.326996,0.0,0.0,0.0,-0.48,1.3199999,0.0,0.0,0.0,0.0,0.0,0.0,0.0,0.0,1.958093,488.83002,0.0,0.0,0.0,0.0,0.0,0.0,inf,inf,inf,inf,1,1,1,1,0,0,0,0,1,1,0
9256228000,0,47.3977508,8.5456074,-0.8006027,3.0935311,-14.328003,0.0,0.0,0.0,-0.48999998,1.37,0.0,0.0,0.0,0.0,0.0,0.0,0.0,0.0,1.9579778,488.83002,0.0,0.0,0.0,0.0,0.0,0.0,inf,inf,inf,inf,1,1,1,1,0,0,0,0,1,1,0
9256328000,0,47.3977508,8.5456074,-0.85620004,3.236541,-14.328003,0.0,0.0,0.0,-0.51,1.41,0.0,0.0,0.0,0.0,0.0,0.0,0.0,0.0,1.957862,488.83002,0.0,0.0,0.0,0.0,0.0,0.0,inf,inf,inf,inf,1,1,1,1,0,0,0,0,1,1,0
9256428000,0,47.3977508,8.5456074,-0.9117974,3.3795512,-14.328003,0.0,0.0,0.0,-0.53,1.4599999,0.0,0.0,0.0,0.0,0.0,0.0,0.0,0.0,1.9575982,488.83002,0.0,0.0,0.0,0.0,0.0,0.0,inf,inf,inf,inf,1,1,1,1,0,0,0,0,1,1,0
9256528000,0,47.3977508,8.5456074,-0.96739477,3.530088,-14.32901,0.0,0.0,0.0,-0.55,1.51,0.0,0.0,0.0,0.0,0.0,0.0,0.0,0.0,1.9573935,488.83002,0.0,0.0,0.0,0.0,0.0,0.0,inf,inf,inf,inf,1,1,1,1,0,0,0,0,1,1,0
9256624000,0,47.3977508,8.5456074,-1.0118726,3.6730978,-14.32901,0.0,0.0,0.0,-0.58,1.56,0.0,0.0,0.0,0.0,0.0,0.0,0.0,0.0,1.9572443,488.83002,0.0,0.0,0.0,0.0,0.0,0.0,inf,inf,inf,inf,1,1,1,1,0,0,0,0,1,1,0
9256724000,0,47.3977508,8.5456074,-1.0785896,3.8386884,-14.330017,0.0,0.0,0.0,-0.59999996,1.62,0.0,0.0,0.0,0.0,0.0,0.0,0.0,0.0,1.9570912,488.83002,0.0,0.0,0.0,0.0,0.0,0.0,inf,inf,inf,inf,1,1,1,1,0,0,0,0,1,1,0
9256828000,0,47.3977508,8.5456074,-1.1453063,4.011806,-14.330017,0.0,0.0,0.0,-0.62,1.67,0.0,0.0,0.0,0.0,0.0,0.0,0.0,0.0,1.9571728,488.83002,0.0,0.0,0.0,0.0,0.0,0.0,inf,inf,inf,inf,1,1,1,1,0,0,0,0,1,1,0
9256928000,0,47.3977508,8.5456074,-1.2120233,4.1773963,-14.330017,0.0,0.0,0.0,-0.65,1.73,0.0,0.0,0.0,0.0,0.0,0.0,0.0,0.0,1.9571093,488.83002,0.0,0.0,0.0,0.0,0.0,0.0,inf,inf,inf,inf,1,1,1,1,0,0,0,0,1,1,0
9257028000,0,47.3977508,8.5456074,-1.27874,4.3580403,-14.330017,0.0,0.0,0.0,-0.66999996,1.79,0.0,0.0,0.0,0.0,0.0,0.0,0.0,0.0,1.9570258,488.83002,0.0,0.0,0.0,0.0,0.0,0.0,inf,inf,inf,inf,1,1,1,1,0,0,0,0,1,1,0
9257128000,0,47.3977508,8.5456074,-1.3454568,4.538685,-14.32901,0.0,0.0,0.0,-0.7,1.8499999,0.0,0.0,0.0,0.0,0.0,0.0,0.0,0.0,1.9569966,488.83002,0.0,0.0,0.0,0.0,0.0,0.0,inf,inf,inf,inf,1,1,1,1,0,0,0,0,1,1,0
9257224000,0,47.3977508,8.5456074,-1.4121736,4.711802,-14.32901,0.0,0.0,0.0,-0.71999997,1.92,0.0,0.0,0.0,0.0,0.0,0.0,0.0,0.0,1.9570004,488.83002,0.0,0.0,0.0,0.0,0.0,0.0,inf,inf,inf,inf,1,1,1,1,0,0,0,0,1,1,0
9257328000,0,47.3977508,8.5456074,-1.4900099,4.9300804,-14.328003,0.0,0.0,0.0,-0.75,1.99,0.0,0.0,0.0,0.0,0.0,0.0,0.0,0.0,1.9570441,488.83002,0.0,0.0,0.0,0.0,0.0,0.0,inf,inf,inf,inf,1,1,1,1,0,0,0,0,1,1,0
9257428000,0,47.3977508,8.5456074,-1.5678462,5.1257787,-14.328003,0.0,0.0,0.0,-0.78,2.06,0.0,0.0,0.0,0.0,0.0,0.0,0.0,0.0,1.9570884,488.83002,0.0,0.0,0.0,0.0,0.0,0.0,inf,inf,inf,inf,1,1,1,1,0,0,0,0,1,1,0
9257528000,0,47.3977508,8.5456074,-1.6456825,5.344057,-14.328003,0.0,0.0,0.0,-0.79999995,2.1299999,0.0,0.0,0.0,0.0,0.0,0.0,0.0,0.0,1.9570929,488.83002,0.0,0.0,0.0,0.0,0.0,0.0,inf,inf,inf,inf,1,1,1,1,0,0,0,0,1,1,0
9257624000,0,47.3977508,8.5456074,-1.7235187,5.5472817,-14.32901,0.0,0.0,0.0,-0.83,2.21,-0.01,0.0,0.0,0.0,0.0,0.0,0.0,0.0,1.957171,488.83002,0.0,0.0,0.0,0.0,0.0,0.0,inf,inf,inf,inf,1,1,1,1,0,0,0,0,1,1,0
9257724000,0,47.3977508,8.5456074,-1.8124745,5.773087,-14.330017,0.0,0.0,0.0,-0.85999995,2.28,-0.01,0.0,0.0,0.0,0.0,0.0,0.0,0.0,1.9573172,488.83002,0.0,0.0,0.0,0.0,0.0,0.0,inf,inf,inf,inf,1,1,1,1,0,0,0,0,1,1,0
9257828000,0,47.3977508,8.5456074,-1.9014301,6.013946,-14.332001,0.0,0.0,0.0,-0.9,2.37,-0.01,0.0,0.0,0.0,0.0,0.0,0.0,0.0,1.9574207,488.83002,0.0,0.0,0.0,0.0,0.0,0.0,inf,inf,inf,inf,1,1,1,1,0,0,0,0,1,1,0
9257928000,0,47.3977508,8.5456074,-1.9903859,6.262332,-14.333008,0.0,0.0,0.0,-0.93,2.46,-0.01,0.0,0.0,0.0,0.0,0.0,0.0,0.0,1.9573606,488.83002,0.0,0.0,0.0,0.0,0.0,0.0,inf,inf,inf,inf,1,1,1,1,0,0,0,0,1,1,0
9258024000,0,47.3977508,8.5456074,-2.090461,6.503191,-14.334015,0.0,0.0,0.0,-0.96999997,2.54,-0.01,0.0,0.0,0.0,0.0,0.0,0.0,0.0,1.9572467,488.83002,0.0,0.0,0.0,0.0,0.0,0.0,inf,inf,inf,inf,1,1,1,1,0,0,0,0,1,1,0
9258124000,0,47.3977508,8.5456074,-2.1905363,6.7666306,-14.335022,0.0,0.0,0.0,-1.0,2.6399999,-0.01,0.0,0.0,0.0,0.0,0.0,0.0,0.0,1.9573797,488.83002,0.0,0.0,0.0,0.0,0.0,0.0,inf,inf,inf,inf,1,1,1,1,0,0,0,0,1,1,0
9258228000,0,47.3977508,8.5456074,-2.2906113,7.0451236,-14.337006,0.0,0.0,0.0,-1.04,2.74,-0.01,0.0,0.0,0.0,0.0,0.0,0.0,0.0,1.957508,488.83002,0.0,0.0,0.0,0.0,0.0,0.0,inf,inf,inf,inf,1,1,1,1,0,0,0,0,1,1,0
9258328000,0,47.3977508,8.5456074,-2.4018059,7.31609,-14.33902,0.0,0.0,0.0,-1.0799999,2.84,-0.01,0.0,0.0,0.0,0.0,0.0,0.0,0.0,1.9576199,488.83002,0.0,0.0,0.0,0.0,0.0,0.0,inf,inf,inf,inf,1,1,1,1,0,0,0,0,1,1,0
9258428000,0,47.3977508,8.5456074,-2.5130005,7.617164,-14.339996,0.0,0.0,0.0,-1.12,2.9399998,-0.01,0.0,0.0,0.0,0.0,0.0,0.0,0.0,1.9575803,488.83002,0.0,0.0,0.0,0.0,0.0,0.0,inf,inf,inf,inf,1,1,1,1,0,0,0,0,1,1,0
9258528000,0,47.3977508,8.5456074,-2.6241949,7.903184,-14.3420105,0.0,0.0,0.0,-1.16,3.05,-0.01,0.0,0.0,0.0,0.0,0.0,0.0,0.0,1.9576293,488.83002,0.0,0.0,0.0,0.0,0.0,0.0,inf,inf,inf,inf,1,1,1,1,0,0,0,0,1,1,0
9258628000,0,47.3977508,8.5456074,-2.7353895,8.219312,-14.343994,0.0,0.0,0.0,-1.1999999,3.1599998,-0.01,0.0,0.0,0.0,0.0,0.0,0.0,0.0,1.9578167,488.83002,0.0,0.0,0.0,0.0,0.0,0.0,inf,inf,inf,inf,1,1,1,1,0,0,0,0,1,1,0
9258728000,0,47.3977508,8.5456074,-2.8688228,8.550493,-14.345001,0.0,0.0,0.0,-1.25,3.28,-0.01,0.0,0.0,0.0,0.0,0.0,0.0,0.0,1.9580024,488.83002,0.0,0.0,0.0,0.0,0.0,0.0,inf,inf,inf,inf,1,1,1,1,0,0,0,0,1,1,0
9258828000,0,47.3977508,8.5456074,-2.9911368,8.889201,-14.346008,0.0,0.0,0.0,-1.29,3.3999999,0.0,0.0,0.0,0.0,0.0,0.0,0.0,0.0,1.9582027,488.83002,0.0,0.0,0.0,0.0,0.0,0.0,inf,inf,inf,inf,1,1,1,1,0,0,0,0,1,1,0
9258924000,0,47.3977508,8.5456074,-3.1245701,9.220383,-14.345001,0.0,0.0,0.0,-1.3299999,3.5,0.02,0.0,0.0,0.0,0.0,0.0,0.0,0.0,1.958276,488.83002,0.0,0.0,0.0,0.0,0.0,0.0,inf,inf,inf,inf,1,1,1,1,0,0,0,0,1,1,0
9259028000,0,47.3977508,8.5456074,-3.2580035,9.589198,-14.3420105,0.0,0.0,0.0,-1.36,3.58,0.04,0.0,0.0,0.0,0.0,0.0,0.0,0.0,1.9585267,488.83002,0.0,0.0,0.0,0.0,0.0,0.0,inf,inf,inf,inf,1,1,1,1,0,0,0,0,1,1,0
9259124000,0,47.3977508,8.5456074,-3.3914368,9.94296,-14.338013,0.0,0.0,0.0,-1.39,3.62,0.03,0.0,0.0,0.0,0.0,0.0,0.0,0.0,1.9588232,488.83002,0.0,0.0,0.0,0.0,0.0,0.0,inf,inf,inf,inf,1,1,1,1,0,0,0,0,1,1,0
9259228000,0,47.3977508,8.5456074,-3.5359895,10.304249,-14.335022,0.0,0.0,0.0,-1.39,3.61,0.04,0.0,0.0,0.0,0.0,0.0,0.0,0.0,1.9591852,488.83002,0.0,0.0,0.0,0.0,0.0,0.0,inf,inf,inf,inf,1,1,1,1,0,0,0,0,1,1,0
9259324000,0,47.3977508,8.5456074,-3.6805425,10.665537,-14.330017,0.0,0.0,0.0,-1.39,3.58,0.049999997,0.0,0.0,0.0,0.0,0.0,0.0,0.0,1.9596618,488.83002,0.0,0.0,0.0,0.0,0.0,0.0,inf,inf,inf,inf,1,1,1,1,0,0,0,0,1,1,0
9259428000,0,47.3977508,8.5456074,-3.8250952,11.034352,-14.324005,0.0,0.0,0.0,-1.37,3.49,0.049999997,0.0,0.0,0.0,0.0,0.0,0.0,0.0,1.9599177,488.83002,0.0,0.0,0.0,0.0,0.0,0.0,inf,inf,inf,inf,1,1,1,1,0,0,0,0,1,1,0
9259528000,0,47.3977508,8.5456074,-3.9585283,11.380588,-14.320007,0.0,0.0,0.0,-1.3299999,3.3799999,0.03,0.0,0.0,0.0,0.0,0.0,0.0,0.0,1.9599975,488.83002,0.0,0.0,0.0,0.0,0.0,0.0,inf,inf,inf,inf,1,1,1,1,0,0,0,0,1,1,0
9259628000,0,47.3977508,8.5456074,-4.0919614,11.711769,-14.3160095,0.0,0.0,0.0,-1.29,3.26,0.03,0.0,0.0,0.0,0.0,0.0,0.0,0.0,1.9594909,488.83002,0.0,0.0,0.0,0.0,0.0,0.0,inf,inf,inf,inf,1,1,1,1,0,0,0,0,1,1,0
9259728000,0,47.3977508,8.5456074,-4.2142754,12.035423,-14.313019,0.0,0.0,0.0,-1.25,3.1399999,0.03,0.0,0.0,0.0,0.0,0.0,0.0,0.0,1.9588199,488.83002,0.0,0.0,0.0,0.0,0.0,0.0,inf,inf,inf,inf,1,1,1,1,0,0,0,0,1,1,0
9259828000,0,47.3977508,8.5456074,-4.3365893,12.344025,-14.309998,0.0,0.0,0.0,-1.2099999,3.03,0.02,0.0,0.0,0.0,0.0,0.0,0.0,0.0,1.9584417,488.83002,0.0,0.0,0.0,0.0,0.0,0.0,inf,inf,inf,inf,1,1,1,1,0,0,0,0,1,1,0
9259928000,0,47.3977508,8.5456074,-4.458903,12.630045,-14.307007,0.0,0.0,0.0,-1.17,2.9199998,0.02,0.0,0.0,0.0,0.0,0.0,0.0,0.0,1.9581698,488.83002,0.0,0.0,0.0,0.0,0.0,0.0,inf,inf,inf,inf,1,1,1,1,0,0,0,0,1,1,0
9260028000,0,47.3977508,8.5456074,-4.5700974,12.916065,-14.304993,0.0,0.0,0.0,-1.13,2.81,0.02,0.0,0.0,0.0,0.0,0.0,0.0,0.0,1.9578959,488.83002,0.0,0.0,0.0,0.0,0.0,0.0,inf,inf,inf,inf,1,1,1,1,0,0,0,0,1,1,0
9260124000,0,47.3977508,8.5456074,-4.6812916,13.194559,-14.302002,0.0,0.0,0.0,-1.09,2.71,0.02,0.0,0.0,0.0,0.0,0.0,0.0,0.0,1.9575691,488.83002,0.0,0.0,0.0,0.0,0.0,0.0,inf,inf,inf,inf,1,1,1,1,0,0,0,0,1,1,0
9260228000,0,47.3977508,8.5456074,-4.7924857,13.473052,-14.300018,0.0,0.0,0.0,-1.06,2.6,0.02,0.0,0.0,0.0,0.0,0.0,0.0,0.0,1.9573387,488.83002,0.0,0.0,0.0,0.0,0.0,0.0,inf,inf,inf,inf,1,1,1,1,0,0,0,0,1,1,0
9260328000,0,47.3977508,8.5456074,-4.9036803,13.728965,-14.298004,0.0,0.0,0.0,-1.02,2.5,0.02,0.0,0.0,0.0,0.0,0.0,0.0,0.0,1.9569876,488.83002,0.0,0.0,0.0,0.0,0.0,0.0,inf,inf,inf,inf,1,1,1,1,0,0,0,0,1,1,0
9260428000,0,47.3977508,8.5456074,-5.003755,13.969825,-14.2960205,0.0,0.0,0.0,-0.98999995,2.3999999,0.02,0.0,0.0,0.0,0.0,0.0,0.0,0.0,1.9566827,488.83002,0.0,0.0,0.0,0.0,0.0,0.0,inf,inf,inf,inf,1,1,1,1,0,0,0,0,1,1,0
9260528000,0,47.3977508,8.5456074,-5.0927105,14.210684,-14.292999,0.0,0.0,0.0,-0.95,2.31,0.02,0.0,0.0,0.0,0.0,0.0,0.0,0.0,1.956524,488.83002,0.0,0.0,0.0,0.0,0.0,0.0,inf,inf,inf,inf,1,1,1,1,0,0,0,0,1,1,0
9260624000,0,47.3977508,8.5456074,-5.1927853,14.428963,-14.291016,0.0,0.0,0.0,-0.91999996,2.22,0.02,0.0,0.0,0.0,0.0,0.0,0.0,0.0,1.9564165,488.83002,0.0,0.0,0.0,0.0,0.0,0.0,inf,inf,inf,inf,1,1,1,1,0,0,0,0,1,1,0
9260728000,0,47.3977508,8.5456074,-5.2817407,14.654768,-14.289001,0.0,0.0,0.0,-0.89,2.1299999,0.01,0.0,0.0,0.0,0.0,0.0,0.0,0.0,1.9563679,488.83002,0.0,0.0,0.0,0.0,0.0,0.0,inf,inf,inf,inf,1,1,1,1,0,0,0,0,1,1,0
9260828000,0,47.3977508,8.5456074,-5.370696,14.8655205,-14.287018,0.0,0.0,0.0,-0.85999995,2.04,0.02,0.0,0.0,0.0,0.0,0.0,0.0,0.0,1.9561988,488.83002,0.0,0.0,0.0,0.0,0.0,0.0,inf,inf,inf,inf,1,1,1,1,0,0,0,0,1,1,0
9260928000,0,47.3977508,8.5456074,-5.448532,15.061218,-14.286011,0.0,0.0,0.0,-0.82,1.9599999,0.01,0.0,0.0,0.0,0.0,0.0,0.0,0.0,1.955975,488.83002,0.0,0.0,0.0,0.0,0.0,0.0,inf,inf,inf,inf,1,1,1,1,0,0,0,0,1,1,0
