timestamp,ref_timestamp,ref_lat,ref_lon,x,y,z,delta_xy[0],delta_xy[1],delta_z,vx,vy,vz,z_deriv,delta_vxy[0],delta_vxy[1],delta_vz,ax,ay,az,yaw,ref_alt,dist_bottom,dist_bottom_rate,eph,epv,evh,evv,vxy_max,vz_max,hagl_min,hagl_max,xy_valid,z_valid,v_xy_valid,v_z_valid,xy_reset_counter,z_reset_counter,vxy_reset_counter,vz_reset_counter,xy_global,z_global,dist_bottom_valid
9232328000,1688000,47.3977508,8.5456074,0.48259032,-0.025272954,-0.032402772,-0.022968095,-0.0035443609,0.0,-0.015277596,-0.06680141,-0.006654051,0.025954386,-0.059729103,-0.009160716,0.12626225,0.029193973,0.0046327803,-0.014537013,0.42052794,0.0,0.1,0.006654051,0.41127014,0.2327448,0.17037562,0.100889,inf,inf,inf,inf,1,1,1,1,2,0,2,2,1,1,1
9232424000,1688000,47.3977508,8.5456074,0.48290306,-0.02488234,-0.030202124,-0.022968095,-0.0035443609,0.0,-0.019662881,-0.06399905,-0.0029617925,0.029213188,-0.059729103,-0.009160716,0.12626225,-0.14427692,-0.0535881,0.045060176,0.42052472,0.0,0.1,0.0029617925,0.42304066,0.23230037,0.17474687,0.10106485,inf,inf,inf,inf,1,1,1,1,2,0,2,2,1,1,1
9232520000,1688000,47.3977508,8.5456074,0.48282844,-0.02515716,-0.027938653,-0.022968095,-0.0035443609,0.0,-0.020883746,-0.060702395,-0.0017202259,0.029846212,-0.059729103,-0.009160716,0.12626225,-0.012788041,0.009809856,-0.028075648,0.4206101,0.0,0.1,0.0017202259,0.41013536,0.23218603,0.16999477,0.10071613,inf,inf,inf,inf,1,1,1,1,2,0,2,2,1,1,1
9232624000,1688000,47.3977508,8.5456074,0.483329,-0.024108816,-0.025403105,-0.022968095,-0.0035443609,0.0,-0.021548657,-0.05745587,0.0007660218,0.031610984,-0.059729103,-0.009160716,0.12626225,-0.0012353993,0.003541212,-0.04581641,0.42057323,0.0,0.1,-0.0007660218,0.42286167,0.23237889,0.1747091,0.10108363,inf,inf,inf,inf,1,1,1,1,2,0,2,2,1,1,1
9232720000,1688000,47.3977508,8.5456074,0.4834029,-0.02393688,-0.023652062,-0.022968095,-0.0035443609,0.0,-0.019708745,-0.055303045,0.0015210505,0.031018909,-0.059729103,-0.009160716,0.12626225,0.04457946,0.047130242,0.013370997,0.42027274,0.0,0.1,-0.0015210505,0.40998098,0.23227577,0.16996077,0.10073998,inf,inf,inf,inf,1,1,1,1,2,0,2,2,1,1,1
9232824000,1688000,47.3977508,8.5456074,0.48354924,-0.022667335,-0.022294292,-0.022968095,-0.0035443609,0.0,-0.018785356,-0.055006545,0.0037380173,0.031389773,-0.059729103,-0.009160716,0.12626225,-0.08680651,0.031467095,0.07429439,0.42027187,0.0,0.1,-0.0037380173,0.42270556,0.23247083,0.17467956,0.10110882,inf,inf,inf,inf,1,1,1,1,2,0,2,2,1,1,1
9232920000,1688000,47.3977508,8.5456074,0.48348102,-0.022550894,-0.02027081,-0.022968095,-0.0035443609,0.0,-0.021058172,-0.054078244,0.0052441023,0.031891886,-0.059729103,-0.009160716,0.12626225,0.0021290542,-0.09033353,-0.020877456,0.42042586,0.0,0.1,-0.0052441023,0.409846,0.23236997,0.16994154,0.1007663,inf,inf,inf,inf,1,1,1,1,2,0,2,2,1,1,1
9233024000,1688000,47.3977508,8.5456074,0.48382586,-0.021761103,-0.017902868,-0.022968095,-0.0035443609,0.0,-0.020998338,-0.053460337,0.008470949,0.03408729,-0.059729103,-0.009160716,0.12626225,-0.010423951,-0.05439841,-0.022511927,0.42023915,0.0,0.1,-0.008470949,0.4225698,0.23256703,0.17465463,0.1011364,inf,inf,inf,inf,1,1,1,1,2,0,2,2,1,1,1
9233120000,1688000,47.3977508,8.5456074,0.48372406,-0.021858595,-0.016556928,-0.022968095,-0.0035443609,0.0,-0.020268673,-0.052777413,0.010056764,0.033776626,-0.059729103,-0.009160716,0.12626225,-0.026195748,-0.019245634,0.02929475,0.42031822,0.0,0.1,-0.010056764,0.40972883,0.2324682,0.16991696,0.100794785,inf,inf,inf,inf,1,1,1,1,2,0,2,2,1,1,1
9233224000,1688000,47.3977508,8.5456074,0.4836893,-0.020750182,-0.014640374,-0.022968095,-0.0035443609,0.0,-0.019473717,-0.049875427,0.011887144,0.034008626,-0.059729103,-0.009160716,0.12626225,-0.021861548,-0.034483295,0.03460701,0.4203864,0.0,0.1,-0.011887144,0.42245185,0.23266709,0.17462787,0.10116581,inf,inf,inf,inf,1,1,1,1,2,0,2,2,1,1,1
9233320000,1688000,47.3977508,8.5456074,0.4832881,-0.02057098,-0.012908292,-0.022968095,-0.0035443609,0.0,-0.020333147,-0.049698222,0.012298003,0.03300014,-0.059729103,-0.009160716,0.12626225,-0.017306825,-0.046889875,0.038982365,0.42032653,0.0,0.1,-0.012298003,0.40962702,0.232562,0.16988838,0.10082134,inf,inf,inf,inf,1,1,1,1,2,0,2,2,1,1,1
9233424000,1688000,47.3977508,8.5456074,0.48274252,-0.019583916,-0.011018174,-0.022968095,-0.0035443609,0.0,-0.021715887,-0.048119117,0.013479729,0.03274208,-0.059729103,-0.009160716,0.12626225,0.0015757068,-0.0012874407,0.06060395,0.42014906,0.0,0.1,-0.013479729,0.4223498,0.2327548,0.17460845,0.101189956,inf,inf,inf,inf,1,1,1,1,2,0,2,2,1,1,1
9233528000,1688000,47.3977508,8.5456074,0.48198646,-0.019326482,-0.0087219095,-0.022968095,-0.0035443609,0.0,-0.020752724,-0.047419064,0.014186373,0.032524545,-0.059729103,-0.009160716,0.12626225,0.105469845,-0.062497832,-0.040243376,0.42000973,0.0,0.1,-0.014186373,0.41049635,0.23170869,0.17023598,0.100632474,inf,inf,inf,inf,1,1,1,1,2,0,2,2,1,1,1
9233624000,1688000,47.3977508,8.5456074,0.48150384,-0.01871395,-0.0058042463,-0.022968095,-0.0035443609,0.0,-0.02039616,-0.04612996,0.016048914,0.03431543,-0.059729103,-0.009160716,0.12626225,-0.03685993,0.050562117,0.0028247011,0.42020082,0.0,0.1,-0.016048914,0.42226216,0.23285541,0.1745983,0.101219855,inf,inf,inf,inf,1,1,1,1,2,0,2,2,1,1,1
9233720000,1688000,47.3977508,8.5456074,0.48088044,-0.018563382,-0.0027909158,-0.022968095,-0.0035443609,0.0,-0.018382372,-0.043431394,0.020067394,0.038000327,-0.059729103,-0.009160716,0.12626225,-0.006982856,-0.05415214,0.05189422,0.4202494,0.0,0.1,-0.020067394,0.40946284,0.23119421,0.16986863,0.10048012,inf,inf,inf,inf,1,1,1,1,2,0,2,2,1,1,1
9233824000,1688000,47.3977508,8.5456074,0.48051417,-0.016906634,0.00042101913,-0.022968095,-0.0035443609,0.0,-0.019178703,-0.039933834,0.019935422,0.03732247,-0.059729103,-0.009160716,0.12626225,0.061297365,-0.023300901,0.02856925,0.4201818,0.0,0.1,-0.019935422,0.42218712,0.23295976,0.17457777,0.101251215,inf,inf,inf,inf,1,1,1,1,2,0,2,2,1,1,1
9233928000,1688000,47.3977508,8.5456074,0.47958854,-0.017002184,0.0039853333,-0.022968095,-0.0035443609,0.0,-0.02039532,-0.03865599,0.02239718,0.03947766,-0.059729103,-0.009160716,0.12626225,0.027978586,-0.022315715,-0.044181008,0.42017707,0.0,0.1,-0.02239718,0.4355079,0.23314948,0.17936322,0.101601206,inf,inf,inf,inf,1,1,1,1,2,0,2,2,1,1,1
9234024000,1688000,47.3977508,8.5456074,0.47844908,-0.017419761,0.007104996,-0.022968095,-0.0035443609,0.0,-0.023057356,-0.03776274,0.02352696,0.040042534,-0.059729103,-0.009160716,0.12626225,0.0318269,-0.05087473,-0.02937298,0.42004,0.0,0.1,-0.02352696,0.4207993,0.23147362,0.17380416,0.100835,inf,inf,inf,inf,1,1,1,1,2,0,2,2,1,1,1
9234120000,1688000,47.3977508,8.5456074,0.47763526,-0.016856927,0.009706629,-0.022968095,-0.0035443609,0.0,-0.02231504,-0.034456413,0.0060179015,0.021622876,-0.059729103,-0.009160716,0.12626225,-0.04940633,0.088428356,-0.82394195,0.41983446,0.0,0.1,-0.0060179015,0.4329861,0.23262244,0.1782079,0.101410255,inf,inf,inf,inf,1,1,1,1,2,0,2,2,1,1,1
9234224000,1688000,47.3977508,8.5456074,0.4768043,-0.016215658,0.0033607206,-0.022968095,-0.0035443609,0.0,-0.01918471,-0.025771074,-0.13849492,-0.12421582,-0.059729103,-0.009160716,0.12626225,0.043071367,0.08041533,-1.4979335,0.4198076,0.0,0.1,0.13849492,0.41954094,0.23156843,0.17313959,0.10082792,inf,inf,inf,inf,1,1,1,1,2,0,2,2,1,1,1
9234320000,1688000,47.3977508,8.5456074,0.47699118,-0.0131615335,-0.016081033,-0.022968095,-0.0035443609,0.0,-0.011586325,-0.005553948,-0.26490426,-0.25167993,-0.059729103,-0.009160716,0.12626225,0.08731383,0.19516483,-1.2624207,0.42015722,0.0,0.120286085,0.26490426,0.43165395,0.23271862,0.17777899,0.10140411,inf,inf,inf,inf,1,1,1,1,2,0,2,2,1,1,1
9234424000,1688000,47.3977508,8.5456074,0.4778937,-0.008992564,-0.049943388,-0.022968095,-0.0035443609,0.0,-0.004997499,0.009755759,-0.39111575,-0.37885842,-0.059729103,-0.009160716,0.12626225,0.010135168,0.08846001,-1.3168211,0.42037836,0.0,0.15414843,0.39111575,0.4183885,0.23166338,0.1734268,0.10082234,inf,inf,inf,inf,1,1,1,1,2,0,2,2,1,1,1
9234528000,1688000,47.3977508,8.5456074,0.48013243,-0.003546101,-0.09621814,-0.022968095,-0.0035443609,0.0,-0.0022547063,0.016243754,-0.5308113,-0.51789707,-0.059729103,-0.009160716,0.12626225,-0.018625941,0.0063041947,-1.3129599,0.4204402,0.0,0.20042318,0.5308113,0.4315188,0.23343845,0.17876111,0.10158261,inf,inf,inf,inf,1,1,1,1,2,0,2,2,1,1,1
9234624000,1688000,47.3977508,8.5456074,0.48175752,0.0009505161,-0.15187721,-0.022968095,-0.0035443609,0.0,-0.0016300402,0.016416768,-0.653375,-0.64031315,-0.059729103,-0.009160716,0.12626225,-0.032715622,-0.03477394,-1.2930388,0.42057145,0.0,0.25608227,0.653375,0.41738862,0.23175043,0.1739117,0.10081558,inf,inf,inf,inf,1,1,1,1,2,0,2,2,1,1,1
9234720000,1688000,47.3977508,8.5456074,0.4833504,0.0056139156,-0.21944559,-0.022968095,-0.0035443609,0.0,-0.002093449,0.016409874,-0.77576196,-0.76277405,-0.059729103,-0.009160716,0.12626225,-0.036585286,0.01518862,-1.169987,0.42049968,0.0,0.32365063,0.77576196,0.42947868,0.23287891,0.17888612,0.10138447,inf,inf,inf,inf,1,1,1,1,2,0,2,2,1,1,1
9234824000,1688000,47.3977508,8.5456074,0.48458272,0.009956609,-0.3066904,-0.022968095,-0.0035443609,0.0,-0.0036501533,0.0119658755,-0.9137648,-0.901455,-0.059729103,-0.009160716,0.12626225,-0.06814361,-0.12702236,-1.2998738,0.42056128,0.0,0.41089544,0.9137648,0.41652378,0.23179913,0.17444225,0.10079645,inf,inf,inf,inf,1,1,1,1,2,0,2,2,1,1,1
9234920000,1688000,47.3977508,8.5456074,0.48554078,0.014537469,-0.3993806,-0.022968095,-0.0035443609,0.0,-0.004651717,0.009166167,-1.0383481,-1.0261483,-0.059729103,-0.009160716,0.12626225,0.0024963845,0.0063101575,-1.3833631,0.4206335,0.0,0.50358564,1.0383481,0.42861265,0.23293073,0.17939827,0.10136841,inf,inf,inf,inf,1,1,1,1,2,0,2,2,1,1,1
9235024000,1688000,47.3977508,8.5456074,0.48635724,0.018589469,-0.5142727,-0.022968095,-0.0035443609,0.0,-0.0065024863,0.0044389614,-1.1704915,-1.1595119,-0.059729103,-0.009160716,0.12626225,-4.5110934e-05,-0.04606788,-1.3284562,0.42074317,0.0,0.61847776,1.1704915,0.415779,0.23185296,0.17495859,0.100783534,inf,inf,inf,inf,1,1,1,1,2,0,2,2,1,1,1
9235120000,1688000,47.3977508,8.5456074,0.4876223,0.023036577,-0.632501,-0.022968095,-0.0035443609,0.0,-0.0063318717,0.001816252,-1.2953142,-1.2851413,-0.059729103,-0.009160716,0.12626225,-0.017732447,-0.07757223,-1.2196125,0.4207695,0.0,0.7367061,1.2953142,0.42787212,0.23298772,0.17992249,0.101358086,inf,inf,inf,inf,1,1,1,1,2,0,2,2,1,1,1
9235224000,1688000,47.3977508,8.5456074,0.48851773,0.026803592,-0.7738086,-0.022968095,-0.0035443609,0.0,-0.006096711,0.0017681286,-1.4282514,-1.4187918,-0.059729103,-0.009160716,0.12626225,-0.068207,-0.009835632,-1.2858938,0.42076397,0.0,0.8780137,1.4282514,0.41514245,0.23192,0.17543668,0.10077937,inf,inf,inf,inf,1,1,1,1,2,0,2,2,1,1,1
9235320000,1688000,47.3977508,8.5456074,0.48899952,0.030456489,-0.9163868,-0.022968095,-0.0035443609,0.0,-0.005610568,-0.00087700423,-1.5524142,-1.5433798,-0.059729103,-0.009160716,0.12626225,0.036853835,-0.13112067,-1.3783834,0.42085725,0.0,1.0205919,1.5524142,0.42724267,0.23306605,0.1804034,0.10135992,inf,inf,inf,inf,1,1,1,1,2,0,2,2,1,1,1
9235424000,1688000,47.3977508,8.5456074,0.48926905,0.033176024,-1.0851417,-0.022968095,-0.0035443609,0.0,-0.007562502,-0.0052406243,-1.6863246,-1.6785398,-0.059729103,-0.009160716,0.12626225,-0.01834685,-0.11335424,-1.349598,0.42060527,0.0,1.1893467,1.6863246,0.4146007,0.23200703,0.17588772,0.10078628,inf,inf,inf,inf,1,1,1,1,2,0,2,2,1,1,1
9235520000,1688000,47.3977508,8.5456074,0.48925623,0.035619024,-1.2542241,-0.022968095,-0.0035443609,0.0,-0.0064244014,-0.007707571,-1.8097458,-1.8038876,-0.059729103,-0.009160716,0.12626225,0.03128876,-0.07910251,-1.2134676,0.4208191,0.0,1.3584291,1.8097458,0.42671087,0.23315579,0.18084812,0.10136883,inf,inf,inf,inf,1,1,1,1,2,0,2,2,1,1,1
9235624000,1688000,47.3977508,8.5456074,0.48930234,0.03727635,-1.4516761,-0.022968095,-0.0035443609,0.0,-0.0040888097,-0.010878311,-1.9376317,-1.9348217,-0.059729103,-0.009160716,0.12626225,-0.10837421,-0.037808683,-1.2547504,0.42083737,0.0,1.5558811,1.9376317,0.41414252,0.2320967,0.17630039,0.10079663,inf,inf,inf,inf,1,1,1,1,2,0,2,2,1,1,1
9235720000,1688000,47.3977508,8.5456074,0.48939845,0.038761627,-1.6460116,-0.022968095,-0.0035443609,0.0,-0.0053732623,-0.0124979885,-2.061314,-2.0609932,-0.059729103,-0.009160716,0.12626225,-0.045607388,-0.027973333,-1.227024,0.4207086,0.0,1.7502166,2.061314,0.42626494,0.23324816,0.18125048,0.101381004,inf,inf,inf,inf,1,1,1,1,2,0,2,2,1,1,1
9235824000,1688000,47.3977508,8.5456074,0.4891578,0.03959811,-1.8703235,-0.022968095,-0.0035443609,0.0,-0.0062862127,-0.014073355,-2.19161,-2.194262,-0.059729103,-0.009160716,0.12626225,0.06444743,0.00017475394,-1.2927073,0.41954333,0.0,1.9745286,2.19161,0.41382238,0.23218891,0.17403115,0.1008024,inf,inf,inf,inf,1,1,1,1,2,0,2,2,1,1,1
9235920000,1688000,47.3977508,8.5456074,0.48887363,0.040635727,-2.0896974,-0.022968095,-0.0035443609,0.0,-0.008182917,-0.014455514,-2.3141525,-2.319303,-0.059729103,-0.009160716,0.12626225,0.0040942994,0.02082066,-1.2382966,0.41978773,0.0,2.1939025,2.3141525,0.42573112,0.2333426,0.17486016,0.101393834,inf,inf,inf,inf,1,1,1,1,2,0,2,2,1,1,1
9236024000,1688000,47.3977508,8.5456074,0.48839226,0.040905166,-2.3405302,-0.022968095,-0.0035443609,0.0,-0.0067018694,-0.017012663,-2.4457655,-2.4533474,-0.059729103,-0.009160716,0.12626225,-0.059163082,-0.021981802,-1.2720673,0.42038915,0.0,2.4447353,2.4457655,0.41339916,0.23227464,0.16764985,0.10085009,inf,inf,inf,inf,1,1,1,1,2,0,2,2,1,1,1
9236120000,1688000,47.3977508,8.5456074,0.48825353,0.04097877,-2.5817266,-0.022968095,-0.0035443609,0.0,-0.0055658426,-0.01801355,-2.4543111,-2.4646616,-0.059729103,-0.009160716,0.12626225,-0.07511682,-0.015789641,1.1928788,0.42073822,0.0,2.6859317,2.4543111,0.42489776,0.2318491,0.17016529,0.101082616,inf,inf,inf,inf,1,1,1,1,2,0,2,2,1,1,1
9236224000,1688000,47.3977508,8.5456074,0.48787588,0.04043008,-2.8335383,-0.022968095,-0.0035443609,0.0,-0.007912439,-0.017151628,-2.2948194,-2.3085353,-0.059729103,-0.009160716,0.12626225,-0.122340925,-0.04887077,1.3168062,0.42093074,0.0,2.9377434,2.2948194,0.41267145,0.23236445,0.16520038,0.10099096,inf,inf,inf,inf,1,1,1,1,2,0,2,2,1,1,1
9236328000,1688000,47.3977508,8.5456074,0.4874431,0.03967316,-3.0718203,-0.022968095,-0.0035443609,0.0,-0.006658679,-0.01699404,-2.2074268,-2.224032,-0.059729103,-0.009160716,0.12626225,0.034449823,0.025732113,0.5827555,0.42105415,0.0,3.1760254,2.2074268,0.42475885,0.23256196,0.16907622,0.10144489,inf,inf,inf,inf,1,1,1,1,2,0,2,2,1,1,1
9236424000,1688000,47.3977508,8.5456074,0.4871086,0.03870552,-3.2858088,-0.022968095,-0.0035443609,0.0,-0.005246855,-0.017043203,-2.1402836,-2.1599486,-0.059729103,-0.009160716,0.12626225,0.05174043,0.058482464,0.7531382,0.42113605,0.0,3.390014,2.1402836,0.41171843,0.23246121,0.16476472,0.101182096,inf,inf,inf,inf,1,1,1,1,2,0,2,2,1,1,1
9236520000,1688000,47.3977508,8.5456074,0.4871535,0.03806425,-3.4947197,-0.022968095,-0.0035443609,0.0,-0.0043353206,-0.017147884,-2.0700908,-2.0941505,-0.059729103,-0.009160716,0.12626225,-0.08796973,-0.00070243544,0.71944946,0.42111632,0.0,3.5989249,2.0700908,0.42257914,0.23204367,0.16946468,0.10147909,inf,inf,inf,inf,1,1,1,1,2,0,2,2,1,1,1
9236624000,1688000,47.3977508,8.5456074,0.48700106,0.03733322,-3.7139428,-0.022968095,-0.0035443609,0.0,-0.0051737768,-0.016526528,-2.001044,-2.0294561,-0.059729103,-0.009160716,0.12626225,0.013415067,-0.046634372,0.6340248,0.4210703,0.0,3.818148,2.001044,0.410625,0.23101185,0.16684757,0.101041906,inf,inf,inf,inf,1,1,1,1,2,0,2,2,1,1,1
9236720000,1688000,47.3977508,8.5456074,0.48684648,0.03726678,-3.909753,-0.022968095,-0.0035443609,0.0,-0.00594106,-0.015110957,-1.944123,-1.9756938,-0.059729103,-0.009160716,0.12626225,0.06669797,0.031344045,0.46244168,0.42104074,0.0,4.013958,1.944123,0.4212901,0.23217458,0.17250888,0.10176966,inf,inf,inf,inf,1,1,1,1,2,0,2,2,1,1,1
9236824000,1688000,47.3977508,8.5456074,0.48664287,0.036807086,-4.116113,-0.022968095,-0.0035443609,0.0,-0.0050111897,-0.013634484,-1.889534,-1.9240305,-0.059729103,-0.009160716,0.12626225,-0.03608763,0.01844041,0.49543005,0.42088127,0.0,4.2203183,1.889534,0.4094879,0.23115417,0.17070864,0.101356216,inf,inf,inf,inf,1,1,1,1,2,0,2,2,1,1,0
9236920000,1688000,47.3977508,8.5456074,0.48656788,0.03617365,-4.3020525,-0.022968095,-0.0035443609,0.0,-0.0033124525,-0.014246234,-1.8453761,-1.8823771,-0.059729103,-0.009160716,0.12626225,0.0337935,0.037809394,0.5332641,0.420855,0.0,4.4062576,1.8453761,0.42005333,0.2323284,0.17721891,0.10211044,inf,inf,inf,inf,1,1,1,1,2,0,2,2,1,1,0
9237024000,1688000,47.3977508,8.5456074,0.48667747,0.035238802,-4.4986844,-0.022968095,-0.0035443609,0.0,-0.0007367778,-0.012824005,-1.8009688,-1.8402789,-0.059729103,-0.009160716,0.12626225,0.039837416,-0.053772274,0.36406142,0.42102194,0.0,4.6028895,1.8009688,0.40840223,0.23131225,0.17589906,0.10171279,inf,inf,inf,inf,1,1,1,1,2,0,2,2,1,1,0
9237120000,1688000,47.3977508,8.5456074,0.48694476,0.0342578,-4.6762743,-0.022968095,-0.0035443609,0.0,-0.0019271127,-0.012360364,-1.7665496,-1.8076153,-0.059729103,-0.009160716,0.12626225,-0.029655907,-0.016425276,0.41092464,0.42147198,0.0,4.7804794,1.7665496,0.4189675,0.23250027,0.18306415,0.1024891,inf,inf,inf,inf,1,1,1,1,2,0,2,2,1,1,0
9237224000,1688000,47.3977508,8.5456074,0.48701614,0.032884825,-4.8633223,-0.022968095,-0.0035443609,0.0,-0.000909871,-0.013015639,-1.7329264,-1.7739483,-0.059729103,-0.009160716,0.12626225,-0.02650401,0.030107817,0.33793783,0.42207348,0.0,4.9675274,1.7329264,0.4074561,0.23148906,0.18183617,0.10210094,inf,inf,inf,inf,1,1,1,1,2,0,2,2,1,1,0
9237320000,1688000,47.3977508,8.5456074,0.48684397,0.031509254,-5.0337777,-0.022968095,-0.0035443609,0.0,-0.003946342,-0.0111689605,-1.7067953,-1.7485117,-0.059729103,-0.009160716,0.12626225,-0.09761162,-0.023405794,0.22141448,0.42228505,0.0,5.137983,1.7067953,0.41811672,0.23269278,0.1894761,0.102895014,inf,inf,inf,inf,1,1,1,1,2,0,2,2,1,1,0
9237424000,1688000,47.3977508,8.5456074,0.4862683,0.02997845,-5.215674,-0.022968095,-0.0035443609,0.0,-0.0038584673,-0.010796832,-1.6819822,-1.7240456,-0.059729103,-0.009160716,0.12626225,-0.015297392,-0.0406211,0.32352003,0.4220166,0.0,5.319879,1.6819822,0.40672156,0.23167872,0.18803811,0.10250763,inf,inf,inf,inf,1,1,1,1,2,0,2,2,1,1,0
9237520000,1688000,47.3977508,8.5456074,0.48567364,0.028280903,-5.380653,-0.022968095,-0.0035443609,0.0,-0.0013419061,-0.011378225,-1.6598315,-1.7017207,-0.059729103,-0.009160716,0.12626225,0.07760748,0.05584407,0.29555333,0.42163318,0.0,5.484858,1.6598315,0.41756353,0.23289159,0.19602326,0.10331283,inf,inf,inf,inf,1,1,1,1,2,0,2,2,1,1,0
9237624000,1688000,47.3977508,8.5456074,0.4848234,0.026480524,-5.557013,-0.022968095,-0.0035443609,0.0,-0.003394088,-0.00946329,-1.6421963,-1.6836557,-0.059729103,-0.009160716,0.12626225,0.060915757,0.04352642,0.18962006,0.42125908,0.0,5.661218,1.6421963,0.4062497,0.23189196,0.19410309,0.10292822,inf,inf,inf,inf,1,1,1,1,2,0,2,2,1,1,0
9237720000,1688000,47.3977508,8.5456074,0.48339343,0.024727061,-5.7170887,-0.022968095,-0.0035443609,0.0,-0.0042682225,-0.00799377,-1.6253753,-1.6654738,-0.059729103,-0.009160716,0.12626225,0.0045172144,0.05031224,0.059637237,0.42104167,0.0,5.821294,1.6253753,0.41734323,0.23312342,0.2022515,0.103742845,inf,inf,inf,inf,1,1,1,1,2,0,2,2,1,1,0
9237824000,1688000,47.3977508,8.5456074,0.48193917,0.022840999,-5.8891535,-0.022968095,-0.0035443609,0.0,-0.0042371633,-0.007752252,-1.6109976,-1.6500685,-0.059729103,-0.009160716,0.12626225,0.02198995,0.066853665,0.15988758,0.4208964,0.0,5.9933586,1.6109976,0.40606582,0.2321289,0.19970387,0.10335311,inf,inf,inf,inf,1,1,1,1,2,0,2,2,1,1,0
9237920000,1688000,47.3977508,8.5456074,0.4807937,0.020656032,-6.0470924,-0.022968095,-0.0035443609,0.0,-0.0021964558,-0.009057074,-1.600766,-1.6393659,-0.059729103,-0.009160716,0.12626225,0.04505868,0.02416819,0.107501626,0.42095342,0.0,6.1512976,1.600766,0.41746238,0.23337932,0.20793064,0.104173906,inf,inf,inf,inf,1,1,1,1,2,0,2,2,1,1,0
9238024000,1688000,47.3977508,8.5456074,0.4795287,0.018152809,-6.2179966,-0.022968095,-0.0035443609,0.0,-0.0025775589,-0.008804875,-1.5877721,-1.626838,-0.059729103,-0.009160716,0.12626225,0.037205696,0.0013379831,0.2949787,0.42100686,0.0,6.3222017,1.5877721,0.40617147,0.23238876,0.20463504,0.10377407,inf,inf,inf,inf,1,1,1,1,2,0,2,2,1,1,0
9238120000,1688000,47.3977508,8.5456074,0.47774124,0.015641384,-6.375225,-0.022968095,-0.0035443609,0.0,-0.001959964,-0.0054647233,-1.5740929,-1.6143509,-0.059729103,-0.009160716,0.12626225,0.034660395,0.039112665,0.14935432,0.42106837,0.0,6.47943,1.5740929,0.41790196,0.23208758,0.21284108,0.104192995,inf,inf,inf,inf,1,1,1,1,2,0,2,2,1,1,0
9238224000,1688000,47.3977508,8.5456074,0.47606704,0.012934518,-6.543377,-0.022968095,-0.0035443609,0.0,-0.0007350773,-0.004133607,-1.5609539,-1.6016879,-0.059729103,-0.009160716,0.12626225,-0.024635246,0.07350825,0.10619312,0.42114052,0.0,6.647582,1.5609539,0.40654662,0.23269449,0.20873116,0.1041931,inf,inf,inf,inf,1,1,1,1,2,0,2,2,1,1,0
9238320000,1688000,47.3977508,8.5456074,0.47422352,0.009086046,-6.6979136,-0.022968095,-0.0035443609,0.0,0.0013262756,-0.008706122,-1.5521611,-1.5935228,-0.059729103,-0.009160716,0.12626225,0.032326955,0.021957027,0.17058569,0.4211666,0.0,6.802119,1.5521611,0.41862077,0.23240447,0.21679796,0.10460561,inf,inf,inf,inf,1,1,1,1,2,0,2,2,1,1,0
9238424000,1688000,47.3977508,8.5456074,0.47247538,0.005117932,-6.8638926,-0.022968095,-0.0035443609,0.0,0.0015789378,-0.006796798,-1.5411139,-1.5827112,-0.059729103,-0.009160716,0.12626225,-0.015369012,0.04913868,0.18361396,0.42115363,0.0,6.9680977,1.5411139,0.40715283,0.23301746,0.21192525,0.104591,inf,inf,inf,inf,1,1,1,1,2,0,2,2,1,1,0
9238528000,1688000,47.3977508,8.5456074,0.47046173,0.0010035408,-7.0291176,-0.022968095,-0.0035443609,0.0,0.001843936,-0.0044560474,-1.5330464,-1.5751586,-0.059729103,-0.009160716,0.12626225,0.03533366,0.0590642,0.08555594,0.4210401,0.0,7.1333227,1.5330464,0.42063817,0.23337531,0.22053163,0.10520149,inf,inf,inf,inf,1,1,1,1,2,0,2,2,1,1,0
9238624000,1688000,47.3977508,8.5456074,0.4687436,-0.0025041737,-7.180221,-0.022968095,-0.0035443609,0.0,0.002222157,-0.0011735046,-1.5237178,-1.5656557,-0.059729103,-0.009160716,0.12626225,0.029022364,0.1394107,0.06475951,0.4208872,0.0,7.284426,1.5237178,0.40794381,0.23335472,0.21426578,0.104963966,inf,inf,inf,inf,1,1,1,1,2,0,2,2,1,1,0
9238720000,1688000,47.3977508,8.5456074,0.4666451,-0.006957437,-7.330476,-0.022968095,-0.0035443609,0.0,0.0022054717,-0.00040571415,-1.520785,-1.5623436,-0.059729103,-0.009160716,0.12626225,0.0790602,0.009116389,-0.0039637084,0.42069313,0.0,7.434681,1.520785,0.4206697,0.23308223,0.22202209,0.10535857,inf,inf,inf,inf,1,1,1,1,2,0,2,2,1,1,0
9238824000,1688000,47.3977508,8.5456074,0.46460384,-0.011143539,-7.4922757,-0.022968095,-0.0035443609,0.0,0.0031612143,0.0013508287,-1.5150843,-1.5556477,-0.059729103,-0.009160716,0.12626225,-0.031048613,0.043580532,0.020094214,0.42053425,0.0,7.596481,1.5150843,0.40886813,0.23369443,0.21579322,0.105304174,inf,inf,inf,inf,1,1,1,1,2,0,2,2,1,1,0
9238920000,1688000,47.3977508,8.5456074,0.46217576,-0.0152105205,-7.6399198,-0.022968095,-0.0035443609,0.0,0.0046228804,0.0026430911,-1.5132017,-1.5517063,-0.059729103,-0.009160716,0.12626225,-0.055161368,0.04277651,-0.027359461,0.42047077,0.0,7.744125,1.5132017,0.4218786,0.2334198,0.22335562,0.10568332,inf,inf,inf,inf,1,1,1,1,2,0,2,2,1,1,0
9239024000,1688000,47.3977508,8.5456074,0.4604042,-0.018452764,-7.7992115,-0.022968095,-0.0035443609,0.0,0.004717004,0.003621229,-1.5122697,-1.5483396,-0.059729103,-0.009160716,0.12626225,-0.00024066684,0.08096518,0.04154816,0.4203507,0.0,7.9034166,1.5122697,0.43701324,0.23378076,0.23160401,0.10623692,inf,inf,inf,inf,1,1,1,1,2,0,2,2,1,1,0
9239120000,1688000,47.3977508,8.5456074,0.45918906,-0.021042848,-7.946054,-0.022968095,-0.0035443609,0.0,0.007235654,0.006353212,-1.5109332,-1.5450026,-0.059729103,-0.009160716,0.12626225,-0.057680387,0.0015859368,0.032469627,0.42056182,0.0,8.050259,1.5109332,0.42164773,0.23373348,0.22259271,0.10592245,inf,inf,inf,inf,1,1,1,1,2,0,2,2,1,1,0
9239224000,1688000,47.3977508,8.5456074,0.45791155,-0.024113867,-8.105121,-0.022968095,-0.0035443609,0.0,0.0094831465,0.010951988,-1.5088171,-1.541086,-0.059729103,-0.009160716,0.12626225,0.003417037,0.009139592,-0.0014957039,0.42068332,0.0,8.209326,1.5088171,0.4368759,0.23409887,0.23056212,0.10646229,inf,inf,inf,inf,1,1,1,1,2,0,2,2,1,1,0
9239320000,1688000,47.3977508,8.5456074,0.45723003,-0.026373204,-8.250916,-0.022968095,-0.0035443609,0.0,0.011512242,0.010970218,-1.5045335,-1.5346943,-0.059729103,-0.009160716,0.12626225,0.019382335,0.031614624,-0.012980773,0.42069575,0.0,8.355121,1.5045335,0.4215078,0.2340487,0.22140037,0.10612949,inf,inf,inf,inf,1,1,1,1,2,0,2,2,1,1,0
9239424000,1688000,47.3977508,8.5456074,0.45626763,-0.029302243,-8.408525,-0.022968095,-0.0035443609,0.0,0.010446383,0.0134939775,-1.5061734,-1.5340567,-0.059729103,-0.009160716,0.12626225,0.0623006,-0.076946266,0.02983771,0.42077756,0.0,8.512731,1.5061734,0.43680343,0.23441646,0.2290595,0.10665293,inf,inf,inf,inf,1,1,1,1,2,0,2,2,1,1,0
9239520000,1688000,47.3977508,8.5456074,0.45572573,-0.031589076,-8.554298,-0.022968095,-0.0035443609,0.0,0.01113872,0.013222707,-1.506509,-1.5326996,-0.059729103,-0.009160716,0.12626225,-0.03431407,-0.014362441,0.08306093,0.42078355,0.0,8.658504,1.506509,0.42143112,0.23437065,0.21981463,0.106305785,inf,inf,inf,inf,1,1,1,1,2,0,2,2,1,1,0
9239624000,1688000,47.3977508,8.5456074,0.45483866,-0.03487269,-8.711028,-0.022968095,-0.0035443609,0.0,0.010113032,0.013766415,-1.5044495,-1.5281473,-0.059729103,-0.009160716,0.12626225,0.021805022,0.10726248,-0.050764527,0.4206601,0.0,8.815233,1.5044495,0.4367675,0.234756,0.22721581,0.10682208,inf,inf,inf,inf,1,1,1,1,2,0,2,2,1,1,0
9239720000,1688000,47.3977508,8.5456074,0.45386472,-0.03724685,-8.855961,-0.022968095,-0.0035443609,0.0,0.009168509,0.017979853,-1.5041897,-1.5260645,-0.059729103,-0.009160716,0.12626225,-0.019204838,0.08004781,-0.01820363,0.42071977,0.0,8.960166,1.5041897,0.42139336,0.23470418,0.21794462,0.10645642,inf,inf,inf,inf,1,1,1,1,2,0,2,2,1,1,0
9239824000,1688000,47.3977508,8.5456074,0.45174602,-0.04068721,-9.013067,-0.022968095,-0.0035443609,0.0,0.010604204,0.016793596,-1.5035174,-1.5238175,-0.059729103,-0.009160716,0.12626225,-0.0096550565,-0.001510707,0.028424894,0.42065862,0.0,9.117272,1.5035174,0.4367449,0.23508714,0.22506517,0.10695535,inf,inf,inf,inf,1,1,1,1,2,0,2,2,1,1,0
9239920000,1688000,47.3977508,8.5456074,0.4505232,-0.04308386,-9.157132,-0.022968095,-0.0035443609,0.0,0.011998854,0.017561724,-1.5020667,-1.5201992,-0.059729103,-0.009160716,0.12626225,0.07431158,-0.0005714609,0.10339263,0.42056823,0.0,9.261337,1.5020667,0.42137462,0.23502803,0.21583714,0.106572725,inf,inf,inf,inf,1,1,1,1,2,0,2,2,1,1,0
9240024000,1688000,47.3977508,8.5456074,0.44958016,-0.04582106,-9.31319,-0.022968095,-0.0035443609,0.0,0.013659701,0.017548785,-1.5021515,-1.5183305,-0.059729103,-0.009160716,0.12626225,0.047208156,-0.029820658,0.008229165,0.42073712,0.0,9.417396,1.5021515,0.43671763,0.23540682,0.22269452,0.10705492,inf,inf,inf,inf,1,1,1,1,2,0,2,2,1,1,0
9240120000,1688000,47.3977508,8.5456074,0.44914913,-0.04774037,-9.457823,-0.022968095,-0.0035443609,0.0,0.014755293,0.018592412,-1.5014155,-1.5166146,-0.059729103,-0.009160716,0.12626225,0.04901765,0.045527432,-0.059944574,0.42060837,0.0,9.562028,1.5014155,0.42135933,0.23533969,0.21354492,0.1066561,inf,inf,inf,inf,1,1,1,1,2,0,2,2,1,1,0
9240224000,1688000,47.3977508,8.5456074,0.4486975,-0.0501099,-9.614984,-0.022968095,-0.0035443609,0.0,0.015942119,0.021418234,-1.4976488,-1.5124499,-0.059729103,-0.009160716,0.12626225,0.03478487,0.05469713,-0.021409241,0.4205722,0.0,9.719189,1.4976488,0.43667135,0.2357038,0.22015077,0.10711768,inf,inf,inf,inf,1,1,1,1,2,0,2,2,1,1,0
9240320000,1688000,47.3977508,8.5456074,0.44831014,-0.051558472,-9.758999,-0.022968095,-0.0035443609,0.0,0.01147634,0.026523126,-1.4962589,-1.5100273,-0.059729103,-0.009160716,0.12626225,-0.11106886,-0.0087906625,0.010086223,0.4205003,0.0,9.863204,1.4962589,0.4213335,0.2356198,0.21112289,0.106701024,inf,inf,inf,inf,1,1,1,1,2,0,2,2,1,1,0
9240424000,1688000,47.3977508,8.5456074,0.44700018,-0.05382399,-9.914962,-0.022968095,-0.0035443609,0.0,0.009274337,0.026648058,-1.4950904,-1.5078768,-0.059729103,-0.009160716,0.12626225,-0.0020055084,-0.015901493,0.0704769,0.42057076,0.0,10.019167,1.4950904,0.43659443,0.23597738,0.21747904,0.10714648,inf,inf,inf,inf,1,1,1,1,2,0,2,2,1,1,0
9240520000,1688000,47.3977508,8.5456074,0.44622263,-0.055445638,-10.060096,-0.022968095,-0.0035443609,0.0,0.011575963,0.026785636,-1.4930842,-1.5064404,-0.059729103,-0.009160716,0.12626225,0.026792927,0.01631031,0.021833925,0.42059308,0.0,10.164301,1.4930842,0.4212876,0.23426159,0.20860091,0.10628422,inf,inf,inf,inf,1,1,1,1,2,0,2,2,1,1,0
9240624000,1688000,47.3977508,8.5456074,0.44564056,-0.05805992,-10.216428,-0.022968095,-0.0035443609,0.0,0.01267055,0.027729252,-1.4953284,-1.5084726,-0.059729103,-0.009160716,0.12626225,-0.04441069,0.080180876,-0.14653336,0.42062375,0.0,10.320633,1.4953284,0.4364802,0.23624425,0.21475086,0.10715318,inf,inf,inf,inf,1,1,1,1,2,0,2,2,1,1,0
9240720000,1688000,47.3977508,8.5456074,0.44517198,-0.059208598,-10.361888,-0.022968095,-0.0035443609,0.0,0.010535409,0.030395212,-1.512394,-1.5251088,-0.059729103,-0.009160716,0.12626225,0.07237001,-0.017186802,0.13122241,0.42047274,0.0,10.466093,1.512394,0.4212141,0.23451446,0.2060266,0.106276765,inf,inf,inf,inf,1,1,1,1,2,0,2,2,1,1,0
9240824000,1688000,47.3977508,8.5456074,0.44417134,-0.05962769,-10.5171385,-0.022968095,-0.0035443609,0.0,0.011156345,0.034907226,-1.4463115,-1.4584056,-0.059729103,-0.009160716,0.12626225,0.03517223,0.04479936,0.9456947,0.420447,0.0,10.621344,1.4463115,0.4363238,0.23649368,0.21202984,0.10713735,inf,inf,inf,inf,1,1,1,1,2,0,2,2,1,1,0
9240920000,1688000,47.3977508,8.5456074,0.44373026,-0.059192605,-10.654147,-0.022968095,-0.0035443609,0.0,0.011779921,0.036754157,-1.3799361,-1.392699,-0.059729103,-0.009160716,0.12626225,0.028697073,0.050687667,0.40910578,0.42047042,0.0,10.758352,1.3799361,0.4211069,0.23475927,0.20349097,0.10625373,inf,inf,inf,inf,1,1,1,1,2,0,2,2,1,1,0
9241024000,1688000,47.3977508,8.5456074,0.4433337,-0.05941104,-10.797655,-0.022968095,-0.0035443609,0.0,0.013231946,0.03483066,-1.336804,-1.3505114,-0.059729103,-0.009160716,0.12626225,0.065061115,0.09027912,0.44621432,0.4206033,0.0,10.90186,1.336804,0.4361159,0.23510085,0.2089697,0.106644966,inf,inf,inf,inf,1,1,1,1,2,0,2,2,1,1,0
9241120000,1688000,47.3977508,8.5456074,0.44326282,-0.05932727,-10.9262295,-0.022968095,-0.0035443609,0.0,0.014604041,0.03597977,-1.2895298,-1.3043776,-0.059729103,-0.009160716,0.12626225,0.08093967,0.031267133,0.521495,0.42051876,0.0,11.030435,1.2895298,0.42096797,0.23500167,0.20050317,0.106185965,inf,inf,inf,inf,1,1,1,1,2,0,2,2,1,1,0
9241224000,1688000,47.3977508,8.5456074,0.44297966,-0.060627997,-11.061495,-0.022968095,-0.0035443609,0.0,0.014647654,0.034423765,-1.2439163,-1.2607223,-0.059729103,-0.009160716,0.12626225,0.040956747,0.09599311,0.36851966,0.42074525,0.0,11.1657,1.2439163,0.4358513,0.23533112,0.20595264,0.10657432,inf,inf,inf,inf,1,1,1,1,2,0,2,2,1,1,0
9241320000,1688000,47.3977508,8.5456074,0.44312605,-0.061273016,-11.183394,-0.022968095,-0.0035443609,0.0,0.013162794,0.034253333,-1.2034707,-1.2229542,-0.059729103,-0.009160716,0.12626225,0.027107634,0.11877198,0.4602475,0.42068636,0.0,11.2876,1.2034707,0.42077643,0.23522235,0.1977408,0.106109634,inf,inf,inf,inf,1,1,1,1,2,0,2,2,1,1,0
9241424000,1688000,47.3977508,8.5456074,0.44384092,-0.062625244,-11.311151,-0.022968095,-0.0035443609,0.0,0.015950834,0.03463511,-1.1577401,-1.1800025,-0.059729103,-0.009160716,0.12626225,0.065005794,0.02246515,0.44861248,0.4206028,0.0,11.415356,1.1577401,0.4355323,0.23553973,0.20303957,0.10648755,inf,inf,inf,inf,1,1,1,1,2,0,2,2,1,1,0
9241520000,1688000,47.3977508,8.5456074,0.44471297,-0.063148476,-11.424213,-0.022968095,-0.0035443609,0.0,0.01591739,0.03316767,-1.1154814,-1.1393751,-0.059729103,-0.009160716,0.12626225,-0.0012113741,0.02825331,0.36399996,0.4204725,0.0,11.528419,1.1154814,0.4205382,0.23542187,0.19507727,0.106018335,inf,inf,inf,inf,1,1,1,1,2,0,2,2,1,1,0
9241624000,1688000,47.3977508,8.5456074,0.44523916,-0.06400034,-11.5422,-0.022968095,-0.0035443609,0.0,0.017399918,0.033923708,-1.0741882,-1.099472,-0.059729103,-0.009160716,0.12626225,-0.008969786,-0.011037134,0.36260483,0.42037147,0.0,11.646405,1.0741882,0.4351624,0.23571838,0.20023149,0.10638262,inf,inf,inf,inf,1,1,1,1,2,0,2,2,1,1,0
9241720000,1688000,47.3977508,8.5456074,0.44628233,-0.064107314,-11.646438,-0.022968095,-0.0035443609,0.0,0.018368531,0.03490729,-1.038558,-1.0639998,-0.059729103,-0.009160716,0.12626225,0.060942356,0.03217334,0.3042556,0.420395,0.0,11.750643,1.038558,0.4202562,0.2355838,0.19250785,0.10590629,inf,inf,inf,inf,1,1,1,1,2,0,2,2,1,1,0
9241824000,1688000,47.3977508,8.5456074,0.44800308,-0.064609736,-11.75555,-0.022968095,-0.0035443609,0.0,0.018585721,0.03451433,-1.0060097,-1.0312623,-0.059729103,-0.009160716,0.12626225,-0.0057296706,-0.011781569,0.39246023,0.42027482,0.0,11.8597555,1.0060097,0.43474576,0.23586929,0.19755682,0.10626421,inf,inf,inf,inf,1,1,1,1,2,0,2,2,1,1,0
9241920000,1688000,47.3977508,8.5456074,0.4495882,-0.06483782,-11.853801,-0.022968095,-0.0035443609,0.0,0.016609844,0.034248773,-0.9765763,-1.0022259,-0.059729103,-0.009160716,0.12626225,-0.07994172,0.017053388,0.4322929,0.42026773,0.0,11.958006,0.9765763,0.41993225,0.23572786,0.19008982,0.105787754,inf,inf,inf,inf,1,1,1,1,2,0,2,2,1,1,0
9242024000,1688000,47.3977508,8.5456074,0.451274,-0.06632242,-11.956091,-0.022968095,-0.0035443609,0.0,0.017329583,0.03487803,-0.9415397,-0.96686655,-0.059729103,-0.009160716,0.12626225,-0.024944717,0.016536705,0.3100773,0.4202493,0.0,12.060296,0.9415397,0.43428794,0.23601183,0.19505268,0.10614475,inf,inf,inf,inf,1,1,1,1,2,0,2,2,1,1,0
9242128000,1688000,47.3977508,8.5456074,0.4531015,-0.06683635,-12.054877,-0.022968095,-0.0035443609,0.0,0.019393252,0.035160698,-0.9134348,-0.9381378,-0.059729103,-0.009160716,0.12626225,0.060809977,-0.06779421,0.33622885,0.42038307,0.0,12.159082,0.9134348,0.42064145,0.23488055,0.18817697,0.10542678,inf,inf,inf,inf,1,1,1,1,2,0,2,2,1,1,0
9242224000,1688000,47.3977508,8.5456074,0.4546511,-0.067159586,-12.143614,-0.022968095,-0.0035443609,0.0,0.021184493,0.03554152,-0.8857927,-0.91019404,-0.059729103,-0.009160716,0.12626225,0.08844038,0.03794085,0.36209446,0.42039996,0.0,12.247819,0.8857927,0.43379351,0.2361382,0.19267958,0.10601916,inf,inf,inf,inf,1,1,1,1,2,0,2,2,1,1,0
9242320000,1688000,47.3977508,8.5456074,0.4562454,-0.06684513,-12.22967,-0.022968095,-0.0035443609,0.0,0.020977575,0.035332937,-0.8602634,-0.88436127,-0.059729103,-0.009160716,0.12626225,-0.04644341,-0.030116206,0.32192746,0.42035514,0.0,12.333875,0.8602634,0.41917768,0.23599407,0.1856558,0.10554596,inf,inf,inf,inf,1,1,1,1,2,0,2,2,1,1,0
9242424000,1688000,47.3977508,8.5456074,0.45755595,-0.0672654,-12.321102,-0.022968095,-0.0035443609,0.0,0.020784218,0.034606997,-0.83605313,-0.8606043,-0.059729103,-0.009160716,0.12626225,-0.0146837,-0.04735906,0.28174368,0.420477,0.0,12.425307,0.83605313,0.43326756,0.23626642,0.19045387,0.10589714,inf,inf,inf,inf,1,1,1,1,2,0,2,2,1,1,0
9242520000,1688000,47.3977508,8.5456074,0.45853037,-0.06721405,-12.401587,-0.022968095,-0.0035443609,0.0,0.019054625,0.035736587,-0.80777174,-0.8314067,-0.059729103,-0.009160716,0.12626225,-0.016571024,0.06545685,0.2436852,0.42051062,0.0,12.505792,0.80777174,0.41875467,0.23448789,0.18363962,0.10499102,inf,inf,inf,inf,1,1,1,1,2,0,2,2,1,1,0
9242624000,1688000,47.3977508,8.5456074,0.45856348,-0.06815482,-12.48545,-0.022968095,-0.0035443609,0.0,0.017385574,0.03703907,-0.7817294,-0.80396885,-0.059729103,-0.009160716,0.12626225,-0.029763168,0.030361714,0.2481006,0.4205469,0.0,12.589655,0.7817294,0.4327146,0.23638768,0.18837123,0.10577479,inf,inf,inf,inf,1,1,1,1,2,0,2,2,1,1,0
9242720000,1688000,47.3977508,8.5456074,0.45873076,-0.067990705,-12.560914,-0.022968095,-0.0035443609,0.0,0.015616641,0.038021564,-0.76365,-0.7849757,-0.059729103,-0.009160716,0.12626225,0.021429269,0.00352232,0.18177925,0.42050394,0.0,12.665119,0.76365,0.4183066,0.23460117,0.18174484,0.10486821,inf,inf,inf,inf,1,1,1,1,2,0,2,2,1,1,0
9242824000,1688000,47.3977508,8.5456074,0.4583752,-0.067582965,-12.641396,-0.022968095,-0.0035443609,0.0,0.013902175,0.03758429,-0.7422439,-0.76332223,-0.059729103,-0.009160716,0.12626225,-0.020790145,0.03258233,0.2466496,0.4204611,0.0,12.745601,0.7422439,0.4321388,0.23649372,0.18642862,0.10564908,inf,inf,inf,inf,1,1,1,1,2,0,2,2,1,1,0
9242920000,1688000,47.3977508,8.5456074,0.45813817,-0.0666599,-12.713271,-0.022968095,-0.0035443609,0.0,0.014497595,0.037034113,-0.7183019,-0.7390213,-0.059729103,-0.009160716,0.12626225,-0.007651342,-0.0039181504,0.2179956,0.42038864,0.0,12.817476,0.7183019,0.41783568,0.23470055,0.18002047,0.104745075,inf,inf,inf,inf,1,1,1,1,2,0,2,2,1,1,0
9243024000,1688000,47.3977508,8.5456074,0.4575074,-0.06609572,-12.788187,-0.022968095,-0.0035443609,0.0,0.015282383,0.035876743,-0.69714755,-0.7169407,-0.059729103,-0.009160716,0.12626225,0.06382342,-0.021536484,0.16458797,0.42032436,0.0,12.892392,0.69714755,0.43154544,0.23657745,0.1846511,0.105518825,inf,inf,inf,inf,1,1,1,1,2,0,2,2,1,1,0
9243120000,1688000,47.3977508,8.5456074,0.45717055,-0.06519462,-12.855007,-0.022968095,-0.0035443609,0.0,0.015131509,0.035460066,-0.6792495,-0.6978156,-0.059729103,-0.009160716,0.12626225,-0.02869002,0.02756339,0.30861235,0.42046893,0.0,12.959212,0.6792495,0.41734838,0.23477063,0.17840226,0.1046119,inf,inf,inf,inf,1,1,1,1,2,0,2,2,1,1,0
9243224000,1688000,47.3977508,8.5456074,0.4563025,-0.06462026,-12.925544,-0.022968095,-0.0035443609,0.0,0.016858961,0.038127307,-0.6573593,-0.675077,-0.059729103,-0.009160716,0.12626225,0.11722283,0.0042587486,0.16870256,0.42033082,0.0,13.029749,0.6573593,0.43093878,0.23501974,0.18300691,0.10495546,inf,inf,inf,inf,1,1,1,1,2,0,2,2,1,1,0
9243320000,1688000,47.3977508,8.5456074,0.45601523,-0.0637546,-12.989632,-0.022968095,-0.0035443609,0.0,0.017846247,0.036552776,-0.6418209,-0.6595948,-0.059729103,-0.009160716,0.12626225,0.0066157007,-0.039164852,0.09006913,0.42041504,0.0,13.093837,0.6418209,0.4168467,0.23487389,0.17693911,0.104499064,inf,inf,inf,inf,1,1,1,1,2,0,2,2,1,1,0
9243424000,1688000,47.3977508,8.5456074,0.45565858,-0.06400306,-13.057861,-0.022968095,-0.0035443609,0.0,0.019367738,0.033262566,-0.6208368,-0.6391203,-0.059729103,-0.009160716,0.12626225,-0.0064778356,0.0054973057,0.26665348,0.42042604,0.0,13.162066,0.6208368,0.43032327,0.23511457,0.18150848,0.10483979,inf,inf,inf,inf,1,1,1,1,2,0,2,2,1,1,0
9243520000,1688000,47.3977508,8.5456074,0.45569432,-0.063977085,-13.118346,-0.022968095,-0.0035443609,0.0,0.019512188,0.03193971,-0.59929806,-0.61771405,-0.059729103,-0.009160716,0.12626225,0.010167432,-0.020407641,0.27775577,0.42047122,0.0,13.222551,0.59929806,0.41633496,0.234965,0.17562118,0.10438575,inf,inf,inf,inf,1,1,1,1,2,0,2,2,1,1,0
9243624000,1688000,47.3977508,8.5456074,0.45546198,-0.06472825,-13.1820135,-0.022968095,-0.0035443609,0.0,0.019040078,0.030974878,-0.58310837,-0.6017406,-0.059729103,-0.009160716,0.12626225,-0.015280536,0.09567865,0.23918411,0.4204731,0.0,13.286219,0.58310837,0.42970356,0.23519796,0.1801522,0.10472363,inf,inf,inf,inf,1,1,1,1,2,0,2,2,1,1,0
9243720000,1688000,47.3977508,8.5456074,0.45555037,-0.06461823,-13.239785,-0.022968095,-0.0035443609,0.0,0.020035615,0.031868935,-0.5653159,-0.584725,-0.059729103,-0.009160716,0.12626225,0.030629065,0.0050501362,0.16346294,0.42032945,0.0,13.34399,0.5653159,0.41581818,0.23504528,0.17439927,0.10427065,inf,inf,inf,inf,1,1,1,1,2,0,2,2,1,1,0
9243824000,1688000,47.3977508,8.5456074,0.45548782,-0.06472609,-13.301264,-0.022968095,-0.0035443609,0.0,0.023392595,0.031969093,-0.5457459,-0.56662935,-0.059729103,-0.009160716,0.12626225,0.078637674,0.04500554,0.26787537,0.42055142,0.0,13.405469,0.5457459,0.42908394,0.23526247,0.17894071,0.104604356,inf,inf,inf,inf,1,1,1,1,2,0,2,2,1,1,0
9243920000,1688000,47.3977508,8.5456074,0.45630834,-0.063793376,-13.355573,-0.022968095,-0.0035443609,0.0,0.024876984,0.03192175,-0.5284838,-0.5499898,-0.059729103,-0.009160716,0.12626225,0.09087087,-0.104934685,0.108683474,0.42057964,0.0,13.459778,0.5284838,0.44185343,0.23646341,0.18317997,0.10516058,inf,inf,inf,inf,1,1,1,1,2,0,2,2,1,1,0
9244024000,1688000,47.3977508,8.5456074,0.45712653,-0.062538624,-13.4124155,-0.022968095,-0.0035443609,0.0,0.025384007,0.033128783,-0.5087535,-0.5307709,-0.059729103,-0.009160716,0.12626225,-0.012763309,0.029401427,0.14471355,0.42037186,0.0,13.516621,0.5087535,0.42707178,0.23527876,0.1770646,0.10443005,inf,inf,inf,inf,1,1,1,1,2,0,2,2,1,1,0
9244120000,1688000,47.3977508,8.5456074,0.45632103,-0.06235253,-13.463928,-0.022968095,-0.0035443609,0.0,0.025393112,0.033706587,-0.49515992,-0.5181727,-0.059729103,-0.009160716,0.12626225,0.040669058,-0.031349603,0.11191796,0.42032832,0.0,13.568133,0.49515992,0.4396553,0.23647448,0.18127963,0.10498636,inf,inf,inf,inf,1,1,1,1,2,0,2,2,1,1,0
9244224000,1688000,47.3977508,8.5456074,0.45571572,-0.0616633,-13.518261,-0.022968095,-0.0035443609,0.0,0.02409448,0.03166686,-0.4752836,-0.4994598,-0.059729103,-0.009160716,0.12626225,0.01705639,-0.07892005,0.18085073,0.42018706,0.0,13.622466,0.4752836,0.42522007,0.23528835,0.17545675,0.10426195,inf,inf,inf,inf,1,1,1,1,2,0,2,2,1,1,0
9244320000,1688000,47.3977508,8.5456074,0.4540596,-0.0618546,-13.566895,-0.022968095,-0.0035443609,0.0,0.024628296,0.029693637,-0.4611771,-0.48657218,-0.059729103,-0.009160716,0.12626225,0.04613888,-0.03481102,0.07636472,0.42021456,0.0,13.6711,0.4611771,0.43763894,0.23647958,0.17967176,0.10481927,inf,inf,inf,inf,1,1,1,1,2,0,2,2,1,1,0
9244424000,1688000,47.3977508,8.5456074,0.4528105,-0.061330356,-13.617868,-0.022968095,-0.0035443609,0.0,0.02733679,0.030673102,-0.44279772,-0.46926165,-0.059729103,-0.009160716,0.12626225,-0.002279652,0.013971128,0.14145857,0.4202729,0.0,13.722074,0.44279772,0.42351502,0.23529266,0.17408219,0.10410024,inf,inf,inf,inf,1,1,1,1,2,0,2,2,1,1,0
9244528000,1688000,47.3977508,8.5456074,0.45020702,-0.06111287,-13.666919,-0.022968095,-0.0035443609,0.0,0.027677484,0.02787615,-0.42845675,-0.45562047,-0.059729103,-0.009160716,0.12626225,-0.040862937,0.05708752,0.155651,0.42042175,0.0,13.771124,0.42845675,0.43683246,0.23549673,0.17864472,0.10441978,inf,inf,inf,inf,1,1,1,1,2,0,2,2,1,1,0
9244624000,1688000,47.3977508,8.5456074,0.44853026,-0.060588233,-13.710904,-0.022968095,-0.0035443609,0.0,0.026689379,0.02790174,-0.41712946,-0.44482654,-0.059729103,-0.009160716,0.12626225,0.040957004,-0.08811435,0.15031639,0.420549,0.0,13.815109,0.41712946,0.42194366,0.23531847,0.17293307,0.10395673,inf,inf,inf,inf,1,1,1,1,2,0,2,2,1,1,0
9244728000,1688000,47.3977508,8.5456074,0.44626743,-0.060531512,-13.757213,-0.022968095,-0.0035443609,0.0,0.026021566,0.028765181,-0.40017813,-0.42847183,-0.059729103,-0.009160716,0.12626225,0.06264203,0.07314321,0.21848361,0.42052785,0.0,13.861418,0.40017813,0.43512177,0.2355174,0.17750359,0.104277276,inf,inf,inf,inf,1,1,1,1,2,0,2,2,1,1,0
9244824000,1688000,47.3977508,8.5456074,0.444797,-0.059872746,-13.798053,-0.022968095,-0.0035443609,0.0,0.027716056,0.029372413,-0.388206,-0.41643804,-0.059729103,-0.009160716,0.12626225,0.070433125,0.007335407,0.11392403,0.42048928,0.0,13.902258,0.388206,0.4204963,0.23533939,0.17199399,0.103819504,inf,inf,inf,inf,1,1,1,1,2,0,2,2,1,1,0
9244928000,1688000,47.3977508,8.5456074,0.44258338,-0.059776984,-13.841387,-0.022968095,-0.0035443609,0.0,0.030368552,0.027350973,-0.37727574,-0.405842,-0.059729103,-0.009160716,0.12626225,0.009955982,0.03743963,0.099438235,0.4203274,0.0,13.945592,0.37727574,0.4335529,0.23553383,0.1765664,0.10414092,inf,inf,inf,inf,1,1,1,1,2,0,2,2,1,1,0
9245024000,1688000,47.3977508,8.5456074,0.44139498,-0.059201725,-13.8805065,-0.022968095,-0.0035443609,0.0,0.03525691,0.028102588,-0.36469185,-0.39372084,-0.059729103,-0.009160716,0.12626225,0.07103338,-0.006475076,0.18978117,0.42061755,0.0,13.984712,0.36469185,0.41916525,0.23535646,0.17122634,0.103688166,inf,inf,inf,inf,1,1,1,1,2,0,2,2,1,1,0
9245120000,1688000,47.3977508,8.5456074,0.4393113,-0.05895499,-13.917943,-0.022968095,-0.0035443609,0.0,0.03699346,0.027220042,-0.35365766,-0.38264194,-0.059729103,-0.009160716,0.12626225,0.04061915,-0.0026730576,0.09947735,0.42047048,0.0,14.022148,0.35365766,0.43110013,0.23490551,0.17547207,0.10382185,inf,inf,inf,inf,1,1,1,1,2,0,2,2,1,1,0
9245224000,1688000,47.3977508,8.5456074,0.43816566,-0.058386274,-13.957083,-0.022968095,-0.0035443609,0.0,0.03807072,0.02493174,-0.34082547,-0.36955693,-0.059729103,-0.009160716,0.12626225,0.03971756,-0.048460208,0.05301274,0.4204617,0.0,14.061288,0.34082547,0.41794333,0.23536228,0.17062849,0.1035599,inf,inf,inf,inf,1,1,1,1,2,0,2,2,1,1,0
9245320000,1688000,47.3977508,8.5456074,0.43641725,-0.058394436,-13.992431,-0.022968095,-0.0035443609,0.0,0.035437457,0.025243212,-0.33169186,-0.360453,-0.059729103,-0.009160716,0.12626225,-0.0840316,0.008438148,0.114965245,0.42059946,0.0,14.096636,0.33169186,0.4297949,0.23490083,0.17488968,0.103692144,inf,inf,inf,inf,1,1,1,1,2,0,2,2,1,1,0
9245424000,1688000,47.3977508,8.5456074,0.434901,-0.057788502,-14.02997,-0.022968095,-0.0035443609,0.0,0.035870466,0.023600142,-0.32195252,-0.35100284,-0.059729103,-0.009160716,0.12626225,0.022452174,-0.010161138,0.09111687,0.42051584,0.0,14.134175,0.32195252,0.41682413,0.2337461,0.17018546,0.10301428,inf,inf,inf,inf,1,1,1,1,2,0,2,2,1,1,0
9245520000,1688000,47.3977508,8.5456074,0.4318973,-0.057396192,-14.063545,-0.022968095,-0.0035443609,0.0,0.036409106,0.022805111,-0.3102188,-0.33945918,-0.059729103,-0.009160716,0.12626225,0.0012868694,0.042632047,0.091036774,0.42039573,0.0,14.16775,0.3102188,0.4286055,0.23490532,0.17446515,0.10357432,inf,inf,inf,inf,1,1,1,1,2,0,2,2,1,1,0
9245624000,1688000,47.3977508,8.5456074,0.4298153,-0.05675506,-14.098323,-0.022968095,-0.0035443609,0.0,0.03849251,0.020185092,-0.3001916,-0.32918504,-0.059729103,-0.009160716,0.12626225,0.06522159,0.042807695,0.079629004,0.4205583,0.0,14.202528,0.3001916,0.4158025,0.23375188,0.16987574,0.10290208,inf,inf,inf,inf,1,1,1,1,2,0,2,2,1,1,0
9245720000,1688000,47.3977508,8.5456074,0.42713434,-0.056665104,-14.129451,-0.022968095,-0.0035443609,0.0,0.04140149,0.018160228,-0.29173684,-0.3204039,-0.059729103,-0.009160716,0.12626225,0.12719195,0.029179765,0.07465481,0.42055565,0.0,14.233656,0.29173684,0.4275254,0.23491052,0.17416808,0.10346402,inf,inf,inf,inf,1,1,1,1,2,0,2,2,1,1,0
9245824000,1688000,47.3977508,8.5456074,0.42581204,-0.055936296,-14.162775,-0.022968095,-0.0035443609,0.0,0.045820314,0.01843033,-0.28080776,-0.3097953,-0.059729103,-0.009160716,0.12626225,0.0018673307,0.005162849,0.098931596,0.4206893,0.0,14.26698,0.28080776,0.41487336,0.23375036,0.16968133,0.102793634,inf,inf,inf,inf,1,1,1,1,2,0,2,2,1,1,0
9245920000,1688000,47.3977508,8.5456074,0.4243109,-0.055049773,-14.192946,-0.022968095,-0.0035443609,0.0,0.049499705,0.018445814,-0.27651972,-0.3058882,-0.059729103,-0.009160716,0.12626225,0.044638477,0.0010644475,0.09611248,0.42062098,0.0,14.297152,0.27651972,0.42654896,0.23490039,0.17400333,0.10335431,inf,inf,inf,inf,1,1,1,1,2,0,2,2,1,1,0
9246024000,1688000,47.3977508,8.5456074,0.42360568,-0.05404999,-14.225146,-0.022968095,-0.0035443609,0.0,0.048924167,0.019396389,-0.2630266,-0.29317394,-0.059729103,-0.009160716,0.12626225,0.042434372,0.05509712,0.1752926,0.4205914,0.0,14.329351,0.2630266,0.41403246,0.23374335,0.16959074,0.10268973,inf,inf,inf,inf,1,1,1,1,2,0,2,2,1,1,0
9246120000,1688000,47.3977508,8.5456074,0.4213704,-0.053474598,-14.254343,-0.022968095,-0.0035443609,0.0,0.048955,0.020642089,-0.25559944,-0.28694466,-0.059729103,-0.009160716,0.12626225,0.0597866,-0.0058095,0.093875445,0.42061347,0.0,14.358548,0.25559944,0.42567116,0.23489399,0.17394634,0.10325311,inf,inf,inf,inf,1,1,1,1,2,0,2,2,1,1,0
9246224000,1688000,47.3977508,8.5456074,0.42005602,-0.052303456,-14.285252,-0.022968095,-0.0035443609,0.0,0.051249925,0.019652333,-0.24734737,-0.27988887,-0.059729103,-0.009160716,0.12626225,0.10556982,-0.025502602,0.14406721,0.4205845,0.0,14.389457,0.24734737,0.4132759,0.23374012,0.16957578,0.10259364,inf,inf,inf,inf,1,1,1,1,2,0,2,2,1,1,0
9246320000,1688000,47.3977508,8.5456074,0.4173678,-0.051263362,-14.312625,-0.022968095,-0.0035443609,0.0,0.050691452,0.016973268,-0.23534198,-0.2686484,-0.059729103,-0.009160716,0.12626225,0.053491846,-0.044773865,0.14968587,0.4206159,0.0,14.41683,0.23534198,0.4248861,0.23489164,0.17395288,0.10315924,inf,inf,inf,inf,1,1,1,1,2,0,2,2,1,1,0
9246424000,1688000,47.3977508,8.5456074,0.41547722,-0.050184138,-14.34103,-0.022968095,-0.0035443609,0.0,0.05219279,0.016399289,-0.2299414,-0.26373103,-0.059729103,-0.009160716,0.12626225,-0.008987135,0.033533394,0.12571643,0.42055535,0.0,14.445235,0.2299414,0.41259828,0.23374937,0.16965082,0.10250911,inf,inf,inf,inf,1,1,1,1,2,0,2,2,1,1,0
9246520000,1688000,47.3977508,8.5456074,0.41192544,-0.049487628,-14.367206,-0.022968095,-0.0035443609,0.0,0.052042514,0.016650073,-0.21980546,-0.25461456,-0.059729103,-0.009160716,0.12626225,-0.02068933,-0.0026110364,0.098656856,0.4206411,0.0,14.471411,0.21980546,0.42418852,0.2349107,0.17403023,0.1030805,inf,inf,inf,inf,1,1,1,1,2,0,2,2,1,1,0
9246624000,1688000,47.3977508,8.5456074,0.4095435,-0.048692852,-14.394386,-0.022968095,-0.0035443609,0.0,0.05196633,0.014957705,-0.2112766,-0.24692306,-0.059729103,-0.009160716,0.12626225,-0.0099035455,-0.015520028,0.087840475,0.42053986,0.0,14.498591,0.2112766,0.41199556,0.23377898,0.16978316,0.102438435,inf,inf,inf,inf,1,1,1,1,2,0,2,2,1,1,0
9246720000,1688000,47.3977508,8.5456074,0.4064639,-0.04855448,-14.419547,-0.022968095,-0.0035443609,0.0,0.05405929,0.012774606,-0.20368907,-0.2407603,-0.059729103,-0.009160716,0.12626225,0.02906124,-0.042098783,0.15191081,0.4203584,0.0,14.523752,0.20368907,0.4235738,0.23494112,0.17419289,0.10301163,inf,inf,inf,inf,1,1,1,1,2,0,2,2,1,1,0
9246824000,1688000,47.3977508,8.5456074,0.40471032,-0.04791403,-14.445108,-0.022968095,-0.0035443609,0.0,0.053227138,0.011691747,-0.19505413,-0.23274635,-0.059729103,-0.009160716,0.12626225,0.0260053,0.08997688,0.09173806,0.4205228,0.0,14.549314,0.19505413,0.41146445,0.23381081,0.16996169,0.10237294,inf,inf,inf,inf,1,1,1,1,2,0,2,2,1,1,0
9246920000,1688000,47.3977508,8.5456074,0.40249273,-0.046311982,-14.468088,-0.022968095,-0.0035443609,0.0,0.0561327,0.012615791,-0.18822771,-0.2264951,-0.059729103,-0.009160716,0.12626225,0.019714272,-0.02715078,0.08178688,0.42063496,0.0,14.572293,0.18822771,0.42303738,0.23336875,0.17439683,0.10253032,inf,inf,inf,inf,1,1,1,1,2,0,2,2,1,1,0
9247024000,1688000,47.3977508,8.5456074,0.4015654,-0.044440385,-14.492499,-0.022968095,-0.0035443609,0.0,0.05975676,0.013212733,-0.18023418,-0.21936938,-0.059729103,-0.009160716,0.12626225,0.09601384,-0.018094754,0.089860514,0.4205595,0.0,14.5967045,0.18023418,0.41100064,0.23384495,0.17018923,0.10231248,inf,inf,inf,inf,1,1,1,1,2,0,2,2,1,1,0
9247120000,1688000,47.3977508,8.5456074,0.3997378,-0.0428157,-14.513931,-0.022968095,-0.0035443609,0.0,0.061580308,0.012463993,-0.17293844,-0.21234368,-0.059729103,-0.009160716,0.12626225,-0.01972073,0.0637652,0.16599333,0.42057246,0.0,14.618136,0.17293844,0.42257425,0.23340362,0.17465223,0.10247194,inf,inf,inf,inf,1,1,1,1,2,0,2,2,1,1,0
9247224000,1688000,47.3977508,8.5456074,0.39908797,-0.04087189,-14.535809,-0.022968095,-0.0035443609,0.0,0.064102575,0.011473424,-0.16835232,-0.20739494,-0.059729103,-0.009160716,0.12626225,0.08321614,-0.018193701,0.083403654,0.42049468,0.0,14.640014,0.16835232,0.41060007,0.23388252,0.17045873,0.10225755,inf,inf,inf,inf,1,1,1,1,2,0,2,2,1,1,0
9247320000,1688000,47.3977508,8.5456074,0.3969616,-0.038676463,-14.555677,-0.022968095,-0.0035443609,0.0,0.06476677,0.009204818,-0.16054887,-0.19954312,-0.059729103,-0.009160716,0.12626225,0.083922856,-0.012965506,0.058155503,0.4204841,0.0,14.659883,0.16054887,0.42217994,0.23343351,0.17494537,0.10241513,inf,inf,inf,inf,1,1,1,1,2,0,2,2,1,1,0
9247424000,1688000,47.3977508,8.5456074,0.3960636,-0.03669395,-14.576445,-0.022968095,-0.0035443609,0.0,0.0667651,0.0076719625,-0.1553018,-0.19415669,-0.059729103,-0.009160716,0.12626225,0.04332492,-0.0033329318,0.09620375,0.42017594,0.0,14.68065,0.1553018,0.41025883,0.23391524,0.17075849,0.10220401,inf,inf,inf,inf,1,1,1,1,2,0,2,2,1,1,0
9247520000,1688000,47.3977508,8.5456074,0.3935606,-0.03524775,-14.5943165,-0.022968095,-0.0035443609,0.0,0.06676853,0.00631309,-0.15193014,-0.18992244,-0.059729103,-0.009160716,0.12626225,0.0400122,-0.006410352,-0.039763745,0.42024404,0.0,14.698522,0.15193014,0.4218499,0.23346744,0.17526983,0.1023637,inf,inf,inf,inf,1,1,1,1,2,0,2,2,1,1,0
9247624000,1688000,47.3977508,8.5456074,0.39227754,-0.033794153,-14.614014,-0.022968095,-0.0035443609,0.0,0.06700973,0.003951184,-0.1478725,-0.18563049,-0.059729103,-0.009160716,0.12626225,0.096424244,0.018004505,0.09232107,0.4202628,0.0,14.718219,0.1478725,0.4099732,0.2339519,0.1710712,0.10215561,inf,inf,inf,inf,1,1,1,1,2,0,2,2,1,1,0
9247720000,1688000,47.3977508,8.5456074,0.38961384,-0.032399017,-14.632094,-0.022968095,-0.0035443609,0.0,0.06644839,0.0019456365,-0.13825914,-0.17639075,-0.059729103,-0.009160716,0.12626225,0.09116955,-0.025335522,0.13896821,0.42027748,0.0,14.7362995,0.13825914,0.42157978,0.23350532,0.17562193,0.10231723,inf,inf,inf,inf,1,1,1,1,2,0,2,2,1,1,0
9247824000,1688000,47.3977508,8.5456074,0.38825303,-0.030873949,-14.649752,-0.022968095,-0.0035443609,0.0,0.068913944,0.0007507242,-0.13386148,-0.17120409,-0.059729103,-0.009160716,0.12626225,0.13037482,0.0015046605,0.045321878,0.4202626,0.0,14.753957,0.13386148,0.4097393,0.23240723,0.17141166,0.101703614,inf,inf,inf,inf,1,1,1,1,2,0,2,2,1,1,0
9247920000,1688000,47.3977508,8.5456074,0.38540658,-0.028664013,-14.665175,-0.022968095,-0.0035443609,0.0,0.06926335,0.0010644144,-0.13277963,-0.16886814,-0.059729103,-0.009160716,0.12626225,-0.018284688,-0.008249043,0.0010244547,0.42018846,0.0,14.769381,0.13277963,0.42136428,0.23356403,0.17594405,0.102282524,inf,inf,inf,inf,1,1,1,1,2,0,2,2,1,1,0
9248024000,1688000,47.3977508,8.5456074,0.38400376,-0.026506513,-14.681314,-0.022968095,-0.0035443609,0.0,0.068972684,0.0012502003,-0.12858234,-0.16330339,-0.059729103,-0.009160716,0.12626225,0.0546344,0.08253521,0.0029923392,0.4203161,0.0,14.78552,0.12858234,0.40955237,0.23247473,0.1717379,0.10167454,inf,inf,inf,inf,1,1,1,1,2,0,2,2,1,1,0
9248120000,1688000,47.3977508,8.5456074,0.38138056,-0.024223255,-14.696461,-0.022968095,-0.0035443609,0.0,0.06853583,0.0007106417,-0.12605752,-0.16014162,-0.059729103,-0.009160716,0.12626225,-0.0024436738,-0.10663937,0.045595687,0.42018935,0.0,14.800666,0.12605752,0.42119896,0.23363309,0.17631386,0.102254815,inf,inf,inf,inf,1,1,1,1,2,0,2,2,1,1,0
9248224000,1688000,47.3977508,8.5456074,0.3805542,-0.02204991,-14.712069,-0.022968095,-0.0035443609,0.0,0.07238637,-0.002352897,-0.11863086,-0.15188603,-0.059729103,-0.009160716,0.12626225,0.08811693,-0.06587647,-0.01307018,0.420144,0.0,14.816274,0.11863086,0.40940884,0.23254389,0.17208649,0.1016482,inf,inf,inf,inf,1,1,1,1,2,0,2,2,1,1,0
9248320000,1688000,47.3977508,8.5456074,0.37926298,-0.019369345,-14.725848,-0.022968095,-0.0035443609,0.0,0.07430738,-0.0020574625,-0.11888179,-0.15116748,-0.059729103,-0.009160716,0.12626225,0.0018594655,0.023596784,0.017764976,0.41997924,0.0,14.830053,0.11888179,0.42107937,0.23370375,0.17666881,0.10222944,inf,inf,inf,inf,1,1,1,1,2,0,2,2,1,1,0
9248424000,1688000,47.3977508,8.5456074,0.37943998,-0.016812552,-14.741381,-0.022968095,-0.0035443609,0.0,0.07643077,-0.003252348,-0.11447268,-0.1466145,-0.059729103,-0.009160716,0.12626225,0.010395364,-0.068220116,0.0805417,0.42003953,0.0,14.845586,0.11447268,0.40930527,0.23262294,0.17240494,0.101628035,inf,inf,inf,inf,1,1,1,1,2,0,2,2,1,1,0
9248520000,1688000,47.3977508,8.5456074,0.37812567,-0.014184525,-14.755855,-0.022968095,-0.0035443609,0.0,0.07636556,-0.0056514475,-0.10783367,-0.1404809,-0.059729103,-0.009160716,0.12626225,0.11327609,-0.041080236,0.10645016,0.4201036,0.0,14.86006,0.10783367,0.42100087,0.23378445,0.17701887,0.102210365,inf,inf,inf,inf,1,1,1,1,2,0,2,2,1,1,0
9248624000,1688000,47.3977508,8.5456074,0.37854597,-0.01195895,-14.770577,-0.022968095,-0.0035443609,0.0,0.077583954,-0.0053226734,-0.10325033,-0.13599887,-0.059729103,-0.009160716,0.12626225,0.09253025,-0.07421169,0.05503464,0.420085,0.0,14.874783,0.10325033,0.4092369,0.232695,0.1727243,0.1016064,inf,inf,inf,inf,1,1,1,1,2,0,2,2,1,1,0
9248720000,1688000,47.3977508,8.5456074,0.3781511,-0.009454498,-14.783321,-0.022968095,-0.0035443609,0.0,0.07829028,-0.0065102833,-0.09903551,-0.13150811,-0.059729103,-0.009160716,0.12626225,0.057702795,-0.051253602,0.086742446,0.42008427,0.0,14.8875265,0.09903551,0.42095813,0.2338499,0.17732243,0.10218631,inf,inf,inf,inf,1,1,1,1,2,0,2,2,1,1,0
9248824000,1688000,47.3977508,8.5456074,0.37924162,-0.0074613583,-14.796088,-0.022968095,-0.0035443609,0.0,0.08122719,-0.008723258,-0.09370756,-0.1253248,-0.059729103,-0.009160716,0.12626225,-0.0042006285,-0.030145183,0.09690131,0.4202517,0.0,14.900293,0.09370756,0.40919948,0.23277754,0.17299844,0.10159093,inf,inf,inf,inf,1,1,1,1,2,0,2,2,1,1,0
9248928000,1688000,47.3977508,8.5456074,0.37888977,-0.005583763,-14.808573,-0.022968095,-0.0035443609,0.0,0.081203334,-0.011556023,-0.09034677,-0.12140851,-0.059729103,-0.009160716,0.12626225,0.051151697,-0.08284073,0.06973836,0.42041612,0.0,14.912778,0.09034677,0.42194945,0.23299156,0.17800494,0.10195489,inf,inf,inf,inf,1,1,1,1,2,0,2,2,1,1,0
9249024000,1688000,47.3977508,8.5456074,0.38104197,-0.0050086575,-14.820187,-0.022968095,-0.0035443609,0.0,0.08035889,-0.01603677,-0.08934165,-0.12022931,-0.059729103,-0.009160716,0.12626225,-0.004098834,-0.0031855833,0.021706333,0.42023444,0.0,14.924392,0.08934165,0.43427652,0.23415704,0.18268919,0.102523975,inf,inf,inf,inf,1,1,1,1,2,0,2,2,1,1,0
9249120000,1688000,47.3977508,8.5456074,0.38335836,-0.004779729,-14.831463,-0.022968095,-0.0035443609,0.0,0.08045278,-0.016736753,-0.0851223,-0.115809314,-0.059729103,-0.009160716,0.12626225,0.08649123,-0.014379072,0.029531306,0.4203004,0.0,14.935668,0.0851223,0.4197394,0.23243867,0.17716034,0.10171776,inf,inf,inf,inf,1,1,1,1,2,0,2,2,1,1,0
9249224000,1688000,47.3977508,8.5456074,0.3834571,-0.0039975536,-14.842939,-0.022968095,-0.0035443609,0.0,0.08069411,-0.01805891,-0.08114599,-0.111367874,-0.059729103,-0.009160716,0.12626225,0.058440555,0.047515932,0.008637085,0.4203359,0.0,14.9471445,0.08114599,0.43300712,0.23422875,0.18223779,0.102472454,inf,inf,inf,inf,1,1,1,1,2,0,2,2,1,1,0
9249320000,1688000,47.3977508,8.5456074,0.3846456,-0.0036028035,-14.854144,-0.022968095,-0.0035443609,0.0,0.081896745,-0.01781395,-0.077427514,-0.10817562,-0.059729103,-0.009160716,0.12626225,0.10875577,-0.00069216546,-0.031107103,0.42046484,0.0,14.958349,0.077427514,0.4186591,0.23250927,0.17678483,0.101668194,inf,inf,inf,inf,1,1,1,1,2,0,2,2,1,1,0
9249424000,1688000,47.3977508,8.5456074,0.3845968,-0.0028499668,-14.866029,-0.022968095,-0.0035443609,0.0,0.080207326,-0.020137113,-0.07431996,-0.10555138,-0.059729103,-0.009160716,0.12626225,0.09462742,-0.00058416475,0.019867903,0.42059943,0.0,14.970234,0.07431996,0.4318745,0.23429051,0.18185127,0.102419995,inf,inf,inf,inf,1,1,1,1,2,0,2,2,1,1,0
9249520000,1688000,47.3977508,8.5456074,0.38524935,-0.0024820077,-14.875751,-0.022968095,-0.0035443609,0.0,0.07984956,-0.021981819,-0.070716344,-0.10150002,-0.059729103,-0.009160716,0.12626225,0.08444786,-0.055590272,0.0695167,0.42048082,0.0,14.979956,0.070716344,0.41769308,0.23256257,0.17647429,0.101615,inf,inf,inf,inf,1,1,1,1,2,0,2,2,1,1,0
9249624000,1688000,47.3977508,8.5456074,0.38371068,-0.0015206818,-14.884806,-0.022968095,-0.0035443609,0.0,0.075800516,-0.020140272,-0.06776238,-0.09719315,-0.059729103,-0.009160716,0.12626225,-0.028631132,-0.041381635,-0.04578754,0.42047504,0.0,14.989011,0.06776238,0.43086573,0.23434405,0.18152413,0.10236817,inf,inf,inf,inf,1,1,1,1,2,0,2,2,1,1,0
