timestamp,q[0],q[1],q[2],q[3],delta_q_reset[0],delta_q_reset[1],delta_q_reset[2],delta_q_reset[3],quat_reset_counter
9232328000,-0.977637,-0.00036466212,-0.00041275925,-0.2103205,0.0,0.0,0.0,0.0,0
9232336000,-0.977637,-0.00036474405,-0.00041278,-0.21032055,0.0,0.0,0.0,0.0,0
9232352000,-0.977637,-0.00036455438,-0.00041278935,-0.21032047,0.0,0.0,0.0,0.0,0
9232364000,-0.977637,-0.00036464,-0.00041280602,-0.21032053,0.0,0.0,0.0,0.0,0
9232372000,-0.977637,-0.00036443965,-0.00041279042,-0.21032046,0.0,0.0,0.0,0.0,0
9232388000,-0.977637,-0.00036437326,-0.00041288196,-0.21032037,0.0,0.0,0.0,0.0,0
9232400000,-0.977637,-0.000364321,-0.00041284223,-0.21032049,0.0,0.0,0.0,0.0,0
9232408000,-0.977637,-0.00036439972,-0.00041286467,-0.21032053,0.0,0.0,0.0,0.0,0
9232420000,-0.977637,-0.000364217,-0.00041288996,-0.21032041,0.0,0.0,0.0,0.0,0
9232432000,-0.977637,-0.0003642577,-0.00041287064,-0.2103205,0.0,0.0,0.0,0.0,0
9232448000,-0.977637,-0.00036410964,-0.00041288498,-0.21032044,0.0,0.0,0.0,0.0,0
9232460000,-0.977637,-0.00036418467,-0.00041290146,-0.21032052,0.0,0.0,0.0,0.0,0
9232472000,-0.977637,-0.0003640153,-0.0004129138,-0.21032043,0.0,0.0,0.0,0.0,0
9232480000,-0.977637,-0.0003640128,-0.00041291091,-0.21032049,0.0,0.0,0.0,0.0,0
9232492000,-0.977637,-0.00036393464,-0.00041292925,-0.21032038,0.0,0.0,0.0,0.0,0
9232508000,-0.977637,-0.00036390737,-0.0004129317,-0.2103205,0.0,0.0,0.0,0.0,0
9232520000,-0.977637,-0.00036384648,-0.00041298938,-0.21032038,0.0,0.0,0.0,0.0,0
9232528000,-0.977637,-0.00036381,-0.0004129985,-0.21032046,0.0,0.0,0.0,0.0,0
9232544000,-0.977637,-0.0003638697,-0.0004130496,-0.21032053,0.0,0.0,0.0,0.0,0
9232556000,-0.977637,-0.00036369314,-0.0004130215,-0.21032047,0.0,0.0,0.0,0.0,0
9232568000,-0.977637,-0.0003637513,-0.00041304046,-0.21032053,0.0,0.0,0.0,0.0,0
9232580000,-0.977637,-0.00036361406,-0.0004130443,-0.21032043,0.0,0.0,0.0,0.0,0
9232592000,-0.977637,-0.00036362236,-0.00041307486,-0.2103205,0.0,0.0,0.0,0.0,0
9232604000,-0.977637,-0.0003635292,-0.00041309497,-0.21032038,0.0,0.0,0.0,0.0,0
9232616000,-0.977637,-0.00036349442,-0.0004130785,-0.21032049,0.0,0.0,0.0,0.0,0
9232628000,-0.97763705,-0.00036342125,-0.0004131401,-0.21032035,0.0,0.0,0.0,0.0,0
9232636000,-0.977637,-0.00036336386,-0.00041310277,-0.21032043,0.0,0.0,0.0,0.0,0
9232652000,-0.977637,-0.00036343967,-0.00041311805,-0.21032052,0.0,0.0,0.0,0.0,0
9232664000,-0.977637,-0.00036328938,-0.0004131215,-0.21032044,0.0,0.0,0.0,0.0,0
9232676000,-0.977637,-0.0003633353,-0.00041313565,-0.2103205,0.0,0.0,0.0,0.0,0
9232688000,-0.977637,-0.000363146,-0.0004131279,-0.21032046,0.0,0.0,0.0,0.0,0
9232700000,-0.97763705,-0.00036304758,-0.0004131855,-0.21032035,0.0,0.0,0.0,0.0,0
9232712000,-0.977637,-0.0003630055,-0.0004131658,-0.21032046,0.0,0.0,0.0,0.0,0
9232724000,-0.97763705,-0.00036298254,-0.00041331846,-0.21032028,0.0,0.0,0.0,0.0,0
9232736000,-0.977637,-0.00036288673,-0.0004132184,-0.21032041,0.0,0.0,0.0,0.0,0
9232748000,-0.977637,-0.00036298018,-0.00041322657,-0.21032049,0.0,0.0,0.0,0.0,0
9232760000,-0.977637,-0.00036279322,-0.00041323097,-0.21032041,0.0,0.0,0.0,0.0,0
9232772000,-0.977637,-0.00036286842,-0.00041324834,-0.21032049,0.0,0.0,0.0,0.0,0
9232784000,-0.977637,-0.00036270058,-0.0004132622,-0.2103204,0.0,0.0,0.0,0.0,0
9232796000,-0.977637,-0.00036274185,-0.0004132732,-0.21032049,0.0,0.0,0.0,0.0,0
9232808000,-0.977637,-0.00036260864,-0.00041327853,-0.2103204,0.0,0.0,0.0,0.0,0
9232820000,-0.977637,-0.0003626047,-0.0004132828,-0.21032047,0.0,0.0,0.0,0.0,0
9232828000,-0.97763705,-0.0003625384,-0.00041336735,-0.21032031,0.0,0.0,0.0,0.0,0
9232844000,-0.977637,-0.00036246993,-0.00041334255,-0.21032046,0.0,0.0,0.0,0.0,0
9232856000,-0.977637,-0.0003625756,-0.00041337876,-0.2103205,0.0,0.0,0.0,0.0,0
9232868000,-0.977637,-0.00036239883,-0.00041334255,-0.21032044,0.0,0.0,0.0,0.0,0
9232880000,-0.977637,-0.00036242587,-0.0004133583,-0.2103205,0.0,0.0,0.0,0.0,0
9232892000,-0.977637,-0.00036231507,-0.00041336525,-0.2103204,0.0,0.0,0.0,0.0,0
9232904000,-0.977637,-0.00036232028,-0.00041339124,-0.21032047,0.0,0.0,0.0,0.0,0
9232916000,-0.977637,-0.00036223017,-0.00041340795,-0.21032037,0.0,0.0,0.0,0.0,0
9232928000,-0.977637,-0.000362197,-0.00041339392,-0.21032046,0.0,0.0,0.0,0.0,0
9232940000,-0.97763705,-0.00036212459,-0.00041345682,-0.21032032,0.0,0.0,0.0,0.0,0
9232952000,-0.977637,-0.00036205864,-0.00041341258,-0.21032043,0.0,0.0,0.0,0.0,0
9232960000,-0.977637,-0.00036210625,-0.00041342332,-0.21032047,0.0,0.0,0.0,0.0,0
9232976000,-0.977637,-0.00036198474,-0.00041344136,-0.21032041,0.0,0.0,0.0,0.0,0
9232984000,-0.977637,-0.00036199298,-0.00041344002,-0.21032046,0.0,0.0,0.0,0.0,0
9233000000,-0.977637,-0.00036185767,-0.00041344453,-0.21032043,0.0,0.0,0.0,0.0,0
9233012000,-0.97763705,-0.000361753,-0.00041347367,-0.21032035,0.0,0.0,0.0,0.0,0
9233024000,-0.977637,-0.00036171652,-0.00041347905,-0.21032044,0.0,0.0,0.0,0.0,0
9233036000,-0.97763705,-0.0003616885,-0.00041362608,-0.21032026,0.0,0.0,0.0,0.0,0
9233048000,-0.977637,-0.0003616089,-0.00041354785,-0.2103204,0.0,0.0,0.0,0.0,0
9233056000,-0.977637,-0.00036166311,-0.0004135542,-0.21032046,0.0,0.0,0.0,0.0,0
9233072000,-0.977637,-0.00036151544,-0.0004135632,-0.21032043,0.0,0.0,0.0,0.0,0
9233084000,-0.97763705,-0.00036144358,-0.0004136376,-0.21032028,0.0,0.0,0.0,0.0,0
9233096000,-0.977637,-0.00036137906,-0.00041358857,-0.21032041,0.0,0.0,0.0,0.0,0
9233108000,-0.977637,-0.00036147187,-0.00041362172,-0.21032047,0.0,0.0,0.0,0.0,0
9233120000,-0.977637,-0.0003613113,-0.00041362917,-0.2103204,0.0,0.0,0.0,0.0,0
9233132000,-0.977637,-0.00036132257,-0.000413644,-0.21032046,0.0,0.0,0.0,0.0,0
9233144000,-0.97763705,-0.00036116157,-0.00041366447,-0.21032035,0.0,0.0,0.0,0.0,0
9233156000,-0.977637,-0.00036120074,-0.0004136825,-0.21032044,0.0,0.0,0.0,0.0,0
9233168000,-0.97763705,-0.00036112987,-0.00041368022,-0.21032035,0.0,0.0,0.0,0.0,0
9233180000,-0.977637,-0.00036111448,-0.00041369002,-0.21032044,0.0,0.0,0.0,0.0,0
9233192000,-0.977637,-0.00036117414,-0.00041371165,-0.21032049,0.0,0.0,0.0,0.0,0
9233204000,-0.977637,-0.00036099748,-0.00041369096,-0.2103204,0.0,0.0,0.0,0.0,0
9233216000,-0.977637,-0.00036102222,-0.00041372355,-0.21032046,0.0,0.0,0.0,0.0,0
9233228000,-0.977637,-0.00036089154,-0.0004137075,-0.21032038,0.0,0.0,0.0,0.0,0
9233240000,-0.977637,-0.0003608975,-0.00041372553,-0.21032046,0.0,0.0,0.0,0.0,0
9233248000,-0.97763705,-0.000360818,-0.00041378487,-0.2103203,0.0,0.0,0.0,0.0,0
9233260000,-0.977637,-0.0003607552,-0.00041374422,-0.21032041,0.0,0.0,0.0,0.0,0
9233276000,-0.97763705,-0.00036069835,-0.00041381334,-0.2103203,0.0,0.0,0.0,0.0,0
9233288000,-0.977637,-0.00036065618,-0.0004137711,-0.21032041,0.0,0.0,0.0,0.0,0
9233300000,-0.97763705,-0.00036059102,-0.00041381925,-0.21032028,0.0,0.0,0.0,0.0,0
9233312000,-0.977637,-0.00036054468,-0.0004137855,-0.2103204,0.0,0.0,0.0,0.0,0
9233324000,-0.97763705,-0.00036045272,-0.0004137918,-0.21032032,0.0,0.0,0.0,0.0,0
9233332000,-0.977637,-0.0003604166,-0.0004137917,-0.2103204,0.0,0.0,0.0,0.0,0
9233348000,-0.97763705,-0.0003604009,-0.00041392178,-0.21032026,0.0,0.0,0.0,0.0,0
9233360000,-0.977637,-0.00036033476,-0.00041386843,-0.21032038,0.0,0.0,0.0,0.0,0
9233368000,-0.977637,-0.00036036898,-0.00041387955,-0.21032043,0.0,0.0,0.0,0.0,0
9233384000,-0.977637,-0.00034942926,-0.00039721557,-0.21032047,0.0,0.0,0.0,0.0,0
9233392000,-0.977637,-0.00034950618,-0.00039728812,-0.21032049,0.0,0.0,0.0,0.0,0
9233408000,-0.977637,-0.0003495893,-0.00039741604,-0.2103205,0.0,0.0,0.0,0.0,0
9233420000,-0.977637,-0.00034966556,-0.00039748903,-0.2103205,0.0,0.0,0.0,0.0,0
9233428000,-0.977637,-0.0003497249,-0.00039754066,-0.21032052,0.0,0.0,0.0,0.0,0
9233444000,-0.977637,-0.0003498236,-0.00039760667,-0.21032052,0.0,0.0,0.0,0.0,0
9233456000,-0.977637,-0.00034990758,-0.000397664,-0.21032052,0.0,0.0,0.0,0.0,0
9233468000,-0.977637,-0.00034999338,-0.00039771842,-0.21032052,0.0,0.0,0.0,0.0,0
9233480000,-0.977637,-0.00035007426,-0.0003977683,-0.21032052,0.0,0.0,0.0,0.0,0
9233492000,-0.977637,-0.00035015878,-0.0003978273,-0.21032052,0.0,0.0,0.0,0.0,0
9233500000,-0.977637,-0.00035019562,-0.00039786403,-0.21032052,0.0,0.0,0.0,0.0,0
9233516000,-0.977637,-0.0003503116,-0.000397954,-0.21032052,0.0,0.0,0.0,0.0,0
9233528000,-0.977637,-0.00035040212,-0.0003980232,-0.21032052,0.0,0.0,0.0,0.0,0
9233540000,-0.977637,-0.00035048873,-0.00039809232,-0.21032052,0.0,0.0,0.0,0.0,0
9233552000,-0.977637,-0.0003505607,-0.00039815909,-0.21032052,0.0,0.0,0.0,0.0,0
9233564000,-0.977637,-0.00035064452,-0.0003982273,-0.21032052,0.0,0.0,0.0,0.0,0
9233576000,-0.977637,-0.00035071402,-0.000398286,-0.21032052,0.0,0.0,0.0,0.0,0
9233588000,-0.977637,-0.00035079647,-0.0003983431,-0.21032052,0.0,0.0,0.0,0.0,0
9233596000,-0.977637,-0.00035082162,-0.00039837224,-0.21032052,0.0,0.0,0.0,0.0,0
9233612000,-0.977637,-0.00035093786,-0.0003984631,-0.21032052,0.0,0.0,0.0,0.0,0
9233624000,-0.977637,-0.00035100325,-0.00039851878,-0.21032052,0.0,0.0,0.0,0.0,0
9233636000,-0.977637,-0.00035107837,-0.0003985654,-0.21032052,0.0,0.0,0.0,0.0,0
9233644000,-0.977637,-0.00035115296,-0.00039860315,-0.21032052,0.0,0.0,0.0,0.0,0
9233656000,-0.977637,-0.00035120384,-0.00039864975,-0.21032052,0.0,0.0,0.0,0.0,0
9233668000,-0.977637,-0.00035129013,-0.00039870566,-0.21032052,0.0,0.0,0.0,0.0,0
9233684000,-0.977637,-0.00035138684,-0.00039878022,-0.21032052,0.0,0.0,0.0,0.0,0
9233692000,-0.977637,-0.0003514118,-0.00039880577,-0.21032052,0.0,0.0,0.0,0.0,0
9233708000,-0.977637,-0.00035150058,-0.00039888002,-0.21032052,0.0,0.0,0.0,0.0,0
9233720000,-0.977637,-0.00035156443,-0.0003989217,-0.21032052,0.0,0.0,0.0,0.0,0
9233732000,-0.977637,-0.00035164994,-0.00039897035,-0.21032052,0.0,0.0,0.0,0.0,0
9233744000,-0.977637,-0.00035173097,-0.0003990149,-0.21032052,0.0,0.0,0.0,0.0,0
9233756000,-0.977637,-0.000351753,-0.00039905208,-0.21032052,0.0,0.0,0.0,0.0,0
9233768000,-0.977637,-0.0003518142,-0.00039909862,-0.21032052,0.0,0.0,0.0,0.0,0
9233780000,-0.977637,-0.000351876,-0.00039914344,-0.21032052,0.0,0.0,0.0,0.0,0
9233788000,-0.977637,-0.00035189337,-0.00039916538,-0.21032052,0.0,0.0,0.0,0.0,0
9233804000,-0.977637,-0.0003520161,-0.00039923104,-0.2103205,0.0,0.0,0.0,0.0,0
9233816000,-0.977637,-0.00035202617,-0.00039925822,-0.2103205,0.0,0.0,0.0,0.0,0
9233828000,-0.977637,-0.00035209444,-0.0003993026,-0.2103205,0.0,0.0,0.0,0.0,0
9233840000,-0.977637,-0.00035215818,-0.0003993422,-0.2103205,0.0,0.0,0.0,0.0,0
9233852000,-0.977637,-0.00035222198,-0.0003993788,-0.2103205,0.0,0.0,0.0,0.0,0
9233864000,-0.977637,-0.00035229098,-0.00039941457,-0.2103205,0.0,0.0,0.0,0.0,0
9233876000,-0.977637,-0.00035228295,-0.000399434,-0.2103205,0.0,0.0,0.0,0.0,0
9233888000,-0.977637,-0.00035234948,-0.0003994705,-0.2103205,0.0,0.0,0.0,0.0,0
9233896000,-0.977637,-0.0003523641,-0.00039948928,-0.2103205,0.0,0.0,0.0,0.0,0
9233912000,-0.977637,-0.00035247774,-0.0003995423,-0.2103205,0.0,0.0,0.0,0.0,0
9233924000,-0.977637,-0.00035246462,-0.00039955296,-0.2103205,0.0,0.0,0.0,0.0,0
9233936000,-0.977637,-0.0003525326,-0.00039958348,-0.2103205,0.0,0.0,0.0,0.0,0
9233944000,-0.977637,-0.00035254302,-0.0003995964,-0.2103205,0.0,0.0,0.0,0.0,0
9233960000,-0.977637,-0.00035255693,-0.00039962571,-0.2103205,0.0,0.0,0.0,0.0,0
9233972000,-0.977637,-0.00035261427,-0.00039964446,-0.2103205,0.0,0.0,0.0,0.0,0
9233984000,-0.977637,-0.0003526803,-0.00039965945,-0.2103205,0.0,0.0,0.0,0.0,0
9233992000,-0.977637,-0.00035268208,-0.00039966524,-0.2103205,0.0,0.0,0.0,0.0,0
9234008000,-0.977637,-0.00035267384,-0.00039968503,-0.2103205,0.0,0.0,0.0,0.0,0
9234020000,-0.977637,-0.00035271732,-0.0003997023,-0.2103205,0.0,0.0,0.0,0.0,0
9234032000,-0.977637,-0.00035266497,-0.00039969262,-0.2103205,0.0,0.0,0.0,0.0,0
9234040000,-0.977637,-0.0003526598,-0.00039969402,-0.2103205,0.0,0.0,0.0,0.0,0
9234052000,-0.977637,-0.00035270356,-0.00039971134,-0.2103205,0.0,0.0,0.0,0.0,0
9234064000,-0.977637,-0.00035275175,-0.00039973645,-0.2103205,0.0,0.0,0.0,0.0,0
9234080000,-0.97763693,-0.00035810302,-0.00040064065,-0.21032068,0.0,0.0,0.0,0.0,0
9234092000,-0.9776366,-0.00040146778,-0.00039759217,-0.21032247,0.0,0.0,0.0,0.0,0
9234104000,-0.97763586,-0.0005284069,-0.0003600401,-0.21032552,0.0,0.0,0.0,0.0,0
9234116000,-0.97763497,-0.0007790721,-0.00025277666,-0.21032901,0.0,0.0,0.0,0.0,0
9234128000,-0.97763425,-0.00119619,-4.8518537e-05,-0.21033041,0.0,0.0,0.0,0.0,0
9234140000,-0.97763413,-0.001813699,0.00027374426,-0.21032648,0.0,0.0,0.0,0.0,0
9234148000,-0.9776333,-0.002324097,0.0005614377,-0.21032481,0.0,0.0,0.0,0.0,0
9234164000,-0.9776288,-0.0034703196,0.0012678546,-0.21032661,0.0,0.0,0.0,0.0,0
9234176000,-0.9776228,-0.004348988,0.0018449714,-0.21033402,0.0,0.0,0.0,0.0,0
9234188000,-0.97761494,-0.0051750527,0.0024057121,-0.2103464,0.0,0.0,0.0,0.0,0
9234196000,-0.9776088,-0.0056732544,0.002761092,-0.21035758,0.0,0.0,0.0,0.0,0
9234208000,-0.9775988,-0.0063294927,0.0032565817,-0.21037835,0.0,0.0,0.0,0.0,0
9234224000,-0.9775852,-0.007049946,0.0038085827,-0.21040921,0.0,0.0,0.0,0.0,0
9234236000,-0.9775755,-0.0074972976,0.0041482295,-0.21043259,0.0,0.0,0.0,0.0,0
9234244000,-0.97756916,-0.0077509196,0.0043508965,-0.21044868,0.0,0.0,0.0,0.0,0
9234260000,-0.97755736,-0.008165834,0.0046946257,-0.2104805,0.0,0.0,0.0,0.0,0
9234268000,-0.9775521,-0.008336055,0.0048251855,-0.21049508,0.0,0.0,0.0,0.0,0
9234280000,-0.9775453,-0.008537844,0.0049757636,-0.21051508,0.0,0.0,0.0,0.0,0
9234296000,-0.977538,-0.008695747,0.0051028426,-0.21053968,0.0,0.0,0.0,0.0,0
9234304000,-0.97753507,-0.008727568,0.0051347013,-0.2105512,0.0,0.0,0.0,0.0,0
9234320000,-0.9775311,-0.0086874245,0.0051463163,-0.21057104,0.0,0.0,0.0,0.0,0
9234328000,-0.97753006,-0.008612515,0.0051273867,-0.21057916,0.0,0.0,0.0,0.0,0
9234344000,-0.9775295,-0.008370798,0.0050382973,-0.21059349,0.0,0.0,0.0,0.0,0
9234356000,-0.97752994,-0.0081309555,0.0049306196,-0.21060352,0.0,0.0,0.0,0.0,0
9234364000,-0.9775306,-0.007945617,0.004842001,-0.21060961,0.0,0.0,0.0,0.0,0
9234376000,-0.9775319,-0.0076480363,0.0046841796,-0.21061817,0.0,0.0,0.0,0.0,0
9234392000,-0.9775337,-0.0072410684,0.0044367868,-0.21062978,0.0,0.0,0.0,0.0,0
9234404000,-0.97753495,-0.006925778,0.004229697,-0.21063876,0.0,0.0,0.0,0.0,0
9234416000,-0.97753626,-0.0065956153,0.0040257247,-0.21064733,0.0,0.0,0.0,0.0,0
9234428000,-0.97753745,-0.006265449,0.0038268135,-0.21065545,0.0,0.0,0.0,0.0,0
9234436000,-0.97753817,-0.006049626,0.0036958773,-0.21066071,0.0,0.0,0.0,0.0,0
9234452000,-0.9775396,-0.0056185354,0.0034365046,-0.21067055,0.0,0.0,0.0,0.0,0
9234464000,-0.97754055,-0.005293852,0.0032322174,-0.21067767,0.0,0.0,0.0,0.0,0
9234476000,-0.9775414,-0.004975929,0.0030173988,-0.21068466,0.0,0.0,0.0,0.0,0
9234488000,-0.9775419,-0.004672382,0.0027920434,-0.21069233,0.0,0.0,0.0,0.0,0
9234500000,-0.9775419,-0.004376648,0.002562355,-0.2107017,0.0,0.0,0.0,0.0,0
9234508000,-0.9775417,-0.0041872496,0.0024080663,-0.21070829,0.0,0.0,0.0,0.0,0
9234524000,-0.9775412,-0.0038303765,0.0021042242,-0.21072069,0.0,0.0,0.0,0.0,0
9234532000,-0.97754085,-0.0036614079,0.0019587136,-0.21072684,0.0,0.0,0.0,0.0,0
9234548000,-0.97753984,-0.0033274016,0.001688325,-0.21073934,0.0,0.0,0.0,0.0,0
9234560000,-0.9775391,-0.003076072,0.0015084977,-0.21074791,0.0,0.0,0.0,0.0,0
9234572000,-0.9775382,-0.0028406712,0.0013549125,-0.21075632,0.0,0.0,0.0,0.0,0
9234584000,-0.9775372,-0.0026175634,0.0012171589,-0.2107646,0.0,0.0,0.0,0.0,0
9234596000,-0.97753644,-0.0024036125,0.0010934757,-0.21077147,0.0,0.0,0.0,0.0,0
9234604000,-0.977536,-0.002267981,0.0010174265,-0.21077523,0.0,0.0,0.0,0.0,0
9234616000,-0.97753555,-0.0020825283,0.00091700157,-0.21078005,0.0,0.0,0.0,0.0,0
9234628000,-0.97753495,-0.0019192119,0.0008292494,-0.21078451,0.0,0.0,0.0,0.0,0
9234644000,-0.97753423,-0.0017468001,0.00072538556,-0.21078995,0.0,0.0,0.0,0.0,0
9234656000,-0.97753376,-0.0016439342,0.00065825746,-0.21079294,0.0,0.0,0.0,0.0,0
9234668000,-0.9775335,-0.0015484146,0.00059577875,-0.21079499,0.0,0.0,0.0,0.0,0
9234676000,-0.9775335,-0.0014808185,0.000554232,-0.21079582,0.0,0.0,0.0,0.0,0
9234692000,-0.9775336,-0.0013380522,0.00046781916,-0.2107966,0.0,0.0,0.0,0.0,0
9234704000,-0.9775336,-0.0012342648,0.00040012173,-0.21079743,0.0,0.0,0.0,0.0,0
9234716000,-0.9775333,-0.0011366055,0.00033063148,-0.21079946,0.0,0.0,0.0,0.0,0
9234728000,-0.9775328,-0.0010473643,0.00025651336,-0.2108023,0.0,0.0,0.0,0.0,0
9234740000,-0.97753197,-0.0009840124,0.00018540221,-0.21080634,0.0,0.0,0.0,0.0,0
9234752000,-0.9775308,-0.00094318955,0.00012293868,-0.21081205,0.0,0.0,0.0,0.0,0
9234760000,-0.97752994,-0.00091595243,8.598168e-05,-0.2108162,0.0,0.0,0.0,0.0,0
9234776000,-0.9775284,-0.00084060465,1.2529031e-05,-0.2108236,0.0,0.0,0.0,0.0,0
9234788000,-0.97752726,-0.0007746006,-4.1805564e-05,-0.2108292,0.0,0.0,0.0,0.0,0
9234800000,-0.9775259,-0.0007049541,-8.0478414e-05,-0.21083578,0.0,0.0,0.0,0.0,0
9234812000,-0.9775245,-0.0006348465,-0.00011221211,-0.2108423,0.0,0.0,0.0,0.0,0
9234824000,-0.9775234,-0.00056763,-0.00014049334,-0.2108477,0.0,0.0,0.0,0.0,0
9234836000,-0.9775225,-0.00050861517,-0.00016544259,-0.210852,0.0,0.0,0.0,0.0,0
9234848000,-0.9775216,-0.0004624687,-0.00018670596,-0.21085621,0.0,0.0,0.0,0.0,0
9234860000,-0.9775206,-0.00042977577,-0.00020379397,-0.21086103,0.0,0.0,0.0,0.0,0
9234872000,-0.97751933,-0.00040610926,-0.00022152117,-0.21086684,0.0,0.0,0.0,0.0,0
9234884000,-0.9775179,-0.0003805522,-0.00024484994,-0.21087353,0.0,0.0,0.0,0.0,0
9234896000,-0.97751653,-0.00034994035,-0.00026659455,-0.21087986,0.0,0.0,0.0,0.0,0
9234908000,-0.9775155,-0.00031257886,-0.00028277803,-0.21088463,0.0,0.0,0.0,0.0,0
9234920000,-0.9775146,-0.0002678306,-0.00030188108,-0.21088874,0.0,0.0,0.0,0.0,0
9234928000,-0.977514,-0.00023269394,-0.00031585354,-0.2108916,0.0,0.0,0.0,0.0,0
9234944000,-0.97751284,-0.00016059942,-0.00034597877,-0.21089718,0.0,0.0,0.0,0.0,0
9234956000,-0.97751206,-0.00010169743,-0.00036752305,-0.2109008,0.0,0.0,0.0,0.0,0
9234968000,-0.9775113,-3.7597263e-05,-0.0003871443,-0.21090427,0.0,0.0,0.0,0.0,0
9234976000,-0.9775106,7.5371595e-06,-0.00040066932,-0.21090761,0.0,0.0,0.0,0.0,0
9234988000,-0.9775093,6.663349e-05,-0.00041182447,-0.21091333,0.0,0.0,0.0,0.0,0
9235004000,-0.977508,0.00011806292,-0.00042019848,-0.21091951,0.0,0.0,0.0,0.0,0
9235016000,-0.9775072,0.00013815107,-0.00042073763,-0.21092324,0.0,0.0,0.0,0.0,0
9235028000,-0.97750646,0.00015419438,-0.00042236902,-0.21092662,0.0,0.0,0.0,0.0,0
9235040000,-0.97750574,0.00017640604,-0.0004279227,-0.21092996,0.0,0.0,0.0,0.0,0
9235052000,-0.9775051,0.00020172741,-0.00043434967,-0.21093287,0.0,0.0,0.0,0.0,0
9235064000,-0.97750455,0.00022857034,-0.0004362138,-0.2109352,0.0,0.0,0.0,0.0,0
9235076000,-0.9775043,0.0002540473,-0.00042540435,-0.21093653,0.0,0.0,0.0,0.0,0
9235088000,-0.97750443,0.00026747183,-0.00041139562,-0.21093586,0.0,0.0,0.0,0.0,0
9235100000,-0.97750497,0.00027312033,-0.0004093446,-0.21093342,0.0,0.0,0.0,0.0,0
9235112000,-0.9775058,0.00028307064,-0.00041362437,-0.21092957,0.0,0.0,0.0,0.0,0
9235120000,-0.97750646,0.00029650534,-0.00041973407,-0.2109265,0.0,0.0,0.0,0.0,0
9235136000,-0.9775075,0.00034515353,-0.000442784,-0.21092154,0.0,0.0,0.0,0.0,0
9235144000,-0.97750777,0.00037546232,-0.0004650242,-0.21092027,0.0,0.0,0.0,0.0,0
9235160000,-0.97750777,0.00043258502,-0.00052254327,-0.21091983,0.0,0.0,0.0,0.0,0
9235172000,-0.9775075,0.00046882435,-0.0005743758,-0.21092099,0.0,0.0,0.0,0.0,0
9235184000,-0.9775068,0.00049898203,-0.0006337953,-0.21092391,0.0,0.0,0.0,0.0,0
9235196000,-0.97750574,0.0005284628,-0.00069584337,-0.21092851,0.0,0.0,0.0,0.0,0
9235208000,-0.97750443,0.00056418346,-0.0007640645,-0.2109343,0.0,0.0,0.0,0.0,0
9235220000,-0.9775031,0.0006174626,-0.0008310636,-0.2109401,0.0,0.0,0.0,0.0,0
9235232000,-0.97750187,0.00068618444,-0.0008959602,-0.21094544,0.0,0.0,0.0,0.0,0
9235244000,-0.9775008,0.0007635529,-0.00095891394,-0.21094972,0.0,0.0,0.0,0.0,0
9235256000,-0.97750014,0.0008489948,-0.0010247203,-0.21095212,0.0,0.0,0.0,0.0,0
9235268000,-0.97749996,0.00093103445,-0.001082765,-0.21095227,0.0,0.0,0.0,0.0,0
9235276000,-0.97750014,0.0009790693,-0.0011147356,-0.21095106,0.0,0.0,0.0,0.0,0
9235292000,-0.9775011,0.0010758055,-0.001164245,-0.21094601,0.0,0.0,0.0,0.0,0
9235304000,-0.9775021,0.0011527222,-0.0011913439,-0.21094067,0.0,0.0,0.0,0.0,0
9235316000,-0.97750294,0.0012274873,-0.0012113571,-0.21093623,0.0,0.0,0.0,0.0,0
9235328000,-0.97750354,0.0012917467,-0.0012336255,-0.21093306,0.0,0.0,0.0,0.0,0
9235340000,-0.9775041,0.0013563315,-0.0012634987,-0.21093008,0.0,0.0,0.0,0.0,0
9235352000,-0.9775045,0.0014302231,-0.0012968032,-0.21092735,0.0,0.0,0.0,0.0,0
9235364000,-0.9775048,0.001492333,-0.0013268952,-0.21092522,0.0,0.0,0.0,0.0,0
9235376000,-0.977505,0.0015310704,-0.0013510078,-0.21092382,0.0,0.0,0.0,0.0,0
9235388000,-0.9775052,0.0015436828,-0.0013765608,-0.21092266,0.0,0.0,0.0,0.0,0
9235400000,-0.9775052,0.001541866,-0.001403396,-0.21092248,0.0,0.0,0.0,0.0,0
9235412000,-0.97750485,0.0015340492,-0.0014348857,-0.210924,0.0,0.0,0.0,0.0,0
9235420000,-0.9775043,0.0015296286,-0.0014569949,-0.21092632,0.0,0.0,0.0,0.0,0
9235436000,-0.9775028,0.0015182035,-0.0014830753,-0.21093336,0.0,0.0,0.0,0.0,0
9235448000,-0.9775012,0.0015032548,-0.0014876806,-0.21094066,0.0,0.0,0.0,0.0,0
9235460000,-0.9774994,0.0014924787,-0.0014838291,-0.21094921,0.0,0.0,0.0,0.0,0
9235472000,-0.9774976,0.0014892371,-0.0014685779,-0.21095794,0.0,0.0,0.0,0.0,0
9235484000,-0.97749615,0.0014856525,-0.001444004,-0.21096471,0.0,0.0,0.0,0.0,0
9235496000,-0.97749513,0.0014853509,-0.0014132838,-0.2109696,0.0,0.0,0.0,0.0,0
9235508000,-0.9774944,0.0014943411,-0.0013848407,-0.2109729,0.0,0.0,0.0,0.0,0
9235520000,-0.9774939,0.0015150122,-0.0013715164,-0.21097541,0.0,0.0,0.0,0.0,0
9235532000,-0.9774937,0.0015454423,-0.0013681629,-0.210976,0.0,0.0,0.0,0.0,0
9235540000,-0.9774939,0.0015640401,-0.0013717108,-0.21097507,0.0,0.0,0.0,0.0,0
9235552000,-0.97749454,0.001585191,-0.0013844968,-0.21097194,0.0,0.0,0.0,0.0,0
9235568000,-0.9774961,0.0016070271,-0.0014155229,-0.21096422,0.0,0.0,0.0,0.0,0
9235580000,-0.97749764,0.0016137107,-0.0014460714,-0.21095689,0.0,0.0,0.0,0.0,0
9235592000,-0.97749895,0.0016180819,-0.0014814377,-0.21095033,0.0,0.0,0.0,0.0,0
9235600000,-0.9774996,0.0016179511,-0.0015128441,-0.21094719,0.0,0.0,0.0,0.0,0
9235612000,-0.97750014,0.0016136287,-0.001575742,-0.21094424,0.0,0.0,0.0,0.0,0
9235628000,-0.9775005,0.0015972911,-0.0016801235,-0.21094184,0.0,0.0,0.0,0.0,0
9235640000,-0.9775011,0.001593847,-0.0017573438,-0.2109387,0.0,0.0,0.0,0.0,0
9235648000,-0.97750163,0.0015949064,-0.0018080001,-0.21093561,0.0,0.0,0.0,0.0,0
9235664000,-0.97750324,0.001597131,-0.0019110843,-0.21092741,0.0,0.0,0.0,0.0,0
9235676000,-0.9775046,0.001593822,-0.001981481,-0.2109204,0.0,0.0,0.0,0.0,0
9235688000,-0.9775061,0.0015942398,-0.0020327102,-0.2109128,0.0,0.0,0.0,0.0,0
9235696000,-0.9775072,0.0015937791,-0.002055977,-0.21090774,0.0,0.0,0.0,0.0,0
9235712000,-0.97750884,0.0015877028,-0.0020854021,-0.21089965,0.0,0.0,0.0,0.0,0
9235724000,-0.9775097,0.0015862742,-0.0020976411,-0.21089582,0.0,0.0,0.0,0.0,0
9235736000,-0.9775103,0.0015815727,-0.002098077,-0.21089305,0.0,0.0,0.0,0.0,0
9235748000,-0.9775106,0.0015742852,-0.0020901752,-0.21089165,0.0,0.0,0.0,0.0,0
9235760000,-0.9775107,0.0015764104,-0.0020808252,-0.21089126,0.0,0.0,0.0,0.0,0
9235768000,-0.9775107,0.0015818547,-0.0020747397,-0.21089128,0.0,0.0,0.0,0.0,0
9235784000,-0.9775106,0.0015962999,-0.0020565898,-0.21089196,0.0,0.0,0.0,0.0,0
9235796000,-0.9775101,0.0016170291,-0.0020353848,-0.21089427,0.0,0.0,0.0,0.0,0
9235808000,-0.977509,0.0016479781,-0.0020123937,-0.21089908,0.0,0.0,0.0,0.0,0
9235820000,-0.97750753,0.001676939,-0.0019869904,-0.21090594,0.0,0.0,0.0,0.0,0
9235832000,-0.977506,0.0017040172,-0.0019612443,-0.21091335,0.0,0.0,0.0,0.0,0
9235844000,-0.97750425,0.0017219639,-0.0019365223,-0.21092135,0.0,0.0,0.0,0.0,0
9235852000,-0.9775029,0.0017286363,-0.0019197891,-0.21092781,0.0,0.0,0.0,0.0,0
9235868000,-0.9774994,0.0017416532,-0.0019024223,-0.21094397,0.0,0.0,0.0,0.0,0
9235880000,-0.9774962,0.0017605046,-0.0019063858,-0.21095863,0.0,0.0,0.0,0.0,0
9235892000,-0.9774924,0.0017798176,-0.001914747,-0.21097593,0.0,0.0,0.0,0.0,0
9235904000,-0.97748816,0.0018012276,-0.0019238519,-0.21099527,0.0,0.0,0.0,0.0,0
9235916000,-0.9774838,0.0018285959,-0.0019310976,-0.21101514,0.0,0.0,0.0,0.0,0
9235928000,-0.9774795,0.00186177,-0.0019346114,-0.21103488,0.0,0.0,0.0,0.0,0
9235940000,-0.9774752,0.0018995077,-0.0019234944,-0.21105444,0.0,0.0,0.0,0.0,0
9235948000,-0.97747254,0.0019263896,-0.0019054608,-0.21106681,0.0,0.0,0.0,0.0,0
9235964000,-0.97746766,0.0019771184,-0.001854012,-0.21108942,0.0,0.0,0.0,0.0,0
9235976000,-0.9774645,0.0020061098,-0.0018107877,-0.2111042,0.0,0.0,0.0,0.0,0
9235988000,-0.97746146,0.0020338986,-0.001768116,-0.21111839,0.0,0.0,0.0,0.0,0
9235996000,-0.9774595,0.0020591195,-0.0017434248,-0.21112745,0.0,0.0,0.0,0.0,0
9236012000,-0.97745603,0.002121776,-0.0017122886,-0.21114294,0.0,0.0,0.0,0.0,0
9236020000,-0.9774547,0.0021527018,-0.0017038472,-0.21114881,0.0,0.0,0.0,0.0,0
9236036000,-0.97745275,0.0021987779,-0.0016854433,-0.21115755,0.0,0.0,0.0,0.0,0
9236048000,-0.9774516,0.0022094036,-0.0016751662,-0.21116276,0.0,0.0,0.0,0.0,0
9236060000,-0.97745055,0.0022018435,-0.0016743013,-0.21116789,0.0,0.0,0.0,0.0,0
9236072000,-0.9774495,0.002189687,-0.0016848114,-0.21117288,0.0,0.0,0.0,0.0,0
9236084000,-0.9774485,0.0021782527,-0.0017090532,-0.2111771,0.0,0.0,0.0,0.0,0
9236096000,-0.9774478,0.0021757227,-0.0017485,-0.21118015,0.0,0.0,0.0,0.0,0
9236108000,-0.97744733,0.002188767,-0.0017979051,-0.21118195,0.0,0.0,0.0,0.0,0
9236120000,-0.977447,0.0022166686,-0.0018532025,-0.21118288,0.0,0.0,0.0,0.0,0
9236132000,-0.9774466,0.0022607255,-0.0019115836,-0.21118338,0.0,0.0,0.0,0.0,0
9236144000,-0.9774462,0.0023150886,-0.0019694653,-0.21118431,0.0,0.0,0.0,0.0,0
9236156000,-0.9774456,0.002372911,-0.0020270776,-0.21118587,0.0,0.0,0.0,0.0,0
9236168000,-0.977445,0.0024379427,-0.0020835884,-0.21118742,0.0,0.0,0.0,0.0,0
9236180000,-0.97744435,0.002506356,-0.002128731,-0.2111892,0.0,0.0,0.0,0.0,0
9236192000,-0.97744364,0.0025769316,-0.0021592288,-0.2111913,0.0,0.0,0.0,0.0,0
9236204000,-0.977443,0.0026540991,-0.002181084,-0.2111932,0.0,0.0,0.0,0.0,0
9236216000,-0.9774423,0.0027324937,-0.002196851,-0.21119505,0.0,0.0,0.0,0.0,0
9236228000,-0.97744143,0.0028015596,-0.002207872,-0.21119802,0.0,0.0,0.0,0.0,0
9236240000,-0.97744024,0.0028602986,-0.0022102972,-0.21120282,0.0,0.0,0.0,0.0,0
9236252000,-0.977439,0.0029163228,-0.002204488,-0.21120797,0.0,0.0,0.0,0.0,0
9236264000,-0.97743785,0.0029602128,-0.0021842436,-0.21121271,0.0,0.0,0.0,0.0,0
9236276000,-0.977437,0.0029966237,-0.0021464946,-0.21121639,0.0,0.0,0.0,0.0,0
9236284000,-0.97743666,0.0030186295,-0.0021147465,-0.2112181,0.0,0.0,0.0,0.0,0
9236300000,-0.9774363,0.003055174,-0.0020433532,-0.21122003,0.0,0.0,0.0,0.0,0
9236312000,-0.9774361,0.0030763193,-0.0019859357,-0.21122105,0.0,0.0,0.0,0.0,0
9236324000,-0.9774359,0.0030867504,-0.0019339563,-0.21122256,0.0,0.0,0.0,0.0,0
9236336000,-0.9774354,0.0030945907,-0.0018961207,-0.2112249,0.0,0.0,0.0,0.0,0
9236348000,-0.9774349,0.0031039226,-0.0018775743,-0.21122748,0.0,0.0,0.0,0.0,0
9236360000,-0.9774344,0.0031185558,-0.0018697464,-0.21122955,0.0,0.0,0.0,0.0,0
9236372000,-0.97743404,0.003141093,-0.0018690614,-0.21123067,0.0,0.0,0.0,0.0,0
9236384000,-0.9774339,0.0031670555,-0.0018797031,-0.21123089,0.0,0.0,0.0,0.0,0
9236392000,-0.977434,0.003184888,-0.0018898075,-0.21123031,0.0,0.0,0.0,0.0,0
9236408000,-0.9774347,0.003209267,-0.0019045348,-0.21122648,0.0,0.0,0.0,0.0,0
9236420000,-0.97743565,0.0032127823,-0.0019089977,-0.21122181,0.0,0.0,0.0,0.0,0
9236432000,-0.9774367,0.003201196,-0.0019158826,-0.21121714,0.0,0.0,0.0,0.0,0
9236444000,-0.97743773,0.00317574,-0.0019379492,-0.21121259,0.0,0.0,0.0,0.0,0
9236456000,-0.9774385,0.0031469145,-0.0019712057,-0.211209,0.0,0.0,0.0,0.0,0
9236468000,-0.97743887,0.0031259605,-0.002014211,-0.21120742,0.0,0.0,0.0,0.0,0
9236480000,-0.9774389,0.0031197187,-0.002062323,-0.21120666,0.0,0.0,0.0,0.0,0
9236488000,-0.977439,0.0031246636,-0.0020983454,-0.21120605,0.0,0.0,0.0,0.0,0
9236504000,-0.9774391,0.0031424765,-0.0021735171,-0.21120441,0.0,0.0,0.0,0.0,0
9236516000,-0.9774393,0.0031521425,-0.0022304205,-0.21120277,0.0,0.0,0.0,0.0,0
9236528000,-0.9774396,0.0031503048,-0.0022896216,-0.21120095,0.0,0.0,0.0,0.0,0
9236540000,-0.97744,0.0031429154,-0.0023497953,-0.2111985,0.0,0.0,0.0,0.0,0
9236548000,-0.9774403,0.00313704,-0.002389492,-0.21119666,0.0,0.0,0.0,0.0,0
9236560000,-0.9774407,0.0031278562,-0.0024432638,-0.21119416,0.0,0.0,0.0,0.0,0
9236576000,-0.9774414,0.003120092,-0.002499896,-0.21119057,0.0,0.0,0.0,0.0,0
9236588000,-0.977442,0.0031396446,-0.0025316558,-0.21118702,0.0,0.0,0.0,0.0,0
9236600000,-0.97744274,0.0031766687,-0.0025548511,-0.2111829,0.0,0.0,0.0,0.0,0
9236612000,-0.97744334,0.0032194967,-0.002566319,-0.21117935,0.0,0.0,0.0,0.0,0
9236624000,-0.97744375,0.003264197,-0.0025689232,-0.21117659,0.0,0.0,0.0,0.0,0
9236636000,-0.9774442,0.0033068245,-0.00255325,-0.21117413,0.0,0.0,0.0,0.0,0
9236648000,-0.9774449,0.0033431305,-0.002514908,-0.2111709,0.0,0.0,0.0,0.0,0
9236660000,-0.9774459,0.0033729218,-0.0024633862,-0.21116613,0.0,0.0,0.0,0.0,0
9236672000,-0.97744745,0.0033988706,-0.0024123816,-0.21115921,0.0,0.0,0.0,0.0,0
9236684000,-0.9774494,0.0034120446,-0.0023695666,-0.21115032,0.0,0.0,0.0,0.0,0
9236696000,-0.9774517,0.0034194852,-0.002336214,-0.21114004,0.0,0.0,0.0,0.0,0
9236708000,-0.97745407,0.0034292326,-0.0023155531,-0.2111291,0.0,0.0,0.0,0.0,0
9236720000,-0.97745657,0.003442676,-0.0023048462,-0.2111175,0.0,0.0,0.0,0.0,0
9236728000,-0.97745824,0.0034494528,-0.0022985335,-0.21110968,0.0,0.0,0.0,0.0,0
9236744000,-0.97746146,0.003462083,-0.0022826216,-0.21109487,0.0,0.0,0.0,0.0,0
9236756000,-0.97746366,0.0034721938,-0.0022667425,-0.21108465,0.0,0.0,0.0,0.0,0
9236768000,-0.97746575,0.0034805173,-0.0022570142,-0.21107481,0.0,0.0,0.0,0.0,0
9236776000,-0.9774672,0.003490121,-0.0022521927,-0.21106821,0.0,0.0,0.0,0.0,0
9236792000,-0.97747004,0.0035261207,-0.002241541,-0.2110545,0.0,0.0,0.0,0.0,0
9236804000,-0.9774722,0.0035633026,-0.002247451,-0.21104382,0.0,0.0,0.0,0.0,0
9236816000,-0.9774743,0.0036135057,-0.0022656058,-0.21103305,0.0,0.0,0.0,0.0,0
9236828000,-0.97747624,0.0036779514,-0.002286951,-0.21102269,0.0,0.0,0.0,0.0,0
9236836000,-0.97747725,0.0037270254,-0.0023020534,-0.21101688,0.0,0.0,0.0,0.0,0
9236852000,-0.9774788,0.003835415,-0.0023354245,-0.21100739,0.0,0.0,0.0,0.0,0
9236860000,-0.9774795,0.0038875814,-0.002353194,-0.21100296,0.0,0.0,0.0,0.0,0
9236876000,-0.9774808,0.003967733,-0.0023878994,-0.2109949,0.0,0.0,0.0,0.0,0
9236888000,-0.9774816,0.003998804,-0.0024206585,-0.21099032,0.0,0.0,0.0,0.0,0
9236896000,-0.9774821,0.0040041865,-0.002445151,-0.21098794,0.0,0.0,0.0,0.0,0
9236912000,-0.97748286,0.0039923927,-0.0024930125,-0.21098387,0.0,0.0,0.0,0.0,0
9236924000,-0.9774836,0.003965766,-0.00252278,-0.21098062,0.0,0.0,0.0,0.0,0
9236936000,-0.97748417,0.0039221295,-0.0025498306,-0.21097854,0.0,0.0,0.0,0.0,0
9236948000,-0.9774844,0.0038787094,-0.0025721649,-0.21097793,0.0,0.0,0.0,0.0,0
9236956000,-0.97748446,0.003856787,-0.0025847445,-0.21097778,0.0,0.0,0.0,0.0,0
9236968000,-0.97748464,0.003834404,-0.0026022282,-0.21097726,0.0,0.0,0.0,0.0,0
9236984000,-0.9774849,0.0038197946,-0.002626228,-0.21097624,0.0,0.0,0.0,0.0,0
9236996000,-0.9774849,0.0038198016,-0.00265984,-0.21097581,0.0,0.0,0.0,0.0,0
9237008000,-0.97748464,0.0038276527,-0.0027158582,-0.21097597,0.0,0.0,0.0,0.0,0
9237020000,-0.97748405,0.0038388874,-0.0027901698,-0.21097764,0.0,0.0,0.0,0.0,0
9237032000,-0.9774832,0.0038489697,-0.0028691848,-0.21098028,0.0,0.0,0.0,0.0,0
9237040000,-0.9774826,0.0038572643,-0.0029171358,-0.21098208,0.0,0.0,0.0,0.0,0
9237056000,-0.9774815,0.0038813462,-0.0029936945,-0.21098591,0.0,0.0,0.0,0.0,0
9237068000,-0.97748053,0.003908969,-0.0030478006,-0.21098886,0.0,0.0,0.0,0.0,0
9237080000,-0.9774797,0.0039392863,-0.0031066465,-0.21099134,0.0,0.0,0.0,0.0,0
9237092000,-0.97747904,0.0039677788,-0.0031587016,-0.21099314,0.0,0.0,0.0,0.0,0
9237104000,-0.9774786,0.0039907605,-0.0031994048,-0.21099396,0.0,0.0,0.0,0.0,0
9237116000,-0.9774786,0.004008423,-0.0032311918,-0.21099328,0.0,0.0,0.0,0.0,0
9237128000,-0.977479,0.0040228465,-0.003251057,-0.21099104,0.0,0.0,0.0,0.0,0
9237140000,-0.97747976,0.0040315506,-0.0032615473,-0.210987,0.0,0.0,0.0,0.0,0
9237152000,-0.9774809,0.0040305695,-0.0032733297,-0.21098179,0.0,0.0,0.0,0.0,0
9237160000,-0.97748184,0.004021772,-0.003278145,-0.21097736,0.0,0.0,0.0,0.0,0
9237172000,-0.9774838,0.0040028053,-0.0032703623,-0.2109687,0.0,0.0,0.0,0.0,0
9237188000,-0.97748727,0.0039705373,-0.0032365764,-0.21095371,0.0,0.0,0.0,0.0,0
9237196000,-0.9774893,0.0039544273,-0.0032139686,-0.21094504,0.0,0.0,0.0,0.0,0
9237212000,-0.97749364,0.003926033,-0.0031787658,-0.21092588,0.0,0.0,0.0,0.0,0
9237224000,-0.9774975,0.0039012562,-0.003162598,-0.21090885,0.0,0.0,0.0,0.0,0
9237236000,-0.97750175,0.0038730756,-0.0031590445,-0.21088968,0.0,0.0,0.0,0.0,0
9237244000,-0.97750473,0.0038526773,-0.003161749,-0.21087609,0.0,0.0,0.0,0.0,0
9237260000,-0.97751135,0.0038075005,-0.003179832,-0.21084616,0.0,0.0,0.0,0.0,0
9237272000,-0.97751635,0.0037742832,-0.0032005915,-0.21082307,0.0,0.0,0.0,0.0,0
9237284000,-0.9775212,0.00375396,-0.0032192387,-0.21080095,0.0,0.0,0.0,0.0,0
9237296000,-0.9775258,0.0037499233,-0.0032376028,-0.2107793,0.0,0.0,0.0,0.0,0
9237308000,-0.9775305,0.0037541648,-0.0032597254,-0.21075712,0.0,0.0,0.0,0.0,0
9237320000,-0.9775355,0.0037607483,-0.0032799987,-0.21073331,0.0,0.0,0.0,0.0,0
9237328000,-0.9775391,0.003760352,-0.0032875887,-0.2107164,0.0,0.0,0.0,0.0,0
9237344000,-0.97754693,0.0037527345,-0.003278187,-0.21068041,0.0,0.0,0.0,0.0,0
9237356000,-0.977553,0.0037526337,-0.0032478443,-0.2106527,0.0,0.0,0.0,0.0,0
9237368000,-0.977559,0.0037650333,-0.003200606,-0.21062562,0.0,0.0,0.0,0.0,0
9237380000,-0.9775646,0.0037934894,-0.0031420155,-0.21060006,0.0,0.0,0.0,0.0,0
9237392000,-0.9775698,0.0038420646,-0.003081884,-0.21057574,0.0,0.0,0.0,0.0,0
9237404000,-0.97757477,0.0039016511,-0.0030203194,-0.21055251,0.0,0.0,0.0,0.0,0
9237416000,-0.9775795,0.0039637373,-0.0029588782,-0.21053039,0.0,0.0,0.0,0.0,0
9237428000,-0.97758394,0.0040181195,-0.0029070424,-0.21050921,0.0,0.0,0.0,0.0,0
9237440000,-0.97758853,0.0040551913,-0.0028729467,-0.21048766,0.0,0.0,0.0,0.0,0
9237452000,-0.97759324,0.004072539,-0.0028430468,-0.21046582,0.0,0.0,0.0,0.0,0
9237460000,-0.97759646,0.0040782415,-0.0028271202,-0.21045108,0.0,0.0,0.0,0.0,0
9237476000,-0.977603,0.0040784795,-0.0028131502,-0.21042068,0.0,0.0,0.0,0.0,0
9237488000,-0.9776082,0.004063876,-0.0028239011,-0.21039689,0.0,0.0,0.0,0.0,0
9237500000,-0.97761315,0.0040389905,-0.0028400011,-0.21037397,0.0,0.0,0.0,0.0,0
9237512000,-0.9776177,0.0040103043,-0.002854134,-0.21035326,0.0,0.0,0.0,0.0,0
9237524000,-0.97762185,0.0039733583,-0.002867085,-0.21033455,0.0,0.0,0.0,0.0,0
9237536000,-0.9776257,0.0039240737,-0.0028709497,-0.21031736,0.0,0.0,0.0,0.0,0
9237548000,-0.9776295,0.0038627589,-0.002868676,-0.210301,0.0,0.0,0.0,0.0,0
9237560000,-0.97763306,0.003798307,-0.0028753409,-0.21028551,0.0,0.0,0.0,0.0,0
9237572000,-0.97763616,0.0037393318,-0.0028963282,-0.21027194,0.0,0.0,0.0,0.0,0
9237584000,-0.9776389,0.0036978365,-0.002924339,-0.21025953,0.0,0.0,0.0,0.0,0
9237596000,-0.9776416,0.0036855938,-0.0029472858,-0.21024697,0.0,0.0,0.0,0.0,0
9237608000,-0.97764426,0.0036973497,-0.0029604994,-0.21023415,0.0,0.0,0.0,0.0,0
9237616000,-0.977646,0.0037124471,-0.0029591497,-0.2102258,0.0,0.0,0.0,0.0,0
9237628000,-0.9776486,0.0037411996,-0.002935747,-0.21021348,0.0,0.0,0.0,0.0,0
9237640000,-0.97765124,0.0037706634,-0.0028940844,-0.21020137,0.0,0.0,0.0,0.0,0
9237656000,-0.9776548,0.0037978867,-0.0028303796,-0.21018493,0.0,0.0,0.0,0.0,0
9237664000,-0.9776567,0.003813138,-0.0027994036,-0.2101763,0.0,0.0,0.0,0.0,0
9237680000,-0.9776604,0.0038451424,-0.0027447275,-0.21015917,0.0,0.0,0.0,0.0,0
9237692000,-0.9776631,0.0038579598,-0.0027149527,-0.21014696,0.0,0.0,0.0,0.0,0
9237704000,-0.9776656,0.0038563614,-0.0026962657,-0.21013552,0.0,0.0,0.0,0.0,0
9237712000,-0.9776673,0.0038554957,-0.0026882093,-0.21012774,0.0,0.0,0.0,0.0,0
9237728000,-0.97767085,0.0038561395,-0.0026912037,-0.21011126,0.0,0.0,0.0,0.0,0
9237736000,-0.9776726,0.003857802,-0.0026982334,-0.21010293,0.0,0.0,0.0,0.0,0
9237748000,-0.977675,0.0038647107,-0.002709336,-0.21009147,0.0,0.0,0.0,0.0,0
9237764000,-0.9776773,0.0038789986,-0.0027151955,-0.21008049,0.0,0.0,0.0,0.0,0
9237776000,-0.9776784,0.0039017885,-0.0027026033,-0.2100749,0.0,0.0,0.0,0.0,0
9237788000,-0.9776791,0.0039306027,-0.0026756988,-0.21007164,0.0,0.0,0.0,0.0,0
9237796000,-0.9776794,0.0039519104,-0.00265218,-0.21007012,0.0,0.0,0.0,0.0,0
9237808000,-0.97768,0.0039805477,-0.002612448,-0.21006708,0.0,0.0,0.0,0.0,0
9237824000,-0.9776817,0.0040113637,-0.0025615469,-0.21005939,0.0,0.0,0.0,0.0,0
9237836000,-0.9776834,0.004033849,-0.0025250707,-0.2100514,0.0,0.0,0.0,0.0,0
9237848000,-0.9776852,0.0040545706,-0.002483318,-0.21004312,0.0,0.0,0.0,0.0,0
9237860000,-0.9776872,0.004071434,-0.002437325,-0.21003422,0.0,0.0,0.0,0.0,0
9237872000,-0.97768945,0.004085125,-0.002396821,-0.21002384,0.0,0.0,0.0,0.0,0
9237880000,-0.97769105,0.0040916214,-0.002379314,-0.21001631,0.0,0.0,0.0,0.0,0
9237896000,-0.9776944,0.0040993653,-0.002358705,-0.2100011,0.0,0.0,0.0,0.0,0
9237908000,-0.977697,0.004103896,-0.002347028,-0.20998894,0.0,0.0,0.0,0.0,0
9237920000,-0.9776998,0.004099591,-0.0023407934,-0.2099759,0.0,0.0,0.0,0.0,0
9237928000,-0.9777018,0.0040895613,-0.0023392886,-0.2099669,0.0,0.0,0.0,0.0,0
9237944000,-0.9777056,0.00405404,-0.0023430048,-0.20994985,0.0,0.0,0.0,0.0,0
9237952000,-0.9777074,0.0040316693,-0.0023393347,-0.20994198,0.0,0.0,0.0,0.0,0
9237964000,-0.97770995,0.003994083,-0.0023230251,-0.20993105,0.0,0.0,0.0,0.0,0
9237980000,-0.977713,0.0039327154,-0.00229076,-0.20991844,0.0,0.0,0.0,0.0,0
9237992000,-0.9777152,0.003886154,-0.00227135,-0.2099091,0.0,0.0,0.0,0.0,0
9238000000,-0.9777169,0.0038501981,-0.0022649895,-0.2099019,0.0,0.0,0.0,0.0,0
9238016000,-0.9777208,0.0037681754,-0.0022674855,-0.2098851,0.0,0.0,0.0,0.0,0
9238028000,-0.97772396,0.0036999912,-0.0022729936,-0.20987174,0.0,0.0,0.0,0.0,0
9238040000,-0.97772706,0.0036326582,-0.0022740653,-0.20985839,0.0,0.0,0.0,0.0,0
9238052000,-0.97773015,0.0035773094,-0.0022622084,-0.20984498,0.0,0.0,0.0,0.0,0
9238064000,-0.9777332,0.003528321,-0.0022379942,-0.20983201,0.0,0.0,0.0,0.0,0
9238076000,-0.97773623,0.003480489,-0.0022058506,-0.20981885,0.0,0.0,0.0,0.0,0
9238088000,-0.9777393,0.0034410995,-0.0021714834,-0.20980579,0.0,0.0,0.0,0.0,0
9238100000,-0.9777421,0.0034114732,-0.0021391832,-0.20979361,0.0,0.0,0.0,0.0,0
9238112000,-0.9777446,0.0033920363,-0.0021064372,-0.20978253,0.0,0.0,0.0,0.0,0
9238120000,-0.9777461,0.0033796867,-0.002086684,-0.20977576,0.0,0.0,0.0,0.0,0
9238136000,-0.9777488,0.0033623683,-0.0020627202,-0.20976365,0.0,0.0,0.0,0.0,0
9238144000,-0.97775,0.003359032,-0.0020549325,-0.20975822,0.0,0.0,0.0,0.0,0
9238160000,-0.977752,0.0033807845,-0.002038737,-0.20974888,0.0,0.0,0.0,0.0,0
9238172000,-0.9777532,0.0034217788,-0.0020227095,-0.20974255,0.0,0.0,0.0,0.0,0
9238184000,-0.9777544,0.0034649477,-0.0020098293,-0.20973651,0.0,0.0,0.0,0.0,0
9238196000,-0.97775555,0.0035057333,-0.0020026492,-0.20973048,0.0,0.0,0.0,0.0,0
9238208000,-0.97775686,0.003532,-0.002006669,-0.20972395,0.0,0.0,0.0,0.0,0
9238220000,-0.97775835,0.003546546,-0.0020183423,-0.20971657,0.0,0.0,0.0,0.0,0
9238232000,-0.97775996,0.0035506245,-0.0020367848,-0.20970882,0.0,0.0,0.0,0.0,0
9238244000,-0.97776145,0.0035422342,-0.002063441,-0.2097017,0.0,0.0,0.0,0.0,0
9238256000,-0.9777628,0.0035274648,-0.002088767,-0.2096955,0.0,0.0,0.0,0.0,0
9238268000,-0.977764,0.0035108111,-0.002108054,-0.20968994,0.0,0.0,0.0,0.0,0
9238280000,-0.9777653,0.0034933763,-0.002116462,-0.20968409,0.0,0.0,0.0,0.0,0
9238292000,-0.97776675,0.0034676048,-0.0021088573,-0.20967801,0.0,0.0,0.0,0.0,0
9238304000,-0.97776806,0.0034274068,-0.0020918078,-0.20967259,0.0,0.0,0.0,0.0,0
9238316000,-0.9777695,0.0033709889,-0.002076301,-0.20966694,0.0,0.0,0.0,0.0,0
9238328000,-0.97777104,0.0033000617,-0.0020703792,-0.20966095,0.0,0.0,0.0,0.0,0
9238340000,-0.97777253,0.0032108224,-0.0020670781,-0.20965537,0.0,0.0,0.0,0.0,0
9238348000,-0.9777736,0.0031386206,-0.0020607072,-0.20965154,0.0,0.0,0.0,0.0,0
9238364000,-0.977776,0.0029660044,-0.002035702,-0.20964316,0.0,0.0,0.0,0.0,0
9238372000,-0.97777736,0.002874151,-0.0020190584,-0.20963818,0.0,0.0,0.0,0.0,0
9238384000,-0.9777796,0.0027454728,-0.001989913,-0.20962971,0.0,0.0,0.0,0.0,0
9238396000,-0.97778183,0.0026345358,-0.0019569837,-0.20962124,0.0,0.0,0.0,0.0,0
9238412000,-0.9777846,0.0025040896,-0.0019078164,-0.20961028,0.0,0.0,0.0,0.0,0
9238424000,-0.9777865,0.0024194121,-0.0018587239,-0.20960295,0.0,0.0,0.0,0.0,0
9238436000,-0.9777884,0.0023358604,-0.0018061955,-0.20959552,0.0,0.0,0.0,0.0,0
9238448000,-0.97779036,0.0022652252,-0.0017582431,-0.2095874,0.0,0.0,0.0,0.0,0
9238460000,-0.97779244,0.0022127011,-0.0017193874,-0.20957868,0.0,0.0,0.0,0.0,0
9238472000,-0.9777946,0.002180162,-0.0016872837,-0.20956928,0.0,0.0,0.0,0.0,0
9238484000,-0.97779703,0.0021608907,-0.0016608367,-0.20955816,0.0,0.0,0.0,0.0,0
9238496000,-0.9777999,0.0021448256,-0.0016372588,-0.20954509,0.0,0.0,0.0,0.0,0
9238508000,-0.97780305,0.0021282868,-0.0016135743,-0.20953082,0.0,0.0,0.0,0.0,0
9238520000,-0.97780615,0.0021078777,-0.0015931767,-0.20951664,0.0,0.0,0.0,0.0,0
9238532000,-0.9778089,0.002090087,-0.001572964,-0.20950425,0.0,0.0,0.0,0.0,0
9238544000,-0.9778114,0.0020753078,-0.001545198,-0.20949304,0.0,0.0,0.0,0.0,0
9238556000,-0.97781396,0.002064267,-0.0015154933,-0.20948121,0.0,0.0,0.0,0.0,0
9238568000,-0.9778165,0.002060515,-0.0014916011,-0.2094694,0.0,0.0,0.0,0.0,0
9238576000,-0.97781813,0.0020590858,-0.0014764067,-0.20946215,0.0,0.0,0.0,0.0,0
9238588000,-0.9778204,0.002054497,-0.0014530582,-0.2094518,0.0,0.0,0.0,0.0,0
9238604000,-0.9778235,0.0020570217,-0.0014113833,-0.2094376,0.0,0.0,0.0,0.0,0
9238616000,-0.97782576,0.0020746877,-0.0013732193,-0.209427,0.0,0.0,0.0,0.0,0
9238628000,-0.9778281,0.0021004921,-0.0013368641,-0.20941617,0.0,0.0,0.0,0.0,0
9238640000,-0.97783047,0.002141511,-0.0013051949,-0.20940481,0.0,0.0,0.0,0.0,0
9238652000,-0.9778329,0.0021885333,-0.0012764299,-0.20939305,0.0,0.0,0.0,0.0,0
9238664000,-0.9778353,0.0022226349,-0.0012537579,-0.20938182,0.0,0.0,0.0,0.0,0
9238672000,-0.9778368,0.002236265,-0.0012416444,-0.20937479,0.0,0.0,0.0,0.0,0
9238688000,-0.97783977,0.0022416895,-0.0012232786,-0.20936094,0.0,0.0,0.0,0.0,0
9238696000,-0.9778412,0.002241008,-0.0012127998,-0.20935431,0.0,0.0,0.0,0.0,0
9238712000,-0.9778436,0.0022423866,-0.0011920211,-0.20934325,0.0,0.0,0.0,0.0,0
9238720000,-0.9778445,0.0022470257,-0.0011795616,-0.20933895,0.0,0.0,0.0,0.0,0
9238732000,-0.97784567,0.0022558612,-0.0011612675,-0.20933348,0.0,0.0,0.0,0.0,0
9238748000,-0.97784716,0.0022665022,-0.0011390051,-0.20932654,0.0,0.0,0.0,0.0,0
9238760000,-0.9778483,0.0022603974,-0.0011118304,-0.20932138,0.0,0.0,0.0,0.0,0
9238772000,-0.97784966,0.0022360224,-0.0010728808,-0.20931558,0.0,0.0,0.0,0.0,0
9238784000,-0.9778513,0.0021938775,-0.001030478,-0.20930876,0.0,0.0,0.0,0.0,0
9238796000,-0.977853,0.0021383099,-0.0009859831,-0.20930126,0.0,0.0,0.0,0.0,0
9238808000,-0.97785467,0.0020740684,-0.0009441742,-0.20929433,0.0,0.0,0.0,0.0,0
9238820000,-0.97785604,0.0020065422,-0.00090598076,-0.20928873,0.0,0.0,0.0,0.0,0
9238828000,-0.9778568,0.0019615178,-0.0008834694,-0.20928565,0.0,0.0,0.0,0.0,0
9238844000,-0.977858,0.0018761887,-0.0008464961,-0.209281,0.0,0.0,0.0,0.0,0
9238856000,-0.9778585,0.0018204206,-0.0008274184,-0.2092794,0.0,0.0,0.0,0.0,0
9238868000,-0.97785866,0.0017737618,-0.0008115992,-0.209279,0.0,0.0,0.0,0.0,0
9238880000,-0.97785866,0.0017363403,-0.00079226005,-0.20927957,0.0,0.0,0.0,0.0,0
9238892000,-0.97785854,0.001703429,-0.0007627132,-0.20928039,0.0,0.0,0.0,0.0,0
9238904000,-0.9778585,0.0016853032,-0.00072620984,-0.20928092,0.0,0.0,0.0,0.0,0
9238912000,-0.9778585,0.0016764072,-0.0007021203,-0.20928104,0.0,0.0,0.0,0.0,0
9238928000,-0.97785854,0.0016459882,-0.00065978966,-0.20928115,0.0,0.0,0.0,0.0,0
9238936000,-0.97785854,0.0016245005,-0.0006440028,-0.20928143,0.0,0.0,0.0,0.0,0
9238952000,-0.9778583,0.0015744484,-0.00063243596,-0.2092831,0.0,0.0,0.0,0.0,0
9238964000,-0.97785777,0.0015368008,-0.00063524896,-0.2092857,0.0,0.0,0.0,0.0,0
9238976000,-0.9778571,0.0015014008,-0.0006435864,-0.20928909,0.0,0.0,0.0,0.0,0
9238988000,-0.9778563,0.0014673412,-0.00065086404,-0.20929325,0.0,0.0,0.0,0.0,0
9239000000,-0.9778552,0.0014386764,-0.0006533097,-0.20929848,0.0,0.0,0.0,0.0,0
9239012000,-0.9778539,0.0014106401,-0.0006575142,-0.20930463,0.0,0.0,0.0,0.0,0
9239024000,-0.97785246,0.001382634,-0.0006595722,-0.2093115,0.0,0.0,0.0,0.0,0
9239036000,-0.97785085,0.0013493106,-0.0006509424,-0.20931934,0.0,0.0,0.0,0.0,0
9239044000,-0.9778498,0.0013201556,-0.00063459127,-0.20932466,0.0,0.0,0.0,0.0,0
9239060000,-0.9778478,0.0012443301,-0.00058958353,-0.20933437,0.0,0.0,0.0,0.0,0
9239068000,-0.97784686,0.0012059483,-0.00056346005,-0.20933898,0.0,0.0,0.0,0.0,0
9239084000,-0.9778451,0.0011411308,-0.00051571825,-0.20934789,0.0,0.0,0.0,0.0,0
9239096000,-0.977844,0.0011068003,-0.0004909141,-0.20935315,0.0,0.0,0.0,0.0,0
9239108000,-0.9778436,0.0010911193,-0.0004694613,-0.20935525,0.0,0.0,0.0,0.0,0
9239120000,-0.97784376,0.0011003122,-0.00045052293,-0.20935446,0.0,0.0,0.0,0.0,0
9239132000,-0.9778442,0.0011282193,-0.0004419903,-0.20935236,0.0,0.0,0.0,0.0,0
9239144000,-0.97784466,0.0011622166,-0.00044665544,-0.2093498,0.0,0.0,0.0,0.0,0
9239156000,-0.9778454,0.0011925118,-0.00046017166,-0.20934626,0.0,0.0,0.0,0.0,0
9239168000,-0.97784615,0.0012196534,-0.00047402052,-0.2093426,0.0,0.0,0.0,0.0,0
9239180000,-0.97784686,0.0012441206,-0.00049235835,-0.20933907,0.0,0.0,0.0,0.0,0
9239192000,-0.97784746,0.0012709824,-0.00051440566,-0.20933591,0.0,0.0,0.0,0.0,0
9239200000,-0.9778478,0.00128989,-0.0005304238,-0.2093343,0.0,0.0,0.0,0.0,0
9239216000,-0.9778483,0.001327765,-0.0005529816,-0.20933166,0.0,0.0,0.0,0.0,0
9239228000,-0.97784877,0.0013628391,-0.00056410476,-0.20932914,0.0,0.0,0.0,0.0,0
9239236000,-0.9778492,0.0013899807,-0.00057233626,-0.20932716,0.0,0.0,0.0,0.0,0
9239252000,-0.97785,0.0014414877,-0.0006036867,-0.20932275,0.0,0.0,0.0,0.0,0
9239264000,-0.9778508,0.0014713628,-0.0006447223,-0.20931865,0.0,0.0,0.0,0.0,0
9239276000,-0.977852,0.0014901262,-0.00069556036,-0.209313,0.0,0.0,0.0,0.0,0
9239284000,-0.9778529,0.001496898,-0.0007259053,-0.2093087,0.0,0.0,0.0,0.0,0
9239300000,-0.97785455,0.0015000802,-0.00077617774,-0.20930055,0.0,0.0,0.0,0.0,0
9239308000,-0.9778552,0.0014995001,-0.0007994891,-0.20929751,0.0,0.0,0.0,0.0,0
9239324000,-0.9778558,0.0014982539,-0.00085118465,-0.20929438,0.0,0.0,0.0,0.0,0
9239336000,-0.9778557,0.0014984488,-0.0008948198,-0.2092947,0.0,0.0,0.0,0.0,0
9239348000,-0.9778555,0.001491302,-0.00094081234,-0.20929547,0.0,0.0,0.0,0.0,0
9239360000,-0.97785544,0.0014746868,-0.0009829109,-0.20929566,0.0,0.0,0.0,0.0,0
9239368000,-0.97785556,0.0014596855,-0.0010064108,-0.2092951,0.0,0.0,0.0,0.0,0
9239384000,-0.97785616,0.0014253956,-0.0010330634,-0.20929237,0.0,0.0,0.0,0.0,0
9239396000,-0.9778569,0.0013965927,-0.0010176755,-0.20928942,0.0,0.0,0.0,0.0,0
9239404000,-0.97785735,0.0013778431,-0.0009894909,-0.20928742,0.0,0.0,0.0,0.0,0
9239420000,-0.9778584,0.0013428653,-0.0009116496,-0.20928301,0.0,0.0,0.0,0.0,0
9239432000,-0.97785926,0.0013185184,-0.00085334794,-0.20927958,0.0,0.0,0.0,0.0,0
9239440000,-0.9778596,0.0013063411,-0.0008204302,-0.209278,0.0,0.0,0.0,0.0,0
9239456000,-0.97785985,0.001306234,-0.0007736891,-0.20927708,0.0,0.0,0.0,0.0,0
9239468000,-0.9778597,0.0013172184,-0.00074724655,-0.20927782,0.0,0.0,0.0,0.0,0
9239480000,-0.9778595,0.0013265839,-0.00072893815,-0.2092789,0.0,0.0,0.0,0.0,0
9239492000,-0.97785944,0.0013231867,-0.0007223075,-0.20927921,0.0,0.0,0.0,0.0,0
9239504000,-0.97785974,0.0013010524,-0.0007273243,-0.20927797,0.0,0.0,0.0,0.0,0
9239512000,-0.97786003,0.0012787059,-0.00073553313,-0.20927648,0.0,0.0,0.0,0.0,0
9239528000,-0.97786087,0.0012205881,-0.0007590529,-0.20927289,0.0,0.0,0.0,0.0,0
9239540000,-0.9778616,0.0011739668,-0.00077290385,-0.20926973,0.0,0.0,0.0,0.0,0
9239552000,-0.97786224,0.0011339503,-0.00077316334,-0.20926695,0.0,0.0,0.0,0.0,0
9239564000,-0.9778627,0.001107183,-0.000767613,-0.20926495,0.0,0.0,0.0,0.0,0
9239576000,-0.9778631,0.001087485,-0.0007531504,-0.20926347,0.0,0.0,0.0,0.0,0
9239588000,-0.97786313,0.001060825,-0.0007227038,-0.20926322,0.0,0.0,0.0,0.0,0
9239600000,-0.9778633,0.0010298479,-0.00067576114,-0.20926274,0.0,0.0,0.0,0.0,0
9239612000,-0.97786385,0.0010016233,-0.0006153058,-0.20926063,0.0,0.0,0.0,0.0,0
9239624000,-0.9778645,0.0009773112,-0.00055825524,-0.2092579,0.0,0.0,0.0,0.0,0
9239636000,-0.977865,0.0009473205,-0.0005094547,-0.20925584,0.0,0.0,0.0,0.0,0
9239644000,-0.97786516,0.000925705,-0.00048152392,-0.20925525,0.0,0.0,0.0,0.0,0
9239660000,-0.97786534,0.00088401773,-0.00042962612,-0.20925471,0.0,0.0,0.0,0.0,0
9239668000,-0.9778654,0.0008640638,-0.00040395785,-0.2092545,0.0,0.0,0.0,0.0,0
9239684000,-0.9778656,0.0008347497,-0.0003654224,-0.20925382,0.0,0.0,0.0,0.0,0
9239692000,-0.9778657,0.0008248866,-0.00035395828,-0.20925328,0.0,0.0,0.0,0.0,0
9239708000,-0.97786605,0.0008206505,-0.00033647224,-0.20925182,0.0,0.0,0.0,0.0,0
9239720000,-0.97786623,0.00083226594,-0.0003261816,-0.20925084,0.0,0.0,0.0,0.0,0
9239732000,-0.97786653,0.00086185476,-0.00031540598,-0.20924935,0.0,0.0,0.0,0.0,0
9239744000,-0.97786707,0.0009106128,-0.0002952555,-0.20924681,0.0,0.0,0.0,0.0,0
9239756000,-0.97786784,0.0009662288,-0.0002647339,-0.20924293,0.0,0.0,0.0,0.0,0
9239768000,-0.9778689,0.0010261574,-0.00022213135,-0.20923765,0.0,0.0,0.0,0.0,0
9239780000,-0.9778703,0.0010819861,-0.00017981605,-0.20923093,0.0,0.0,0.0,0.0,0
9239792000,-0.9778719,0.0011311007,-0.00013876276,-0.20922333,0.0,0.0,0.0,0.0,0
9239800000,-0.97787297,0.0011601612,-0.000114639726,-0.20921803,0.0,0.0,0.0,0.0,0
9239812000,-0.97787464,0.0011931829,-7.880244e-05,-0.20921005,0.0,0.0,0.0,0.0,0
9239824000,-0.9778761,0.0012074145,-4.1560583e-05,-0.20920303,0.0,0.0,0.0,0.0,0
9239840000,-0.9778776,0.0011803084,-1.4253521e-05,-0.20919639,0.0,0.0,0.0,0.0,0
9239852000,-0.97787833,0.001123942,-1.1337445e-05,-0.2091932,0.0,0.0,0.0,0.0,0
9239864000,-0.97787887,0.0010448697,-1.16283645e-05,-0.20919104,0.0,0.0,0.0,0.0,0
9239876000,-0.97787935,0.00095427275,-3.0405118e-07,-0.20918934,0.0,0.0,0.0,0.0,0
9239888000,-0.9778798,0.0008722955,2.2196797e-05,-0.2091874,0.0,0.0,0.0,0.0,0
9239896000,-0.97788006,0.00082688127,3.8784714e-05,-0.20918654,0.0,0.0,0.0,0.0,0
9239912000,-0.97788024,0.00075780577,6.442105e-05,-0.20918609,0.0,0.0,0.0,0.0,0
9239924000,-0.97788024,0.00071815803,7.712798e-05,-0.20918617,0.0,0.0,0.0,0.0,0
9239936000,-0.97788006,0.00068075093,8.435947e-05,-0.20918705,0.0,0.0,0.0,0.0,0
9239948000,-0.97787964,0.00064488116,8.271332e-05,-0.2091892,0.0,0.0,0.0,0.0,0
9239960000,-0.977879,0.0006184766,7.9756115e-05,-0.20919214,0.0,0.0,0.0,0.0,0
9239972000,-0.97787815,0.00059805426,7.788144e-05,-0.20919615,0.0,0.0,0.0,0.0,0
9239984000,-0.97787714,0.00057602255,7.454219e-05,-0.20920098,0.0,0.0,0.0,0.0,0
9239996000,-0.9778761,0.000537973,6.5308486e-05,-0.20920587,0.0,0.0,0.0,0.0,0
9240004000,-0.9778755,0.00050403917,5.567197e-05,-0.20920901,0.0,0.0,0.0,0.0,0
9240020000,-0.9778744,0.00042177708,3.620918e-05,-0.20921429,0.0,0.0,0.0,0.0,0
9240028000,-0.9778741,0.0003766313,2.8479442e-05,-0.20921558,0.0,0.0,0.0,0.0,0
9240044000,-0.97787464,0.00029755247,2.5373129e-05,-0.20921339,0.0,0.0,0.0,0.0,0
9240052000,-0.9778752,0.00026272956,2.7160546e-05,-0.20921086,0.0,0.0,0.0,0.0,0
9240068000,-0.97787625,0.00020578093,2.6213971e-05,-0.20920594,0.0,0.0,0.0,0.0,0
9240080000,-0.97787684,0.00016888909,3.0137264e-05,-0.20920321,0.0,0.0,0.0,0.0,0
9240088000,-0.97787714,0.00014295026,3.7486214e-05,-0.2092019,0.0,0.0,0.0,0.0,0
9240104000,-0.9778777,8.7004635e-05,6.0378217e-05,-0.20919932,0.0,0.0,0.0,0.0,0
9240116000,-0.9778785,4.0884748e-05,9.089739e-05,-0.20919538,0.0,0.0,0.0,0.0,0
9240128000,-0.9778795,3.1199104e-06,0.00012782555,-0.2091906,0.0,0.0,0.0,0.0,0
9240136000,-0.9778801,-1.3998432e-05,0.00015071397,-0.20918776,0.0,0.0,0.0,0.0,0
9240152000,-0.9778813,-4.039104e-05,0.00018073237,-0.20918232,0.0,0.0,0.0,0.0,0
9240160000,-0.9778819,-5.6229375e-05,0.0001874517,-0.20917931,0.0,0.0,0.0,0.0,0
9240176000,-0.97788346,-8.8565845e-05,0.00019071368,-0.20917222,0.0,0.0,0.0,0.0,0
9240188000,-0.97788465,-0.00010378434,0.00019007717,-0.20916654,0.0,0.0,0.0,0.0,0
9240200000,-0.9778859,-0.00010297915,0.00018881298,-0.20916073,0.0,0.0,0.0,0.0,0
9240208000,-0.9778867,-9.2690876e-05,0.00018652975,-0.20915711,0.0,0.0,0.0,0.0,0
9240220000,-0.97788763,-7.4045434e-05,0.00017949217,-0.20915261,0.0,0.0,0.0,0.0,0
9240236000,-0.9778886,-5.154891e-05,0.00017407809,-0.20914836,0.0,0.0,0.0,0.0,0
9240244000,-0.9778889,-5.0073766e-05,0.00017384668,-0.20914672,0.0,0.0,0.0,0.0,0
9240260000,-0.97788954,-6.023266e-05,0.00016313433,-0.2091438,0.0,0.0,0.0,0.0,0
9240268000,-0.9778897,-6.845769e-05,0.0001514818,-0.20914286,0.0,0.0,0.0,0.0,0
9240284000,-0.9778901,-8.038631e-05,0.00012570329,-0.20914142,0.0,0.0,0.0,0.0,0
9240296000,-0.9778902,-6.723166e-05,0.00011281761,-0.20914067,0.0,0.0,0.0,0.0,0
9240308000,-0.97789025,-3.3194334e-05,0.00011492732,-0.2091406,0.0,0.0,0.0,0.0,0
9240316000,-0.9778902,2.2312663e-06,0.00012681613,-0.20914082,0.0,0.0,0.0,0.0,0
9240328000,-0.97789013,6.8907764e-05,0.0001545532,-0.20914096,0.0,0.0,0.0,0.0,0
9240344000,-0.9778901,0.00018426043,0.0001958903,-0.2091411,0.0,0.0,0.0,0.0,0
9240356000,-0.97789,0.00028687663,0.00022767902,-0.20914143,0.0,0.0,0.0,0.0,0
9240368000,-0.9778897,0.00039761828,0.00026645564,-0.20914239,0.0,0.0,0.0,0.0,0
9240380000,-0.97788936,0.00051069446,0.0003275446,-0.2091438,0.0,0.0,0.0,0.0,0
9240392000,-0.97788906,0.00061008683,0.00041466745,-0.20914477,0.0,0.0,0.0,0.0,0
9240404000,-0.977889,0.0006894265,0.0005222636,-0.20914468,0.0,0.0,0.0,0.0,0
9240416000,-0.97788906,0.00075508136,0.0006377107,-0.20914376,0.0,0.0,0.0,0.0,0
9240424000,-0.9778892,0.0007910483,0.00071321544,-0.20914271,0.0,0.0,0.0,0.0,0
9240440000,-0.97788996,0.0008349666,0.0008543942,-0.20913853,0.0,0.0,0.0,0.0,0
9240448000,-0.97789043,0.00083880726,0.0009155541,-0.2091361,0.0,0.0,0.0,0.0,0
9240464000,-0.97789127,0.00080183335,0.0010147127,-0.20913191,0.0,0.0,0.0,0.0,0
9240472000,-0.9778916,0.00076784455,0.0010535069,-0.20912999,0.0,0.0,0.0,0.0,0
9240488000,-0.97789246,0.0006866818,0.0011157037,-0.2091262,0.0,0.0,0.0,0.0,0
9240500000,-0.97789305,0.0006314815,0.0011602012,-0.20912324,0.0,0.0,0.0,0.0,0
9240512000,-0.9778937,0.00058040704,0.0012040087,-0.2091201,0.0,0.0,0.0,0.0,0
9240524000,-0.9778945,0.0005347767,0.0012413964,-0.20911649,0.0,0.0,0.0,0.0,0
9240532000,-0.977895,0.0005080534,0.0012624821,-0.20911387,0.0,0.0,0.0,0.0,0
9240548000,-0.97789603,0.00045502058,0.0012960108,-0.20910887,0.0,0.0,0.0,0.0,0
9240560000,-0.9778967,0.0004176102,0.0013138585,-0.2091059,0.0,0.0,0.0,0.0,0
9240572000,-0.97789747,0.00037828548,0.0013148502,-0.20910227,0.0,0.0,0.0,0.0,0
9240580000,-0.9778981,0.00035466262,0.0013084023,-0.20909922,0.0,0.0,0.0,0.0,0
9240596000,-0.9778996,0.0003057701,0.0012712607,-0.2090927,0.0,0.0,0.0,0.0,0
9240604000,-0.97790045,0.00028121966,0.001236942,-0.20908906,0.0,0.0,0.0,0.0,0
9240620000,-0.977902,0.0002436137,0.0011614052,-0.20908216,0.0,0.0,0.0,0.0,0
9240632000,-0.97790307,0.00023352659,0.0011132878,-0.20907746,0.0,0.0,0.0,0.0,0
9240644000,-0.97790414,0.00023361213,0.001076855,-0.20907278,0.0,0.0,0.0,0.0,0
9240656000,-0.97790486,0.00023271788,0.0010523672,-0.20906934,0.0,0.0,0.0,0.0,0
9240668000,-0.97790533,0.00022285905,0.001038062,-0.20906721,0.0,0.0,0.0,0.0,0
9240680000,-0.97790563,0.00019827852,0.0010352313,-0.20906587,0.0,0.0,0.0,0.0,0
9240692000,-0.9779057,0.00015971136,0.0010434593,-0.20906553,0.0,0.0,0.0,0.0,0
9240700000,-0.97790563,0.00013234842,0.001056176,-0.20906588,0.0,0.0,0.0,0.0,0
9240716000,-0.9779053,8.308124e-05,0.0010965369,-0.20906729,0.0,0.0,0.0,0.0,0
9240728000,-0.9779049,6.015167e-05,0.0011380226,-0.20906885,0.0,0.0,0.0,0.0,0
9240740000,-0.9779043,5.3394837e-05,0.0011845063,-0.2090713,0.0,0.0,0.0,0.0,0
9240752000,-0.9779035,6.394414e-05,0.0012342138,-0.20907496,0.0,0.0,0.0,0.0,0
9240760000,-0.9779028,7.940795e-05,0.0012689051,-0.20907794,0.0,0.0,0.0,0.0,0
9240776000,-0.97790134,0.00012900041,0.0013376565,-0.20908442,0.0,0.0,0.0,0.0,0
9240784000,-0.97790056,0.00016011349,0.0013707188,-0.20908773,0.0,0.0,0.0,0.0,0
9240800000,-0.97789896,0.00022666251,0.0014258191,-0.20909481,0.0,0.0,0.0,0.0,0
9240812000,-0.9778977,0.00028969266,0.0014533265,-0.20910034,0.0,0.0,0.0,0.0,0
9240824000,-0.97789663,0.0003700827,0.0014681316,-0.20910531,0.0,0.0,0.0,0.0,0
9240832000,-0.9778958,0.00043006113,0.001476004,-0.20910887,0.0,0.0,0.0,0.0,0
9240848000,-0.97789377,0.0005483904,0.0014971602,-0.2091179,0.0,0.0,0.0,0.0,0
9240860000,-0.9778921,0.0006272759,0.0015132893,-0.20912535,0.0,0.0,0.0,0.0,0
9240872000,-0.9778905,0.00069981354,0.0015193331,-0.20913266,0.0,0.0,0.0,0.0,0
9240884000,-0.9778888,0.00077206956,0.0015147746,-0.20914024,0.0,0.0,0.0,0.0,0
9240896000,-0.9778871,0.0008439966,0.0014964706,-0.20914836,0.0,0.0,0.0,0.0,0
9240908000,-0.977885,0.000921154,0.0014704741,-0.20915772,0.0,0.0,0.0,0.0,0
9240916000,-0.9778835,0.00097562186,0.0014501596,-0.20916474,0.0,0.0,0.0,0.0,0
9240932000,-0.97788066,0.0010764109,0.0014014503,-0.20917782,0.0,0.0,0.0,0.0,0
9240944000,-0.977879,0.0011394644,0.0013643443,-0.20918551,0.0,0.0,0.0,0.0,0
9240956000,-0.97787756,0.001188436,0.0013340752,-0.20919217,0.0,0.0,0.0,0.0,0
9240968000,-0.97787625,0.0012175215,0.0013167076,-0.20919845,0.0,0.0,0.0,0.0,0
9240976000,-0.9778754,0.0012262732,0.0013105321,-0.20920223,0.0,0.0,0.0,0.0,0
9240988000,-0.97787434,0.0012255432,0.001302676,-0.20920733,0.0,0.0,0.0,0.0,0
9241004000,-0.9778733,0.0011997904,0.001293475,-0.20921215,0.0,0.0,0.0,0.0,0
9241016000,-0.9778727,0.0011677521,0.0012851483,-0.2092151,0.0,0.0,0.0,0.0,0
9241028000,-0.97787225,0.0011274691,0.0012798479,-0.2092176,0.0,0.0,0.0,0.0,0
9241036000,-0.9778721,0.0010983117,0.0012775044,-0.20921884,0.0,0.0,0.0,0.0,0
9241052000,-0.97787184,0.0010450662,0.0012647315,-0.20922013,0.0,0.0,0.0,0.0,0
9241060000,-0.9778719,0.0010234973,0.0012562298,-0.20922004,0.0,0.0,0.0,0.0,0
9241072000,-0.97787213,0.0009896773,0.0012480523,-0.20921907,0.0,0.0,0.0,0.0,0
9241088000,-0.9778728,0.00093949353,0.001245233,-0.20921627,0.0,0.0,0.0,0.0,0
9241100000,-0.9778734,0.00090629037,0.001237871,-0.20921378,0.0,0.0,0.0,0.0,0
9241112000,-0.97787386,0.000886725,0.0012213385,-0.20921183,0.0,0.0,0.0,0.0,0
9241124000,-0.97787386,0.00088602776,0.001201217,-0.20921192,0.0,0.0,0.0,0.0,0
9241136000,-0.9778734,0.0009027989,0.0011846492,-0.20921396,0.0,0.0,0.0,0.0,0
9241148000,-0.9778726,0.00093684625,0.0011711213,-0.20921767,0.0,0.0,0.0,0.0,0
9241160000,-0.9778714,0.0009748863,0.0011552587,-0.20922306,0.0,0.0,0.0,0.0,0
9241168000,-0.97787064,0.0009926057,0.0011377134,-0.20922677,0.0,0.0,0.0,0.0,0
9241184000,-0.9778697,0.001004676,0.0010843745,-0.20923153,0.0,0.0,0.0,0.0,0
9241196000,-0.97786945,0.0009974666,0.0010392619,-0.20923287,0.0,0.0,0.0,0.0,0
9241208000,-0.9778696,0.00097504497,0.000995406,-0.20923254,0.0,0.0,0.0,0.0,0
9241220000,-0.97787005,0.0009399755,0.00095729204,-0.20923066,0.0,0.0,0.0,0.0,0
9241228000,-0.9778705,0.00091278105,0.0009379028,-0.20922877,0.0,0.0,0.0,0.0,0
9241240000,-0.9778714,0.000861297,0.000918045,-0.2092248,0.0,0.0,0.0,0.0,0
9241256000,-0.9778731,0.0007838509,0.00091146625,-0.20921718,0.0,0.0,0.0,0.0,0
9241268000,-0.97787464,0.0007270938,0.0009226461,-0.2092103,0.0,0.0,0.0,0.0,0
9241280000,-0.9778761,0.0006790343,0.00094105274,-0.20920345,0.0,0.0,0.0,0.0,0
9241292000,-0.9778775,0.0006432723,0.0009597325,-0.2091969,0.0,0.0,0.0,0.0,0
9241304000,-0.9778788,0.00060746126,0.0009807182,-0.20919073,0.0,0.0,0.0,0.0,0
9241316000,-0.97788,0.00057074457,0.001005884,-0.20918538,0.0,0.0,0.0,0.0,0
9241328000,-0.9778809,0.00053945906,0.0010413401,-0.20918112,0.0,0.0,0.0,0.0,0
9241340000,-0.9778816,0.00051422365,0.0010893805,-0.20917737,0.0,0.0,0.0,0.0,0
9241352000,-0.9778825,0.0004930487,0.0011408384,-0.20917313,0.0,0.0,0.0,0.0,0
9241360000,-0.9778831,0.00048433262,0.0011732382,-0.20917003,0.0,0.0,0.0,0.0,0
9241376000,-0.97788465,0.00047988477,0.0012269315,-0.20916252,0.0,0.0,0.0,0.0,0
