timestamp,roll_body,pitch_body,yaw_body,yaw_sp_move_rate,q_d[0],q_d[1],q_d[2],q_d[3],thrust_body[0],thrust_body[1],thrust_body[2],q_d_valid,roll_reset_integral,pitch_reset_integral,yaw_reset_integral,fw_control_yaw,apply_flaps
9233336000,-0.015072272,-0.11326149,0.42035264,0.0,0.97648764,0.004449942,-0.05692311,0.2078748,0.0,0.0,-0.120787546,1,0,0,0,0,0
9233428000,0.028331311,-0.048203226,0.4205594,0.0,0.9775192,0.018878955,-0.020610178,0.20898573,0.0,0.0,-0.120187774,1,0,0,0,0,0
9233540000,0.037587292,-0.042145073,0.4205594,0.0,0.9775001,0.022771947,-0.016681438,0.20903751,0.0,0.0,-0.17628583,1,0,0,0,0,0
9233632000,0.025142903,-0.030436309,0.4205594,0.0,0.97774214,0.015468951,-0.012257477,0.20887986,0.0,0.0,-0.24436888,1,0,0,0,0,0
9233728000,0.018147515,-0.020635063,0.4205594,0.0,0.9778607,0.011026779,-0.008195799,0.20880532,0.0,0.0,-0.3191562,1,0,0,0,0,0
9233820000,0.012013959,-0.017905802,0.4205594,0.0,0.9779045,0.007743102,-0.0075016166,0.20877391,0.0,0.0,-0.38753334,1,0,0,0,0,0
9233932000,0.00958234,-0.015731491,0.4205594,0.0,0.9779232,0.0063272775,-0.006692273,0.20876145,0.0,0.0,-0.47325313,1,0,0,0,0,0
9234024000,0.007835497,-0.015250551,0.4205594,0.0,0.9779304,0.0054229517,-0.0066394405,0.20875502,0.0,0.0,-0.54472256,1,0,0,0,0,0
9234136000,0.0044623404,-0.011039841,0.4205594,0.0,0.97795266,0.0033341714,-0.0049325773,0.2087418,0.0,0.0,-0.61211455,1,0,0,0,0,0
9234232000,0.0022830593,-0.009282151,0.4205594,0.0,0.9779603,0.002085116,-0.004300553,0.20873626,0.0,0.0,-0.61148554,1,0,0,0,0,0
9234324000,-0.0055849827,-0.0017988291,0.4205594,0.0,0.9779689,-0.0025432382,-0.0014624846,0.2087301,0.0,0.0,-0.60833776,1,0,0,0,0,0
9234436000,-0.008991652,0.0020983298,0.4205594,0.0,0.9779612,-0.00461577,8.7618326e-05,0.20873582,0.0,0.0,-0.61438763,1,0,0,0,0,0
9234528000,-0.010386305,0.0025468399,0.4205594,0.0,0.9779572,-0.005344535,0.00016137387,0.20873691,0.0,0.0,-0.6114668,1,0,0,0,0,0
9234624000,-0.00975274,0.002990409,0.4205594,0.0,0.9779583,-0.005081027,0.00044439474,0.20873785,0.0,0.0,-0.6203836,1,0,0,0,0,0
9234736000,-0.010764404,0.0031296618,0.4205594,0.0,0.97795546,-0.005590242,0.0004069001,0.20873842,0.0,0.0,-0.6178627,1,0,0,0,0,0
9234832000,-0.010278073,0.0024106463,0.4205594,0.0,0.97795767,-0.0052773985,0.00010607383,0.20873663,0.0,0.0,-0.6234488,1,0,0,0,0,0
9234924000,-0.010803062,0.0028081757,0.4205594,0.0,0.9779558,-0.005575592,0.00024566555,0.20873761,0.0,0.0,-0.6218842,1,0,0,0,0,0
9235036000,-0.0101296,0.0022532044,0.4205594,0.0,0.9779582,-0.0051883673,4.4583794e-05,0.20873624,0.0,0.0,-0.6245736,1,0,0,0,0,0
9235128000,-0.010211486,0.0030667884,0.4205594,0.0,0.97795707,-0.005313315,0.0004338639,0.20873813,0.0,0.0,-0.6229839,1,0,0,0,0,0
9235224000,-0.011797563,0.0040096957,0.4205594,0.0,0.9779511,-0.0061872737,0.0007293873,0.208741,0.0,0.0,-0.63112533,1,0,0,0,0,0
9235336000,-0.011358531,0.0044485014,0.4205594,0.0,0.97795177,-0.00601839,0.0009897759,0.20874192,0.0,0.0,-0.63283205,1,0,0,0,0,0
9235428000,-0.011412303,0.0023904121,0.4205594,0.0,0.97795457,-0.0058299,-2.219773e-05,0.20873655,0.0,0.0,-0.6313838,1,0,0,0,0,0
9235520000,-0.010887071,0.0037986545,0.4205594,0.0,0.97795415,-0.00572004,0.00072122115,0.2087401,0.0,0.0,-0.62940156,1,0,0,0,0,0
9235632000,-0.010082982,0.0038652983,0.4205594,0.0,0.9779563,-0.005333812,0.00083773147,0.20873992,0.0,0.0,-0.63352484,1,0,0,0,0,0
9235728000,-0.01051841,0.0035089296,0.4205594,0.0,0.97795564,-0.005509537,0.0006180285,0.20873927,0.0,0.0,-0.6402577,1,0,0,0,0,0
9235840000,-0.010530611,0.0036531724,0.4205594,0.0,0.97795534,-0.0055305553,0.000687287,0.2087396,0.0,0.0,-0.6427523,1,0,0,0,0,0
9235932000,-0.011396917,0.00251262,0.4205594,0.0,0.97795445,-0.0058351303,3.9165163e-05,0.20873691,0.0,0.0,-0.6411087,1,0,0,0,0,0
9236024000,-0.01082346,0.0035502785,0.4205594,0.0,0.9779547,-0.005663015,0.00060640933,0.20873946,0.0,0.0,-0.59138644,1,0,0,0,0,0
9236136000,-0.012633177,0.003278523,0.4205594,0.0,0.9779496,-0.0065195626,0.00028464728,0.20873913,0.0,0.0,-0.5305585,1,0,0,0,0,0
9236232000,-0.012625456,0.0022267425,0.4205594,0.0,0.97795105,-0.0064060222,-0.00022884326,0.20873603,0.0,0.0,-0.57041806,1,0,0,0,0,0
9236324000,-0.01211962,0.0031809723,0.4205594,0.0,0.97795135,-0.0062582656,0.00029054712,0.20873879,0.0,0.0,-0.5700441,1,0,0,0,0,0
9236436000,-0.011915174,0.004152049,0.4205594,0.0,0.9779506,-0.006259636,0.0007867197,0.2087414,0.0,0.0,-0.5660797,1,0,0,0,0,0
9236528000,-0.012452409,0.0038452449,0.4205594,0.0,0.9779493,-0.0064903134,0.00058062805,0.20874073,0.0,0.0,-0.56391567,1,0,0,0,0,0
9236624000,-0.011981045,0.0031922555,0.4205594,0.0,0.9779518,-0.0061916835,0.00031052707,0.20873876,0.0,0.0,-0.5726079,1,0,0,0,0,0
9236736000,-0.012472793,0.0034575984,0.4205594,0.0,0.97794986,-0.006459828,0.00038895017,0.20873964,0.0,0.0,-0.57437485,1,0,0,0,0,0
9236828000,-0.012969388,0.0038989207,0.4205594,0.0,0.97794753,-0.0067487047,0.00055291713,0.20874101,0.0,0.0,-0.57254887,1,0,0,0,0,0
9236920000,-0.012232026,0.0050671548,0.4205594,0.0,0.9779479,-0.006510068,0.0012011157,0.20874403,0.0,0.0,-0.5695387,1,0,0,0,0,0
9237032000,-0.011469732,0.006087059,0.4205594,0.0,0.9779483,-0.0062437593,0.0017793886,0.2087461,0.0,0.0,-0.57117635,1,0,0,0,0,0
9237128000,-0.012393021,0.004503639,0.4205594,0.0,0.9779484,-0.006529984,0.00090876606,0.20874254,0.0,0.0,-0.5786771,1,0,0,0,0,0
9237220000,-0.011445525,0.004958917,0.4205594,0.0,0.9779506,-0.006114193,0.0012302784,0.20874326,0.0,0.0,-0.5772521,1,0,0,0,0,0
9237332000,-0.013298837,0.0030175261,0.4205594,0.0,0.9779478,-0.0068178154,8.755156e-05,0.2087384,0.0,0.0,-0.57693386,1,0,0,0,0,0
9237424000,-0.012270875,0.0038391883,0.4205594,0.0,0.9779499,-0.0064009163,0.0005966134,0.20874064,0.0,0.0,-0.5740322,1,0,0,0,0,0
9237536000,-0.01210952,0.005034629,0.4205594,0.0,0.97794837,-0.006446772,0.0011979975,0.2087439,0.0,0.0,-0.5759976,1,0,0,0,0,0
9237632000,-0.01235217,0.0037700897,0.4205594,0.0,0.97794974,-0.0064334567,0.000554341,0.2087405,0.0,0.0,-0.5823001,1,0,0,0,0,0
9237724000,-0.01319546,0.0027762975,0.4205594,0.0,0.9779485,-0.006742093,-1.9614099e-05,0.20873769,0.0,0.0,-0.58070904,1,0,0,0,0,0
9237836000,-0.012362232,0.0025693637,0.4205594,0.0,0.9779514,-0.0063130697,-3.3837117e-05,0.20873706,0.0,0.0,-0.5810966,1,0,0,0,0,0
9237928000,-0.010650046,0.0024377466,0.4205594,0.0,0.9779566,-0.0054621133,8.050334e-05,0.2087367,0.0,0.0,-0.576658,1,0,0,0,0,0
9238024000,-0.011110831,0.0014449097,0.4205594,0.0,0.9779564,-0.0055838125,-0.0004530645,0.2087341,0.0,0.0,-0.5824785,1,0,0,0,0,0
9238136000,-0.011984468,0.002313608,0.4205594,0.0,0.97795296,-0.0061016604,-0.00011946935,0.20873633,0.0,0.0,-0.5833599,1,0,0,0,0,0
9238228000,-0.011768398,0.0016133178,0.4205594,0.0,0.9779544,-0.0059229233,-0.00043934508,0.20873442,0.0,0.0,-0.58062273,1,0,0,0,0,0
9238340000,-0.008547273,0.00017949501,0.4205594,0.0,0.9779635,-0.00419822,-0.0008042783,0.20873192,0.0,0.0,-0.5799544,1,0,0,0,0,0
9238432000,-0.009338658,0.0006325878,0.4205594,0.0,0.97796154,-0.004632479,-0.0006653181,0.2087326,0.0,0.0,-0.5777366,1,0,0,0,0,0
9238528000,-0.009032402,-5.0377294e-05,0.4205594,0.0,0.9779626,-0.0044114487,-0.0009673127,0.2087312,0.0,0.0,-0.57716095,1,0,0,0,0,0
9238624000,-0.0091132745,-0.00033781776,0.4205594,0.0,0.9779626,-0.0044209943,-0.0011163058,0.20873052,0.0,0.0,-0.58651215,1,0,0,0,0,0
9238736000,-0.00855244,-0.0016555791,0.4205594,0.0,0.97796404,-0.004009226,-0.0017021351,0.20872799,0.0,0.0,-0.5853281,1,0,0,0,0,0
9238828000,-0.008603267,-0.0017319912,0.4205594,0.0,0.977964,-0.0040261047,-0.0017448036,0.20872782,0.0,0.0,-0.5829951,1,0,0,0,0,0
9238920000,-0.0077229985,-0.0020412789,0.4205594,0.0,0.9779656,-0.0035633894,-0.0018041716,0.20872793,0.0,0.0,-0.5795361,1,0,0,0,0,0
9239032000,-0.007872422,-0.0027799346,0.4205594,0.0,0.9779652,-0.0035593626,-0.002180955,0.20872627,0.0,0.0,-0.5792449,1,0,0,0,0,0
9239128000,-0.007890731,-0.0019779895,0.4205594,0.0,0.9779653,-0.0036520127,-0.0017907291,0.20872794,0.0,0.0,-0.5862333,1,0,0,0,0,0
9239240000,-0.008250501,-0.0011861735,0.4205594,0.0,0.9779646,-0.0039105737,-0.0014410927,0.20872924,0.0,0.0,-0.5862604,1,0,0,0,0,0
9239332000,-0.007290359,-0.0017085181,0.4205594,0.0,0.9779664,-0.0033865648,-0.0015963049,0.20872891,0.0,0.0,-0.58499706,1,0,0,0,0,0
9239424000,-0.007939204,-0.00248773,0.4205594,0.0,0.9779652,-0.0036225137,-0.0020450414,0.20872682,0.0,0.0,-0.5801001,1,0,0,0,0,0
9239536000,-0.0059788083,-0.0036652102,0.4205594,0.0,0.97796774,-0.002541022,-0.0024162154,0.20872682,0.0,0.0,-0.57964456,1,0,0,0,0,0
9239632000,-0.0068810307,-0.0037551227,0.4205594,0.0,0.9779664,-0.0029728096,-0.0025543394,0.20872553,0.0,0.0,-0.58771,1,0,0,0,0,0
9239724000,-0.008433752,-0.0039233505,0.4205594,0.0,0.97796375,-0.0037145056,-0.0027986448,0.2087231,0.0,0.0,-0.5839773,1,0,0,0,0,0
9239836000,-0.0062240106,-0.0049708406,0.4205594,0.0,0.9779665,-0.002524654,-0.003080235,0.20872425,0.0,0.0,-0.5835751,1,0,0,0,0,0
9239928000,-0.005441792,-0.004313783,0.4205594,0.0,0.9779679,-0.0022107386,-0.002677311,0.20872644,0.0,0.0,-0.58149487,1,0,0,0,0,0
9240024000,-0.004963427,-0.00446519,0.4205594,0.0,0.9779683,-0.0019610235,-0.0027014231,0.20872688,0.0,0.0,-0.58789164,1,0,0,0,0,0
9240136000,-0.0049982225,-0.004169455,0.4205594,0.0,0.97796845,-0.0020089035,-0.0025604444,0.20872723,0.0,0.0,-0.5865385,1,0,0,0,0,0
9240228000,-0.0051395674,-0.0034699945,0.4205594,0.0,0.9779688,-0.0021510208,-0.0022331718,0.20872809,0.0,0.0,-0.5837442,1,0,0,0,0,0
9240320000,-0.008564052,-0.0058295657,0.4205594,0.0,0.9779621,-0.003579267,-0.0037443424,0.20871845,0.0,0.0,-0.58018905,1,0,0,0,0,0
9240432000,-0.0068197567,-0.0069771074,0.4205594,0.0,0.9779634,-0.0026065686,-0.004123433,0.20871933,0.0,0.0,-0.57974106,1,0,0,0,0,0
9240528000,-0.0058483426,-0.005566903,0.4205594,0.0,0.9779663,-0.002278748,-0.0033324931,0.20872378,0.0,0.0,-0.5860976,1,0,0,0,0,0
9240640000,-0.0057653785,-0.0061057536,0.4205594,0.0,0.9779658,-0.00218194,-0.0035873225,0.20872302,0.0,0.0,-0.5952032,1,0,0,0,0,0
9240732000,-0.007590633,-0.0068568867,0.4205594,0.0,0.9779625,-0.0029960608,-0.004145096,0.208718,0.0,0.0,-0.55473346,1,0,0,0,0,0
9240824000,-0.009319391,-0.005759437,0.4205594,0.0,0.9779607,-0.003955933,-0.003788878,0.20871718,0.0,0.0,-0.5556113,1,0,0,0,0,0
9240936000,-0.00831479,-0.0061413865,0.4205594,0.0,0.97796214,-0.003424838,-0.0038708039,0.2087182,0.0,0.0,-0.5652022,1,0,0,0,0,0
9241032000,-0.007949673,-0.005848051,0.4205594,0.0,0.9779631,-0.003276918,-0.0036892656,0.20871954,0.0,0.0,-0.5662388,1,0,0,0,0,0
9241124000,-0.008208982,-0.0050280043,0.4205594,0.0,0.9779634,-0.003489304,-0.0033153414,0.20872095,0.0,0.0,-0.5657213,1,0,0,0,0,0
9241236000,-0.007736114,-0.006259524,0.4205594,0.0,0.977963,-0.0031295456,-0.0038681803,0.20871904,0.0,0.0,-0.5641014,1,0,0,0,0,0
9241328000,-0.007985817,-0.0067647537,0.4205594,0.0,0.977962,-0.003198914,-0.004141285,0.20871739,0.0,0.0,-0.56067836,1,0,0,0,0,0
9241424000,-0.006825513,-0.0051739514,0.4205594,0.0,0.9779655,-0.0027975806,-0.0032423267,0.20872289,0.0,0.0,-0.56394047,1,0,0,0,0,0
9241536000,-0.006223521,-0.0062608826,0.4205594,0.0,0.9779651,-0.0023897733,-0.00371099,0.20872189,0.0,0.0,-0.56620866,1,0,0,0,0,0
9241628000,-0.006054961,-0.0046305084,0.4205594,0.0,0.9779669,-0.0024775125,-0.0028961764,0.20872506,0.0,0.0,-0.5648975,1,0,0,0,0,0
9241740000,-0.0067293593,-0.0030243015,0.4205594,0.0,0.977967,-0.0029749197,-0.0021811519,0.20872705,0.0,0.0,-0.56604683,1,0,0,0,0,0
9241832000,-0.0053855474,-0.0049722656,0.4205594,0.0,0.9779674,-0.0021145106,-0.0029934277,0.20872551,0.0,0.0,-0.5640677,1,0,0,0,0,0
9241928000,-0.0055686035,-0.0050743013,0.4205594,0.0,0.97796714,-0.0021933727,-0.0030624254,0.20872506,0.0,0.0,-0.56634295,1,0,0,0,0,0
9242020000,-0.005484862,-0.003704817,0.4205594,0.0,0.9779683,-0.0022953558,-0.002384032,0.20872736,0.0,0.0,-0.56696594,1,0,0,0,0,0
9242132000,-0.0050549577,-0.002589274,0.4205594,0.0,0.97796935,-0.0022015672,-0.0017936834,0.20872943,0.0,0.0,-0.56614846,1,0,0,0,0,0
9242224000,-0.00425873,-0.0015035012,0.4205594,0.0,0.9779704,-0.0019255428,-0.0011796588,0.20873135,0.0,0.0,-0.565282,1,0,0,0,0,0
9242340000,-0.0030371477,-0.0022599634,0.4205594,0.0,0.9779712,-0.0012492572,-0.0014220664,0.20873137,0.0,0.0,-0.56590533,1,0,0,0,0,0
9242432000,-0.003893103,-0.0014677737,0.4205594,0.0,0.9779707,-0.0017504856,-0.0011240299,0.2087316,0.0,0.0,-0.56270397,1,0,0,0,0,0
9242528000,-0.0043039103,-0.0018903273,0.4205594,0.0,0.9779703,-0.0019072636,-0.0013735263,0.20873089,0.0,0.0,-0.56816465,1,0,0,0,0,0
9242624000,-0.004899374,-0.0020740593,0.4205594,0.0,0.97796965,-0.0021792606,-0.0015255141,0.20873024,0.0,0.0,-0.570086,1,0,0,0,0,0
9242736000,-0.0057357354,-0.0028995264,0.4205594,0.0,0.9779684,-0.002502076,-0.0020164407,0.20872831,0.0,0.0,-0.5677316,1,0,0,0,0,0
9242828000,-0.0055470355,-0.003489173,0.4205594,0.0,0.97796834,-0.0023482647,-0.0022850744,0.20872761,0.0,0.0,-0.56485933,1,0,0,0,0,0
9242940000,-0.0055800155,-0.0035390838,0.4205594,0.0,0.9779683,-0.0023591823,-0.002312922,0.2087275,0.0,0.0,-0.5665901,1,0,0,0,0,0
9243032000,-0.004892665,-0.0029201966,0.4205594,0.0,0.9779694,-0.0020876708,-0.0019385614,0.2087291,0.0,0.0,-0.56543446,1,0,0,0,0,0
9243128000,-0.0050425436,-0.0032982638,0.4205594,0.0,0.977969,-0.0021215011,-0.0021390724,0.20872843,0.0,0.0,-0.5673824,1,0,0,0,0,0
9243220000,-0.0067644846,-0.0024363815,0.4205594,0.0,0.97796714,-0.0030534556,-0.0018973352,0.20872806,0.0,0.0,-0.56749654,1,0,0,0,0,0
9243332000,-0.0046999115,-0.0022462928,0.4205594,0.0,0.9779698,-0.0020637505,-0.0015889164,0.20873016,0.0,0.0,-0.5646433,1,0,0,0,0,0
9243424000,-0.0035488403,-0.002421238,0.4205594,0.0,0.9779708,-0.0014826357,-0.0015543302,0.20873088,0.0,0.0,-0.5641768,1,0,0,0,0,0
9243536000,-0.0031090744,-0.0027067724,0.4205594,0.0,0.9779709,-0.0012377962,-0.0016480561,0.20873095,0.0,0.0,-0.5664649,1,0,0,0,0,0
9243632000,-0.0037617267,-0.003404218,0.4205594,0.0,0.9779701,-0.0014841428,-0.0020572103,0.20872962,0.0,0.0,-0.5664557,1,0,0,0,0,0
9243724000,-0.0036772706,-0.0025619287,0.4205594,0.0,0.97797066,-0.0015307526,-0.0016365295,0.20873062,0.0,0.0,-0.56497407,1,0,0,0,0,0
9243836000,-0.002381258,-0.000760477,0.4205594,0.0,0.9779719,-0.0010850335,-0.0006203865,0.20873283,0.0,0.0,-0.56425995,1,0,0,0,0,0
9243928000,-0.0024236252,0.00013155985,0.4205594,0.0,0.97797185,-0.0011988495,-0.00018861484,0.20873338,0.0,0.0,-0.5635594,1,0,0,0,0,0
9244024000,-0.0038821672,8.124699e-05,0.4205594,0.0,0.9779707,-0.0019068047,-0.0003654402,0.20873314,0.0,0.0,-0.566894,1,0,0,0,0,0
9244136000,-0.0040790504,0.00012574228,0.4205594,0.0,0.97797054,-0.0020077217,-0.00036423074,0.20873313,0.0,0.0,-0.56467485,1,0,0,0,0,0
9244228000,-0.003445089,-0.0013174787,0.4205594,0.0,0.97797114,-0.0015470993,-0.0010037805,0.208732,0.0,0.0,-0.56530184,1,0,0,0,0,0
9244340000,-0.0029781777,-0.0008539251,0.4205594,0.0,0.97797155,-0.0013671663,-0.0007283797,0.20873258,0.0,0.0,-0.5648098,1,0,0,0,0,0
9244432000,-0.0031683128,2.7798724e-05,0.4205594,0.0,0.9779714,-0.0015521621,-0.00031707308,0.20873322,0.0,0.0,-0.56490356,1,0,0,0,0,0
9244528000,-0.0018348891,-0.0018592734,0.4205594,0.0,0.9779719,-0.0007031889,-0.00110066,0.20873243,0.0,0.0,-0.5658898,1,0,0,0,0,0
9244640000,-0.0034305758,-0.0026030822,0.4205594,0.0,0.9779708,-0.0014058275,-0.0016309067,0.20873079,0.0,0.0,-0.56453943,1,0,0,0,0,0
9244732000,-0.004443818,-0.0026164334,0.4205594,0.0,0.97796994,-0.0018998942,-0.0017431822,0.20872991,0.0,0.0,-0.56515056,1,0,0,0,0,0
9244824000,-0.003760689,-0.002075207,0.4205594,0.0,0.9779708,-0.0016223411,-0.001407236,0.20873107,0.0,0.0,-0.56472325,1,0,0,0,0,0
9244936000,-0.0023121638,-0.0018934238,0.4205594,0.0,0.9779717,-0.0009330054,-0.0011671704,0.20873216,0.0,0.0,-0.56317556,1,0,0,0,0,0
9245032000,-0.0026198642,-0.00018209509,0.4205594,0.0,0.97797173,-0.0012620726,-0.00036246853,0.20873316,0.0,0.0,-0.5650052,1,0,0,0,0,0
9245124000,-0.002722944,-0.000891253,0.4205594,0.0,0.9779717,-0.0012384646,-0.00071999466,0.20873266,0.0,0.0,-0.56430084,1,0,0,0,0,0
9245236000,-0.0017358876,-0.0018968598,0.4205594,0.0,0.977972,-0.0006508558,-0.0011087068,0.20873249,0.0,0.0,-0.564843,1,0,0,0,0,0
9245328000,-0.0036461446,-0.0036079658,0.4205594,0.0,0.97797006,-0.0014063601,-0.0021447772,0.20872954,0.0,0.0,-0.5642445,1,0,0,0,0,0
9245424000,-0.002415657,-0.0032384563,0.4205594,0.0,0.977971,-0.00084323453,-0.0018356727,0.20873111,0.0,0.0,-0.5643158,1,0,0,0,0,0
9245536000,-0.002204392,-0.0035845267,0.4205594,0.0,0.97797084,-0.00070381066,-0.0019828472,0.20873106,0.0,0.0,-0.5651116,1,0,0,0,0,0
9245628000,-0.0015734541,-0.003927456,0.4205594,0.0,0.9779707,-0.00035950058,-0.0020846862,0.2087315,0.0,0.0,-0.5645233,1,0,0,0,0,0
9245740000,-0.0011701097,-0.0029821566,0.4205594,0.0,0.9779715,-0.00026092923,-0.0015803532,0.20873235,0.0,0.0,-0.5647453,1,0,0,0,0,0
9245832000,-0.0001743511,-0.0019670667,0.4205594,0.0,0.97797215,0.000120041004,-0.0009800649,0.20873325,0.0,0.0,-0.5652358,1,0,0,0,0,0
9245928000,-5.0880015e-05,-0.001133714,0.4205594,0.0,0.97797245,9.344237e-05,-0.00055968075,0.2087334,0.0,0.0,-0.56347847,1,0,0,0,0,0
9246040000,-0.0024006309,-0.0018954661,0.4205594,0.0,0.9779716,-0.0009760513,-0.0011774019,0.20873211,0.0,0.0,-0.5658073,1,0,0,0,0,0
9246132000,-0.0031011736,-0.0021748918,0.4205594,0.0,0.9779712,-0.0012894437,-0.0013871496,0.2087314,0.0,0.0,-0.5637152,1,0,0,0,0,0
9246224000,-0.0017005875,-0.0020417324,0.4205594,0.0,0.977972,-0.0006184746,-0.0011758632,0.20873244,0.0,0.0,-0.56235456,1,0,0,0,0,0
9246336000,-0.0018596451,-0.0035247838,0.4205594,0.0,0.977971,-0.0005414696,-0.0019176541,0.20873141,0.0,0.0,-0.5646642,1,0,0,0,0,0
9246432000,-0.0019752225,-0.003313576,0.4205594,0.0,0.9779711,-0.00062002847,-0.0018264389,0.20873144,0.0,0.0,-0.56341386,1,0,0,0,0,0
9246524000,-0.002519058,-0.004224253,0.4205594,0.0,0.9779702,-0.00079091085,-0.0023285034,0.2087302,0.0,0.0,-0.563741,1,0,0,0,0,0
9246636000,-0.0020133278,-0.0055817952,0.4205594,0.0,0.9779689,-0.00040193307,-0.00293954,0.20872977,0.0,0.0,-0.5637711,1,0,0,0,0,0
9246728000,-0.0009585198,-0.0058548455,0.42049387,0.0,0.9779754,0.00014225199,-0.0029629762,0.2086991,0.0,0.0,-0.5630324,1,0,0,0,0,0
9246824000,-0.0018911187,-0.0064990954,0.42049387,0.0,0.9779744,-0.00024654888,-0.003375322,0.2086972,0.0,0.0,-0.5641556,1,0,0,0,0,0
9246936000,-0.0031262562,-0.0047905985,0.42049387,0.0,0.9779762,-0.0010288008,-0.0026687742,0.20869692,0.0,0.0,-0.5637563,1,0,0,0,0,0
9247028000,-0.0023376353,-0.00339264,0.42049387,0.0,0.97797775,-0.0007890536,-0.0019028976,0.20869905,0.0,0.0,-0.5632283,1,0,0,0,0,0
9247140000,-0.0031322672,-0.0030429647,0.42049387,0.0,0.97797763,-0.0012141091,-0.0018148298,0.20869859,0.0,0.0,-0.56391287,1,0,0,0,0,0
9247232000,-0.0024227714,-0.0033529564,0.42049387,0.0,0.97797775,-0.00083482533,-0.0018923765,0.20869896,0.0,0.0,-0.56260365,1,0,0,0,0,0
9247328000,-0.0024754454,-0.003933585,0.42049387,0.0,0.97797734,-0.000799993,-0.0021817936,0.20869845,0.0,0.0,-0.56458634,1,0,0,0,0,0
9247440000,-0.0023375885,-0.003954576,0.42049387,0.0,0.97797734,-0.00073039194,-0.0021776727,0.2086986,0.0,0.0,-0.56441,1,0,0,0,0,0
9247532000,-0.0026117344,-0.0042672693,0.42049387,0.0,0.9779769,-0.0008318162,-0.0023591828,0.20869803,0.0,0.0,-0.562792,1,0,0,0,0,0
9247624000,-0.0018598984,-0.0049062353,0.42049387,0.0,0.9779765,-0.00039750003,-0.0025931762,0.20869847,0.0,0.0,-0.5619765,1,0,0,0,0,0
9247736000,-0.0018253748,-0.005095396,0.42049387,0.0,0.9779763,-0.0003608791,-0.0026820707,0.20869833,0.0,0.0,-0.5643821,1,0,0,0,0,0
9247832000,-0.0023373503,-0.005177822,0.42049387,0.0,0.9779761,-0.00060262776,-0.0027758004,0.20869763,0.0,0.0,-0.5650247,1,0,0,0,0,0
9247924000,-0.0038126737,-0.0055934945,0.42049387,0.0,0.9779749,-0.0012806664,-0.0031330062,0.208695,0.0,0.0,-0.5632586,1,0,0,0,0,0
9248036000,-0.005217512,-0.0063136476,0.42049387,0.0,0.9779729,-0.0018924639,-0.0036317403,0.2086916,0.0,0.0,-0.5635594,1,0,0,0,0,0
9248128000,-0.004484276,-0.0065766787,0.42049387,0.0,0.9779732,-0.001506473,-0.003683849,0.20869252,0.0,0.0,-0.5629705,1,0,0,0,0,0
9248224000,-0.0034189075,-0.0056851907,0.42049387,0.0,0.9779751,-0.001078551,-0.0031367554,0.20869549,0.0,0.0,-0.56550246,1,0,0,0,0,0
9248336000,-0.004772858,-0.0047955047,0.42049387,0.0,0.977975,-0.0018334573,-0.0028429928,0.20869462,0.0,0.0,-0.5632416,1,0,0,0,0,0
9248428000,-0.004255997,-0.0041751126,0.42049387,0.0,0.977976,-0.0016454576,-0.0024856955,0.20869614,0.0,0.0,-0.5623441,1,0,0,0,0,0
9248520000,-0.0040147975,-0.004708915,0.42049387,0.0,0.9779757,-0.0014718107,-0.0027215497,0.20869578,0.0,0.0,-0.5629611,1,0,0,0,0,0
9248632000,-0.0051832143,-0.003513541,0.42049387,0.0,0.97797555,-0.0021678926,-0.0022589492,0.20869593,0.0,0.0,-0.5627998,1,0,0,0,0,0
9248728000,-0.0050625955,-0.0035683177,0.42049387,0.0,0.97797567,-0.0021031955,-0.002273148,0.20869598,0.0,0.0,-0.5633516,1,0,0,0,0,0
9248840000,-0.004546186,-0.0028720784,0.42049387,0.0,0.97797656,-0.0019233313,-0.0018788093,0.20869747,0.0,0.0,-0.564571,1,0,0,0,0,0
9248932000,-0.003545653,-0.0030365023,0.42049387,0.0,0.97797734,-0.0014169244,-0.0018548063,0.20869823,0.0,0.0,-0.56418455,1,0,0,0,0,0
9249024000,-0.0022247978,-0.0035963384,0.42049387,0.0,0.9779777,-0.00071262126,-0.001990729,0.20869897,0.0,0.0,-0.56248665,1,0,0,0,0,0
9249136000,-0.0028251647,-0.0022344333,0.42049387,0.0,0.97797817,-0.0011483107,-0.0013874212,0.20869952,0.0,0.0,-0.56355035,1,0,0,0,0,0
9249232000,-0.0018172662,-0.0026212244,0.42049387,0.0,0.9779784,-0.0006150971,-0.0014713836,0.2087,0.0,0.0,-0.563869,1,0,0,0,0,0
9249324000,-0.0018701187,-0.0012941633,0.42049387,0.0,0.97797894,-0.00077942165,-0.0008279803,0.20870067,0.0,0.0,-0.5634939,1,0,0,0,0,0
9249436000,-0.001953717,-0.0029112785,0.42049387,0.0,0.97797817,-0.00065155263,-0.0016274556,0.2086997,0.0,0.0,-0.5627884,1,0,0,0,0,0
9249528000,-0.0008373978,-0.003659483,0.42049387,0.0,0.9779778,-2.7608823e-05,-0.0018768312,0.2087003,0.0,0.0,-0.56342834,1,0,0,0,0,0
9249624000,-0.0037824428,-0.0048659523,0.42049387,0.0,0.9779757,-0.0013418047,-0.0027740933,0.20869595,0.0,0.0,-0.5647419,1,0,0,0,0,0
9249736000,-0.0029519645,-0.00454976,0.42049387,0.0,0.97797656,-0.00096870615,-0.0025328198,0.20869732,0.0,0.0,-0.56350094,1,0,0,0,0,0
9249828000,-0.0050341166,-0.004627408,0.42049387,0.0,0.97797495,-0.0019787503,-0.0027880569,0.2086945,0.0,0.0,-0.5629077,1,0,0,0,0,0
9249940000,-0.005495664,-0.004015372,0.42049387,0.0,0.9779749,-0.0022683095,-0.0025369413,0.20869479,0.0,0.0,-0.56312954,1,0,0,0,0,0
9250032000,-0.0046670544,-0.005108711,0.42049387,0.0,0.97797483,-0.0017490365,-0.0029851058,0.20869435,0.0,0.0,-0.56368995,1,0,0,0,0,0
9250128000,-0.00658528,-0.004731232,0.42049387,0.0,0.977973,-0.0027264152,-0.0030006845,0.20869206,0.0,0.0,-0.5620171,1,0,0,0,0,0
9250240000,-0.007044923,-0.005167433,0.42049387,0.0,0.97797203,-0.0029056543,-0.0032619415,0.20869051,0.0,0.0,-0.5636402,1,0,0,0,0,0
9250332000,-0.009035224,-0.005153253,0.42049387,0.0,0.97796863,-0.0038803625,-0.0034626848,0.20868723,0.0,0.0,-0.56205004,1,0,0,0,0,0
9250424000,-0.007639126,-0.004667877,0.42049387,0.0,0.97797143,-0.0032483423,-0.0030796693,0.2086906,0.0,0.0,-0.56187516,1,0,0,0,0,0
9250536000,-0.0077714925,-0.0058191568,0.42049387,0.0,0.97797024,-0.0031929268,-0.0036564376,0.2086879,0.0,0.0,-0.56309897,1,0,0,0,0,0
9250632000,-0.007991686,-0.006317151,0.42049387,0.0,0.9779694,-0.0032486296,-0.0039229235,0.20868637,0.0,0.0,-0.5633686,1,0,0,0,0,0
9250724000,-0.0076656872,-0.006950156,0.42049387,0.0,0.97796905,-0.0030231634,-0.0041984357,0.20868558,0.0,0.0,-0.5634142,1,0,0,0,0,0
9250836000,-0.008171085,-0.0052158297,0.42049387,0.0,0.9779702,-0.0034512812,-0.0034031156,0.20868853,0.0,0.0,-0.5637505,1,0,0,0,0,0
9250928000,-0.0061367583,-0.0048428676,0.42049387,0.0,0.9779735,-0.002495444,-0.0030084709,0.20869252,0.0,0.0,-0.56301564,1,0,0,0,0,0
9251024000,-0.006230797,-0.0064904974,0.42049387,0.0,0.9779716,-0.0023694912,-0.0038239488,0.20868942,0.0,0.0,-0.5611016,1,0,0,0,0,0
9251136000,-0.0064429417,-0.0052430895,0.42049387,0.0,0.97797275,-0.0026033993,-0.0032361224,0.20869136,0.0,0.0,-0.5635546,1,0,0,0,0,0
9251228000,-0.006009219,-0.003976086,0.42049387,0.0,0.9779743,-0.0025235305,-0.002571319,0.20869422,0.0,0.0,-0.56367946,1,0,0,0,0,0
9251320000,-0.0053249313,-0.0035830687,0.42049387,0.0,0.97797537,-0.002229935,-0.0023077352,0.2086957,0.0,0.0,-0.5607423,1,0,0,0,0,0
9251432000,-0.0059575574,-0.004103012,0.42049387,0.0,0.9779743,-0.0024850238,-0.0026279932,0.20869406,0.0,0.0,-0.56366885,1,0,0,0,0,0
9251528000,-0.0053378786,-0.0048783384,0.42049387,0.0,0.97797436,-0.0021011012,-0.0029424552,0.2086937,0.0,0.0,-0.56260043,1,0,0,0,0,0
9251640000,-0.0064510847,-0.0057468843,0.42049387,0.0,0.97797227,-0.0025548078,-0.0034833197,0.2086904,0.0,0.0,-0.5637968,1,0,0,0,0,0
9251732000,-0.0068389596,-0.0059285564,0.42049387,0.0,0.9779715,-0.0027255155,-0.0036126275,0.20868935,0.0,0.0,-0.56155324,1,0,0,0,0,0
9251824000,-0.00647633,-0.0063523473,0.42049387,0.0,0.9779715,-0.0025039695,-0.0037820155,0.20868923,0.0,0.0,-0.5628734,1,0,0,0,0,0
9251936000,-0.0064358753,-0.0065768175,0.42049387,0.0,0.97797126,-0.0024607636,-0.003887557,0.20868886,0.0,0.0,-0.56400615,1,0,0,0,0,0
9252032000,-0.006986543,-0.0061854334,0.42049387,0.0,0.977971,-0.0027708749,-0.0037536356,0.20868857,0.0,0.0,-0.5635804,1,0,0,0,0,0
9252124000,0.01939606,-0.20742361,1.9493401,0.0,0.5575673,0.09108098,-0.050138973,0.82359517,0.0,0.0,-0.54849905,1,0,0,0,0,0
9252236000,0.06674241,-0.20727757,1.949367,0.0,0.5552502,0.1041941,-0.030587269,0.8245637,0.0,0.0,-0.39440292,1,0,0,0,0,0
9252328000,0.05646037,-0.11244597,1.9494855,0.0,0.558958,0.062305458,-0.008211223,0.82681096,0.0,0.0,-0.5056654,1,0,0,0,0,0
9252424000,0.034228664,-0.063221335,1.9496067,0.0,0.5605206,0.035754066,-0.003582581,0.8273605,0.0,0.0,-0.58818275,1,0,0,0,0,0
9252536000,0.011032068,-0.05505883,1.9497018,0.0,0.5609446,0.025875537,-0.0108864205,0.82737726,0.0,0.0,-0.5709877,1,0,0,0,0,0
9252628000,0.0046128174,-0.070881434,1.949698,0.0,0.5608714,0.030618884,-0.01798079,0.82714117,0.0,0.0,-0.56761163,1,0,0,0,0,0
9252740000,0.0043553025,-0.08313123,1.9496727,0.0,0.56074244,0.0356114,-0.021523466,0.8269442,0.0,0.0,-0.57302445,1,0,0,0,0,0
9252832000,0.0057933787,-0.08802501,1.949642,0.0,0.56066483,0.03803728,-0.022301877,0.82686806,0.0,0.0,-0.57002795,1,0,0,0,0,0
9252928000,0.005770926,-0.08949216,1.9496248,0.0,0.5606523,0.038637243,-0.022722928,0.8268373,0.0,0.0,-0.5715349,1,0,0,0,0,0
9253040000,0.0034585183,-0.09151203,1.9495958,0.0,0.5606815,0.03882356,-0.02424585,0.82676554,0.0,0.0,-0.57213646,1,0,0,0,0,0
9253132000,0.0003436473,-0.09398374,1.9495766,0.0,0.56071687,0.038971707,-0.026226824,0.82667404,0.0,0.0,-0.5717776,1,0,0,0,0,0
9253224000,-0.00060719816,-0.09606473,1.9495528,0.0,0.56071776,0.039564934,-0.027203713,0.8266137,0.0,0.0,-0.57324183,1,0,0,0,0,0
9253336000,-0.0018178319,-0.101435475,1.949531,0.0,0.5606782,0.041444905,-0.029210027,0.82648,0.0,0.0,-0.5727795,1,0,0,0,0,0
9253432000,-0.0027172444,-0.10519309,1.9495119,0.0,0.5606523,0.04274532,-0.03063528,0.82637966,0.0,0.0,-0.572829,1,0,0,0,0,0
9253524000,-0.0013791225,-0.1073801,1.9494909,0.0,0.5606003,0.044023786,-0.030695798,0.82634556,0.0,0.0,-0.57339996,1,0,0,0,0,0
9253636000,-0.0033949113,-0.11210849,1.9494525,0.0,0.56059074,0.045411788,-0.032854553,0.826194,0.0,0.0,-0.5747804,1,0,0,0,0,0
9253728000,-0.0041379803,-0.114453994,1.9494188,0.0,0.5605863,0.046171963,-0.03381949,0.8261159,0.0,0.0,-0.5753477,1,0,0,0,0,0
9253824000,-0.004514254,-0.119033106,1.9493811,0.0,0.5605398,0.047957465,-0.035258748,0.82598543,0.0,0.0,-0.57613313,1,0,0,0,0,0
9253936000,-0.006124744,-0.1251054,1.949338,0.0,0.5604997,0.050013393,-0.03762585,0.82578635,0.0,0.0,-0.57651913,1,0,0,0,0,0
9254028000,-0.0065101343,-0.12869927,1.9492937,0.0,0.56046844,0.051388733,-0.038792647,0.82566917,0.0,0.0,-0.57580686,1,0,0,0,0,0
9254140000,-0.0065673636,-0.13316102,1.9492519,0.0,0.56041133,0.05321422,-0.040066846,0.8255314,0.0,0.0,-0.57789874,1,0,0,0,0,0
9254232000,-0.0078399405,-0.13736677,1.9492209,0.0,0.56038487,0.05459341,-0.04177051,0.82537484,0.0,0.0,-0.5782469,1,0,0,0,0,0
9254328000,-0.00590257,-0.14336419,1.949197,0.0,0.5602308,0.05761132,-0.04265073,0.82522935,0.0,0.0,-0.57765305,1,0,0,0,0,0
9254420000,-0.0060832896,-0.14635839,1.9491775,0.0,0.560187,0.05879601,-0.043564014,0.8251278,0.0,0.0,-0.5782176,1,0,0,0,0,0
9254532000,-0.0064523444,-0.15067911,1.9491591,0.0,0.5601211,0.060475238,-0.04492611,0.82497805,0.0,0.0,-0.5790211,1,0,0,0,0,0
9254624000,-0.0046236636,-0.15548648,1.949151,0.0,0.5599704,0.062970534,-0.045517433,0.8248612,0.0,0.0,-0.57999164,1,0,0,0,0,0
9254736000,-0.0062566195,-0.16296944,1.9491496,0.0,0.55986476,0.06559991,-0.048284426,0.8245706,0.0,0.0,-0.5798586,1,0,0,0,0,0
9254832000,-0.007474603,-0.16785598,1.9491539,0.0,0.559797,0.067274265,-0.050153054,0.8243703,0.0,0.0,-0.5813612,1,0,0,0,0,0
9254924000,-0.0064022904,-0.17267282,1.9491758,0.0,0.5596432,0.06956098,-0.051057212,0.82422936,0.0,0.0,-0.58240515,1,0,0,0,0,0
9255036000,-0.0072363103,-0.17850187,1.9491981,0.0,0.5595281,0.0717311,-0.053029574,0.8239969,0.0,0.0,-0.58094764,1,0,0,0,0,0
9255128000,-0.0062630535,-0.18399724,1.9492176,0.0,0.55935264,0.07426862,-0.05416371,0.8238175,0.0,0.0,-0.5815742,1,0,0,0,0,0
9255224000,-0.005510837,-0.19087704,1.9492388,0.0,0.559143,0.077314034,-0.055775292,0.823572,0.0,0.0,-0.5827912,1,0,0,0,0,0
9255336000,-0.005987881,-0.19891994,1.9492775,0.0,0.5589357,0.08049435,-0.058216456,0.823239,0.0,0.0,-0.5848006,1,0,0,0,0,0
9255432000,-0.006896917,-0.20680343,1.9493046,0.0,0.5587482,0.083486885,-0.060790125,0.8228821,0.0,0.0,-0.58519524,1,0,0,0,0,0
9255524000,-0.006656339,-0.21255708,1.9493393,0.0,0.5585627,0.08592326,-0.06229516,0.8226447,0.0,0.0,-0.5854788,1,0,0,0,0,0
9255636000,-0.00604485,-0.21904473,1.9493841,0.0,0.55832994,0.08876475,-0.06385139,0.8223817,0.0,0.0,-0.58692664,1,0,0,0,0,0
9255728000,-0.0054820166,-0.22444601,1.9494432,0.0,0.558119,0.09114538,-0.06512347,0.8221646,0.0,0.0,-0.5886782,1,0,0,0,0,0
9255824000,-0.0044790762,-0.23493463,1.9494889,0.0,0.5577267,0.09573886,-0.06763262,0.82170624,0.0,0.0,-0.58856416,1,0,0,0,0,0
9255936000,-0.004287171,-0.24521658,1.9495633,0.0,0.55735046,0.100019544,-0.070414215,0.82121766,0.0,0.0,-0.58967876,1,0,0,0,0,0
9256028000,-0.0031813055,-0.25121707,1.9496174,0.0,0.5570682,0.10279382,-0.07162809,0.8209616,0.0,0.0,-0.59031105,1,0,0,0,0,0
9256140000,-0.0030152744,-0.2593514,1.9496851,0.0,0.55674636,0.10618158,-0.07382012,0.82055444,0.0,0.0,-0.59408706,1,0,0,0,0,0
9256232000,-0.0026364478,-0.26693916,1.9497452,0.0,0.55642635,0.10940239,-0.07577195,0.82017046,0.0,0.0,-0.59453195,1,0,0,0,0,0
9256328000,-0.0017276785,-0.2774812,1.9498158,0.0,0.5559499,0.11398043,-0.07832586,0.81962985,0.0,0.0,-0.59667933,1,0,0,0,0,0
9256440000,-0.0010411228,-0.28660795,1.9499027,0.0,0.55551714,0.11791435,-0.08057484,0.8191487,0.0,0.0,-0.59893674,1,0,0,0,0,0
9256532000,-0.00019914338,-0.29512268,1.9499928,0.0,0.5550847,0.12163848,-0.08258848,0.8186966,0.0,0.0,-0.5986391,1,0,0,0,0,0
9256624000,0.00090569054,-0.30192658,1.950072,0.0,0.5546998,0.12473276,-0.08401931,0.8183463,0.0,0.0,-0.6016215,1,0,0,0,0,0
9256736000,0.0009186744,-0.31383148,1.9501654,0.0,0.5541464,0.12960893,-0.087308936,0.8176188,0.0,0.0,-0.60204893,1,0,0,0,0,0
9256832000,0.00080699957,-0.32683098,1.9502366,0.0,0.5535408,0.13489227,-0.09095045,0.816777,0.0,0.0,-0.6038629,1,0,0,0,0,0
9256924000,0.0023519746,-0.33541465,1.950336,0.0,0.5529949,0.13882801,-0.09268837,0.81629187,0.0,0.0,-0.60719913,1,0,0,0,0,0
9257036000,0.0021162303,-0.3468149,1.9504275,0.0,0.5524263,0.14341672,-0.095930375,0.81550854,0.0,0.0,-0.608836,1,0,0,0,0,0
9257128000,0.0023573795,-0.3555639,1.9504853,0.0,0.5519525,0.14705129,-0.09824487,0.81490636,0.0,0.0,-0.61149746,1,0,0,0,0,0
9257224000,0.0025899909,-0.36757222,1.9505357,0.0,0.55130297,0.1520067,-0.10146066,0.81404215,0.0,0.0,-0.6157916,1,0,0,0,0,0
9257336000,0.0043433458,-0.37999588,1.9506371,0.0,0.5504698,0.15754676,-0.10416486,0.8132108,0.0,0.0,-0.61892456,1,0,0,0,0,0
9257428000,0.0055856896,-0.3899243,1.9507177,0.0,0.5497952,0.16192532,-0.1063884,0.81251895,0.0,0.0,-0.62204933,1,0,0,0,0,0
9257520000,0.0061758556,-0.40110207,1.9508135,0.0,0.54907864,0.16662772,-0.109216966,0.81167704,0.0,0.0,-0.6230743,1,0,0,0,0,0
9257632000,0.00652213,-0.41501683,1.9509091,0.0,0.54820204,0.17236629,-0.11289296,0.8105675,0.0,0.0,-0.62629807,1,0,0,0,0,0
9257728000,0.008166167,-0.43056375,1.9509814,0.0,0.54709053,0.17911012,-0.116487876,0.8093468,0.0,0.0,-0.6297407,1,0,0,0,0,0
9257820000,0.009114321,-0.4421228,1.9510552,0.0,0.546253,0.18404245,-0.11926616,0.8084007,0.0,0.0,-0.6321612,1,0,0,0,0,0
9257932000,0.010919862,-0.45667446,1.9511602,0.0,0.5451032,0.19040982,-0.1225108,0.807216,0.0,0.0,-0.63688576,1,0,0,0,0,0
9258024000,0.0101292785,-0.46512046,1.951244,0.0,0.54458654,0.19360113,-0.12513095,0.8064034,0.0,0.0,-0.6415869,1,0,0,0,0,0
9258136000,0.012606149,-0.4799512,1.9513552,0.0,0.5432908,0.20024599,-0.12817201,0.8051763,0.0,0.0,-0.6434639,1,0,0,0,0,0
9258232000,0.014091102,-0.49760112,1.9514353,0.0,0.54186285,0.20773663,-0.13237843,0.80355835,0.0,0.0,-0.65049,1,0,0,0,0,0
9258324000,0.017147806,-0.50965774,1.9515283,0.0,0.5406239,0.21339802,-0.13442354,0.80256927,0.0,0.0,-0.6525212,1,0,0,0,0,0
9258436000,0.01766864,-0.5268239,1.9516386,0.0,0.5392308,0.22040589,-0.13886875,0.8008538,0.0,0.0,-0.6577905,1,0,0,0,0,0
9258528000,0.019491762,-0.539253,1.9517405,0.0,0.53802323,0.2258603,-0.14150041,0.79968476,0.0,0.0,-0.6622441,1,0,0,0,0,0
9258624000,0.019983646,-0.5568262,1.9518306,0.0,0.5365292,0.232991,-0.14605334,0.79782194,0.0,0.0,-0.66737366,1,0,0,0,0,0
9258736000,0.02246999,-0.5727942,1.951971,0.0,0.53486514,0.24000444,-0.14936207,0.7962463,0.0,0.0,-0.6741907,1,0,0,0,0,0
9258828000,0.027173415,-0.5550627,1.9520895,0.0,0.5357299,0.23423639,-0.14267619,0.79860526,0.0,0.0,-0.6665262,1,0,0,0,0,0
9258920000,0.029108122,-0.5185441,1.9522232,0.0,0.53837436,0.22022209,-0.13196725,0.8026456,0.0,0.0,-0.6667785,1,0,0,0,0,0
9259032000,0.028089594,-0.49369985,1.9523727,0.0,0.5403085,0.21002094,-0.12558702,0.8050999,0.0,0.0,-0.67417866,1,0,0,0,0,0
9259128000,0.0257202,-0.48030588,1.9524868,0.0,0.5414846,0.20401591,-0.12287129,0.80627203,0.0,0.0,-0.6656457,1,0,0,0,0,0
9259240000,0.024362793,-0.42767265,1.9526005,0.0,0.54515266,0.18245575,-0.10898705,0.8109502,0.0,0.0,-0.6544954,1,0,0,0,0,0
9259332000,0.022663798,-0.38643545,1.9526882,0.0,0.5477953,0.16529617,-0.09832051,0.8142055,0.0,0.0,-0.6554292,1,0,0,0,0,0
9259424000,0.01740591,-0.3689333,1.9527346,0.0,0.54919106,0.15674499,-0.095631436,0.81527585,0.0,0.0,-0.65100104,1,0,0,0,0,0
9259536000,0.015205137,-0.3613106,1.952764,0.0,0.5497623,0.15303992,-0.094422914,0.81573564,0.0,0.0,-0.64078236,1,0,0,0,0,0
9259632000,0.014525135,-0.3473765,1.9527878,0.0,0.55053353,0.1471775,-0.09085061,0.8166993,0.0,0.0,-0.63715094,1,0,0,0,0,0
9259724000,0.013196539,-0.33547178,1.9527988,0.0,0.55122495,0.14195634,-0.088101946,0.817458,0.0,0.0,-0.63444865,1,0,0,0,0,0
9259836000,0.013555212,-0.319735,1.9528366,0.0,0.55194616,0.13563024,-0.083598286,0.8185177,0.0,0.0,-0.6291404,1,0,0,0,0,0
9259928000,0.014141031,-0.3094519,1.9528513,0.0,0.55238116,0.13158862,-0.08050923,0.81919336,0.0,0.0,-0.6283597,1,0,0,0,0,0
9260024000,0.01493314,-0.2920108,1.9528751,0.0,0.5531041,0.1246705,-0.07534707,0.820278,0.0,0.0,-0.6241748,1,0,0,0,0,0
9260136000,0.012026843,-0.27964833,1.9528816,0.0,0.5538055,0.11880093,-0.07310821,0.82087827,0.0,0.0,-0.619632,1,0,0,0,0,0
9260228000,0.011261932,-0.2697371,1.9528866,0.0,0.5542517,0.1145244,-0.07066986,0.82139826,0.0,0.0,-0.6173359,1,0,0,0,0,0
9260320000,0.012743342,-0.26226425,1.952868,0.0,0.5544713,0.11186779,-0.06798608,0.8218425,0.0,0.0,-0.61409193,1,0,0,0,0,0
9260432000,0.011555544,-0.25042403,1.9528524,0.0,0.5549959,0.10667587,-0.06518348,0.82240564,0.0,0.0,-0.61160535,1,0,0,0,0,0
9260528000,0.011616601,-0.23608907,1.9528201,0.0,0.55552715,0.100800365,-0.06117184,0.8230959,0.0,0.0,-0.60928315,1,0,0,0,0,0
9260620000,0.010443584,-0.22715116,1.9527878,0.0,0.5559079,0.09679744,-0.0591681,0.82346576,0.0,0.0,-0.6083645,1,0,0,0,0,0
9260732000,0.010103613,-0.21681899,1.9527265,0.0,0.55629146,0.09244921,-0.056433283,0.8238982,0.0,0.0,-0.6039995,1,0,0,0,0,0
9260824000,0.010198373,-0.21013002,1.9526756,0.0,0.5565217,0.08972021,-0.054532655,0.8241723,0.0,0.0,-0.6033316,1,0,0,0,0,0
9260936000,0.011521193,-0.19973238,1.9526072,0.0,0.55681294,0.085803956,-0.051091596,0.8246131,0.0,0.0,-0.6009884,1,0,0,0,0,0
9261032000,0.011670505,-0.18830703,1.9525652,0.0,0.5571612,0.0811361,-0.04784456,0.825045,0.0,0.0,-0.5981558,1,0,0,0,0,0
9261124000,0.009405346,-0.18298122,1.9525065,0.0,0.5574255,0.0783078,-0.04729523,0.8251715,0.0,0.0,-0.5963955,1,0,0,0,0,0
9261236000,0.009722675,-0.17245242,1.9524472,0.0,0.55772036,0.0740524,-0.044227544,0.8255351,0.0,0.0,-0.5937321,1,0,0,0,0,0
9261328000,0.009860748,-0.1678073,1.9523735,0.0,0.5578657,0.07217286,-0.04287612,0.82567465,0.0,0.0,-0.59111327,1,0,0,0,0,0
9261424000,0.010349687,-0.15609762,1.9523032,0.0,0.55816734,0.067475244,-0.039405618,0.826041,0.0,0.0,-0.5911093,1,0,0,0,0,0
9261536000,0.0105863875,-0.14720124,1.9521941,0.0,0.5584127,0.063866295,-0.036825113,0.8262811,0.0,0.0,-0.58984774,1,0,0,0,0,0
9261628000,0.008929432,-0.14084862,1.9520833,0.0,0.5586509,0.060778074,-0.03573725,0.82640076,0.0,0.0,-0.5902113,1,0,0,0,0,0
9261720000,0.008970642,-0.13820606,1.9519606,0.0,0.5587569,0.059695944,-0.034985036,0.8264401,0.0,0.0,-0.58770883,1,0,0,0,0,0
9261832000,0.010236976,-0.13140963,1.9518186,0.0,0.55892026,0.05723992,-0.032564983,0.82660216,0.0,0.0,-0.5856129,1,0,0,0,0,0
9261928000,0.008373469,-0.12458997,1.951705,0.0,0.5591544,0.053899586,-0.031430468,0.8267123,0.0,0.0,-0.5844088,1,0,0,0,0,0
9262040000,0.0073605715,-0.11770144,1.9515659,0.0,0.5593664,0.050767533,-0.029925225,0.8268231,0.0,0.0,-0.5840278,1,0,0,0,0,0
9262132000,0.0073264246,-0.11479771,1.9514337,0.0,0.5594736,0.049555924,-0.029129943,0.8268525,0.0,0.0,-0.5816709,1,0,0,0,0,0
9262224000,0.00807732,-0.11035718,1.9513,0.0,0.55958766,0.047928724,-0.027579641,0.82692444,0.0,0.0,-0.5820724,1,0,0,0,0,0
9262336000,0.008109912,-0.105536714,1.951151,0.0,0.55972946,0.045943283,-0.026219886,0.8269854,0.0,0.0,-0.5812778,1,0,0,0,0,0
9262432000,0.00765392,-0.097612634,1.9510422,0.0,0.55991024,0.04253836,-0.024191512,0.827107,0.0,0.0,-0.5790111,1,0,0,0,0,0
9262524000,0.008373988,-0.093036234,1.950917,0.0,0.56001574,0.040846348,-0.02261429,0.8271653,0.0,0.0,-0.57952553,1,0,0,0,0,0
9262632000,0.009223913,-0.08779905,1.9507942,0.0,0.56012547,0.038917504,-0.02079775,0.82723176,0.0,0.0,-0.579623,1,0,0,0,0,0
9262724000,0.009259741,-0.08500468,1.9506662,0.0,0.5602169,0.037770744,-0.020002263,0.8272426,0.0,0.0,-0.5793832,1,0,0,0,0,0
9262836000,0.009693632,-0.080418155,1.9504983,0.0,0.5603405,0.03599406,-0.018540276,0.82727224,0.0,0.0,-0.5787795,1,0,0,0,0,0
9262932000,0.010783136,-0.076581165,1.9503579,0.0,0.5604297,0.034711372,-0.017016359,0.8272993,0.0,0.0,-0.575457,1,0,0,0,0,0
9263024000,0.011423441,-0.0732231,1.9501948,0.0,0.56052923,0.033500798,-0.015812632,0.8273057,0.0,0.0,-0.5796862,1,0,0,0,0,0
9263136000,0.016395157,-0.06734724,1.9499876,0.0,0.56060773,0.032463003,-0.012111326,0.8273563,0.0,0.0,-0.5839555,1,0,0,0,0,0
9263228000,0.038506087,-0.05092449,1.9497988,0.0,0.56055975,0.031869154,0.00164202,0.82749885,0.0,0.0,-0.6061969,1,0,0,0,0,0
9263324000,-0.44061157,0.14145005,1.9496044,0.027754543,0.5336153,-0.17942917,-0.1416913,0.81423795,0.0,0.0,-0.5061199,1,0,0,0,0,0
9263436000,-0.43761024,0.12957054,1.949317,0.027754543,0.53528583,-0.1739104,-0.1437637,0.81397563,0.0,0.0,-0.48493344,1,0,0,0,0,0
9263528000,-0.23743775,0.057685,1.9493921,0.027754543,0.5544095,-0.09016377,-0.08189566,0.82328224,0.0,0.0,-0.56553584,1,0,0,0,0,0
9263640000,-0.11022419,0.015041773,1.9504187,0.027754543,0.55978423,-0.037117496,-0.041385747,0.8267715,0.0,0.0,-0.5929652,1,0,0,0,0,0
9263732000,-0.08661482,0.0058719297,1.9519304,0.027754543,0.55973583,-0.026689844,-0.034214024,0.82753414,0.0,0.0,-0.57741416,1,0,0,0,0,0
9263828000,-0.10383218,0.014389343,1.9535353,0.027754543,0.5586261,-0.034997925,-0.038980614,0.82776356,0.0,0.0,-0.5757489,1,0,0,0,0,0
9263940000,-0.11461195,0.016547736,1.9556637,0.027754543,0.5574925,-0.038855292,-0.042879533,0.82816285,0.0,0.0,-0.57791775,1,0,0,0,0,0
9264032000,-0.11829548,0.015336919,1.9574982,0.027754543,0.55669254,-0.039339934,-0.044778798,0.82857746,0.0,0.0,-0.5763635,1,0,0,0,0,0
9264124000,-0.11700796,0.013209467,1.9593556,0.027754543,0.55600387,-0.03805899,-0.0448737,0.8290944,0.0,0.0,-0.57645,1,0,0,0,0,0
9264236000,-0.11417902,0.010813556,1.9615909,0.027754543,0.5551909,-0.036230065,-0.044408303,0.8297458,0.0,0.0,-0.57667685,1,0,0,0,0,0
9264332000,-0.11414942,0.012095872,1.9633696,0.027754543,0.5544208,-0.036714446,-0.044072386,0.83025724,0.0,0.0,-0.5758854,1,0,0,0,0,0
9264424000,-0.11412944,0.010651979,1.9653457,0.027754543,0.5536371,-0.03606582,-0.044500418,0.8307858,0.0,0.0,-0.5758696,1,0,0,0,0,0
9264536000,-0.11438128,0.010250452,1.9676425,0.027754543,0.55268824,-0.03591744,-0.04475756,0.83141,0.0,0.0,-0.5772537,1,0,0,0,0,0
9264628000,-0.115384914,0.010902928,1.969598,0.027754543,0.55184036,-0.03642189,-0.045029942,0.83193636,0.0,0.0,-0.5755374,1,0,0,0,0,0
9264724000,-0.116719306,0.009648653,1.9713786,0.027754543,0.5511074,-0.036227655,-0.04596364,0.83237934,0.0,0.0,-0.57511735,1,0,0,0,0,0
9264836000,-0.1172956,0.009678374,1.9736555,0.027754543,0.5501482,-0.03634621,-0.046236705,0.8329935,0.0,0.0,-0.5755195,1,0,0,0,0,0
9264928000,-0.11780461,0.00920108,1.9756241,0.027754543,0.5493311,-0.036241636,-0.0466158,0.8335159,0.0,0.0,-0.5763477,1,0,0,0,0,0
9265020000,-0.11674362,0.008591257,1.9775966,0.027754543,0.54854345,-0.035650425,-0.046376437,0.83407336,0.0,0.0,-0.5767746,1,0,0,0,0,0
9265132000,-0.11523869,0.0066557573,1.9799186,0.027754543,0.54765,-0.03437694,-0.046320014,0.83471686,0.0,0.0,-0.57570535,1,0,0,0,0,0
9265228000,-0.11772301,0.006829793,1.9817474,0.027754543,0.546839,-0.035086516,-0.047341246,0.83516157,0.0,0.0,-0.575374,1,0,0,0,0,0
9265320000,-0.118260376,0.006672425,1.983736,0.027754543,0.5460029,-0.035120394,-0.047643643,0.8356898,0.0,0.0,-0.5769695,1,0,0,0,0,0
9265432000,-0.11814079,0.005463811,1.986073,0.027754543,0.545059,-0.03452683,-0.047964193,0.83631206,0.0,0.0,-0.57629776,1,0,0,0,0,0
9265524000,-0.11749437,0.0048985975,1.9881085,0.027754543,0.544233,-0.034065645,-0.047882695,0.8368735,0.0,0.0,-0.57734984,1,0,0,0,0,0
9265636000,-0.11764399,0.0036939832,1.9904996,0.027754543,0.54326,-0.033544663,-0.04831338,0.8375018,0.0,0.0,-0.5768715,1,0,0,0,0,0
9265732000,-0.1170992,0.0033176858,1.9923942,0.027754543,0.5424849,-0.03319346,-0.048218966,0.8380235,0.0,0.0,-0.5770678,1,0,0,0,0,0
9265824000,-0.117396295,0.003199657,1.9944654,0.027754543,0.5416148,-0.03317448,-0.048409846,0.8385759,0.0,0.0,-0.57745266,1,0,0,0,0,0
9265936000,-0.11747694,0.0026830288,1.9969003,0.027754543,0.540605,-0.032920554,-0.048623715,0.8392248,0.0,0.0,-0.57557,1,0,0,0,0,0
9266028000,-0.119196445,0.0030226423,1.9990014,0.027754543,0.539686,-0.03347605,-0.049288608,0.83975536,0.0,0.0,-0.57502544,1,0,0,0,0,0
9266124000,-0.11886633,0.0017874725,2.0009503,0.027754543,0.53890425,-0.03282016,-0.049515393,0.8402698,0.0,0.0,-0.576944,1,0,0,0,0,0
9266236000,-0.11926152,0.0014115259,2.003437,0.027754543,0.53786206,-0.03270679,-0.049823444,0.8409235,0.0,0.0,-0.57724816,1,0,0,0,0,0
9266328000,-0.11739191,0.0013770995,2.0055997,0.027754543,0.5369836,-0.032136444,-0.04908136,0.8415503,0.0,0.0,-0.57801086,1,0,0,0,0,0
9266420000,-0.117304444,0.0015285498,2.007764,0.027754543,0.5360702,-0.032123633,-0.049038675,0.8421354,0.0,0.0,-0.5772095,1,0,0,0,0,0
9266532000,-0.11888658,0.0005468884,2.010314,0.027754543,0.5349953,-0.032070655,-0.050008923,0.84276366,0.0,0.0,-0.57821,1,0,0,0,0,0
9266628000,-0.11804211,0.0012458952,2.0123127,0.027754543,0.5341488,-0.03208986,-0.049498167,0.84332985,0.0,0.0,-0.5784731,1,0,0,0,0,0
9266740000,-0.11957467,0.00059147825,2.0148869,0.027754543,0.5330549,-0.03215844,-0.050360598,0.843968,0.0,0.0,-0.5768181,1,0,0,0,0,0
9266832000,-0.11912963,0.00051523093,2.017092,0.027754543,0.53213304,-0.031952288,-0.05022838,0.8445653,0.0,0.0,-0.5781208,1,0,0,0,0,0
9266924000,-0.1204045,-4.330336e-05,2.0193174,0.027754543,0.53118676,-0.031998962,-0.050950974,0.8451157,0.0,0.0,-0.5781089,1,0,0,0,0,0
9267036000,-0.118987314,-0.00041640308,2.0219064,0.027754543,0.5301242,-0.03139956,-0.050491896,0.84583265,0.0,0.0,-0.5780502,1,0,0,0,0,0
9267132000,-0.11955692,-0.0019678066,2.023952,0.027754543,0.52928895,-0.030842088,-0.05117554,0.84633505,0.0,0.0,-0.57753885,1,0,0,0,0,0
9267224000,-0.119852185,-0.0016181854,2.0261703,0.027754543,0.5283365,-0.031011371,-0.051242407,0.8469197,0.0,0.0,-0.5781654,1,0,0,0,0,0
9267336000,-0.11942321,-0.0009064567,2.0287752,0.027754543,0.5272217,-0.031133171,-0.050913353,0.84762955,0.0,0.0,-0.57920194,1,0,0,0,0,0
9267428000,-0.12164478,-0.0021847005,2.0310085,0.027754543,0.5262728,-0.031118762,-0.052226536,0.8481397,0.0,0.0,-0.5775084,1,0,0,0,0,0
9267524000,-0.1221321,-0.0032222099,2.0330787,0.027754543,0.5254136,-0.030752402,-0.052737992,0.84865385,0.0,0.0,-0.57769185,1,0,0,0,0,0
9267636000,-0.12020504,-0.004290387,2.035701,0.027754543,0.5243565,-0.029724328,-0.052239813,0.84937495,0.0,0.0,-0.5782836,1,0,0,0,0,0
9267728000,-0.12252641,-0.004251083,2.0379777,0.027754543,0.52335346,-0.030289022,-0.053249855,0.8499108,0.0,0.0,-0.5771052,1,0,0,0,0,0
9267820000,-0.12135673,-0.0042620446,2.0402415,0.027754543,0.522409,-0.029918546,-0.05278954,0.85053337,0.0,0.0,-0.57736456,1,0,0,0,0,0
9267932000,-0.12306956,-0.0041128267,2.042916,0.027754543,0.52124155,-0.030357853,-0.05351963,0.85118824,0.0,0.0,-0.57718796,1,0,0,0,0,0
9268028000,-0.122885354,-0.0050870073,2.0450094,0.027754543,0.5203781,-0.029838951,-0.05372627,0.85172164,0.0,0.0,-0.578132,1,0,0,0,0,0
9268140000,-0.12331714,-0.004252332,2.0477083,0.027754543,0.5192004,-0.030234324,-0.053733934,0.8524256,0.0,0.0,-0.5774362,1,0,0,0,0,0
9268232000,-0.123384014,-0.0049346252,2.0500112,0.027754543,0.5182351,-0.029898712,-0.05397394,0.8530095,0.0,0.0,-0.578366,1,0,0,0,0,0
9268324000,-0.122763805,-0.0038342085,2.0523348,0.027754543,0.51722467,-0.030145338,-0.05345947,0.8536462,0.0,0.0,-0.57878745,1,0,0,0,0,0
9268436000,-0.12280984,-0.0038885677,2.0550451,0.027754543,0.51606804,-0.030061517,-0.053533956,0.8543443,0.0,0.0,-0.5778713,1,0,0,0,0,0
9268532000,-0.12343817,-0.004160437,2.057195,0.027754543,0.51514703,-0.030049574,-0.053904817,0.85487705,0.0,0.0,-0.57962227,1,0,0,0,0,0
9268624000,-0.124253154,-0.005137192,2.0595207,0.027754543,0.5141657,-0.029778522,-0.054539293,0.85543686,0.0,0.0,-0.58006257,1,0,0,0,0,0
9268736000,-0.12383531,-0.005067726,2.0622566,0.027754543,0.5129994,-0.029626453,-0.0543833,0.8561521,0.0,0.0,-0.5787386,1,0,0,0,0,0
9268828000,-0.1241377,-0.005290854,2.0645914,0.027754543,0.5120009,-0.029544756,-0.054604474,0.8567383,0.0,0.0,-0.57821745,1,0,0,0,0,0
9268924000,-0.122869715,-0.005945126,2.0667536,0.027754543,0.5111097,-0.028881174,-0.05425997,0.8573148,0.0,0.0,-0.5794726,1,0,0,0,0,0
9269036000,-0.12398327,-0.005582424,2.0694864,0.027754543,0.5099124,-0.029246546,-0.05468467,0.85798806,0.0,0.0,-0.5777179,1,0,0,0,0,0
9269128000,-0.123542495,-0.004922233,2.0718436,0.027754543,0.5088901,-0.029353391,-0.05436198,0.85861164,0.0,0.0,-0.5785198,1,0,0,0,0,0
9269220000,-0.12497331,-0.0047486136,2.0741825,0.027754543,0.50786,-0.029727735,-0.054966874,0.85916996,0.0,0.0,-0.5775132,1,0,0,0,0,0
9269332000,-0.12393763,-0.0057654823,2.0769322,0.027754543,0.50672,-0.028952476,-0.0548199,0.85987866,0.0,0.0,-0.57688797,1,0,0,0,0,0
9269428000,-0.124764346,-0.005504346,2.079093,0.027754543,0.5057719,-0.029214669,-0.055140812,0.8604074,0.0,0.0,-0.57611364,1,0,0,0,0,0
9269520000,-0.12308116,-0.004625658,2.0815022,0.027754543,0.50473666,-0.029101808,-0.05422968,0.86107683,0.0,0.0,-0.5794223,1,0,0,0,0,0
9269632000,-0.12512463,-0.0025450091,2.0842571,0.027754543,0.50346494,-0.030438162,-0.054626595,0.8617497,0.0,0.0,-0.5776061,1,0,0,0,0,0
9269724000,-0.124583796,-0.003452858,2.086587,0.027754543,0.502493,-0.02984714,-0.05465684,0.86233544,0.0,0.0,-0.5772521,1,0,0,0,0,0
9269836000,-0.12628514,-0.002668557,2.089291,0.027754543,0.50128007,-0.030538118,-0.055234734,0.8629801,0.0,0.0,-0.57909995,1,0,0,0,0,0
9269932000,-0.12552164,-0.002581513,2.091401,0.027754543,0.5003786,-0.030326411,-0.054915518,0.863531,0.0,0.0,-0.57913154,1,0,0,0,0,0
9270024000,-0.12496626,-0.0026474623,2.0937066,0.027754543,0.49939296,-0.030095905,-0.05472694,0.86412144,0.0,0.0,-0.5793036,1,0,0,0,0,0
9270136000,-0.1250731,-0.0025830795,2.096398,0.027754543,0.49822626,-0.030076686,-0.054797556,0.86479086,0.0,0.0,-0.5793672,1,0,0,0,0,0
9270228000,-0.12543793,-0.0012470981,2.0987191,0.027754543,0.49718088,-0.030681873,-0.05465823,0.86537987,0.0,0.0,-0.5791414,1,0,0,0,0,0
9270324000,-0.1258094,-0.002140018,2.1008382,0.027754543,0.4962822,-0.03032951,-0.055073056,0.8658817,0.0,0.0,-0.5770527,1,0,0,0,0,0
9270436000,-0.12783481,-0.0031157136,2.103529,0.027754543,0.4951126,-0.030334022,-0.0562328,0.86647636,0.0,0.0,-0.57856166,1,0,0,0,0,0
9270528000,-0.12836924,-0.0014917854,2.105834,0.027754543,0.49406075,-0.031105291,-0.05609833,0.8670579,0.0,0.0,-0.57801753,1,0,0,0,0,0
9270620000,-0.1279583,-0.0009822948,2.1081688,0.027754543,0.49304047,-0.031159524,-0.055830766,0.86765385,0.0,0.0,-0.57865083,1,0,0,0,0,0
9270732000,-0.12729542,-0.002179805,2.1108878,0.027754543,0.4919037,-0.030400617,-0.055879727,0.86832255,0.0,0.0,-0.5778124,1,0,0,0,0,0
9270828000,-0.1287901,-0.0017474372,2.1130323,0.027754543,0.49093747,-0.030895436,-0.0564555,0.86881447,0.0,0.0,-0.57793665,1,0,0,0,0,0
9270940000,-0.1272166,-0.0008655325,2.1157646,0.027754543,0.48974988,-0.0308164,-0.05559764,0.8695426,0.0,0.0,-0.57998866,1,0,0,0,0,0
9271032000,-0.12721997,-0.00035435986,2.118132,0.027754543,0.48870608,-0.030973786,-0.055510648,0.87012964,0.0,0.0,-0.57807267,1,0,0,0,0,0
9271124000,-0.12855457,-0.0011411863,2.1204882,0.027754543,0.48768193,-0.030891247,-0.056319937,0.87065506,0.0,0.0,-0.5778718,1,0,0,0,0,0
9271236000,-0.12750465,0.0010253692,2.1232324,0.027754543,0.4864427,-0.0315025,-0.05537788,0.8713864,0.0,0.0,-0.5778643,1,0,0,0,0,0
9271332000,-0.12783585,-0.00025183568,2.1253896,0.027754543,0.48553303,-0.030966362,-0.05586628,0.8718817,0.0,0.0,-0.57824147,1,0,0,0,0,0
9271424000,-0.12981156,-0.0012551317,2.1277618,0.027754543,0.48449612,-0.030941028,-0.057007823,0.8723854,0.0,0.0,-0.57704437,1,0,0,0,0,0
9271536000,-0.13000771,0.0003424915,2.1305072,0.027754543,0.4832498,-0.031607565,-0.056749843,0.87306935,0.0,0.0,-0.57845235,1,0,0,0,0,0
9271628000,-0.12892497,0.0007889257,2.1328566,0.027754543,0.48222834,-0.03147482,-0.056206305,0.8736739,0.0,0.0,-0.5789858,1,0,0,0,0,0
9271724000,-0.12889843,-0.0003239678,2.1350174,0.027754543,0.48131594,-0.030921262,-0.056496512,0.8741779,0.0,0.0,-0.57821894,1,0,0,0,0,0
9271836000,-0.1294313,-0.0017518464,2.1378236,0.027754543,0.48012096,-0.030345283,-0.05711566,0.87481475,0.0,0.0,-0.5782472,1,0,0,0,0,0
9271928000,-0.12872343,-0.003181262,2.1402168,0.027754543,0.47912434,-0.029481642,-0.05718441,0.875386,0.0,0.0,-0.57935226,1,0,0,0,0,0
9272020000,-0.12938073,-0.0014448793,2.142623,0.027754543,0.47801238,-0.030330498,-0.0570928,0.87597066,0.0,0.0,-0.57914305,1,0,0,0,0,0
9272132000,-0.1300572,-0.0020196177,2.1454277,0.027754543,0.47678947,-0.030159738,-0.057568766,0.87661165,0.0,0.0,-0.5792861,1,0,0,0,0,0
9272228000,-0.1300652,-0.0030975551,2.1476483,0.027754543,0.47584626,-0.029624913,-0.057862103,0.87712294,0.0,0.0,-0.5784238,1,0,0,0,0,0
9272340000,-0.13054407,-0.002722525,2.1504688,0.027754543,0.47459114,-0.02982153,-0.058025032,0.8777853,0.0,0.0,-0.57757354,1,0,0,0,0,0
9272432000,-0.13040225,-0.00227873,2.1529057,0.027754543,0.4735107,-0.029912157,-0.057893995,0.87837416,0.0,0.0,-0.57909787,1,0,0,0,0,0
9272524000,-0.131045,-0.0011633172,2.1553347,0.027754543,0.4724021,-0.03048387,-0.05794934,0.8789476,0.0,0.0,-0.57830364,1,0,0,0,0,0
9272636000,-0.12969348,-0.0015145602,2.1581955,0.027754543,0.47117475,-0.029928073,-0.057481203,0.8796559,0.0,0.0,-0.5784417,1,0,0,0,0,0
9272732000,-0.1306395,-0.0014064318,2.1604302,0.027754543,0.47017425,-0.030133817,-0.057905514,0.88015634,0.0,0.0,-0.57831615,1,0,0,0,0,0
9272824000,-0.13107763,-0.0018808672,2.162883,0.027754543,0.4691015,-0.029956609,-0.05824662,0.88071203,0.0,0.0,-0.5785238,1,0,0,0,0,0
9272936000,-0.13105708,-0.0010143335,2.1657236,0.027754543,0.46782562,-0.030250937,-0.05807739,0.8813916,0.0,0.0,-0.57820916,1,0,0,0,0,0
9273028000,-0.13118152,-0.0007843563,2.1681604,0.027754543,0.46674275,-0.03031061,-0.05811541,0.88196087,0.0,0.0,-0.57832795,1,0,0,0,0,0
9273124000,-0.13232486,-0.0018386733,2.1703868,0.027754543,0.465774,-0.03004695,-0.058899086,0.88242996,0.0,0.0,-0.5772237,1,0,0,0,0,0
9273236000,-0.13306063,-0.0004897494,2.1732533,0.027754543,0.46445826,-0.030729018,-0.058953736,0.8830961,0.0,0.0,-0.5774847,1,0,0,0,0,0
9273328000,-0.1320753,-0.0021014414,2.1757057,0.027754543,0.463437,-0.029716272,-0.0589294,0.8836687,0.0,0.0,-0.57775176,1,0,0,0,0,0
9273440000,-0.13129511,-0.0025940686,2.178621,0.027754543,0.46217406,-0.029232204,-0.058741473,0.8843586,0.0,0.0,-0.5783772,1,0,0,0,0,0
9273532000,-0.13188577,-0.0013424702,2.1811128,0.027754543,0.46102697,-0.029848991,-0.058750737,0.88493586,0.0,0.0,-0.57775277,1,0,0,0,0,0
9273628000,-0.13075429,-0.0016267177,2.1834188,0.027754543,0.46003133,-0.029395124,-0.058349527,0.8854956,0.0,0.0,-0.5782343,1,0,0,0,0,0
9273740000,-0.13154541,-0.0023550105,2.186331,0.027754543,0.4587509,-0.029168876,-0.0589098,0.88613003,0.0,0.0,-0.5787086,1,0,0,0,0,0
9273832000,-0.17183425,-0.04044576,2.1958606,0.027754543,0.4552118,-0.021137828,-0.08555517,0.8860111,0.0,0.0,-0.5258666,1,0,0,0,0,0
9273924000,-0.15825228,-0.03350418,2.1982007,0.027754543,0.4540919,-0.021036832,-0.07799,0.8872855,0.0,0.0,-0.5731079,1,0,0,0,0,0
9274036000,-0.14967908,-0.02522357,2.2008948,0.027754543,0.45273334,-0.022672223,-0.072344646,0.88841695,0.0,0.0,-0.57301533,1,0,0,0,0,0
9274132000,-0.15163457,-0.023632588,2.2029836,0.027754543,0.45173362,-0.023746125,-0.07287931,0.888854,0.0,0.0,-0.5693664,1,0,0,0,0,0
9274224000,-0.15204172,-0.0226286,2.2052197,0.027754543,0.4507033,-0.024203237,-0.072861396,0.889366,0.0,0.0,-0.57565284,1,0,0,0,0,0
9274336000,-0.1551281,-0.021219188,2.2078073,0.027754543,0.4494692,-0.02543029,-0.07395023,0.8898663,0.0,0.0,-0.57461727,1,0,0,0,0,0
9274428000,-0.15566686,-0.020117536,2.2100022,0.027754543,0.44844985,-0.02596075,-0.07397169,0.89036334,0.0,0.0,-0.57682717,1,0,0,0,0,0
9274520000,-0.1680924,-0.018515611,2.2167494,0.027754543,0.44521847,-0.029192546,-0.079242915,0.8914308,0.0,0.0,-0.57002646,1,0,0,0,0,0
9274636000,-0.16188851,-0.019869966,2.219357,0.027754543,0.44419008,-0.027106958,-0.0768134,0.892222,0.0,0.0,-0.5685444,1,0,0,0,0,0
9274728000,-0.15558675,-0.018766223,2.2216034,0.027754543,0.4432346,-0.026117278,-0.07378669,0.89298177,0.0,0.0,-0.58367974,1,0,0,0,0,0
9274824000,-0.15756145,-0.008718806,2.2280214,0.027754543,0.44000128,-0.030810896,-0.07254675,0.8945314,0.0,0.0,-0.5333511,1,0,0,0,0,0
9274936000,-0.15569238,-0.0010631229,2.2306306,0.027754543,0.43859908,-0.033733595,-0.07007227,0.89531153,0.0,0.0,-0.58093023,1,0,0,0,0,0
9275036000,-0.15935121,-0.031922508,2.2364397,0.027754543,0.4369837,-0.020491406,-0.0785264,0.89580077,0.0,0.0,-0.545462,1,0,0,0,0,0
9275132000,-0.16749732,-0.007875227,2.238398,0.027754543,0.4351667,-0.032974754,-0.07697667,0.896447,0.0,0.0,-0.5358381,1,0,0,0,0,0
9275224000,-0.15366963,0.0030728483,2.2405145,0.027754543,0.4340594,-0.034803864,-0.06843248,0.89760685,0.0,0.0,-0.5897746,1,0,0,0,0,0
9275336000,-0.15094152,0.0005111097,2.2428954,0.027754543,0.4331251,-0.03298133,-0.06780359,0.8981746,0.0,0.0,-0.5825385,1,0,0,0,0,0
9275428000,-0.15447411,-0.0047170226,2.24498,0.027754543,0.43231037,-0.03132513,-0.07055452,0.8984145,0.0,0.0,-0.5801915,1,0,0,0,0,0
9275524000,-0.15576248,-0.007336428,2.2468638,0.027754543,0.43153396,-0.030359242,-0.07172757,0.89872795,0.0,0.0,-0.58216214,1,0,0,0,0,0
9275636000,-0.15328722,-0.008232176,2.2493281,0.027754543,0.43049362,-0.0293352,-0.07084447,0.89933074,0.0,0.0,-0.5822892,1,0,0,0,0,0
9275728000,-0.15175858,-0.008078135,2.2514753,0.027754543,0.42954484,-0.029000148,-0.07015514,0.8998491,0.0,0.0,-0.5832731,1,0,0,0,0,0
9275840000,-0.15234116,-0.0068848915,2.2540288,0.027754543,0.42834723,-0.029572675,-0.0701991,0.9003978,0.0,0.0,-0.58183557,1,0,0,0,0,0
9275932000,-0.15104179,-0.007781688,2.2562277,0.027754543,0.4274059,-0.028813753,-0.0698377,0.9008977,0.0,0.0,-0.5831874,1,0,0,0,0,0
9276028000,-0.15125759,-0.0061104754,2.2582898,0.027754543,0.42641783,-0.0295411,-0.069608666,0.90136,0.0,0.0,-0.5833561,1,0,0,0,0,0
9276140000,-0.14952648,-0.0051200837,2.2609496,0.027754543,0.42521122,-0.0295272,-0.06865683,0.90200317,0.0,0.0,-0.58237714,1,0,0,0,0,0
9276232000,-0.14796908,-0.0034718434,2.2632725,0.027754543,0.42413175,-0.029861068,-0.06763898,0.90257716,0.0,0.0,-0.58289313,1,0,0,0,0,0
9276324000,-0.1744767,-0.0064813523,2.2726316,0.027754543,0.4195924,-0.033746894,-0.080391124,0.9035157,0.0,0.0,-0.53015846,1,0,0,0,0,0
9276436000,-0.14253575,-0.008814392,2.2753303,0.027754543,0.41893026,-0.025896534,-0.06647641,0.9052114,0.0,0.0,-0.6039025,1,0,0,0,0,0
9276532000,-0.14773,-0.0093926685,2.2799306,0.027754543,0.41679758,-0.026564037,-0.06900935,0.90598667,0.0,0.0,-0.5213111,1,0,0,0,0,0
9276624000,-0.14404197,-0.012732449,2.2823255,0.027754543,0.41586593,-0.024200313,-0.06806257,0.90655243,0.0,0.0,-0.58146435,1,0,0,0,0,0
9276736000,-0.13849792,-0.013850658,2.284934,0.027754543,0.41478208,-0.02245444,-0.065810755,0.90725994,0.0,0.0,-0.59510106,1,0,0,0,0,0
9276828000,-0.16785502,0.00016770026,2.292423,0.027754543,0.41048613,-0.034608867,-0.076351404,0.9080054,0.0,0.0,-0.50385475,1,0,0,0,0,0
9276924000,-0.13869202,-0.009580401,2.2942808,0.027754543,0.41040573,-0.024128493,-0.065128386,0.90925425,0.0,0.0,-0.61359435,1,0,0,0,0,0
9277036000,-0.13649887,-0.019012354,2.2965946,0.027754543,0.40965915,-0.019312123,-0.06608572,0.9096368,0.0,0.0,-0.58486253,1,0,0,0,0,0
9277128000,-0.14202908,-0.024863504,2.2983785,0.027754543,0.4089692,-0.01772017,-0.06981097,0.9097014,0.0,0.0,-0.58617544,1,0,0,0,0,0
9277240000,-0.14368042,-0.024922427,2.300452,0.027754543,0.4080129,-0.01795784,-0.07059272,0.91006577,0.0,0.0,-0.5907591,1,0,0,0,0,0
9277332000,-0.1440427,-0.028418679,2.3021274,0.027754543,0.4073525,-0.016379679,-0.07148159,0.91032195,0.0,0.0,-0.58989304,1,0,0,0,0,0
9277428000,-0.14432204,-0.030526832,2.3037152,0.027754543,0.40669054,-0.015418952,-0.07204837,0.91059,0.0,0.0,-0.5881019,1,0,0,0,0,0
9277540000,-0.1435749,-0.03476069,2.3056107,0.027754543,0.40595782,-0.013268617,-0.07257737,0.9109087,0.0,0.0,-0.58795357,1,0,0,0,0,0
9277632000,-0.14480294,-0.035323374,2.307308,0.027754543,0.40519306,-0.013199162,-0.07326145,0.91119546,0.0,0.0,-0.5866529,1,0,0,0,0,0
9277724000,-0.14341941,-0.036675442,2.3089278,0.027754543,0.4045033,-0.012243084,-0.07291339,0.9115431,0.0,0.0,-0.5879312,1,0,0,0,0,0
9277836000,-0.13959488,-0.0031076598,2.318545,0.027754543,0.39913127,-0.026476089,-0.06453824,0.9142363,0.0,0.0,-0.53678644,1,0,0,0,0,0
9277932000,-0.12191337,-0.010414894,2.3201613,0.027754543,0.39880943,-0.019557025,-0.057927173,0.9149934,0.0,0.0,-0.629778,1,0,0,0,0,0
9278024000,-0.12975103,-0.021423763,2.3218584,0.027754543,0.39826325,-0.016028667,-0.06371648,0.91491514,0.0,0.0,-0.5836063,1,0,0,0,0,0
9278136000,-0.13832302,-0.03437729,2.323524,0.027754543,0.39780387,-0.011748979,-0.07021576,0.9147042,0.0,0.0,-0.589003,1,0,0,0,0,0
9278228000,-0.13922796,-0.03753922,2.3249948,0.027754543,0.39721537,-0.010428984,-0.071262665,0.91489494,0.0,0.0,-0.5954017,1,0,0,0,0,0
9278324000,-0.14195979,-0.038383957,2.3261926,0.027754543,0.3966771,-0.010541181,-0.07268531,0.9150153,0.0,0.0,-0.59098774,1,0,0,0,0,0
9278436000,-0.14155455,-0.03895591,2.3278534,0.027754543,0.3959357,-0.010138515,-0.07262108,0.915346,0.0,0.0,-0.59032875,1,0,0,0,0,0
9278528000,-0.1435518,-0.04202116,2.329163,0.027754543,0.39541468,-0.009080877,-0.07414388,0.9154602,0.0,0.0,-0.5893167,1,0,0,0,0,0
9278620000,-0.16454981,0.037157282,2.338611,0.027754543,0.38799658,-0.04915292,-0.06839848,0.91780406,0.0,0.0,-0.39924705,1,0,0,0,0,0
9278732000,-0.14170766,-0.0058522434,2.340255,0.027754543,0.38924477,-0.024924576,-0.0663258,0.91840523,0.0,0.0,-0.5874929,1,0,0,0,0,0
