timestamp,roll,pitch,yaw,thrust_body[0],thrust_body[1],thrust_body[2]
9232328000,0.03279294,0.0075591356,-1.1755898,0.0,0.0,0.0
9232344000,0.032532044,0.007767669,-1.1756213,0.0,0.0,0.0
9232364000,0.032586217,0.008538155,-1.175666,0.0,0.0,0.0
9232388000,0.032179236,0.008329043,-1.1755576,0.0,0.0,0.0
9232408000,0.032409407,0.008606414,-1.1755899,0.0,0.0,0.0
9232428000,0.032545216,0.008229892,-1.1755693,0.0,0.0,0.0
9232444000,0.03305911,0.008062642,-1.1756788,0.0,0.0,0.0
9232464000,0.032974534,0.008105781,-1.1753776,0.0,0.0,0.0
9232488000,0.033326074,0.008025564,-1.1757865,0.0,0.0,0.0
9232508000,0.03333634,0.0077098897,-1.1758552,0.0,0.0,0.0
9232520000,0.033674326,0.0077092736,-1.175808,0.0,0.0,0.0
9232548000,0.03360814,0.007572607,-1.1756479,0.0,0.0,0.0
9232568000,0.033487182,0.008052323,-1.1755133,0.0,0.0,0.0
9232584000,0.03315502,0.008334942,-1.1758158,0.0,0.0,0.0
9232608000,0.033476286,0.009215283,-1.1759707,0.0,0.0,0.0
9232628000,0.033329677,0.009588674,-1.1757027,0.0,0.0,0.0
9232648000,0.032929838,0.009309802,-1.1754787,0.0,0.0,0.0
9232664000,0.033134654,0.009400567,-1.1754174,0.0,0.0,0.0
9232680000,0.033266686,0.00920348,-1.1753381,0.0,0.0,0.0
9232700000,0.033161286,0.009283839,-1.1752158,0.0,0.0,0.0
9232728000,0.032499984,0.009352722,-1.1747053,0.0,0.0,0.0
9232748000,0.032328054,0.009147453,-1.1746638,0.0,0.0,0.0
9232768000,0.03268058,0.008989465,-1.174654,0.0,0.0,0.0
9232788000,0.03250901,0.008943421,-1.174572,0.0,0.0,0.0
9232808000,0.03252592,0.008811499,-1.1746975,0.0,0.0,0.0
9232828000,0.032540105,0.009143376,-1.1748635,0.0,0.0,0.0
9232848000,0.032545757,0.008739511,-1.174834,0.0,0.0,0.0
9232868000,0.03211797,0.008311414,-1.1749681,0.0,0.0,0.0
9232888000,0.031687163,0.008253541,-1.1751605,0.0,0.0,0.0
9232908000,0.031819217,0.008405334,-1.1752357,0.0,0.0,0.0
9232924000,0.031788424,0.008660145,-1.1752938,0.0,0.0,0.0
9232948000,0.0320277,0.008832249,-1.1749997,0.0,0.0,0.0
9232964000,0.032131296,0.008925455,-1.1749883,0.0,0.0,0.0
9232984000,0.032435838,0.009264514,-1.1749773,0.0,0.0,0.0
9233008000,0.0326313,0.009449714,-1.1747906,0.0,0.0,0.0
9233028000,0.032115407,0.009749023,-1.1747714,0.0,0.0,0.0
9233048000,0.031851877,0.0097443815,-1.1747546,0.0,0.0,0.0
9233064000,0.032202363,0.009442297,-1.1746799,0.0,0.0,0.0
9233088000,0.03235709,0.009527633,-1.1747937,0.0,0.0,0.0
9233108000,0.0326093,0.009995488,-1.1748852,0.0,0.0,0.0
9233124000,0.032727845,0.010005224,-1.1749917,0.0,0.0,0.0
9233144000,0.032871023,0.010058716,-1.1751163,0.0,0.0,0.0
9233164000,0.033010032,0.0099504385,-1.1752218,0.0,0.0,0.0
9233188000,0.033357456,0.010114757,-1.1752491,0.0,0.0,0.0
9233204000,0.033596296,0.010268166,-1.175184,0.0,0.0,0.0
9233224000,0.03284981,0.010150865,-1.1751814,0.0,0.0,0.0
9233244000,0.032809332,0.010159427,-1.1750056,0.0,0.0,0.0
9233268000,0.03258669,0.010241197,-1.175001,0.0,0.0,0.0
9233284000,0.03196448,0.010594327,-1.1749877,0.0,0.0,0.0
9233308000,0.03163788,0.010600291,-1.1750011,0.0,0.0,0.0
9233328000,0.031767454,0.0106733,-1.1749959,0.0,0.0,0.0
9233348000,-0.058321923,-0.67184633,-0.003148377,0.0,0.0,-0.120787546
9233368000,-0.03408236,-0.47810572,-0.0011025667,0.0,0.0,-0.12040134
9233384000,0.0030893795,-0.36539158,-4.9710274e-05,0.0,0.0,-0.120233886
9233408000,0.06524791,-0.2912013,0.00099653,0.0,0.0,-0.12015095
9233428000,0.2029734,-0.2813967,0.0026489496,0.0,0.0,-0.120187774
9233448000,0.20256539,-0.28073847,0.0027721524,0.0,0.0,-0.120187774
9233468000,0.30222243,-0.34337342,0.0044344068,0.0,0.0,-0.12250381
9233488000,0.31081867,-0.33383843,0.004314244,0.0,0.0,-0.13639931
9233508000,0.29013887,-0.3213243,0.004193008,0.0,0.0,-0.1506858
9233528000,0.27370805,-0.28196427,0.0038291216,0.0,0.0,-0.1623975
9233544000,0.25789246,-0.24356,0.0033686757,0.0,0.0,-0.17628583
9233568000,0.22592294,-0.22457989,0.0028844476,0.0,0.0,-0.19073154
9233588000,0.22543174,-0.20926684,0.0026205182,0.0,0.0,-0.20172365
9233604000,0.2050374,-0.19372448,0.002269864,0.0,0.0,-0.21672978
9233620000,0.1939759,-0.1809228,0.0018907785,0.0,0.0,-0.23209538
9233644000,0.18255197,-0.17324509,0.0017795563,0.0,0.0,-0.24436888
9233664000,0.17825016,-0.17376894,0.0017516613,0.0,0.0,-0.26003373
9233688000,0.16247657,-0.1620704,0.0015025735,0.0,0.0,-0.27518895
9233708000,0.1466594,-0.12317932,0.0013679266,0.0,0.0,-0.30331105
9233728000,0.13931221,-0.114146486,0.0011633635,0.0,0.0,-0.3191562
9233748000,0.117854275,-0.1085694,0.00092071295,0.0,0.0,-0.33093035
9233768000,0.11237264,-0.10832658,0.0008588433,0.0,0.0,-0.34651577
9233788000,0.11322943,-0.11257143,0.001049459,0.0,0.0,-0.3610795
9233804000,0.109729216,-0.10476127,0.0011562109,0.0,0.0,-0.3727465
9233828000,0.10276296,-0.097835064,0.001214683,0.0,0.0,-0.38753334
9233848000,0.10391591,-0.092833154,0.0011293888,0.0,0.0,-0.4026226
9233868000,0.09561179,-0.09850602,0.001093626,0.0,0.0,-0.41514948
9233888000,0.097425714,-0.09492074,0.0010761023,0.0,0.0,-0.430595
9233908000,0.08976242,-0.08773488,0.0011374354,0.0,0.0,-0.44544742
9233928000,0.09024143,-0.083661586,0.0011327863,0.0,0.0,-0.45791367
9233944000,0.08737477,-0.08491768,0.0012815595,0.0,0.0,-0.47325313
9233964000,0.081246,-0.08866158,0.0014233589,0.0,0.0,-0.4886168
9233984000,0.07275302,-0.08624178,0.0014514327,0.0,0.0,-0.5013212
9234008000,0.07854286,-0.08817094,0.0015272498,0.0,0.0,-0.51637536
9234028000,0.07605312,-0.08178819,0.001511693,0.0,0.0,-0.54472256
9234044000,0.076143265,-0.081275545,0.0016765594,0.0,0.0,-0.54472256
9234064000,0.076156944,-0.07774756,0.0018939972,0.0,0.0,-0.560631
9234088000,0.07061274,-0.07249131,0.0018929243,0.0,0.0,-0.5890768
9234108000,0.06618052,-0.06676252,0.0019721389,0.0,0.0,-0.60257065
9234124000,0.056217417,-0.059318736,0.002053678,0.0,0.0,-0.61315817
9234140000,0.040892296,-0.045683373,0.0021355748,0.0,0.0,-0.61211455
9234164000,0.023681955,-0.03082512,0.00221318,0.0,0.0,-0.615588
9234188000,0.006397373,-0.016340721,0.0023494363,0.0,0.0,-0.61696357
9234208000,-0.008897175,-0.003749381,0.002154708,0.0,0.0,-0.6088779
9234228000,-0.022092355,0.012592491,0.0020774603,0.0,0.0,-0.6103981
9234244000,-0.03175211,0.028417736,0.0017259121,0.0,0.0,-0.61148554
9234268000,-0.052811638,0.050991107,0.0015526414,0.0,0.0,-0.6034116
9234288000,-0.07436831,0.06368018,0.0013360977,0.0,0.0,-0.60946274
9234300000,-0.07588835,0.06535994,0.0010072589,0.0,0.0,-0.60946274
9234328000,-0.08813964,0.08566086,0.0009886622,0.0,0.0,-0.60833776
9234348000,-0.09113242,0.090818,0.0008087754,0.0,0.0,-0.6122731
9234364000,-0.09636168,0.091695175,0.00086832047,0.0,0.0,-0.60815245
9234384000,-0.089778624,0.08595194,0.000731349,0.0,0.0,-0.61233455
9234408000,-0.08698362,0.0837604,0.0007365346,0.0,0.0,-0.616495
9234428000,-0.08475717,0.08856188,0.0005697012,0.0,0.0,-0.6116886
9234448000,-0.08079818,0.083929285,0.0005983114,0.0,0.0,-0.61438763
9234468000,-0.075901926,0.081030786,0.0006583929,0.0,0.0,-0.61734587
9234488000,-0.071823135,0.07834271,0.00057041645,0.0,0.0,-0.6115769
9234508000,-0.06983235,0.07432189,0.00053697824,0.0,0.0,-0.614151
9234528000,-0.06721159,0.069004625,0.00050729513,0.0,0.0,-0.6170777
9234544000,-0.065078005,0.059712075,0.0005308986,0.0,0.0,-0.6114668
9234564000,-0.060402684,0.053411044,0.00029361248,0.0,0.0,-0.6144901
9234588000,-0.05769399,0.051287934,0.0002129674,0.0,0.0,-0.6125823
9234604000,-0.051959205,0.04612484,0.00018972158,0.0,0.0,-0.6163787
9234628000,-0.046084292,0.048786275,0.000100672245,0.0,0.0,-0.6203836
9234644000,-0.049530745,0.048662193,3.451109e-05,0.0,0.0,-0.61524725
9234664000,-0.049012057,0.04452931,-6.580353e-05,0.0,0.0,-0.6181531
9234688000,-0.044683114,0.043735098,9.530783e-05,0.0,0.0,-0.61527413
9234704000,-0.042305175,0.044339478,0.00010281801,0.0,0.0,-0.619286
9234724000,-0.04140722,0.042773843,0.00028789043,0.0,0.0,-0.62311935
9234748000,-0.04115124,0.039616525,6.097555e-05,0.0,0.0,-0.6178627
9234768000,-0.04019206,0.037526045,0.00021386147,0.0,0.0,-0.62082213
9234788000,-0.03628793,0.034580424,0.00016736984,0.0,0.0,-0.62313336
9234808000,-0.035556857,0.03449949,1.7523766e-05,0.0,0.0,-0.61752546
9234828000,-0.032189224,0.034603797,0.000111579895,0.0,0.0,-0.6202908
9234840000,-0.033384167,0.02967438,0.00014823675,0.0,0.0,-0.6234488
9234860000,-0.033872012,0.02750402,0.00016468763,0.0,0.0,-0.61778617
9234888000,-0.033977233,0.029504852,-0.00014895201,0.0,0.0,-0.6207638
9234908000,-0.0324565,0.030247323,-9.852648e-05,0.0,0.0,-0.6187814
9234924000,-0.034266453,0.030985828,-9.262562e-05,0.0,0.0,-0.6218842
9234948000,-0.031021103,0.026181003,9.4771385e-06,0.0,0.0,-0.62509245
9234968000,-0.028818958,0.025270563,-0.00014555454,0.0,0.0,-0.6201885
9234988000,-0.028919503,0.023982743,-0.00025624037,0.0,0.0,-0.6233657
9235008000,-0.024257211,0.026070625,-0.00030595064,0.0,0.0,-0.6264421
9235028000,-0.026253479,0.023332827,-0.0004273653,0.0,0.0,-0.62138575
9235044000,-0.02549617,0.025696635,-0.00041484833,0.0,0.0,-0.6245736
9235068000,-0.024483958,0.025471933,-0.00066679716,0.0,0.0,-0.62782985
9235088000,-0.030909691,0.024129761,-0.0007470846,0.0,0.0,-0.6216137
9235108000,-0.028858194,0.027578384,-0.00062173605,0.0,0.0,-0.6245287
9235120000,-0.027590811,0.028752582,-0.0004760027,0.0,0.0,-0.6281145
9235144000,-0.024027042,0.029531032,-0.0003939271,0.0,0.0,-0.6229839
9235168000,-0.029507898,0.035130307,-0.00015896559,0.0,0.0,-0.62966394
9235188000,-0.032549925,0.031043937,-9.959936e-05,0.0,0.0,-0.6247711
9235208000,-0.03286147,0.031992715,-0.00022083521,0.0,0.0,-0.6282349
9235228000,-0.0308754,0.03032743,-0.00044220686,0.0,0.0,-0.63112533
9235244000,-0.027561776,0.026776062,-0.00067538023,0.0,0.0,-0.62552613
9235264000,-0.028383063,0.02407457,-0.00082165,0.0,0.0,-0.62874895
9235288000,-0.029223591,0.02249148,-0.00077694654,0.0,0.0,-0.63272756
9235304000,-0.028247643,0.025249794,-0.0006778836,0.0,0.0,-0.62760174
9235324000,-0.026346195,0.025922839,-0.00071543455,0.0,0.0,-0.63015664
9235344000,-0.021175085,0.026398152,-0.0006542802,0.0,0.0,-0.63283205
9235368000,-0.014659566,0.02510945,-0.00050479174,0.0,0.0,-0.6277031
9235388000,-0.0103076305,0.021414837,-0.00037908554,0.0,0.0,-0.6311765
9235404000,-0.015417792,0.015926637,-0.0002667904,0.0,0.0,-0.6345271
9235428000,-0.017118564,0.014973883,-6.222725e-05,0.0,0.0,-0.62867594
9235448000,-0.017475987,0.009973178,-0.00011104345,0.0,0.0,-0.6348195
9235464000,-0.017405769,0.010211369,-0.00037801266,0.0,0.0,-0.6348195
9235484000,-0.019512162,0.018419184,-0.00039714575,0.0,0.0,-0.63208306
9235508000,-0.018825604,0.02123681,-0.0005543232,0.0,0.0,-0.63501555
9235528000,-0.01691961,0.021101415,-0.0006941557,0.0,0.0,-0.62940156
9235544000,-0.017183008,0.022126112,-0.00086402893,0.0,0.0,-0.6329405
9235564000,-0.015160171,0.023366304,-0.0007510185,0.0,0.0,-0.63656497
9235588000,-0.01327195,0.023572275,-0.00044703484,0.0,0.0,-0.63187814
9235604000,-0.011793318,0.025023501,-0.0005162358,0.0,0.0,-0.63569814
9235624000,-0.008453423,0.02321745,-0.0006811023,0.0,0.0,-0.6393753
9235644000,-0.011371864,0.018050406,-0.0007250905,0.0,0.0,-0.63352484
9235664000,-0.015243582,0.017475028,-0.0007150769,0.0,0.0,-0.6366779
9235688000,-0.011986667,0.014905721,-0.0004937053,0.0,0.0,-0.63999814
9235708000,-0.016495252,0.012577152,-0.0005005002,0.0,0.0,-0.6371405
9235728000,-0.016244989,0.01203068,-0.00039231777,0.0,0.0,-0.6371405
9235748000,-0.01490166,0.0061705243,-0.00041681528,0.0,0.0,-0.6348406
9235768000,-0.018600807,0.0048101144,-0.00025230646,0.0,0.0,-0.638424
9235784000,-0.016211402,0.0070481924,0.0033100247,0.0,0.0,-0.64164996
9235808000,-0.013713777,0.009609275,0.003026247,0.0,0.0,-0.6368985
9235824000,-0.012921606,0.010084868,0.002895534,0.0,0.0,-0.6398408
9235844000,-0.012993304,0.01425878,0.0028415322,0.0,0.0,-0.6427523
9235868000,-0.012537081,0.011633274,0.0028358102,0.0,0.0,-0.63685626
9235884000,-0.019269817,0.010950761,0.0027444363,0.0,0.0,-0.6397466
9235904000,-0.013744335,0.008729404,0.0025811791,0.0,0.0,-0.6430628
9235928000,-0.016235225,0.005857692,0.0020840764,0.0,0.0,-0.6376396
9235944000,-0.016568322,0.007333066,0.0016295314,0.0,0.0,-0.6411087
9235964000,-0.012694016,0.006378362,0.001478076,0.0,0.0,-0.64448816
9235984000,-0.013270439,0.008901535,0.00095003843,0.0,0.0,-0.6393643
9236004000,-0.0074048457,0.010455463,0.00059366226,0.0,0.0,-0.6428497
9236028000,-0.010772177,0.015604234,0.0005491376,0.0,0.0,-0.59138644
9236044000,-0.011627077,0.021755274,0.00043934584,0.0,0.0,-0.57384634
9236064000,-0.011430803,0.021739198,0.00013750792,0.0,0.0,-0.57384634
9236088000,-0.017989615,0.022697547,-0.00020581484,0.0,0.0,-0.5347572
9236108000,-0.017634941,0.01894711,-0.0004361272,0.0,0.0,-0.5322079
9236128000,-0.016662229,0.016659597,-0.00040751696,0.0,0.0,-0.5334271
9236144000,-0.020870082,0.010564678,-0.00066429377,0.0,0.0,-0.5305585
9236164000,-0.021023864,0.009518176,-0.0007494092,0.0,0.0,-0.5395569
9236184000,-0.020139515,0.011189245,-0.00086832047,0.0,0.0,-0.54933965
9236208000,-0.01805723,0.0037417444,-0.00089514256,0.0,0.0,-0.55270123
9236228000,-0.012742463,0.0045348126,-0.0010163784,0.0,0.0,-0.5622089
9236244000,-0.01464368,0.00046264054,-0.0012007356,0.0,0.0,-0.57041806
9236264000,-0.009232856,-0.0036011073,-0.0013507605,0.0,0.0,-0.5682148
9236280000,-0.00724033,0.0065978193,-0.001382947,0.0,0.0,-0.57283026
9236308000,-0.016222887,0.008898671,-0.0012086034,0.0,0.0,-0.5679614
9236328000,-0.009062486,0.008715811,-0.0013389587,0.0,0.0,-0.5700441
9236344000,-0.009460395,0.008635676,-0.0014644861,0.0,0.0,-0.5717451
9236368000,-0.0051141214,0.006075004,-0.0015887618,0.0,0.0,-0.5627351
9236388000,-0.0011816914,0.008927881,-0.0018584132,0.0,0.0,-0.56583166
9236404000,-0.0012189879,0.01146097,-0.0016762018,0.0,0.0,-0.569136
9236428000,-0.0048447275,0.010888196,-0.0015574694,0.0,0.0,-0.5625229
9236444000,-0.0070239734,0.014264472,-0.0012667179,0.0,0.0,-0.5660797
9236468000,-0.0054360162,0.011565659,-0.0013995767,0.0,0.0,-0.5694777
9236488000,-0.0033975653,0.021028152,-0.0014394522,0.0,0.0,-0.563421
9236508000,-0.0031099063,0.016798615,-0.001508832,0.0,0.0,-0.5670851
9236524000,-0.002876727,0.011969617,-0.0014995337,0.0,0.0,-0.5703908
9236544000,-0.011870915,0.00768267,-0.0014880896,0.0,0.0,-0.56391567
9236564000,-0.011788845,0.009033592,-0.0015369058,0.0,0.0,-0.56752044
9236584000,-0.01011819,0.0025303247,-0.0014659166,0.0,0.0,-0.57098997
9236608000,-0.014144537,0.0015838458,-0.0013250113,0.0,0.0,-0.5690805
9236624000,-0.009298956,0.0015649251,-0.0013718605,0.0,0.0,-0.5726079
9236648000,-0.004907868,0.0010775118,-0.0016259551,0.0,0.0,-0.56635004
9236664000,-0.0078736115,0.0033272887,-0.0016551018,0.0,0.0,-0.5707444
9236684000,-0.011397395,0.0041279267,-0.0016127229,0.0,0.0,-0.57465
9236704000,-0.00899617,0.0037469524,-0.0015043616,0.0,0.0,-0.56777495
9236728000,-0.008829957,0.0023620022,-0.0012134314,0.0,0.0,-0.57137555
9236744000,-0.008056357,0.0060704574,-0.0011343956,0.0,0.0,-0.57437485
9236768000,-0.0065841535,0.0087449085,-0.001162827,0.0,0.0,-0.56779814
9236788000,-0.008804305,0.011309241,-0.001123488,0.0,0.0,-0.57148534
9236808000,-0.013621939,0.012032878,-0.0009893775,0.0,0.0,-0.57562274
9236828000,-0.011233172,0.009031571,-0.0008790493,0.0,0.0,-0.57254887
9236848000,-0.005307663,0.0064654155,-0.00092571974,0.0,0.0,-0.575808
9236868000,-0.003536011,0.0043206685,-0.00076156855,0.0,0.0,-0.56887996
9236888000,-0.0011928009,0.0050602006,-0.0008137822,0.0,0.0,-0.5720736
9236904000,0.002815336,0.007645036,-0.0009087324,0.0,0.0,-0.57572997
9236928000,-0.0030215299,0.013393557,-0.00081449747,0.0,0.0,-0.5695387
9236948000,-0.0058839214,0.011640215,-0.0010442734,0.0,0.0,-0.57325774
9236964000,-0.006413646,0.013722669,-0.0010582209,0.0,0.0,-0.5769105
9236984000,-0.001144721,0.01739393,-0.0010616183,0.0,0.0,-0.57036567
9237004000,-0.004220661,0.015740247,-0.0009920597,0.0,0.0,-0.5745889
9237028000,-0.0059592635,0.013128407,-0.001222372,0.0,0.0,-0.5784037
9237044000,-0.0010952326,0.015110423,-0.0013504028,0.0,0.0,-0.57117635
9237068000,-0.0040151663,0.0103370175,-0.00163275,0.0,0.0,-0.5746886
9237088000,-0.005763353,0.005745092,-0.0019814372,0.0,0.0,-0.5780594
9237104000,-0.00886699,0.0068981345,-0.0022414327,0.0,0.0,-0.57154614
9237128000,-0.005593868,0.0013682758,-0.002570808,0.0,0.0,-0.5786771
9237148000,-0.0024656071,0.003926293,-0.0029924512,0.0,0.0,-0.572201
9237164000,-0.0023279726,0.0033967579,-0.0033035874,0.0,0.0,-0.572201
9237188000,0.0023365817,0.0037162662,-0.0036504865,0.0,0.0,-0.5796901
9237204000,-0.0018694871,0.005223113,-0.004019201,0.0,0.0,-0.5733486
9237228000,0.00023585296,0.0044290787,-0.0043433905,0.0,0.0,-0.5772521
9237240000,-2.998975e-06,0.0046949266,-0.0043144226,0.0,0.0,-0.5772521
9237264000,-0.0060187364,0.009723123,-0.0042557716,0.0,0.0,-0.5745913
9237288000,-0.0023417687,0.008688192,-0.0044392347,0.0,0.0,-0.57805604
9237308000,-0.003457686,0.0014329185,-0.0047730803,0.0,0.0,-0.581817
9237328000,-0.012809584,-0.008306854,-0.0048394203,0.0,0.0,-0.5742728
9237344000,-0.013009179,-0.00860862,-0.004731238,0.0,0.0,-0.57693386
9237364000,-0.014210591,-0.00897321,-0.0045297146,0.0,0.0,-0.5799906
9237388000,-0.007786369,0.0010095402,-0.0042675734,0.0,0.0,-0.5760472
9237408000,-0.007017608,0.0005138903,-0.0040869713,0.0,0.0,-0.5801947
9237428000,-0.0034081007,0.00056314515,-0.0040771365,0.0,0.0,-0.5740322
9237448000,-8.865495e-05,0.0008419049,-0.003998637,0.0,0.0,-0.57791615
9237464000,0.003325358,-0.005145075,-0.0040174127,0.0,0.0,-0.5819822
9237488000,0.006922324,0.00078481017,-0.0034160614,0.0,0.0,-0.5755848
9237508000,0.007969431,0.0063517587,-0.003147304,0.0,0.0,-0.57891965
9237524000,0.0043706847,0.009051703,-0.0029586554,0.0,0.0,-0.58246434
9237548000,-0.002909334,0.010284674,-0.0024740696,0.0,0.0,-0.5759976
9237568000,-0.0029423714,0.005477811,-0.0023488998,0.0,0.0,-0.57939374
9237584000,-0.0050022537,-6.337697e-05,-0.0023492575,0.0,0.0,-0.5825995
9237608000,-0.011233216,-0.0039180145,-0.0021636486,0.0,0.0,-0.575506
9237628000,-0.007162134,-0.0026795533,-0.0019737482,0.0,0.0,-0.5785281
9237644000,-0.0066820853,0.0015056189,-0.0019531846,0.0,0.0,-0.5823001
9237664000,-0.0013731816,0.0023824177,-0.0017638206,0.0,0.0,-0.57583606
9237684000,-5.087431e-05,0.0009733415,-0.0016125441,0.0,0.0,-0.57988644
9237704000,-0.0019516277,0.0024666935,-0.0016105771,0.0,0.0,-0.58331656
9237728000,-0.010134682,-0.0017065052,-0.0012456179,0.0,0.0,-0.58070904
9237744000,-0.010094082,-0.0017619459,-0.0009250045,0.0,0.0,-0.58070904
9237768000,-0.0076978686,-0.003354351,-0.00067162514,0.0,0.0,-0.5775014
9237788000,-0.0051329094,-0.003195359,-0.0009255409,0.0,0.0,-0.5812141
9237804000,-0.005795151,-0.0064777024,-0.0011969805,0.0,0.0,-0.58485705
9237828000,-0.0015049367,-0.0024572946,-0.0009573698,0.0,0.0,-0.5775766
9237848000,-0.002890268,-0.0013381918,-0.0012497306,0.0,0.0,-0.5810966
9237864000,-0.0052830535,0.0054182983,-0.0010911226,0.0,0.0,-0.58449537
9237884000,0.00086583453,0.0022973637,-0.0011778474,0.0,0.0,-0.57745224
9237908000,0.00422108,0.00031177886,-0.0012470484,0.0,0.0,-0.5811978
9237928000,0.009026846,-0.00022511836,-0.0010968447,0.0,0.0,-0.5841761
9237944000,0.008177334,-0.0005678027,-0.0010058284,0.0,0.0,-0.576658
9237964000,0.0044286717,-0.0025032302,-0.000978291,0.0,0.0,-0.57969576
9237984000,0.010587407,0.00013331138,-0.0012969375,0.0,0.0,-0.5826598
9238004000,0.0070347413,0.0012411587,-0.0011919737,0.0,0.0,-0.5754102
9238028000,0.0012970376,-0.0050606634,-0.0012794137,0.0,0.0,-0.5824785
9238048000,0.0032662074,-0.000257154,-0.0013623834,0.0,0.0,-0.5760758
9238068000,-0.00030934962,-0.0022171824,-0.0014008284,0.0,0.0,-0.5791649
9238088000,-0.0037135582,-0.0021726927,-0.0013775826,0.0,0.0,-0.5827336
9238108000,-0.010382192,0.005411119,-0.0013327003,0.0,0.0,-0.5758651
9238128000,-0.009248679,-0.0003545503,-0.0014106631,0.0,0.0,-0.5794589
9238144000,-0.007393905,0.0027922662,-0.0014051199,0.0,0.0,-0.5833599
9238168000,-0.0066936538,0.005984177,-0.0015134811,0.0,0.0,-0.57723373
9238188000,0.000137683,0.002607233,-0.0016556382,0.0,0.0,-0.5808353
9238208000,0.00035256427,0.0017815274,-0.0017411113,0.0,0.0,-0.5843884
9238228000,-0.0032058815,-0.0010855584,-0.0016329288,0.0,0.0,-0.58062273
9238248000,-0.0030151836,-0.0015708497,-0.0016216636,0.0,0.0,-0.58062273
9238268000,0.01272148,-0.0049594617,-0.0017384291,0.0,0.0,-0.5764816
9238288000,0.016527936,-0.0014160164,-0.0016815662,0.0,0.0,-0.57974845
9238308000,0.019885086,-0.006527856,-0.0016466975,0.0,0.0,-0.58318657
9238324000,0.017403314,-0.0076056346,-0.0017550588,0.0,0.0,-0.5762636
9238348000,0.012625591,-0.009261077,-0.0018848777,0.0,0.0,-0.5799544
9238368000,0.010515918,-0.0118069,-0.0018659234,0.0,0.0,-0.5834872
9238380000,0.006318624,-0.0101006795,-0.0017874241,0.0,0.0,-0.5771999
9238404000,0.008708848,-0.0065484894,-0.0015590787,0.0,0.0,-0.5808321
9238424000,0.0007026216,-0.0035396386,-0.0016418695,0.0,0.0,-0.5842491
9238448000,-0.0015682911,-0.001431634,-0.0016095042,0.0,0.0,-0.5777366
9238464000,-0.0034677326,-0.00252409,-0.001783669,0.0,0.0,-0.5817981
9238484000,0.0015331227,-0.003426223,-0.0017563105,0.0,0.0,-0.5852568
9238504000,-0.0056861984,-0.003963155,-0.0012311339,0.0,0.0,-0.57742107
9238528000,-0.003765524,-0.0046948195,-0.0013191104,0.0,0.0,-0.5810181
9238548000,-0.00060219713,-0.0024040241,-0.0010489225,0.0,0.0,-0.57716095
9238568000,-0.0044209547,-0.0041040187,-0.00096845627,0.0,0.0,-0.58108944
9238584000,-0.0066844057,-0.005447237,-0.0009471774,0.0,0.0,-0.58501273
9238604000,-0.0055951346,-0.0013966276,-0.00090551376,0.0,0.0,-0.5787086
9238628000,-0.0005809235,-0.0019710436,-0.0009262562,0.0,0.0,-0.58651215
9238648000,-0.004205607,-0.00063461624,-0.0007084608,0.0,0.0,-0.5793986
9238668000,-0.0011157729,-0.00014309236,-0.0006836057,0.0,0.0,-0.5831493
9238688000,0.0037023597,-0.002023925,-0.00031596422,0.0,0.0,-0.5862765
9238704000,0.0023900587,-0.0063051237,-0.00033277273,0.0,0.0,-0.5786887
9238724000,0.0037613898,-0.010001771,-0.00038945675,0.0,0.0,-0.58209056
9238748000,0.004982916,-0.008062155,-0.00048279762,0.0,0.0,-0.5853281
9238764000,0.008384312,-0.007011592,-0.0005173087,0.0,0.0,-0.5782594
9238784000,0.008970415,-0.007971792,-0.0003681779,0.0,0.0,-0.5814199
9238808000,0.008716654,-0.008407889,-0.00016576052,0.0,0.0,-0.5851583
9238828000,0.0034355265,-0.0014687378,6.4373016e-05,0.0,0.0,-0.579081
9238848000,0.004302894,-0.006862028,0.00014090538,0.0,0.0,-0.5864797
9238868000,0.0018799994,-0.0043988493,0.00015825033,0.0,0.0,-0.579484
9238884000,0.0040075257,-0.005161062,0.00010854006,0.0,0.0,-0.58303005
9238908000,0.002064121,-0.0021359806,0.0001591444,0.0,0.0,-0.5866097
9238928000,0.0042618164,-0.0030016406,0.00029110909,0.0,0.0,-0.5795361
9238948000,0.004699702,-0.0026594214,0.00044238567,0.0,0.0,-0.58336204
9238964000,0.00522383,-0.006981149,0.00048565865,0.0,0.0,-0.58677
9238984000,0.007178787,-0.0033977658,0.000613153,0.0,0.0,-0.57947046
9239000000,0.009634696,-0.0074693104,0.00060886145,0.0,0.0,-0.5826104
9239024000,0.0044066776,-0.008655025,0.0006195903,0.0,0.0,-0.5859066
9239044000,-0.00022031518,-0.0057851826,0.00056666136,0.0,0.0,-0.5792449
9239068000,0.0030723524,-0.0025096019,0.00045704842,0.0,0.0,-0.5829304
9239088000,0.0023811904,-0.0040814504,3.5583973e-05,0.0,0.0,-0.5865491
9239108000,-0.0022867764,0.0036096429,0.00010120869,0.0,0.0,-0.57979554
9239124000,-0.0008875112,0.005503619,-4.2557716e-05,0.0,0.0,-0.5830212
9239148000,-0.008755544,0.0013366377,-7.7068806e-05,0.0,0.0,-0.5792531
9239168000,-0.007022751,0.003231429,-8.136034e-05,0.0,0.0,-0.58199763
9239188000,-0.0065794154,0.0057327608,-0.00013285875,0.0,0.0,-0.5853908
9239208000,-0.004311995,0.0076786233,-0.00026410818,0.0,0.0,-0.57917535
9239228000,-0.0027432665,0.0074590743,-0.00031882524,0.0,0.0,-0.5828086
9239244000,-0.0013277193,0.005697899,-0.00054967403,0.0,0.0,-0.5862604
9239268000,0.0018563073,0.0064377026,-0.0006226301,0.0,0.0,-0.580151
9239284000,0.0036860122,0.0040437514,-0.00038158894,0.0,0.0,-0.58428085
9239304000,0.0057726335,0.0035199733,-0.00017309189,0.0,0.0,-0.58811873
9239328000,0.0061215777,0.0007125784,-0.00034600496,0.0,0.0,-0.5813338
9239344000,0.0047898013,-0.0013859931,-0.0006508827,0.0,0.0,-0.58499706
9239364000,0.0014377723,-0.004637437,-0.0008019805,0.0,0.0,-0.5882429
9239384000,0.00046486908,-0.007492911,-0.00072330236,0.0,0.0,-0.5809827
9239404000,0.00045803085,-0.0058372756,-0.00081807375,0.0,0.0,-0.5839966
9239428000,-0.0007800545,-0.006695968,-0.0006355047,0.0,0.0,-0.5801001
9239448000,0.0055511724,-0.0032043268,-0.00057810545,0.0,0.0,-0.58356744
9239468000,0.008329564,0.001692337,-0.000685215,0.0,0.0,-0.5863298
9239488000,0.006687732,-0.003940001,-0.0008073449,0.0,0.0,-0.5796015
9239508000,0.0038609565,-0.002774674,-0.0007608533,0.0,0.0,-0.5824022
9239528000,0.0040924745,-0.005945448,-0.0006330013,0.0,0.0,-0.58595556
9239544000,0.00904261,-0.011582843,-0.00059491396,0.0,0.0,-0.57964456
9239564000,0.006340675,-0.009347875,-0.00041681528,0.0,0.0,-0.5841016
9239584000,0.008683559,-0.009696037,-0.00067716837,0.0,0.0,-0.58782655
9239608000,0.005391525,-0.009661993,-0.00048583746,0.0,0.0,-0.58178777
9239624000,0.0033570668,-0.006848274,-0.00027769804,0.0,0.0,-0.5851794
9239644000,0.0008838598,-0.009038031,-0.0003542304,0.0,0.0,-0.58771
9239664000,-0.0015683812,-0.0047787703,-0.00041234493,0.0,0.0,-0.58060074
9239688000,-0.005987298,-0.0008972513,-0.00041019917,0.0,0.0,-0.58716637
9239708000,-0.010122559,-0.003110578,-0.0004182458,0.0,0.0,-0.5806697
9239728000,-0.008972193,-0.006878645,-0.0005328655,0.0,0.0,-0.5839773
9239748000,-0.0075369,-0.006071997,-0.0006685853,0.0,0.0,-0.5875416
9239764000,-0.00080539717,-0.0029723186,-0.0006569624,0.0,0.0,-0.58071727
9239784000,0.0039456952,-0.007481853,-0.0006532073,0.0,0.0,-0.58368754
9239804000,0.011137874,-0.0040602107,-0.00043702126,0.0,0.0,-0.5867834
9239828000,0.011657286,-0.007743898,-0.00030219555,0.0,0.0,-0.5800767
9239848000,0.009019183,-0.010371627,-0.00021028519,0.0,0.0,-0.5835751
9239868000,0.006502118,-0.006423845,-0.00027412176,0.0,0.0,-0.58673716
9239888000,0.008556357,0.00089575024,-0.00015807152,0.0,0.0,-0.58020335
9239908000,0.005606922,-0.002157652,-0.0001539588,0.0,0.0,-0.58401525
9239928000,0.00629218,-0.0002054188,-1.5735626e-05,0.0,0.0,-0.587763
9239940000,0.007373957,-0.0037897301,-1.23381615e-05,0.0,0.0,-0.58149487
9239964000,0.0069017834,-0.0030521546,5.90086e-05,0.0,0.0,-0.5849464
9239984000,0.009028574,0.0027585325,7.760525e-05,0.0,0.0,-0.5878272
9240008000,0.0070436974,-0.005434759,-0.00027430058,0.0,0.0,-0.5846545
9240024000,0.007979862,-0.00477688,-0.0005096197,0.0,0.0,-0.58789164
9240044000,0.008516997,-0.0034524829,-0.00032651424,0.0,0.0,-0.5812596
9240064000,0.006761272,-0.0064753583,-0.00022029877,0.0,0.0,-0.5844548
9240084000,0.0035965706,-0.003565313,-0.00032562017,0.0,0.0,-0.58738667
9240104000,0.0014076903,-0.002592756,-0.0003116727,0.0,0.0,-0.5805611
9240128000,0.0048910687,-0.0014467245,-0.00016003847,0.0,0.0,-0.5840013
9240148000,0.0031536897,-0.0009086231,-0.00026124716,0.0,0.0,-0.5865385
9240164000,-0.004741032,-0.0011732234,-0.00017988682,0.0,0.0,-0.5791664
9240188000,-0.004514852,0.0021457965,-9.083748e-05,0.0,0.0,-0.5822866
9240208000,0.0009464754,-0.0004237356,2.95043e-05,0.0,0.0,-0.5862931
9240228000,0.0024678104,0.0034762889,-6.455183e-05,0.0,0.0,-0.5837442
9240244000,0.0025868486,0.0035579014,5.2571297e-05,0.0,0.0,-0.5837442
9240264000,-0.00455291,-0.0016574878,3.5583973e-05,0.0,0.0,-0.58749056
9240288000,-0.011026654,-0.004829598,0.0001668334,0.0,0.0,-0.58390754
9240308000,-0.017866872,-0.0010920062,0.00010353327,0.0,0.0,-0.5867082
9240324000,-0.01759138,-0.010989758,0.00012928247,0.0,0.0,-0.58018905
9240344000,-0.013568491,-0.014016621,0.00022405386,0.0,0.0,-0.5834687
9240368000,-0.012113666,-0.014328805,9.7453594e-05,0.0,0.0,-0.5865937
9240388000,-0.008335572,-0.016050993,-9.655952e-06,0.0,0.0,-0.5801368
9240404000,-0.005943533,-0.012796722,-8.583069e-06,0.0,0.0,-0.5835972
9240424000,0.0020885915,-0.011829447,-9.459257e-05,0.0,0.0,-0.5865292
9240448000,0.004665805,-0.011557787,-4.2557716e-05,0.0,0.0,-0.57974106
9240460000,0.0052387966,-0.0072853575,-4.5597553e-05,0.0,0.0,-0.5830227
9240488000,0.0053054746,-0.006285363,-5.4895878e-05,0.0,0.0,-0.5863464
9240508000,0.0031582676,-0.0036885263,-0.00015199184,0.0,0.0,-0.57920396
9240528000,0.008541708,0.0011921452,-4.720688e-05,0.0,0.0,-0.5860976
9240544000,0.007900965,0.0016467583,-8.636713e-05,0.0,0.0,-0.5860976
9240568000,0.0042302557,0.0043752054,-0.00012212992,0.0,0.0,-0.5887398
9240588000,0.0034129461,0.00571094,-0.00027161837,0.0,0.0,-0.5964264
9240608000,0.004869463,0.0002493005,-0.00022923946,0.0,0.0,-0.59143907
9240624000,0.00774452,0.00023990683,-0.00017935038,0.0,0.0,-0.5943676
9240640000,0.0048953537,-0.0027625882,-8.958578e-05,0.0,0.0,-0.5952032
9240668000,-0.004645129,-0.010435249,-1.0192394e-05,0.0,0.0,-0.5819993
9240680000,-0.0026440315,-0.009173156,1.7166138e-05,0.0,0.0,-0.5779395
9240708000,-0.0061497255,-0.007474579,5.7041645e-05,0.0,0.0,-0.5728583
9240728000,-0.009696601,-0.008587379,0.00021386147,0.0,0.0,-0.5581684
9240748000,-0.00679583,-0.0055979867,0.00021243095,0.0,0.0,-0.55473346
9240768000,-0.009192302,-0.0017501414,0.00022655725,0.0,0.0,-0.55280864
9240784000,-0.017769728,-0.0028378966,0.0002424717,0.0,0.0,-0.5478601
9240804000,-0.01585927,-0.002265263,0.00015449524,0.0,0.0,-0.55065995
9240828000,-0.012699885,0.0045201182,0.00033205748,0.0,0.0,-0.5556113
9240848000,-0.013321197,0.007224883,0.00031739473,0.0,0.0,-0.5613789
9240864000,-0.012057493,0.0069323103,0.00037908554,0.0,0.0,-0.5667682
9240884000,-0.011424063,0.008040498,0.00048673153,0.0,0.0,-0.56519026
9240904000,-0.00523738,0.0021542811,0.000333488,0.0,0.0,-0.5680328
9240924000,-0.0027195504,0.0008143389,0.00020563602,0.0,0.0,-0.5705044
9240944000,0.0025579159,-0.0007484816,0.00027233362,0.0,0.0,-0.5652022
9240968000,0.006921581,-0.0045567453,0.00016915798,0.0,0.0,-0.566832
9240988000,0.009213784,-0.0012780991,7.814169e-05,0.0,0.0,-0.56835675
9241008000,0.004191866,-0.0028708926,-3.129244e-05,0.0,0.0,-0.56333274
9241028000,0.0058438703,-0.0005796512,-0.00016129017,0.0,0.0,-0.5646653
9241044000,0.004556809,0.000703241,-0.00023049116,0.0,0.0,-0.5662388
9241064000,-0.00084985024,0.0030477403,-0.00029826164,0.0,0.0,-0.5624956
9241084000,-0.0020796668,0.0014051918,-0.00033652782,0.0,0.0,-0.5642724
9241108000,-0.0010994563,0.004039324,2.503395e-05,0.0,0.0,-0.56351024
9241128000,0.0010940479,0.0050342856,0.00019973516,0.0,0.0,-0.5657213
9241144000,0.005356275,0.005150917,0.00019776821,0.0,0.0,-0.56780165
9241164000,0.0056435224,0.005535935,-8.833408e-05,0.0,0.0,-0.5638538
9241184000,0.007120583,-0.0029511368,-0.00025248528,0.0,0.0,-0.5652298
9241208000,0.008452302,-0.0070296912,-0.0003540516,0.0,0.0,-0.5672079
9241220000,0.007974397,-0.008159641,-0.00051248074,0.0,0.0,-0.5630972
9241248000,0.0030772733,-0.0055506574,-0.0005373359,0.0,0.0,-0.5641014
9241268000,0.003944707,-0.0073389784,-0.0004915595,0.0,0.0,-0.56568444
9241284000,0.0038397317,-0.011256536,-0.00048655272,0.0,0.0,-0.56174856
9241304000,-0.003495943,-0.0105099045,-0.00025856495,0.0,0.0,-0.56312925
9241324000,-0.0015585478,-0.010093193,-0.00039321184,0.0,0.0,-0.5649518
9241340000,-0.0009087003,-0.005260568,-0.00039678812,0.0,0.0,-0.56067836
9241364000,0.0053520175,-0.0042544794,-0.0005913377,0.0,0.0,-0.5621695
9241384000,0.0039100195,-0.0024447965,-0.0003617406,0.0,0.0,-0.56448317
9241408000,0.004461227,0.0019131044,-7.8856945e-05,0.0,0.0,-0.56207526
9241424000,0.0056723035,0.008034258,-0.00013840199,0.0,0.0,-0.56394047
9241448000,0.008288679,0.006546338,-0.00014841557,0.0,0.0,-0.5608623
9241468000,0.0050319694,0.0048128506,8.547306e-05,0.0,0.0,-0.56287575
9241488000,0.0074194195,0.0050450685,0.00023978949,0.0,0.0,-0.56505007
9241508000,0.008121195,0.0055705374,0.00031363964,0.0,0.0,-0.56240964
9241524000,0.008623134,0.0020578564,0.00024962425,0.0,0.0,-0.5642276
9241548000,0.0058285333,-0.0021088135,0.0005418062,0.0,0.0,-0.56620866
9241568000,0.0071142064,-0.005774008,0.0006877184,0.0,0.0,-0.56276155
9241584000,0.000893418,-0.0014537112,0.00071042776,0.0,0.0,-0.56464374
9241604000,0.0014650002,0.001466847,0.0006979108,0.0,0.0,-0.5665084
9241628000,0.003686931,0.0057384027,0.0005428791,0.0,0.0,-0.5631743
9241644000,0.0027729487,0.0068160477,0.00067180395,0.0,0.0,-0.5648975
9241668000,0.00034879404,0.0014047127,0.00052911043,0.0,0.0,-0.56453174
9241688000,0.0013329643,-0.00027796626,0.00043040514,0.0,0.0,-0.56596637
9241704000,0.0008856284,0.0063562356,0.00030058622,0.0,0.0,-0.5680716
9241728000,0.0010147013,0.009982883,0.000536263,0.0,0.0,-0.5649061
9241744000,-0.0019042273,0.014208552,0.00060242414,0.0,0.0,-0.56604683
9241764000,-0.00057833735,0.0066253874,0.00064462423,0.0,0.0,-0.567219
9241784000,0.0021734938,-0.00017819856,0.0005182028,0.0,0.0,-0.5642157
9241804000,0.0034310098,0.0014441663,0.0005480647,0.0,0.0,-0.5658466
9241824000,0.0054643205,0.0022790143,0.00067448616,0.0,0.0,-0.5671787
9241840000,0.00738497,-0.002388987,0.0007674694,0.0,0.0,-0.5640677
9241868000,0.003951869,-0.004617722,0.000690043,0.0,0.0,-0.5656649
9241888000,0.0038394614,-0.0057867356,0.00064122677,0.0,0.0,-0.56696135
9241904000,-6.023934e-05,-2.0539155e-05,0.00065910816,0.0,0.0,-0.56341785
9241928000,0.0014794911,0.0011610109,0.00085151196,0.0,0.0,-0.56454796
9241944000,0.0038912985,-0.0031448852,0.0008493662,0.0,0.0,-0.56634295
9241968000,0.008968605,0.0022305013,0.00073421,0.0,0.0,-0.5657385
9241984000,0.0055592954,-0.001135839,0.0009493232,0.0,0.0,-0.5677799
9242004000,0.007834314,-0.00046459388,0.00090283155,0.0,0.0,-0.56545275
9242028000,0.0026438967,0.0046167145,0.00087064505,0.0,0.0,-0.56696594
9242048000,0.005332859,0.0065488773,0.00064873695,0.0,0.0,-0.56843674
9242064000,0.008399226,0.016149983,0.0007109642,0.0,0.0,-0.56490535
9242088000,0.008099414,0.010411634,0.0005514622,0.0,0.0,-0.5659043
9242104000,0.010651663,0.00984652,0.00058346987,0.0,0.0,-0.56732714
9242128000,0.006229731,0.0029873773,0.00051033497,0.0,0.0,-0.56456655
9242144000,0.0010871098,0.0073981066,0.0005861521,0.0,0.0,-0.56614846
9242168000,0.0052146455,0.006891418,0.00063818693,0.0,0.0,-0.5674021
9242180000,0.0020917892,0.009048563,0.00063604116,0.0,0.0,-0.5641229
9242208000,0.0024271444,0.010824233,0.0006839633,0.0,0.0,-0.5672469
9242224000,0.0023839944,0.009461722,0.00046688318,0.0,0.0,-0.5672469
9242244000,0.00018022908,0.009063626,0.0004143119,0.0,0.0,-0.56643516
9242264000,-0.0005071694,0.008079099,0.00056666136,0.0,0.0,-0.56643516
9242284000,-0.0020932036,0.0055936323,0.00066429377,0.0,0.0,-0.56667626
9242304000,-0.0014700115,0.0044973465,0.00056505203,0.0,0.0,-0.56667626
9242328000,0.008257976,0.0016632748,0.0005713105,0.0,0.0,-0.5652962
9242344000,0.011263415,-0.0016738116,0.0007944703,0.0,0.0,-0.56590533
9242364000,0.009305762,-0.0018028845,0.0007227659,0.0,0.0,-0.56664526
9242384000,0.009803408,-0.00605365,0.00053554773,0.0,0.0,-0.56306696
9242408000,0.0056486893,-0.003660446,0.00029200315,0.0,0.0,-0.56420535
9242424000,0.004587156,0.00026025355,0.00024747849,0.0,0.0,-0.5650477
9242444000,0.0010361755,0.00310825,0.00029844046,0.0,0.0,-0.56270397
9242468000,0.00032629038,0.0029187505,0.00022906065,0.0,0.0,-0.56405663
9242484000,-0.0030114453,0.00043898018,0.00016218424,0.0,0.0,-0.5666116
9242508000,-0.009016319,0.0039587663,0.00016701221,0.0,0.0,-0.56491876
9242524000,-0.0034129578,0.0026054187,0.00014162064,0.0,0.0,-0.5664513
9242544000,-0.0012546895,0.0010793852,0.00035977364,0.0,0.0,-0.56816465
9242568000,-0.004642334,-0.0038362704,0.00016075373,0.0,0.0,-0.5674272
9242584000,-0.0037545569,-0.0037745712,8.225441e-05,0.0,0.0,-0.5674272
9242600000,0.0010905565,0.000265699,0.00010371208,0.0,0.0,-0.56616664
9242628000,-0.0014907843,5.229574e-05,2.771616e-05,0.0,0.0,-0.570086
9242648000,-0.0005002107,0.00023483438,-0.00016647577,0.0,0.0,-0.5672844
9242664000,-0.00038259616,-0.003031081,-0.00019437075,0.0,0.0,-0.5682652
9242688000,-0.00042935705,0.001228692,-0.00047063828,0.0,0.0,-0.56955475
9242700000,1.5949714e-05,9.864487e-05,-0.0001988411,0.0,0.0,-0.5666309
9242728000,-0.004831508,-0.004817886,0.00017488003,0.0,0.0,-0.5669596
9242744000,-0.004877496,-0.00474526,0.00031971931,0.0,0.0,-0.5677316
9242768000,-0.0024500885,-0.008512819,3.7372112e-05,0.0,0.0,-0.5640959
9242788000,-0.0015394259,-0.009858959,4.094839e-05,0.0,0.0,-0.56505245
9242804000,-0.0019444828,-0.006496915,-9.4771385e-06,0.0,0.0,-0.5659509
9242824000,-0.0020099084,-0.008138982,0.00020939112,0.0,0.0,-0.5637383
9242848000,-0.0013568209,-0.008638715,0.00044453144,0.0,0.0,-0.56621367
9242860000,-0.0018637954,-0.008280277,0.00048422813,0.0,0.0,-0.56621367
9242880000,-0.0029837033,-0.0024226704,0.00069987774,0.0,0.0,-0.56431085
9242908000,-0.0002967501,0.0028047685,0.0004988909,0.0,0.0,-0.5673486
9242924000,0.0023952,0.0028286094,0.00044453144,0.0,0.0,-0.56535345
9242944000,-0.0009086458,-0.0009890653,0.00064355135,0.0,0.0,-0.5665901
9242968000,-0.00078540214,-0.0036827875,0.00077337027,0.0,0.0,-0.5679139
9242988000,0.003738218,0.0007483611,0.0007683635,0.0,0.0,-0.56536937
9243004000,0.006541131,0.0011351367,0.00068950653,0.0,0.0,-0.56644815
9243028000,0.005508499,0.001496987,0.0006508827,0.0,0.0,-0.56752104
9243044000,0.0028495253,0.0029956957,0.0005375147,0.0,0.0,-0.56543446
9243068000,0.0027793022,0.003498069,0.00042575598,0.0,0.0,-0.56624585
9243088000,-0.00015427067,0.0013971281,0.00041145086,0.0,0.0,-0.567099
9243108000,-0.0025323664,0.00399149,0.00014466047,0.0,0.0,-0.5653572
9243128000,-0.0007753166,0.0043788557,0.00032919645,0.0,0.0,-0.56604195
9243140000,0.0007359423,0.0007970327,0.00035136938,0.0,0.0,-0.5673824
9243168000,-0.007992929,0.0061565666,0.00046634674,0.0,0.0,-0.5674456
9243188000,-0.005379636,0.0051642368,0.0006085038,0.0,0.0,-0.5689106
9243208000,-0.004548836,0.0063562766,0.0006406903,0.0,0.0,-0.5668556
9243228000,-0.0073730377,0.0034850626,0.00064998865,0.0,0.0,-0.56749654
9243244000,-0.0032334686,0.0054432037,0.00069111586,0.0,0.0,-0.56877226
9243268000,-0.0013716988,0.0027512102,0.00072187185,0.0,0.0,-0.56654614
9243288000,0.0010166899,0.0029154501,0.0006503463,0.0,0.0,-0.56695694
9243308000,0.000116517884,0.0064077843,0.00038301945,0.0,0.0,-0.56762046
9243324000,0.002309782,0.004595873,0.00041627884,0.0,0.0,-0.56495005
9243344000,0.007922629,0.000970865,0.00031095743,0.0,0.0,-0.5646433
9243368000,0.0048778355,-0.00037499098,0.00019812584,0.0,0.0,-0.56534374
9243388000,0.013135767,-0.0021721013,0.00023370981,0.0,0.0,-0.563887
9243404000,0.012595585,-0.0018045043,0.00025302172,0.0,0.0,-0.563887
9243424000,0.010166509,-0.0024444317,0.00036782026,0.0,0.0,-0.5655914
9243444000,0.013766488,-0.005497101,0.0004042983,0.0,0.0,-0.5656186
9243464000,0.012421379,-0.0059055034,0.00045078993,0.0,0.0,-0.5656186
9243488000,0.00874313,-0.00047144364,0.0003810525,0.0,0.0,-0.56570435
9243504000,0.0010923272,0.0031030965,0.00034046173,0.0,0.0,-0.5669797
9243528000,0.0021451795,0.00017434498,0.00021547079,0.0,0.0,-0.5680368
9243544000,0.00752192,-0.0008576426,0.00031667948,0.0,0.0,-0.5664649
9243568000,0.008508914,-0.004303582,0.00024586916,0.0,0.0,-0.56707877
9243588000,0.009739175,-0.0018446986,4.2021275e-05,0.0,0.0,-0.5681379
9243608000,0.0039371885,-0.0035196543,0.00014448166,0.0,0.0,-0.5652424
9243624000,0.004099505,-0.0004205316,0.00015109777,0.0,0.0,-0.565079
9243644000,0.00045797846,-0.0046615917,0.0002002716,0.0,0.0,-0.5664557
9243664000,-0.0030457499,0.0026197296,0.00034439564,0.0,0.0,-0.5643223
9243684000,-0.002852879,0.003918155,0.00043576956,0.0,0.0,-0.5651068
9243704000,-0.0036919834,0.0073366575,0.0005273223,0.0,0.0,-0.56666726
9243720000,-0.0028587326,0.00018713332,0.0006444454,0.0,0.0,-0.564829
9243744000,0.0033388594,-8.901302e-05,0.00043076277,0.0,0.0,-0.56529874
9243768000,0.0043314695,0.0068495143,0.00019991398,0.0,0.0,-0.56336117
9243784000,0.002862884,0.011764568,0.00013697147,0.0,0.0,-0.56446016
9243804000,0.0016095075,0.0103170425,0.0001103282,0.0,0.0,-0.56563544
9243828000,0.004641707,0.0076546697,3.4868717e-05,0.0,0.0,-0.563391
9243848000,0.008378139,0.0085433,-5.686283e-05,0.0,0.0,-0.56425995
9243868000,0.0069826297,0.004254599,-0.00010728836,0.0,0.0,-0.5654628
9243888000,0.0041787997,0.009611082,9.119511e-06,0.0,0.0,-0.5641211
9243908000,2.8995273e-06,0.00850153,-1.1086464e-05,0.0,0.0,-0.56501883
9243928000,-0.002069606,0.0047018537,2.95043e-05,0.0,0.0,-0.56580585
9243944000,0.0054580932,0.009500946,0.00020903349,0.0,0.0,-0.5635594
9243960000,0.0040658447,0.007974389,0.0004323721,0.0,0.0,-0.5648496
9243988000,-0.0071816216,0.0153512545,0.0006120801,0.0,0.0,-0.56471616
9244004000,-0.006088202,0.008687552,0.00079250336,0.0,0.0,-0.5659975
9244024000,-0.006720226,0.007900343,0.0005065799,0.0,0.0,-0.5659975
9244048000,-0.0045400313,0.0015761676,0.0004890561,0.0,0.0,-0.56510854
9244064000,-0.0022261017,-0.0022238914,0.00041395426,0.0,0.0,-0.5649499
9244088000,-0.0036226062,-0.004389043,0.00057917833,0.0,0.0,-0.5651757
9244108000,-0.0034041791,0.0005757676,0.00066286325,0.0,0.0,-0.56350607
9244128000,-0.0035517663,0.0017780231,0.0005943775,0.0,0.0,-0.564224
9244144000,-0.0013120378,0.0023479967,0.00069254637,0.0,0.0,-0.56467485
9244164000,-0.002750454,-0.003052256,0.00089246035,0.0,0.0,-0.5628092
9244184000,-0.0002903604,-0.0010808817,0.0008248687,0.0,0.0,-0.5634136
9244204000,0.0054769567,-0.002517106,0.00082218647,0.0,0.0,-0.5651456
9244228000,0.0019721575,-0.006126724,0.0010315776,0.0,0.0,-0.5644494
9244248000,0.0068198293,-0.01262293,0.0010192394,0.0,0.0,-0.5666082
9244268000,0.011539613,-0.010800313,0.001092732,0.0,0.0,-0.56463903
9244284000,0.004688628,-0.007203596,0.0011088252,0.0,0.0,-0.5653444
9244308000,0.0052768514,-0.0048555424,0.0010020733,0.0,0.0,-0.5659604
9244328000,0.005032533,-0.0017700704,0.0008931756,0.0,0.0,-0.56361794
9244344000,0.003090551,0.0015173829,0.00093483925,0.0,0.0,-0.5648098
9244360000,0.0026161163,0.0024666158,0.0009210706,0.0,0.0,-0.5648098
9244384000,0.00025581685,0.01207036,0.00078356266,0.0,0.0,-0.56423604
9244408000,0.0010711882,0.011980168,0.00085258484,0.0,0.0,-0.5652642
9244420000,-0.0028736768,0.0089116655,0.0008354187,0.0,0.0,-0.56637585
9244448000,-3.8797734e-06,0.006454123,0.0005995631,0.0,0.0,-0.56490356
9244464000,-0.00076347665,0.0017302082,0.000536263,0.0,0.0,-0.5654991
9244488000,0.0019332235,0.00061553833,0.00038677454,0.0,0.0,-0.56589323
9244508000,0.011145947,-0.0047266874,0.00042396784,0.0,0.0,-0.5650244
9244528000,0.008672183,-0.007968934,0.0003760457,0.0,0.0,-0.5658898
9244548000,0.0013457261,-0.0076255007,0.00040465593,0.0,0.0,-0.56414723
9244564000,0.0005243956,-0.007238096,0.0003553033,0.0,0.0,-0.56414723
9244584000,-0.0044839494,-0.0075198035,0.00026088953,0.0,0.0,-0.565452
9244608000,-0.0046703,-0.010516281,0.0003324151,0.0,0.0,-0.5638813
9244624000,-0.007118862,-0.0077673504,6.240606e-05,0.0,0.0,-0.56392056
9244644000,-0.0045545166,-0.0073347534,-0.00020939112,0.0,0.0,-0.56453943
9244664000,0.0003532312,-0.013197351,-0.0002424717,0.0,0.0,-0.5632013
9244688000,-0.0011887652,-0.008696783,-0.0002002716,0.0,0.0,-0.56408244
9244700000,-0.0014922679,-0.010156767,-7.992983e-05,0.0,0.0,-0.5654236
9244728000,-0.0045449333,-0.007195236,7.671118e-05,0.0,0.0,-0.5640967
9244748000,-0.007088906,-0.0018160305,6.4373016e-05,0.0,0.0,-0.56515056
9244764000,-0.00528797,0.0019296601,5.8829784e-05,0.0,0.0,-0.5654599
9244784000,-0.0070073786,-0.0001112778,7.456541e-05,0.0,0.0,-0.5640445
9244808000,-0.009537051,0.0012532646,8.2969666e-05,0.0,0.0,-0.564609
9244828000,-0.00017313869,0.0035585458,0.00020241737,0.0,0.0,-0.56472325
9244844000,0.00042085676,0.0035253302,7.5280666e-05,0.0,0.0,-0.56472325
9244864000,0.0048320536,-0.0009553138,0.00019150972,0.0,0.0,-0.56606156
9244884000,0.0076533286,0.002997868,0.00020688772,0.0,0.0,-0.5647989
9244904000,0.005849936,-0.001229664,0.0004028678,0.0,0.0,-0.56466323
9244928000,0.008104127,0.00095598,0.00065106153,0.0,0.0,-0.56497955
9244944000,0.009579852,0.0038179276,0.0005761385,0.0,0.0,-0.56317556
9244968000,0.0063744695,0.009655032,0.00031739473,0.0,0.0,-0.5637085
9244988000,0.0021469945,0.011712762,0.00012356043,0.0,0.0,-0.5649373
9245004000,-0.0017491139,0.015171885,-2.4676323e-05,0.0,0.0,-0.5637096
9245028000,-0.0013644043,0.012776924,-0.0001425147,0.0,0.0,-0.56422174
9245044000,0.00415116,0.011007257,-0.0002297759,0.0,0.0,-0.5650052
9245064000,0.005243981,0.008287925,-0.0002362132,0.0,0.0,-0.5643269
9245084000,0.0045514507,0.00657391,-0.0002657175,0.0,0.0,-0.56507814
9245108000,0.007897077,0.000286202,-7.992983e-05,0.0,0.0,-0.5640259
9245128000,0.0030121421,0.0004725001,0.00029540062,0.0,0.0,-0.56430084
9245144000,0.0037806386,-0.0028909375,0.00042307377,0.0,0.0,-0.5653492
9245164000,0.007706155,-0.006615538,0.00029951334,0.0,0.0,-0.5642661
9245188000,0.005403837,-0.0024719564,0.00017130375,0.0,0.0,-0.56514233
9245204000,0.00316603,0.00045664608,0.00021618605,0.0,0.0,-0.56622905
9245228000,0.0041137766,-0.0038713776,0.0002694726,0.0,0.0,-0.56503695
9245248000,0.0051831417,-0.0052744634,0.0002696514,0.0,0.0,-0.564843
9245268000,0.003647361,-0.009310702,0.00017809868,0.0,0.0,-0.56559783
9245288000,-0.0005133846,-0.008233005,1.7881393e-06,0.0,0.0,-0.5644518
9245304000,-0.004596932,-0.010847321,0.000113904476,0.0,0.0,-0.564753
9245328000,-0.005069266,-0.011821046,-0.000120699406,0.0,0.0,-0.56515986
9245344000,-0.008459852,-0.01348345,-0.000111579895,0.0,0.0,-0.5642445
9245368000,-0.003517333,-0.0076934043,1.3053417e-05,0.0,0.0,-0.56476027
9245384000,-0.0027605093,-0.0064927437,0.00010871887,0.0,0.0,-0.56476027
9245408000,0.0004286652,-0.0020890213,0.00013464689,0.0,0.0,-0.5639865
9245428000,0.0027355086,-0.004821024,0.00011605024,0.0,0.0,-0.5643158
9245444000,0.0034714385,-0.0054557137,0.00027680397,0.0,0.0,-0.56337714
9245468000,0.004695848,-0.0065767528,0.00058186054,0.0,0.0,-0.5638973
9245488000,0.00552148,-0.006996515,0.00049835443,0.0,0.0,-0.5644984
9245504000,0.0014772203,-0.0037597404,0.00041037798,0.0,0.0,-0.5638565
9245520000,0.0020011114,-0.0062083798,0.00045078993,0.0,0.0,-0.5645562
9245540000,0.0021156427,-0.0030419372,0.0004811883,0.0,0.0,-0.5651116
9245568000,0.0076146973,-0.0039272797,0.00033706427,0.0,0.0,-0.56433326
9245588000,-0.00032425707,-0.0011960422,0.00017237663,0.0,0.0,-0.5641182
9245604000,0.004394908,-0.0042606173,0.00022780895,0.0,0.0,-0.56512403
9245628000,0.0042219562,-0.0036151009,0.0,0.0,0.0,-0.5645233
9245644000,0.004381585,-0.004014917,1.1980534e-05,0.0,0.0,-0.5645233
9245668000,0.011676826,-0.009331638,-9.3340874e-05,0.0,0.0,-0.56365097
9245684000,0.011856185,-0.004700847,-1.770258e-05,0.0,0.0,-0.5641126
9245704000,0.011136059,-0.0036066761,5.6684017e-05,0.0,0.0,-0.5641126
9245728000,0.0050725252,0.0026461198,3.2007694e-05,0.0,0.0,-0.56428134
9245748000,0.0015216451,0.0048473887,-0.00019776821,0.0,0.0,-0.5647453
9245768000,-0.0015144595,0.0064246394,-0.00022888184,0.0,0.0,-0.56519985
9245784000,-0.003009296,0.009199599,-0.0003567338,0.0,0.0,-0.56485415
9245804000,-0.0026329113,0.011254497,-0.000336349,0.0,0.0,-0.56530154
9245828000,0.005658403,0.0130076315,-0.00035959482,0.0,0.0,-0.5658797
9245844000,0.006229326,0.009357516,-0.00033938885,0.0,0.0,-0.5652358
9245864000,-0.000158031,0.00667753,-0.00027894974,0.0,0.0,-0.5647168
9245880000,-0.0037998296,0.008445017,-0.00033670664,0.0,0.0,-0.5645599
9245904000,0.00053519045,0.008376828,-0.0004924536,0.0,0.0,-0.56310064
9245924000,0.0024287144,0.0077561624,-5.596876e-05,0.0,0.0,-0.5631346
9245948000,0.00047692994,0.002554472,0.0001693368,0.0,0.0,-0.56220645
9245968000,0.006602491,0.00077037397,0.00027233362,0.0,0.0,-0.56305724
9245984000,0.0060608843,-0.0006020303,0.00021636486,0.0,0.0,-0.56413037
9246004000,-0.00016802468,0.0023420863,0.00023370981,0.0,0.0,-0.564027
9246024000,-0.0065367967,-0.001432066,-7.224083e-05,0.0,0.0,-0.56487733
9246044000,-0.009346651,-0.00027320115,-7.367134e-05,0.0,0.0,-0.5658073
9246068000,-0.0072369673,-0.0023843232,-7.259846e-05,0.0,0.0,-0.5647531
9246084000,-0.0051372345,-0.0053402623,-8.261204e-05,0.0,0.0,-0.56473273
9246108000,-0.0066068135,-0.006681574,-0.00016146898,0.0,0.0,-0.5651611
9246128000,-0.0118591525,-0.0022194965,-0.0002052784,0.0,0.0,-0.5635656
9246144000,-0.009586224,-0.001039854,-0.000351727,0.0,0.0,-0.5637152
9246168000,-0.0033704576,0.006986351,-0.00018668175,0.0,0.0,-0.5639988
9246184000,-0.002137045,0.00845252,-5.2034855e-05,0.0,0.0,-0.56311476
9246200000,0.00034419762,0.0051440424,-1.8060207e-05,0.0,0.0,-0.56323427
9246228000,0.0033258647,0.00015537534,-7.009506e-05,0.0,0.0,-0.56235456
9246248000,0.0041100355,-0.0012186146,0.00020366907,0.0,0.0,-0.5630653
9246264000,0.0071446886,-0.0049014725,0.00029343367,0.0,0.0,-0.5634444
9246284000,0.004285753,-0.008706923,0.00016343594,0.0,0.0,-0.5632235
9246304000,0.004556113,-0.010500986,-3.0398369e-05,0.0,0.0,-0.5641699
9246324000,0.002574565,-0.012491304,-0.00016862154,0.0,0.0,-0.565092
9246348000,0.00026030804,-0.008319605,-1.001358e-05,0.0,0.0,-0.5646642
9246368000,0.0014601869,-0.0065830057,-7.241964e-05,0.0,0.0,-0.5650205
9246388000,0.0062030302,-0.0027030916,-0.0001578927,0.0,0.0,-0.56512326
9246408000,0.0030911365,0.0034587567,9.852648e-05,0.0,0.0,-0.5636504
9246428000,0.00061094225,9.885058e-06,1.1444092e-05,0.0,0.0,-0.5630727
9246448000,-0.0021012952,-0.003470768,-0.000105679035,0.0,0.0,-0.56341386
9246460000,-0.0069432445,-0.004192957,-0.00023281574,0.0,0.0,-0.5629011
9246488000,-0.010174547,-0.006143569,-0.00027143955,0.0,0.0,-0.5631123
9246504000,-0.00866202,-0.005437529,-0.00023388863,0.0,0.0,-0.5638603
9246524000,-0.0032131416,-0.008150047,-0.00017505884,0.0,0.0,-0.563741
9246548000,-0.004442613,-0.011558973,1.5735626e-05,0.0,0.0,-0.56439304
9246564000,-0.0041824463,-0.011625692,-3.1471252e-05,0.0,0.0,-0.563714
9246588000,-0.0017001814,-0.0071277805,9.49502e-05,0.0,0.0,-0.56433594
9246604000,-0.0016827055,-0.0064528994,-3.916025e-05,0.0,0.0,-0.56529224
9246624000,0.00205236,-0.0073454855,7.1525574e-06,0.0,0.0,-0.5636476
9246648000,0.0024756636,-0.010520866,0.00017684698,0.0,0.0,-0.5637711
9246668000,0.0031261293,-0.011280475,5.6147575e-05,0.0,0.0,-0.56417996
9246684000,0.007123716,-0.005938923,1.9669533e-06,0.0,0.0,-0.5627557
9246708000,0.0047401716,-0.0037196616,0.00015234947,0.0,0.0,-0.5627078
9246724000,0.0055126967,-0.00274776,0.00037515163,0.0,0.0,-0.56333363
9246744000,0.0074336296,-0.009484399,0.00032526255,0.0,0.0,-0.5630324
9246764000,0.0034172384,-0.010183225,0.00035977364,0.0,0.0,-0.56343335
9246784000,0.0011908938,-0.011784008,0.00030308962,0.0,0.0,-0.5640572
9246808000,0.0046787327,-0.0077655804,-3.451109e-05,0.0,0.0,-0.5640981
9246828000,-0.0011132222,-0.008671472,-8.815527e-05,0.0,0.0,-0.5641556
9246844000,-0.006218884,-0.003919349,-0.00016397238,0.0,0.0,-0.562979
9246868000,-0.00688526,-0.0047507305,-0.00026285648,0.0,0.0,-0.5634021
9246884000,-0.0053874855,-0.0030103005,-0.00032508373,0.0,0.0,-0.56381136
9246904000,-0.0030646082,0.006013377,-0.00031650066,0.0,0.0,-0.563373
9246928000,-0.0047621103,0.006325909,-0.00036656857,0.0,0.0,-0.56330895
9246948000,-0.00799569,0.0049768044,-0.00039732456,0.0,0.0,-0.5637563
9246964000,-0.0097489115,0.011383163,-0.0004899502,0.0,0.0,-0.5634067
9246988000,-0.008285982,0.0069176657,-0.00048476458,0.0,0.0,-0.56350166
9247000000,-0.0035631086,0.0070391074,-0.00017291307,0.0,0.0,-0.56392854
9247024000,-0.0013954737,0.0076746307,-0.00020009279,0.0,0.0,-0.5629864
9247044000,0.0012779539,0.008991222,-0.0001244545,0.0,0.0,-0.5632283
9247068000,0.0009352992,0.0070063565,0.00010997057,0.0,0.0,-0.56265396
9247084000,0.0008758411,0.005706197,-9.4771385e-06,0.0,0.0,-0.56265396
9247104000,0.00028041203,0.003961844,-0.00021600723,0.0,0.0,-0.56363153
9247124000,-0.0013742797,-0.00040037994,-0.00019723177,0.0,0.0,-0.56348926
9247144000,-0.004163064,0.0052610766,-7.18832e-05,0.0,0.0,-0.56391287
9247168000,-0.0012465343,0.0061276,7.814169e-05,0.0,0.0,-0.56387454
9247188000,0.0064614457,0.0060942713,0.00019526482,0.0,0.0,-0.5629848
9247208000,0.0036587636,0.0022301348,0.0002784133,0.0,0.0,-0.56300074
9247228000,0.0010955511,0.0024403168,5.364418e-07,0.0,0.0,-0.5634482
9247248000,0.0008176756,0.0011095963,9.262562e-05,0.0,0.0,-0.56260365
9247268000,0.0013656911,-0.0040580416,-4.36306e-05,0.0,0.0,-0.56271124
9247288000,0.00024629734,-0.006190913,-4.720688e-05,0.0,0.0,-0.5632985
9247308000,0.0023038797,-0.004661593,-0.00018489361,0.0,0.0,-0.5632005
9247328000,-0.0011580305,-0.003949454,6.812811e-05,0.0,0.0,-0.56458634
9247348000,-0.0025321124,-0.00010803924,0.00017148256,0.0,0.0,-0.563299
9247364000,-0.001335929,0.001108509,0.00022673607,0.0,0.0,-0.5632129
9247388000,0.0037426301,0.005179364,0.0005557537,0.0,0.0,-0.56373954
9247408000,0.0041941972,0.004033864,0.0009924173,0.0,0.0,-0.5636149
9247420000,0.00033765484,-0.0006466371,0.00093752146,0.0,0.0,-0.56368583
9247448000,-0.0011060522,-0.0033917865,0.0009046197,0.0,0.0,-0.56441
9247464000,0.0008473573,-0.009001793,0.00091427565,0.0,0.0,-0.56376714
9247488000,-0.0036539133,-0.006040434,0.0008057356,0.0,0.0,-0.56404763
9247508000,-0.0034384094,-0.008225076,0.00091177225,0.0,0.0,-0.5642932
9247528000,-0.0021930574,-0.004694393,0.0006785989,0.0,0.0,-0.5633209
9247548000,-0.002467629,-0.0046294583,0.0006455183,0.0,0.0,-0.562792
9247568000,-0.0014165448,-0.0047003888,0.00053322315,0.0,0.0,-0.56294656
9247584000,-0.00030479813,-0.0058582025,0.00038909912,0.0,0.0,-0.5620774
9247608000,0.0016228573,-0.0043916227,0.00033581257,0.0,0.0,-0.56254995
9247628000,0.003492538,-0.0061176196,0.00064086914,0.0,0.0,-0.5619765
9247644000,0.0036186401,-0.005635119,0.0007032752,0.0,0.0,-0.5619765
9247664000,0.0045582913,-0.0042183567,0.00079125166,0.0,0.0,-0.56285626
9247688000,0.0014147884,-0.013215385,0.0008751154,0.0,0.0,-0.56283975
9247708000,0.0010466741,-0.013295155,0.0007138252,0.0,0.0,-0.5633439
9247728000,-0.0021006118,-0.0123157175,0.0005648732,0.0,0.0,-0.5644751
9247744000,0.0015158972,-0.003781132,0.00045651197,0.0,0.0,-0.5643821
9247768000,0.00327479,0.0014433983,0.0005630851,0.0,0.0,-0.5646523
9247788000,0.0033899678,0.0026864982,0.00051891804,0.0,0.0,-0.5648997
9247808000,0.0026138574,0.0029027257,0.000543952,0.0,0.0,-0.5638863
9247828000,0.00041709607,-0.004561012,0.00064337254,0.0,0.0,-0.56419307
9247844000,-0.0027331742,-0.0013829787,0.0006750226,0.0,0.0,-0.5650247
9247868000,-0.005295234,-0.0041395966,0.00069594383,0.0,0.0,-0.563781
9247884000,-0.0056313644,-0.004117223,0.00090926886,0.0,0.0,-0.563781
9247908000,-0.008220225,-0.0046999473,0.0008214712,0.0,0.0,-0.5630871
9247928000,-0.011894012,-0.00438871,0.00085812807,0.0,0.0,-0.5632586
9247944000,-0.010609088,-0.004967394,0.00096970797,0.0,0.0,-0.56404877
9247968000,-0.007475024,-0.0015701442,0.0009189248,0.0,0.0,-0.5640242
9247988000,-0.0072976975,-0.00094671885,0.00070506334,0.0,0.0,-0.56426036
9248008000,-0.0076282234,-0.0026125195,0.000674665,0.0,0.0,-0.56445223
9248028000,-0.007404063,-0.0058555324,0.00054109097,0.0,0.0,-0.5637264
9248044000,-0.0141422395,-0.0060816677,0.0005584359,0.0,0.0,-0.5635594
9248068000,-0.009491427,-0.011758598,0.0007086396,0.0,0.0,-0.5633301
9248084000,-0.009725871,-0.0039624614,0.0009024739,0.0,0.0,-0.5631199
9248108000,-0.009076913,-0.0060982117,0.000977397,0.0,0.0,-0.56319916
9248124000,-0.009442531,-0.00535074,0.0008420348,0.0,0.0,-0.5632528
9248144000,-0.0049766027,-0.004885646,0.00068610907,0.0,0.0,-0.5629705
9248164000,-0.0027456656,-0.0020181367,0.00095039606,0.0,0.0,-0.5634174
9248184000,0.0040253852,0.0004798781,0.000869751,0.0,0.0,-0.5641159
9248208000,0.007114829,0.008277969,0.00080895424,0.0,0.0,-0.56505996
9248228000,0.0043839295,0.0008609121,0.000981152,0.0,0.0,-0.56550246
9248240000,0.0037358827,0.0004424922,0.0009189248,0.0,0.0,-0.56550246
9248264000,0.0013793029,0.0026880852,0.0010837913,0.0,0.0,-0.5646539
9248288000,-0.008043554,0.00016534457,0.0012719035,0.0,0.0,-0.5643182
9248304000,-0.0018317008,0.005799525,0.0012434721,0.0,0.0,-0.5633876
9248320000,-0.0037629185,0.004287148,0.0014489293,0.0,0.0,-0.56308645
9248348000,-0.0066233585,0.0027658506,0.001529038,0.0,0.0,-0.5632416
9248368000,-0.008580403,0.008134944,0.0014546514,0.0,0.0,-0.56250554
9248384000,-0.0052080806,0.006684255,0.0013006926,0.0,0.0,-0.5626402
9248404000,-0.0022084578,0.008731348,0.0013053417,0.0,0.0,-0.56292415
9248428000,0.0013496932,0.0069783647,0.0012851357,0.0,0.0,-0.5621075
9248444000,-0.00020279107,0.0034979056,0.0011764169,0.0,0.0,-0.5623441
9248468000,-0.0031371452,-0.004682568,0.0010644794,0.0,0.0,-0.56240684
9248488000,-0.0033174134,-0.007279986,0.0009884834,0.0,0.0,-0.5625405
9248508000,-0.002030046,-0.0067341942,0.0007946491,0.0,0.0,-0.5630933
9248528000,0.0013730396,-0.0021249843,0.0010483861,0.0,0.0,-0.5629611
9248540000,0.0072525702,0.0017165275,0.0008699298,0.0,0.0,-0.5626864
9248568000,0.0035034567,0.0017184162,0.0009031892,0.0,0.0,-0.5630008
9248584000,0.002469206,-0.00064442866,0.00095558167,0.0,0.0,-0.5626662
9248608000,-0.0041955756,0.0034748437,0.0011685491,0.0,0.0,-0.5626937
9248628000,-0.010005121,0.006200658,0.0012191534,0.0,0.0,-0.5628287
9248648000,-0.0070659374,0.0056544896,0.0010771751,0.0,0.0,-0.5627998
9248664000,-0.011558245,-0.0007168022,0.0010176301,0.0,0.0,-0.563429
9248684000,-0.010641837,-0.0022399267,0.0010115504,0.0,0.0,-0.5634081
9248704000,-0.010310977,0.0011463943,0.0010750294,0.0,0.0,-0.56335354
9248724000,-0.0050586094,0.0040988363,0.0011245608,0.0,0.0,-0.5629495
9248748000,-0.0010000078,0.0048745577,0.0010115504,0.0,0.0,-0.5630015
9248764000,-0.00045298738,0.0044025555,0.001057148,0.0,0.0,-0.5630015
9248788000,0.0037665276,0.009869677,0.00094664097,0.0,0.0,-0.5636676
9248808000,0.005821554,0.014622232,0.00080394745,0.0,0.0,-0.56344956
9248828000,0.0066472613,0.009910922,0.0006980896,0.0,0.0,-0.5638387
9248840000,0.0020397045,0.004169967,0.0006161928,0.0,0.0,-0.564571
9248864000,-5.543232e-05,0.00055361807,0.0006878972,0.0,0.0,-0.56407726
9248888000,0.00087158696,-0.0027833527,0.00035870075,0.0,0.0,-0.56432647
9248904000,0.0023110942,-0.0021465425,0.00026249886,0.0,0.0,-0.5643564
9248928000,0.004038727,-0.0021053203,0.00021368265,0.0,0.0,-0.56375206
9248948000,0.005492527,-0.00078236335,0.000305593,0.0,0.0,-0.56418455
9248968000,0.006692392,-0.004722256,0.00033974648,0.0,0.0,-0.5643094
9248980000,0.012349965,-0.009604779,0.0004361272,0.0,0.0,-0.5631935
9249008000,0.014727855,-0.009738662,0.000665009,0.0,0.0,-0.563075
9249024000,0.012136753,-0.0064603086,0.0007266998,0.0,0.0,-0.56277686
9249044000,0.012029028,-0.0020042672,0.000651598,0.0,0.0,-0.56252664
9249068000,0.0076920153,-0.0025236558,0.000700593,0.0,0.0,-0.56310105
9249088000,0.007633722,0.00026240735,0.0008661747,0.0,0.0,-0.56270444
9249108000,0.004885721,0.004482143,0.00070363283,0.0,0.0,-0.56350076
9249124000,0.002440203,0.005865776,0.0005323291,0.0,0.0,-0.5635269
9249144000,-0.0010027138,0.008137855,0.0007157922,0.0,0.0,-0.56355035
9249168000,-0.0020154356,0.004603703,0.0005752444,0.0,0.0,-0.56336886
9249184000,-0.0014772336,0.0032212276,0.0006104708,0.0,0.0,-0.56360704
9249208000,-0.0007197303,0.00067014084,0.00037693977,0.0,0.0,-0.5638072
9249228000,0.00092865655,-0.0010056401,0.00044167042,0.0,0.0,-0.5636264
9249248000,0.00308806,0.0027080611,0.00041788816,0.0,0.0,-0.563869
9249268000,-0.0017034895,0.0023144723,0.0003477931,0.0,0.0,-0.56329024
9249288000,0.00264704,0.0022515333,0.00036746264,0.0,0.0,-0.5636811
9249304000,0.0027371768,0.0019435089,0.00024032593,0.0,0.0,-0.5636811
9249324000,0.002779386,0.010096129,9.101629e-05,0.0,0.0,-0.5634939
9249344000,0.0024338444,0.0059489384,5.1140785e-05,0.0,0.0,-0.56296396
9249364000,0.001825289,0.0029863114,-7.1167946e-05,0.0,0.0,-0.5616787
9249384000,0.0025832052,-0.0006383725,-0.0002669692,0.0,0.0,-0.5617626
9249404000,0.0009360934,-0.0051939324,-0.00021332502,0.0,0.0,-0.5623292
9249428000,0.004686852,-0.008953676,-0.00030201674,0.0,0.0,-0.56275415
9249444000,0.0005297831,-0.0040280367,-0.00016772747,0.0,0.0,-0.5627884
9249468000,-0.004719849,-0.005495464,-0.000100672245,0.0,0.0,-0.5628502
9249484000,0.0028255447,-0.0070308475,-0.00018632412,0.0,0.0,-0.5628168
9249504000,0.004183337,0.00071752566,-8.940697e-05,0.0,0.0,-0.56293327
9249528000,0.0078372415,-0.00031921727,8.60095e-05,0.0,0.0,-0.563248
9249548000,0.0069417525,-0.0051810616,-6.937981e-05,0.0,0.0,-0.56342834
9249564000,0.0023094905,-0.008041187,0.00018703938,0.0,0.0,-0.564435
9249584000,-0.0022047656,-0.0052020894,0.0002925396,0.0,0.0,-0.56530285
9249608000,-0.009547656,-0.009089511,8.100271e-05,0.0,0.0,-0.564918
