timestamp,q[0],q[1],q[2],q[3],delta_q_reset[0],delta_q_reset[1],delta_q_reset[2],delta_q_reset[3],quat_reset_counter
9232328000,-0.9779722,0.0026312624,0.0009388515,-0.20871624,0.9999987,2.9103833e-10,4.947652e-10,0.0016565325,9
9232380000,-0.97797215,0.0025961315,0.0009907605,-0.20871717,0.9999987,2.9103833e-10,4.947652e-10,0.0016565325,9
9232428000,-0.9779706,0.0026329586,0.0009819154,-0.20872398,0.9999987,2.9103833e-10,4.947652e-10,0.0016565325,9
9232480000,-0.977968,0.0026761263,0.0009782932,-0.20873581,0.9999987,2.9103833e-10,4.947652e-10,0.0016565325,9
9232532000,-0.97796595,0.0027151823,0.00093852595,-0.20874453,0.9999987,2.9103833e-10,4.947652e-10,0.0016565325,9
9232584000,-0.9779626,0.0026825215,0.0010108162,-0.20876051,0.9999987,2.9103833e-10,4.947652e-10,0.0016565325,9
9232636000,-0.97796977,0.0026539285,0.0011081808,-0.20872678,0.9999987,2.9103833e-10,4.947652e-10,0.0016565325,9
9232688000,-0.97798103,0.0026679866,0.0010667602,-0.2086745,0.9999987,2.9103833e-10,4.947652e-10,0.0016565325,9
9232740000,-0.9780044,0.0025905613,0.0010671637,-0.20856583,0.9999987,2.9103833e-10,4.947652e-10,0.0016565325,9
9232792000,-0.9780079,0.002622291,0.0010283265,-0.2085491,0.9999987,2.9103833e-10,4.947652e-10,0.0016565325,9
9232844000,-0.9780001,0.0026136844,0.0010270352,-0.20858546,0.9999987,2.9103833e-10,4.947652e-10,0.0016565325,9
9232896000,-0.9779849,0.002559213,0.0009685057,-0.20865767,0.9999987,2.9103833e-10,4.947652e-10,0.0016565325,9
9232948000,-0.9779933,0.0025766308,0.0010535397,-0.208618,0.9999987,2.9103833e-10,4.947652e-10,0.0016565325,9
9233000000,-0.9780032,0.0026185012,0.001081598,-0.20857058,0.9999987,2.9103833e-10,4.947652e-10,0.0016565325,9
9233052000,-0.97800344,0.0025621078,0.0011013969,-0.20857026,0.9999987,2.9103833e-10,4.947652e-10,0.0016565325,9
9233104000,-0.97799814,0.002607236,0.0011316487,-0.20859441,0.9999987,2.9103833e-10,4.947652e-10,0.0016565325,9
9233160000,-0.9779875,0.002647397,0.0011324713,-0.2086438,0.9999987,2.9103833e-10,4.947652e-10,0.0016565325,9
9233208000,-0.9779858,0.0026718217,0.0011558885,-0.20865159,0.9999987,2.9103833e-10,4.947652e-10,0.0016565325,9
9233260000,-0.9779925,0.0025956994,0.0011601557,-0.20862071,0.9999987,2.9103833e-10,4.947652e-10,0.0016565325,9
9233312000,-0.97799426,0.0025197584,0.0011925399,-0.20861351,0.9999987,2.9103833e-10,4.947652e-10,0.0016565325,9
9233368000,-0.97799474,0.002524634,0.0011625255,-0.20861134,0.9999987,2.9103833e-10,4.947652e-10,0.0016565325,9
9233416000,-0.9780088,0.0025502269,0.0012059337,-0.2085444,0.9999987,2.9103833e-10,4.947652e-10,0.0016565325,9
9233468000,-0.9780154,0.0024995408,0.001271799,-0.20851406,0.9999987,2.9103833e-10,4.947652e-10,0.0016565325,9
9233520000,-0.9780224,0.0024938295,0.0012644565,-0.20848131,0.9999987,2.9103833e-10,4.947652e-10,0.0016565325,9
9233576000,-0.97802025,0.0024172575,0.001305449,-0.2084923,0.9999987,2.9103833e-10,4.947652e-10,0.0016565325,9
9233624000,-0.9780067,0.0024298104,0.0012885962,-0.20855536,0.9999987,2.9103833e-10,4.947652e-10,0.0016565325,9
9233676000,-0.9779987,0.0023468477,0.0012918436,-0.20859407,0.9999987,2.9103833e-10,4.947652e-10,0.0016565325,9
9233732000,-0.9779981,0.0023102062,0.0012899737,-0.20859739,0.9999987,2.9103833e-10,4.947652e-10,0.0016565325,9
9233780000,-0.978001,0.0023658592,0.0013235273,-0.20858277,0.9999987,2.9103833e-10,4.947652e-10,0.0016565325,9
9233832000,-0.97800595,0.0023208254,0.0012951766,-0.20855999,0.9999987,2.9103833e-10,4.947652e-10,0.0016565325,9
9233888000,-0.9780043,0.0022134734,0.0013279002,-0.2085691,0.9999987,2.9103833e-10,4.947652e-10,0.0016565325,9
9233940000,-0.97801405,0.002268637,0.0012892237,-0.20852296,0.9999987,2.9103833e-10,4.947652e-10,0.0016565325,9
9233992000,-0.978026,0.0022319222,0.0013216514,-0.20846729,0.9999987,2.9103833e-10,4.947652e-10,0.0016565325,9
9234040000,-0.97803015,0.0021935746,0.0013374363,-0.20844786,0.9999987,2.9103833e-10,4.947652e-10,0.0016565325,9
9234092000,-0.9780411,0.002086678,0.0013169709,-0.20839767,0.9999987,2.9103833e-10,4.947652e-10,0.0016565325,9
9234144000,-0.97805023,0.0005649805,0.002039257,-0.20835903,0.9999987,2.9103833e-10,4.947652e-10,0.0016565325,9
9234196000,-0.9780401,-0.0030417314,0.004371965,-0.20834897,0.9999987,2.9103833e-10,4.947652e-10,0.0016565325,9
9234248000,-0.9779994,-0.0052932217,0.006175983,-0.20844913,0.9999987,2.9103833e-10,4.947652e-10,0.0016565325,9
9234304000,-0.9779643,-0.0062561226,0.0069093327,-0.20856398,0.9999987,2.9103833e-10,4.947652e-10,0.0016565325,9
9234352000,-0.977958,-0.0057688137,0.006750223,-0.20861316,0.9999987,2.9103833e-10,4.947652e-10,0.0016565325,9
9234408000,-0.977967,-0.004380314,0.005945988,-0.2086291,0.9999987,2.9103833e-10,4.947652e-10,0.0016565325,9
9234456000,-0.9779706,-0.0030845045,0.0051723337,-0.20865606,0.9999987,2.9103833e-10,4.947652e-10,0.0016565325,9
9234508000,-0.9779771,-0.0017606362,0.0042513404,-0.20866181,0.9999987,2.9103833e-10,4.947652e-10,0.0016565325,9
9234560000,-0.9779762,-0.0006654511,0.0033654708,-0.20868872,0.9999987,2.9103833e-10,4.947652e-10,0.0016565325,9
9234612000,-0.9779701,0.0002844851,0.0028252576,-0.20872615,0.9999987,2.9103833e-10,4.947652e-10,0.0016565325,9
9234664000,-0.9779641,0.0008355703,0.0025017445,-0.20875667,0.9999987,2.9103833e-10,4.947652e-10,0.0016565325,9
9234720000,-0.97797614,0.0013945787,0.0022493752,-0.2087001,0.9999987,2.9103833e-10,4.947652e-10,0.0016565325,9
9234768000,-0.97797287,0.0016436932,0.0020201632,-0.20871598,0.9999987,2.9103833e-10,4.947652e-10,0.0016565325,9
9234820000,-0.97796756,0.0019226368,0.0018000922,-0.20874037,0.9999987,2.9103833e-10,4.947652e-10,0.0016565325,9
9234872000,-0.9779646,0.0021244588,0.0017160601,-0.20875312,0.9999987,2.9103833e-10,4.947652e-10,0.0016565325,9
9234928000,-0.9779602,0.002266019,0.0016722761,-0.20877218,0.9999987,2.9103833e-10,4.947652e-10,0.0016565325,9
9234976000,-0.9779547,0.0025012107,0.0016114038,-0.20879595,0.9999987,2.9103833e-10,4.947652e-10,0.0016565325,9
9235028000,-0.97794855,0.0026561667,0.0016251936,-0.20882289,0.9999987,2.9103833e-10,4.947652e-10,0.0016565325,9
9235080000,-0.9779371,0.002780926,0.001554143,-0.20887503,0.9999987,2.9103833e-10,4.947652e-10,0.0016565325,9
9235136000,-0.97794974,0.002828777,0.0015685695,-0.20881566,0.9999987,2.9103833e-10,4.947652e-10,0.0016565325,9
9235184000,-0.97795904,0.0030189962,0.0014151937,-0.20877059,0.9999987,2.9103833e-10,4.947652e-10,0.0016565325,9
9235236000,-0.9779422,0.0032092575,0.0011437837,-0.20884794,0.9999987,2.9103833e-10,4.947652e-10,0.0016565325,9
9235288000,-0.9779344,0.0035375846,0.000883558,-0.20888062,0.9999987,2.9103833e-10,4.947652e-10,0.0016565325,9
9235340000,-0.97793555,0.0038075252,0.0008113696,-0.20887087,0.9999987,2.9103833e-10,4.947652e-10,0.0016565325,9
9235392000,-0.9779491,0.0039950935,0.0006340519,-0.20880455,0.9999987,2.9103833e-10,4.947652e-10,0.0016565325,9
9235444000,-0.9779588,0.003954969,0.0005280847,-0.20876008,0.9999987,2.9103833e-10,4.947652e-10,0.0016565325,9
9235500000,-0.9779435,0.0039112316,0.0006753133,-0.20883217,0.9999987,2.9103833e-10,4.947652e-10,0.0016565325,9
9235548000,-0.9779271,0.004030649,0.0006969974,-0.20890644,0.9999987,2.9103833e-10,4.947652e-10,0.0016565325,9
9235600000,-0.97794235,0.0041431943,0.0006338044,-0.20883304,0.9999987,2.9103833e-10,4.947652e-10,0.0016565325,9
9235652000,-0.9779355,0.0041099503,0.00035780531,-0.20886691,0.9999987,2.9103833e-10,4.947652e-10,0.0016565325,9
9235704000,-0.977943,0.0041030725,7.039577e-05,-0.20883189,0.9999987,2.9103833e-10,4.947652e-10,0.0016565325,9
9235756000,-0.97794837,0.0041259546,4.6795958e-05,-0.20880601,0.9999987,2.9103833e-10,4.947652e-10,0.0016565325,9
9235808000,0.9780715,-0.004123653,-0.00016705671,0.20822896,-0.9999999,-8.7311505e-11,-1.7462301e-10,0.000616476,10
9235860000,0.97806513,-0.004219115,-0.00030423142,0.20825653,-0.9999999,-8.7311505e-11,-1.7462301e-10,0.000616476,10
9235912000,0.97805476,-0.0042636944,-0.00029529975,0.20830445,-0.9999999,-8.7311505e-11,-1.7462301e-10,0.000616476,10
9235964000,0.9780139,-0.0044145593,-0.00030621022,0.20849289,-0.9999999,-8.7311505e-11,-1.7462301e-10,0.000616476,10
9236020000,0.97797966,-0.004495929,-0.00047674667,0.20865136,-0.9999999,-8.7311505e-11,-1.7462301e-10,0.000616476,10
9236068000,0.97795886,-0.004545504,-0.0005057395,0.20874752,-0.9999999,-8.7311505e-11,-1.7462301e-10,0.000616476,10
9236120000,0.97794324,-0.0045379587,-0.0002969363,0.20882164,-0.9999999,-8.7311505e-11,-1.7462301e-10,0.000616476,10
9236172000,0.9779261,-0.0047842804,-8.133522e-05,0.20889659,-0.9999999,-8.7311505e-11,-1.7462301e-10,0.000616476,10
9236224000,0.97792006,-0.0050867717,-3.506296e-05,0.20891732,-0.9999999,-8.7311505e-11,-1.7462301e-10,0.000616476,10
9236280000,0.97790504,-0.0052889776,-8.505516e-05,0.20898312,-0.9999999,-8.7311505e-11,-1.7462301e-10,0.000616476,10
9236328000,0.97790587,-0.0053679566,-0.0002605052,0.20897686,-0.9999999,-8.7311505e-11,-1.7462301e-10,0.000616476,10
9236380000,0.9778891,-0.0054125125,-0.00030410787,0.209054,-0.9999999,-8.7311505e-11,-1.7462301e-10,0.000616476,10
9236432000,0.97790277,-0.005456836,-0.00024743765,0.20898896,-0.9999999,-8.7311505e-11,-1.7462301e-10,0.000616476,10
9236484000,0.9779001,-0.005322148,-0.00014323041,0.20900524,-0.9999999,-8.7311505e-11,-1.7462301e-10,0.000616476,10
9236540000,0.97790176,-0.005388522,0.00014575355,0.2089956,-0.9999999,-8.7311505e-11,-1.7462301e-10,0.000616476,10
9236592000,0.9779042,-0.0053292466,0.00027774269,0.20898552,-0.9999999,-8.7311505e-11,-1.7462301e-10,0.000616476,10
9236640000,0.9778978,-0.0054763975,0.00036156207,0.20901154,-0.9999999,-8.7311505e-11,-1.7462301e-10,0.000616476,10
9236696000,0.97789437,-0.0056107678,9.020558e-05,0.20902455,-0.9999999,-8.7311505e-11,-1.7462301e-10,0.000616476,10
9236744000,0.97791106,-0.0056998,2.908802e-05,0.20894377,-0.9999999,-8.7311505e-11,-1.7462301e-10,0.000616476,10
9236800000,0.9779117,-0.005648717,-3.1168547e-05,0.2089421,-0.9999999,-8.7311505e-11,-1.7462301e-10,0.000616476,10
9236852000,0.9779219,-0.0058392,5.6464756e-05,0.20888935,-0.9999999,-8.7311505e-11,-1.7462301e-10,0.000616476,10
9236900000,0.97791755,-0.006052274,9.718931e-05,0.20890337,-0.9999999,-8.7311505e-11,-1.7462301e-10,0.000616476,10
9236952000,0.977912,-0.0059316517,0.00026480536,0.20893283,-0.9999999,-8.7311505e-11,-1.7462301e-10,0.000616476,10
9237004000,0.97791153,-0.00589596,0.00031808013,0.2089359,-0.9999999,-8.7311505e-11,-1.7462301e-10,0.000616476,10
9237056000,0.97789323,-0.005886512,0.00061059126,0.2090215,-0.9999999,-8.7311505e-11,-1.7462301e-10,0.000616476,10
9237108000,0.9778611,-0.005992228,0.00088080356,0.20916754,-0.9999999,-8.7311505e-11,-1.7462301e-10,0.000616476,10
9237160000,0.97782695,-0.006144704,0.0009791842,0.20932223,-0.9999999,-8.7311505e-11,-1.7462301e-10,0.000616476,10
9237216000,0.9778002,-0.0060549667,0.00089178054,0.20945053,-0.9999999,-8.7311505e-11,-1.7462301e-10,0.000616476,10
9237264000,0.97779167,-0.005928031,0.00088609714,0.20949367,-0.9999999,-8.7311505e-11,-1.7462301e-10,0.000616476,10
9237316000,0.97777003,-0.0059300084,0.0010184571,0.2095938,-0.9999999,-8.7311505e-11,-1.7462301e-10,0.000616476,10
9237368000,0.9777876,-0.005885035,0.00089045294,0.20951357,-0.9999999,-8.7311505e-11,-1.7462301e-10,0.000616476,10
9237420000,0.9777992,-0.0060871304,0.000619073,0.2094549,-0.9999999,-8.7311505e-11,-1.7462301e-10,0.000616476,10
9237476000,0.977814,-0.006181179,0.00036349247,0.20938332,-0.9999999,-8.7311505e-11,-1.7462301e-10,0.000616476,10
9237524000,0.9778404,-0.0060900236,0.00039746755,0.20926274,-0.9999999,-8.7311505e-11,-1.7462301e-10,0.000616476,10
9237576000,0.97786677,-0.0058141244,0.00046146126,0.20914716,-0.9999999,-8.7311505e-11,-1.7462301e-10,0.000616476,10
9237628000,0.9778795,-0.00584434,0.00057919655,0.20908651,-0.9999999,-8.7311505e-11,-1.7462301e-10,0.000616476,10
9237680000,0.9778927,-0.00597687,0.0004102827,0.20902155,-0.9999999,-8.7311505e-11,-1.7462301e-10,0.000616476,10
9237736000,0.97791886,-0.005963224,0.00029594393,0.20889978,-0.9999999,-8.7311505e-11,-1.7462301e-10,0.000616476,10
9237788000,0.9779171,-0.006033767,0.00028867475,0.2089062,-0.9999999,-8.7311505e-11,-1.7462301e-10,0.000616476,10
9237836000,0.97790915,-0.006088801,0.00014953532,0.20894213,-0.9999999,-8.7311505e-11,-1.7462301e-10,0.000616476,10
9237888000,0.9779074,-0.006169982,-3.6142024e-05,0.20894717,-0.9999999,-8.7311505e-11,-1.7462301e-10,0.000616476,10
9237940000,0.97791517,-0.006138388,-1.454934e-05,0.20891206,-0.9999999,-8.7311505e-11,-1.7462301e-10,0.000616476,10
9237996000,0.977908,-0.0059109,-9.587266e-05,0.2089523,-0.9999999,-8.7311505e-11,-1.7462301e-10,0.000616476,10
9238044000,0.9779046,-0.005700602,-4.7457404e-05,0.20897397,-0.9999999,-8.7311505e-11,-1.7462301e-10,0.000616476,10
9238096000,0.9779045,-0.005496172,-0.0001347904,0.20897982,-0.9999999,-8.7311505e-11,-1.7462301e-10,0.000616476,10
9238148000,0.97790074,-0.005442705,-0.00021592148,0.2089989,-0.9999999,-8.7311505e-11,-1.7462301e-10,0.000616476,10
9238200000,0.97789055,-0.005610159,-0.00027327635,0.2090423,-0.9999999,-8.7311505e-11,-1.7462301e-10,0.000616476,10
9238256000,0.9778908,-0.005698527,-0.00022987802,0.20903847,-0.9999999,-8.7311505e-11,-1.7462301e-10,0.000616476,10
9238308000,0.977896,-0.0055700922,-0.00026554172,0.20901766,-0.9999999,-8.7311505e-11,-1.7462301e-10,0.000616476,10
9238356000,0.977887,-0.0052818726,-0.00028115048,0.20906705,-0.9999999,-8.7311505e-11,-1.7462301e-10,0.000616476,10
9238412000,0.977901,-0.0047654444,-0.00040783093,0.20901394,-0.9999999,-8.7311505e-11,-1.7462301e-10,0.000616476,10
9238460000,0.9778961,-0.0044695064,-0.0005649623,0.2090433,-0.9999999,-8.7311505e-11,-1.7462301e-10,0.000616476,10
9238512000,0.97791666,-0.004433629,-0.00066937756,0.20894732,-0.9999999,-8.7311505e-11,-1.7462301e-10,0.000616476,10
9238564000,0.97792715,-0.0044218353,-0.0008122449,0.20889792,-0.9999999,-8.7311505e-11,-1.7462301e-10,0.000616476,10
9238620000,0.9779293,-0.0044016414,-0.00094263116,0.2088878,-0.9999999,-8.7311505e-11,-1.7462301e-10,0.000616476,10
9238672000,0.9779387,-0.004578715,-0.0010282916,0.20883937,-0.9999999,-8.7311505e-11,-1.7462301e-10,0.000616476,10
9238720000,0.9779482,-0.0045217643,-0.0011058683,0.20879595,-0.9999999,-8.7311505e-11,-1.7462301e-10,0.000616476,10
9238772000,0.977945,-0.0045495634,-0.0011924716,0.20880954,-0.9999999,-8.7311505e-11,-1.7462301e-10,0.000616476,10
9238824000,0.9779656,-0.0043048253,-0.0014041195,0.20871693,-0.9999999,-8.7311505e-11,-1.7462301e-10,0.000616476,10
9238880000,0.97796893,-0.0040104613,-0.0014798715,0.20870663,-0.9999999,-8.7311505e-11,-1.7462301e-10,0.000616476,10
9238932000,0.9779808,-0.003944918,-0.0016569813,0.20865148,-0.9999999,-8.7311505e-11,-1.7462301e-10,0.000616476,10
9238980000,0.9779879,-0.003797119,-0.0017159102,0.20862062,-0.9999999,-8.7311505e-11,-1.7462301e-10,0.000616476,10
9239032000,0.97798616,-0.003673756,-0.0017039535,0.20863064,-0.9999999,-8.7311505e-11,-1.7462301e-10,0.000616476,10
9239088000,0.9779653,-0.0034015528,-0.0018759929,0.20873147,-0.9999999,-8.7311505e-11,-1.7462301e-10,0.000616476,10
9239136000,0.9779649,-0.0033427007,-0.001980641,0.20873345,-0.9999999,-8.7311505e-11,-1.7462301e-10,0.000616476,10
9239192000,0.97795725,-0.0035247975,-0.0019331946,0.208767,-0.9999999,-8.7311505e-11,-1.7462301e-10,0.000616476,10
9239240000,0.9779438,-0.0037033774,-0.0018819656,0.20882726,-0.9999999,-8.7311505e-11,-1.7462301e-10,0.000616476,10
9239292000,0.97794986,-0.0038242964,-0.0016832182,0.20879841,-0.9999999,-8.7311505e-11,-1.7462301e-10,0.000616476,10
9239344000,0.9779409,-0.0038012154,-0.0015662967,0.20884158,-0.9999999,-8.7311505e-11,-1.7462301e-10,0.000616476,10
9239396000,0.977935,-0.0037420061,-0.0013560727,0.20887128,-0.9999999,-8.7311505e-11,-1.7462301e-10,0.000616476,10
9239448000,0.97794324,-0.0036346908,-0.0015625572,0.20883355,-0.9999999,-8.7311505e-11,-1.7462301e-10,0.000616476,10
9239504000,0.97793746,-0.0036391658,-0.0016771479,0.2088596,-0.9999999,-8.7311505e-11,-1.7462301e-10,0.000616476,10
9239556000,0.97795135,-0.0034327998,-0.001614412,0.2087987,-0.9999999,-8.7311505e-11,-1.7462301e-10,0.000616476,10
9239608000,0.9779515,-0.003268539,-0.0017013475,0.20879982,-0.9999999,-8.7311505e-11,-1.7462301e-10,0.000616476,10
9239660000,0.977952,-0.0031449967,-0.001960938,0.20879702,-0.9999999,-8.7311505e-11,-1.7462301e-10,0.000616476,10
9239708000,0.97795004,-0.0030982154,-0.0020940285,0.20880535,-0.9999999,-8.7311505e-11,-1.7462301e-10,0.000616476,10
9239764000,0.9779421,-0.003268267,-0.002129115,0.20883983,-0.9999999,-8.7311505e-11,-1.7462301e-10,0.000616476,10
9239812000,0.97795373,-0.003423804,-0.0023030231,0.20878081,-0.9999999,-8.7311505e-11,-1.7462301e-10,0.000616476,10
9239868000,0.9779585,-0.0032950018,-0.0023802964,0.20875968,-0.9999999,-8.7311505e-11,-1.7462301e-10,0.000616476,10
9239916000,0.97796404,-0.00300642,-0.0024840506,0.20873728,-0.9999999,-8.7311505e-11,-1.7462301e-10,0.000616476,10
9239972000,0.97796893,-0.0028205612,-0.0025126885,0.20871639,-0.9999999,-8.7311505e-11,-1.7462301e-10,0.000616476,10
9240020000,0.9779487,-0.002694707,-0.0024507768,0.20881319,-0.9999999,-8.7311505e-11,-1.7462301e-10,0.000616476,10
9240072000,0.9779614,-0.0024653866,-0.0024361133,0.20875698,-0.9999999,-8.7311505e-11,-1.7462301e-10,0.000616476,10
9240124000,0.9779623,-0.0022989258,-0.0024815062,0.20875436,-0.9999999,-8.7311505e-11,-1.7462301e-10,0.000616476,10
9240180000,0.97796327,-0.0021817451,-0.0025646708,0.20875031,-0.9999999,-8.7311505e-11,-1.7462301e-10,0.000616476,10
9240232000,0.9779657,-0.002294789,-0.0025610016,0.20873763,-0.9999999,-8.7311505e-11,-1.7462301e-10,0.000616476,10
9240280000,0.9779744,-0.0022849762,-0.0025521247,0.20869705,-0.9999999,-8.7311505e-11,-1.7462301e-10,0.000616476,10
9240332000,0.9779769,-0.0023965363,-0.0025731546,0.20868406,-0.9999999,-8.7311505e-11,-1.7462301e-10,0.000616476,10
9240388000,0.97797066,-0.0028273908,-0.002707414,0.20870578,-0.9999999,-8.7311505e-11,-1.7462301e-10,0.000616476,10
9240436000,0.97796416,-0.003160217,-0.003191894,0.20872465,-0.9999999,-8.7311505e-11,-1.7462301e-10,0.000616476,10
9240492000,0.97796017,-0.0030530451,-0.0034980972,0.20874022,-0.9999999,-8.7311505e-11,-1.7462301e-10,0.000616476,10
9240540000,0.97796094,-0.00289406,-0.0036040952,0.20873697,-0.9999999,-8.7311505e-11,-1.7462301e-10,0.000616476,10
9240596000,0.97795814,-0.0027454842,-0.0036498457,0.2087515,-0.9999999,-8.7311505e-11,-1.7462301e-10,0.000616476,10
9240644000,0.977961,-0.0026300487,-0.0034352927,0.20874313,-0.9999999,-8.7311505e-11,-1.7462301e-10,0.000616476,10
9240696000,0.97796655,-0.0026183247,-0.003406233,0.20871724,-0.9999999,-8.7311505e-11,-1.7462301e-10,0.000616476,10
9240752000,0.9779716,-0.002522273,-0.0036057546,0.2086914,-0.9999999,-8.7311505e-11,-1.7462301e-10,0.000616476,10
9240804000,0.97797,-0.0027194608,-0.003899692,0.20869158,-0.9999999,-8.7311505e-11,-1.7462301e-10,0.000616476,10
9240856000,0.9779751,-0.0030960515,-0.003971536,0.20866123,-0.9999999,-8.7311505e-11,-1.7462301e-10,0.000616476,10
9240904000,0.9779741,-0.0034093095,-0.003964184,0.20866103,-0.9999999,-8.7311505e-11,-1.7462301e-10,0.000616476,10
9240956000,0.9779693,-0.0037254419,-0.0038222645,0.20868064,-0.9999999,-8.7311505e-11,-1.7462301e-10,0.000616476,10
9241008000,0.97796005,-0.0037576791,-0.0038027389,0.2087235,-0.9999999,-8.7311505e-11,-1.7462301e-10,0.000616476,10
9241060000,0.9779484,-0.003632006,-0.0037788055,0.20878112,-0.9999999,-8.7311505e-11,-1.7462301e-10,0.000616476,10
9241112000,0.977963,-0.0035237279,-0.0037734085,0.20871472,-0.9999999,-8.7311505e-11,-1.7462301e-10,0.000616476,10
9241164000,0.97795814,-0.0035748242,-0.0037018557,0.20873778,-0.9999999,-8.7311505e-11,-1.7462301e-10,0.000616476,10
9241220000,0.9779446,-0.0035967578,-0.0035114477,0.20880397,-0.9999999,-8.7311505e-11,-1.7462301e-10,0.000616476,10
9241272000,0.9779449,-0.0033567296,-0.003514651,0.2088067,-0.9999999,-8.7311505e-11,-1.7462301e-10,0.000616476,10
9241320000,0.9779502,-0.0032546513,-0.0035893288,0.20878221,-0.9999999,-8.7311505e-11,-1.7462301e-10,0.000616476,10
9241372000,0.9779445,-0.0031810696,-0.0038363135,0.20880538,-0.9999999,-8.7311505e-11,-1.7462301e-10,0.000616476,10
9241424000,0.9779582,-0.003113103,-0.0039922963,0.20873968,-0.9999999,-8.7311505e-11,-1.7462301e-10,0.000616476,10
9241480000,0.9779711,-0.0029869096,-0.0038604313,0.20868327,-0.9999999,-8.7311505e-11,-1.7462301e-10,0.000616476,10
9241532000,0.97797394,-0.002891744,-0.0036980077,0.20867424,-0.9999999,-8.7311505e-11,-1.7462301e-10,0.000616476,10
9241580000,0.9779914,-0.0027775029,-0.003534366,0.20859678,-0.9999999,-8.7311505e-11,-1.7462301e-10,0.000616476,10
9241632000,0.9779838,-0.0025873892,-0.0035133876,0.20863575,-0.9999999,-8.7311505e-11,-1.7462301e-10,0.000616476,10
9241684000,0.97798157,-0.0026060462,-0.0033973302,0.20864742,-0.9999999,-8.7311505e-11,-1.7462301e-10,0.000616476,10
9241740000,0.97798663,-0.0025724154,-0.0033063293,0.20862557,-0.9999999,-8.7311505e-11,-1.7462301e-10,0.000616476,10
9241788000,0.977985,-0.0026509222,-0.0031050437,0.20863554,-0.9999999,-8.7311505e-11,-1.7462301e-10,0.000616476,10
9241844000,0.97799385,-0.0027537777,-0.0029245464,0.2085954,-0.9999999,-8.7311505e-11,-1.7462301e-10,0.000616476,10
9241892000,0.97799,-0.002643748,-0.0027547502,0.20861739,-0.9999999,-8.7311505e-11,-1.7462301e-10,0.000616476,10
9241944000,0.9779982,-0.0025662591,-0.0028942137,0.20857738,-0.9999999,-8.7311505e-11,-1.7462301e-10,0.000616476,10
9241996000,0.97800046,-0.0025479551,-0.002867483,0.20856771,-0.9999999,-8.7311505e-11,-1.7462301e-10,0.000616476,10
9242052000,0.97798955,-0.0023346967,-0.0028118049,0.20862213,-0.9999999,-8.7311505e-11,-1.7462301e-10,0.000616476,10
9242100000,0.97798896,-0.0022066066,-0.002665526,0.20862828,-0.9999999,-8.7311505e-11,-1.7462301e-10,0.000616476,10
9242152000,0.9779937,-0.0020959538,-0.0023692327,0.20861056,-0.9999999,-8.7311505e-11,-1.7462301e-10,0.000616476,10
9242208000,0.9779913,-0.0020134666,-0.002109852,0.20862535,-0.9999999,-8.7311505e-11,-1.7462301e-10,0.000616476,10
9242256000,0.9779904,-0.002011307,-0.0019143329,0.20863162,-0.9999999,-8.7311505e-11,-1.7462301e-10,0.000616476,10
9242308000,0.9779868,-0.0021055331,-0.0016646119,0.2086496,-0.9999999,-8.7311505e-11,-1.7462301e-10,0.000616476,10
9242364000,0.97799724,-0.0021679061,-0.0013772635,0.20860203,-0.9999999,-8.7311505e-11,-1.7462301e-10,0.000616476,10
9242412000,0.9779806,-0.0019624995,-0.0013458496,0.20868257,-0.9999999,-8.7311505e-11,-1.7462301e-10,0.000616476,10
9242464000,0.977979,-0.0016783143,-0.0014517359,0.20869187,-0.9999999,-8.7311505e-11,-1.7462301e-10,0.000616476,10
9242516000,0.9779735,-0.0017705476,-0.0014229758,0.20871675,-0.9999999,-8.7311505e-11,-1.7462301e-10,0.000616476,10
9242568000,0.97797674,-0.0018445805,-0.0014613674,0.20870061,-0.9999999,-8.7311505e-11,-1.7462301e-10,0.000616476,10
9242620000,0.9779703,-0.0020305386,-0.001494462,0.20872892,-0.9999999,-8.7311505e-11,-1.7462301e-10,0.000616476,10
9242672000,0.97795606,-0.0021094852,-0.0015675939,0.20879468,-0.9999999,-8.7311505e-11,-1.7462301e-10,0.000616476,10
9242728000,0.9779796,-0.002184343,-0.0015816861,0.20868298,-0.9999999,-8.7311505e-11,-1.7462301e-10,0.000616476,10
9242776000,0.9779703,-0.0022745295,-0.0016093601,0.20872566,-0.9999999,-8.7311505e-11,-1.7462301e-10,0.000616476,10
9242828000,0.97798026,-0.0023287043,-0.0018357309,0.20867616,-0.9999999,-8.7311505e-11,-1.7462301e-10,0.000616476,10
9242880000,0.97799516,-0.0023198773,-0.001989218,0.20860532,-0.9999999,-8.7311505e-11,-1.7462301e-10,0.000616476,10
9242936000,0.9779905,-0.002299882,-0.002209613,0.20862526,-0.9999999,-8.7311505e-11,-1.7462301e-10,0.000616476,10
9242988000,0.97799677,-0.002332564,-0.0021231659,0.20859633,-0.9999999,-8.7311505e-11,-1.7462301e-10,0.000616476,10
9243036000,0.97798914,-0.0022780215,-0.0022160904,0.20863222,-0.9999999,-8.7311505e-11,-1.7462301e-10,0.000616476,10
9243088000,0.9779811,-0.0021653844,-0.0022227827,0.20867059,-0.9999999,-8.7311505e-11,-1.7462301e-10,0.000616476,10
9243140000,0.97798187,-0.0021674836,-0.0022169612,0.2086671,-0.9999999,-8.7311505e-11,-1.7462301e-10,0.000616476,10
9243192000,0.9779887,-0.0022935588,-0.002096963,0.20863484,-0.9999999,-8.7311505e-11,-1.7462301e-10,0.000616476,10
9243244000,0.97799385,-0.0024162966,-0.001974467,0.20861049,-0.9999999,-8.7311505e-11,-1.7462301e-10,0.000616476,10
9243296000,0.97798836,-0.0025375225,-0.0019054989,0.20863564,-0.9999999,-8.7311505e-11,-1.7462301e-10,0.000616476,10
9243348000,0.9779802,-0.002695583,-0.0017877341,0.20867257,-0.9999999,-8.7311505e-11,-1.7462301e-10,0.000616476,10
9243404000,0.97797817,-0.0026135037,-0.0016951209,0.20868438,-0.9999999,-8.7311505e-11,-1.7462301e-10,0.000616476,10
9243452000,0.97798383,-0.002392059,-0.0016241808,0.20866117,-0.9999999,-8.7311505e-11,-1.7462301e-10,0.000616476,10
9243504000,0.9779832,-0.0020434165,-0.0016795758,0.20866722,-0.9999999,-8.7311505e-11,-1.7462301e-10,0.000616476,10
9243556000,0.97798157,-0.0018509317,-0.0016943348,0.2086765,-0.9999999,-8.7311505e-11,-1.7462301e-10,0.000616476,10
9243608000,0.9779786,-0.0017529717,-0.0015997265,0.20869201,-0.9999999,-8.7311505e-11,-1.7462301e-10,0.000616476,10
9243660000,0.97798324,-0.0015145876,-0.0016885427,0.20867121,-0.9999999,-8.7311505e-11,-1.7462301e-10,0.000616476,10
9243712000,0.9779912,-0.0015099272,-0.001743712,0.2086331,-0.9999999,-8.7311505e-11,-1.7462301e-10,0.000616476,10
9243764000,0.9779775,-0.0015717596,-0.0017396852,0.20869733,-0.9999999,-8.7311505e-11,-1.7462301e-10,0.000616476,10
9243816000,0.977976,-0.0016157456,-0.0016043193,0.20870532,-0.9999999,-8.7311505e-11,-1.7462301e-10,0.000616476,10
9243868000,0.9779665,-0.0016036663,-0.0013157037,0.20875187,-0.9999999,-8.7311505e-11,-1.7462301e-10,0.000616476,10
9243920000,0.97796905,-0.0015293792,-0.001117631,0.20874166,-0.9999999,-8.7311505e-11,-1.7462301e-10,0.000616476,10
9243976000,0.9779892,-0.0015068518,-0.0009156614,0.20864815,-0.9999999,-8.7311505e-11,-1.7462301e-10,0.000616476,10
9244024000,0.97799104,-0.001443258,-0.0007230238,0.20864086,-0.9999999,-8.7311505e-11,-1.7462301e-10,0.000616476,10
9244080000,0.9779926,-0.0017219167,-0.0004824823,0.20863204,-0.9999999,-8.7311505e-11,-1.7462301e-10,0.000616476,10
9244128000,0.9779926,-0.0018540649,-0.00053747545,0.20863073,-0.9999999,-8.7311505e-11,-1.7462301e-10,0.000616476,10
9244184000,0.9780015,-0.0019214174,-0.0005755846,0.2085883,-0.9999999,-8.7311505e-11,-1.7462301e-10,0.000616476,10
9244236000,0.97801274,-0.0019684134,-0.00050543953,0.20853563,-0.9999999,-8.7311505e-11,-1.7462301e-10,0.000616476,10
9244284000,0.9780114,-0.001865759,-0.00063455245,0.20854212,-0.9999999,-8.7311505e-11,-1.7462301e-10,0.000616476,10
9244336000,0.978008,-0.0016110443,-0.000877815,0.20855938,-0.9999999,-8.7311505e-11,-1.7462301e-10,0.000616476,10
9244388000,0.97800124,-0.0015319492,-0.0010004886,0.20859113,-0.9999999,-8.7311505e-11,-1.7462301e-10,0.000616476,10
9244444000,0.97799337,-0.0014395758,-0.0008431738,0.20862928,-0.9999999,-8.7311505e-11,-1.7462301e-10,0.000616476,10
9244492000,0.9779836,-0.0015541228,-0.0006453435,0.20867485,-0.9999999,-8.7311505e-11,-1.7462301e-10,0.000616476,10
9244544000,0.97798693,-0.0015308437,-0.0006176647,0.20866011,-0.9999999,-8.7311505e-11,-1.7462301e-10,0.000616476,10
9244600000,0.97798437,-0.0012355772,-0.00079511275,0.20867296,-0.9999999,-8.7311505e-11,-1.7462301e-10,0.000616476,10
9244652000,0.977964,-0.0011759836,-0.0009921215,0.20876779,-0.9999999,-8.7311505e-11,-1.7462301e-10,0.000616476,10
9244704000,0.9779719,-0.0013395711,-0.0013138256,0.20872834,-0.9999999,-8.7311505e-11,-1.7462301e-10,0.000616476,10
9244756000,0.97797304,-0.0013876503,-0.0015199543,0.208721,-0.9999999,-8.7311505e-11,-1.7462301e-10,0.000616476,10
9244804000,0.97797364,-0.0014739482,-0.0016812317,0.20871656,-0.9999999,-8.7311505e-11,-1.7462301e-10,0.000616476,10
9244856000,0.9779746,-0.0016641173,-0.0017213968,0.2087103,-0.9999999,-8.7311505e-11,-1.7462301e-10,0.000616476,10
9244908000,0.97798944,-0.0017339542,-0.001648949,0.20864077,-0.9999999,-8.7311505e-11,-1.7462301e-10,0.000616476,10
9244960000,0.9779842,-0.0015964232,-0.0016289011,0.20866656,-0.9999999,-8.7311505e-11,-1.7462301e-10,0.000616476,10
9245012000,0.9779688,-0.0014007937,-0.0014900854,0.20874155,-0.9999999,-8.7311505e-11,-1.7462301e-10,0.000616476,10
9245064000,0.9779621,-0.0014311107,-0.0011801107,0.20877463,-0.9999999,-8.7311505e-11,-1.7462301e-10,0.000616476,10
9245116000,0.9779776,-0.0014919433,-0.000870846,0.20870286,-0.9999999,-8.7311505e-11,-1.7462301e-10,0.000616476,10
9245168000,0.9779809,-0.0013698878,-0.00068278634,0.20868878,-0.9999999,-8.7311505e-11,-1.7462301e-10,0.000616476,10
9245224000,0.977982,-0.0012258695,-0.0007145205,0.20868489,-0.9999999,-8.7311505e-11,-1.7462301e-10,0.000616476,10
9245272000,0.977975,-0.0010995524,-0.00076852663,0.20871815,-0.9999999,-8.7311505e-11,-1.7462301e-10,0.000616476,10
9245328000,0.97796965,-0.0009341445,-0.000854351,0.20874344,-0.9999999,-8.7311505e-11,-1.7462301e-10,0.000616476,10
9245376000,0.9779762,-0.0010575841,-0.0011156568,0.20871086,-0.9999999,-8.7311505e-11,-1.7462301e-10,0.000616476,10
9245428000,0.9779779,-0.0011522514,-0.0015166763,0.20870008,-0.9999999,-8.7311505e-11,-1.7462301e-10,0.000616476,10
9245480000,0.9779905,-0.0010872319,-0.0015562848,0.20864119,-0.9999999,-8.7311505e-11,-1.7462301e-10,0.000616476,10
9245532000,0.9779883,-0.00095705665,-0.0017394612,0.20865028,-0.9999999,-8.7311505e-11,-1.7462301e-10,0.000616476,10
9245584000,0.9779775,-0.00082412484,-0.0018270887,0.20870087,-0.9999999,-8.7311505e-11,-1.7462301e-10,0.000616476,10
9245636000,0.9779702,-0.00078110216,-0.0018443618,0.20873518,-0.9999999,-8.7311505e-11,-1.7462301e-10,0.000616476,10
9245688000,0.977972,-0.0006101118,-0.0019023209,0.20872691,-0.9999999,-8.7311505e-11,-1.7462301e-10,0.000616476,10
9245740000,0.9779639,-0.00032158036,-0.0020049107,0.20876396,-0.9999999,-8.7311505e-11,-1.7462301e-10,0.000616476,10
9245792000,0.97795904,-0.00017019465,-0.0020056611,0.20878772,-0.9999999,-8.7311505e-11,-1.7462301e-10,0.000616476,10
9245844000,0.97795963,-0.00023608169,-0.0018211043,0.2087862,-0.9999999,-8.7311505e-11,-1.7462301e-10,0.000616476,10
9245896000,0.9779537,-0.0002366152,-0.0015359343,0.20881622,-0.9999999,-8.7311505e-11,-1.7462301e-10,0.000616476,10
9245948000,0.9779803,-0.0003007303,-0.0013350613,0.20869282,-0.9999999,-8.7311505e-11,-1.7462301e-10,0.000616476,10
9246000000,0.97798073,-0.0003519198,-0.0010516637,0.20869222,-0.9999999,-8.7311505e-11,-1.7462301e-10,0.000616476,10
9246052000,0.97796816,-0.000166169,-0.0009754464,0.20875187,-0.9999999,-8.7311505e-11,-1.7462301e-10,0.000616476,10
9246108000,0.9779653,-0.00041654115,-0.0009962784,0.20876487,-0.9999999,-8.7311505e-11,-1.7462301e-10,0.000616476,10
9246160000,0.9779622,-0.0005560507,-0.0011966734,0.2087782,-0.9999999,-8.7311505e-11,-1.7462301e-10,0.000616476,10
9246208000,0.9779703,-0.00081434625,-0.0012902281,0.2087384,-0.9999999,-8.7311505e-11,-1.7462301e-10,0.000616476,10
9246264000,0.9779828,-0.00090212084,-0.0011503161,0.20868032,-0.9999999,-8.7311505e-11,-1.7462301e-10,0.000616476,10
9246312000,0.97796685,-0.00083604304,-0.0010932238,0.20875575,-0.9999999,-8.7311505e-11,-1.7462301e-10,0.000616476,10
9246364000,0.9779693,-0.00067677663,-0.0012797657,0.20874397,-0.9999999,-8.7311505e-11,-1.7462301e-10,0.000616476,10
9246416000,0.97796977,-0.00055786216,-0.0014417011,0.2087411,-0.9999999,-8.7311505e-11,-1.7462301e-10,0.000616476,10
9246468000,0.97796386,-0.0005137092,-0.0015656588,0.20876774,-0.9999999,-8.7311505e-11,-1.7462301e-10,0.000616476,10
9246520000,0.9779629,-0.00064919837,-0.0015842109,0.20877175,-0.9999999,-8.7311505e-11,-1.7462301e-10,0.000616476,10
9246572000,0.9779733,-0.00075714936,-0.0017828763,0.20872098,-0.9999999,-8.7311505e-11,-1.7462301e-10,0.000616476,10
9246624000,0.9779729,-0.00077626354,-0.0019840896,0.20872138,-0.9999999,-8.7311505e-11,-1.7462301e-10,0.000616476,10
9246676000,0.9779803,-0.0007988783,-0.0022030328,0.20868433,-0.9999999,-8.7311505e-11,-1.7462301e-10,0.000616476,10
9246728000,0.97799087,-0.00067490025,-0.002317202,0.20863388,-0.9999999,-8.7311505e-11,-1.7462301e-10,0.000616476,10
9246780000,0.9779885,-0.00049808697,-0.0024486454,0.20864378,-0.9999999,-8.7311505e-11,-1.7462301e-10,0.000616476,10
9246832000,0.97796863,-0.0002766638,-0.0026747468,0.20873497,-0.9999999,-8.7311505e-11,-1.7462301e-10,0.000616476,10
9246884000,0.9779639,-0.00024210152,-0.0028591193,0.20875458,-0.9999999,-8.7311505e-11,-1.7462301e-10,0.000616476,10
9246936000,0.9779582,-0.00027987274,-0.0029243059,0.20878066,-0.9999999,-8.7311505e-11,-1.7462301e-10,0.000616476,10
9246988000,0.977959,-0.0004378139,-0.0029184315,0.20877634,-0.9999999,-8.7311505e-11,-1.7462301e-10,0.000616476,10
9247040000,0.9779713,-0.0007368659,-0.002657872,0.20872118,-0.9999999,-8.7311505e-11,-1.7462301e-10,0.000616476,10
9247096000,0.97797155,-0.00080479163,-0.0023957507,0.20872317,-0.9999999,-8.7311505e-11,-1.7462301e-10,0.000616476,10
9247144000,0.9779751,-0.00078445167,-0.002165332,0.20870896,-0.9999999,-8.7311505e-11,-1.7462301e-10,0.000616476,10
9247196000,0.97798604,-0.00084175344,-0.0021777484,0.20865741,-0.9999999,-8.7311505e-11,-1.7462301e-10,0.000616476,10
9247252000,0.97798115,-0.0008791093,-0.0019606357,0.20868233,-0.9999999,-8.7311505e-11,-1.7462301e-10,0.000616476,10
9247300000,0.9779705,-0.0007850628,-0.0018042399,0.20873435,-0.9999999,-8.7311505e-11,-1.7462301e-10,0.000616476,10
9247356000,0.97798526,-0.0007712014,-0.001916202,0.20866391,-0.9999999,-8.7311505e-11,-1.7462301e-10,0.000616476,10
9247404000,0.97801465,-0.0007292816,-0.0019594142,0.20852633,-0.9999999,-8.7311505e-11,-1.7462301e-10,0.000616476,10
9247456000,0.97801685,-0.00066699076,-0.0018350176,0.20851706,-0.9999999,-8.7311505e-11,-1.7462301e-10,0.000616476,10
9247508000,0.97801036,-0.0007381686,-0.001792175,0.20854737,-0.9999999,-8.7311505e-11,-1.7462301e-10,0.000616476,10
9247560000,0.9779981,-0.0007133042,-0.0020350267,0.20860256,-0.9999999,-8.7311505e-11,-1.7462301e-10,0.000616476,10
9247612000,0.97799444,-0.0007804764,-0.002145849,0.20861906,-0.9999999,-8.7311505e-11,-1.7462301e-10,0.000616476,10
9247664000,0.9780087,-0.00075202715,-0.0021920977,0.20855148,-0.9999999,-8.7311505e-11,-1.7462301e-10,0.000616476,10
9247716000,0.9780005,-0.00060334936,-0.0022661055,0.20858946,-0.9999999,-8.7311505e-11,-1.7462301e-10,0.000616476,10
9247768000,0.9779992,-0.00052117876,-0.0025670049,0.20859237,-0.9999999,-8.7311505e-11,-1.7462301e-10,0.000616476,10
9247820000,0.9779997,-0.00043686785,-0.0026511,0.2085891,-0.9999999,-8.7311505e-11,-1.7462301e-10,0.000616476,10
9247872000,0.9780058,-0.00043712693,-0.0025629937,0.20856188,-0.9999999,-8.7311505e-11,-1.7462301e-10,0.000616476,10
9247924000,0.97800875,-0.00038712771,-0.0025687513,0.20854765,-0.9999999,-8.7311505e-11,-1.7462301e-10,0.000616476,10
9247976000,0.9780072,-0.00055097323,-0.002704683,0.20855321,-0.9999999,-8.7311505e-11,-1.7462301e-10,0.000616476,10
9248032000,0.97799665,-0.00079141627,-0.0028898243,0.20859915,-0.9999999,-8.7311505e-11,-1.7462301e-10,0.000616476,10
9248080000,0.9780088,-0.0010122915,-0.0028666712,0.20854136,-0.9999999,-8.7311505e-11,-1.7462301e-10,0.000616476,10
9248132000,0.9780038,-0.0011563268,-0.0031538284,0.20856065,-0.9999999,-8.7311505e-11,-1.7462301e-10,0.000616476,10
9248184000,0.9780066,-0.0013602641,-0.0033781922,0.20854232,-0.9999999,-8.7311505e-11,-1.7462301e-10,0.000616476,10
9248240000,0.97800875,-0.0013748163,-0.0032379401,0.20853406,-0.9999999,-8.7311505e-11,-1.7462301e-10,0.000616476,10
9248288000,0.9780225,-0.0012304946,-0.003112186,0.208473,-0.9999999,-8.7311505e-11,-1.7462301e-10,0.000616476,10
9248344000,0.9780322,-0.0012448052,-0.002953801,0.20842953,-0.9999999,-8.7311505e-11,-1.7462301e-10,0.000616476,10
9248392000,0.9780237,-0.0013590126,-0.0029363935,0.20846877,-0.9999999,-8.7311505e-11,-1.7462301e-10,0.000616476,10
9248444000,0.9780236,-0.00156772,-0.0027413275,0.20847033,-0.9999999,-8.7311505e-11,-1.7462301e-10,0.000616476,10
9248500000,0.97800666,-0.0015994862,-0.0025648437,0.20855184,-0.9999999,-8.7311505e-11,-1.7462301e-10,0.000616476,10
9248552000,0.9780084,-0.0016267374,-0.0026309418,0.20854296,-0.9999999,-8.7311505e-11,-1.7462301e-10,0.000616476,10
9248600000,0.9780197,-0.0015851597,-0.0026441636,0.2084898,-0.9999999,-8.7311505e-11,-1.7462301e-10,0.000616476,10
9248652000,0.9780143,-0.0015096993,-0.002583721,0.20851667,-0.9999999,-8.7311505e-11,-1.7462301e-10,0.000616476,10
9248704000,0.9780159,-0.0016392547,-0.0025090943,0.20850883,-0.9999999,-8.7311505e-11,-1.7462301e-10,0.000616476,10
9248760000,0.97801036,-0.0019271189,-0.002514208,0.20853266,-0.9999999,-8.7311505e-11,-1.7462301e-10,0.000616476,10
9248808000,0.9780045,-0.0020128496,-0.0023824617,0.20856069,-0.9999999,-8.7311505e-11,-1.7462301e-10,0.000616476,10
9248864000,0.9780018,-0.001988902,-0.0021093923,0.20857625,-0.9999999,-8.7311505e-11,-1.7462301e-10,0.000616476,10
9248912000,0.9779847,-0.0019064639,-0.0018728521,0.20865962,-0.9999999,-8.7311505e-11,-1.7462301e-10,0.000616476,10
9248968000,0.9779899,-0.0018183583,-0.0019134078,0.20863585,-0.9999999,-8.7311505e-11,-1.7462301e-10,0.000616476,10
9249016000,0.9780034,-0.0017170152,-0.0019290133,0.20857309,-0.9999999,-8.7311505e-11,-1.7462301e-10,0.000616476,10
9249068000,0.97800577,-0.0012566674,-0.0020226631,0.2085643,-0.9999999,-8.7311505e-11,-1.7462301e-10,0.000616476,10
9249124000,0.97799695,-0.00096951483,-0.0020786936,0.20860665,-0.9999999,-8.7311505e-11,-1.7462301e-10,0.000616476,10
9249172000,0.97800046,-0.00079713756,-0.0019375911,0.20859219,-0.9999999,-8.7311505e-11,-1.7462301e-10,0.000616476,10
9249228000,0.9779942,-0.0007957971,-0.0018061929,0.20862274,-0.9999999,-8.7311505e-11,-1.7462301e-10,0.000616476,10
9249276000,0.97798795,-0.000768618,-0.0017059686,0.20865329,-0.9999999,-8.7311505e-11,-1.7462301e-10,0.000616476,10
9249332000,0.9779817,-0.0008784026,-0.0016903989,0.20868242,-0.9999999,-8.7311505e-11,-1.7462301e-10,0.000616476,10
9249380000,0.9779683,-0.00080186885,-0.0015668907,0.20874608,-0.9999999,-8.7311505e-11,-1.7462301e-10,0.000616476,10
9249436000,0.9779725,-0.0007623004,-0.0013065577,0.20872827,-0.9999999,-8.7311505e-11,-1.7462301e-10,0.000616476,10
9249484000,0.97797036,-0.0006709806,-0.001411795,0.20873822,-0.9999999,-8.7311505e-11,-1.7462301e-10,0.000616476,10
9249540000,0.9779763,-0.00069517025,-0.0015750212,0.2087086,-0.9999999,-8.7311505e-11,-1.7462301e-10,0.000616476,10
9249588000,0.9779883,-0.000467794,-0.001573284,0.20865339,-0.9999999,-8.7311505e-11,-1.7462301e-10,0.000616476,10
9249644000,0.97797716,-0.00037522128,-0.0016543354,0.20870563,-0.9999999,-8.7311505e-11,-1.7462301e-10,0.000616476,10
9249692000,0.9779673,-0.00059589103,-0.0019942159,0.20874788,-0.9999999,-8.7311505e-11,-1.7462301e-10,0.000616476,10
9249748000,0.9779776,-0.0008378646,-0.0022726676,0.20869587,-0.9999999,-8.7311505e-11,-1.7462301e-10,0.000616476,10
9249796000,0.97799724,-0.00081065245,-0.0023121173,0.20860368,-0.9999999,-8.7311505e-11,-1.7462301e-10,0.000616476,10
9249848000,0.9780036,-0.00094482553,-0.0023248238,0.20857283,-0.9999999,-8.7311505e-11,-1.7462301e-10,0.000616476,10
9249900000,0.97799563,-0.0013263137,-0.0025307923,0.20860587,-0.9999999,-8.7311505e-11,-1.7462301e-10,0.000616476,10
9249952000,0.97797465,-0.0014999214,-0.0025105423,0.20870352,-0.9999999,-8.7311505e-11,-1.7462301e-10,0.000616476,10
9250004000,0.9779663,-0.001744593,-0.0025072843,0.208741,-0.9999999,-8.7311505e-11,-1.7462301e-10,0.000616476,10
9250056000,0.97796804,-0.001821042,-0.0025650149,0.20873119,-0.9999999,-8.7311505e-11,-1.7462301e-10,0.000616476,10
9250108000,0.97796464,-0.0017905235,-0.0026331272,0.20874642,-0.9999999,-8.7311505e-11,-1.7462301e-10,0.000616476,10
9250160000,0.9779826,-0.0018658879,-0.002658074,0.20866136,-0.9999999,-8.7311505e-11,-1.7462301e-10,0.000616476,10
9250212000,0.97798985,-0.0021584244,-0.0027081182,0.20862408,-0.9999999,-8.7311505e-11,-1.7462301e-10,0.000616476,10
9250268000,0.9779904,-0.0024347918,-0.0028169653,0.20861706,-0.9999999,-8.7311505e-11,-1.7462301e-10,0.000616476,10
9250320000,0.9779869,-0.0026568396,-0.002938916,0.20862903,-0.9999999,-8.7311505e-11,-1.7462301e-10,0.000616476,10
9250368000,0.9779874,-0.0029177354,-0.0029191258,0.20862345,-0.9999999,-8.7311505e-11,-1.7462301e-10,0.000616476,10
9250420000,0.9779783,-0.003161001,-0.003065894,0.20866008,-0.9999999,-8.7311505e-11,-1.7462301e-10,0.000616476,10
9250472000,0.97797805,-0.0034083114,-0.0031009265,0.20865746,-0.9999999,-8.7311505e-11,-1.7462301e-10,0.000616476,10
9250524000,0.97798026,-0.0032943357,-0.0030352818,0.20864916,-0.9999999,-8.7311505e-11,-1.7462301e-10,0.000616476,10
9250580000,0.9779764,-0.0031935098,-0.0029773703,0.2086698,-0.9999999,-8.7311505e-11,-1.7462301e-10,0.000616476,10
9250628000,0.97797805,-0.0031796494,-0.0031180887,0.20866042,-0.9999999,-8.7311505e-11,-1.7462301e-10,0.000616476,10
9250680000,0.9779782,-0.003213802,-0.003197043,0.2086579,-0.9999999,-8.7311505e-11,-1.7462301e-10,0.000616476,10
9250732000,0.9779869,-0.0030942443,-0.003294315,0.20861755,-0.9999999,-8.7311505e-11,-1.7462301e-10,0.000616476,10
9250788000,0.9779944,-0.0030750332,-0.003467882,0.20857993,-0.9999999,-8.7311505e-11,-1.7462301e-10,0.000616476,10
9250836000,0.9779897,-0.0029976473,-0.0036995774,0.20859884,-0.9999999,-8.7311505e-11,-1.7462301e-10,0.000616476,10
9250892000,0.97798026,-0.0030685381,-0.0037052163,0.20864235,-0.9999999,-8.7311505e-11,-1.7462301e-10,0.000616476,10
9250944000,0.9779742,-0.0029697516,-0.0034374762,0.20867655,-0.9999999,-8.7311505e-11,-1.7462301e-10,0.000616476,10
9250992000,0.9779887,-0.002812334,-0.0031971338,0.2086142,-0.9999999,-8.7311505e-11,-1.7462301e-10,0.000616476,10
9251044000,0.9779922,-0.002605147,-0.0031507649,0.20860153,-0.9999999,-8.7311505e-11,-1.7462301e-10,0.000616476,10
9251096000,0.9779782,-0.002396318,-0.0032476224,0.20866801,-0.9999999,-8.7311505e-11,-1.7462301e-10,0.000616476,10
9251148000,0.97796834,-0.0022900584,-0.0032871806,0.20871522,-0.9999999,-8.7311505e-11,-1.7462301e-10,0.000616476,10
9251200000,0.97796404,-0.0023527618,-0.0032543463,0.20873459,-0.9999999,-8.7311505e-11,-1.7462301e-10,0.000616476,10
9251256000,0.97797436,-0.002530064,-0.003272855,0.20868401,-0.9999999,-8.7311505e-11,-1.7462301e-10,0.000616476,10
9251304000,0.97797424,-0.0025228786,-0.00310756,0.2086874,-0.9999999,-8.7311505e-11,-1.7462301e-10,0.000616476,10
9251360000,0.97797036,-0.0022455135,-0.0027454502,0.20871398,-0.9999999,-8.7311505e-11,-1.7462301e-10,0.000616476,10
9251412000,0.97797996,-0.0022053022,-0.00249846,0.20867254,-0.9999999,-8.7311505e-11,-1.7462301e-10,0.000616476,10
9251460000,0.97797704,-0.0022965888,-0.0025658854,0.20868425,-0.9999999,-8.7311505e-11,-1.7462301e-10,0.000616476,10
9251512000,0.97797245,-0.0023808433,-0.0024636183,0.2087059,-0.9999999,-8.7311505e-11,-1.7462301e-10,0.000616476,10
9251568000,0.97799456,-0.002398184,-0.002355059,0.20860381,-0.9999999,-8.7311505e-11,-1.7462301e-10,0.000616476,10
9251620000,0.9779977,-0.002274606,-0.0025314402,0.20858806,-0.9999999,-8.7311505e-11,-1.7462301e-10,0.000616476,10
9251672000,0.9779963,-0.0023478023,-0.0028441804,0.20858993,-0.9999999,-8.7311505e-11,-1.7462301e-10,0.000616476,10
9251720000,0.97799873,-0.0025179721,-0.0031293323,0.20857279,-0.9999999,-8.7311505e-11,-1.7462301e-10,0.000616476,10
9251776000,0.9779974,-0.00258337,-0.0032841554,0.2085754,-0.9999999,-8.7311505e-11,-1.7462301e-10,0.000616476,10
9251824000,0.9780087,-0.002562851,-0.003385094,0.20852141,-0.9999999,-8.7311505e-11,-1.7462301e-10,0.000616476,10
9251880000,0.9779958,-0.0025424748,-0.003553524,0.20857891,-0.9999999,-8.7311505e-11,-1.7462301e-10,0.000616476,10
9251932000,0.97798437,-0.0024246173,-0.0035406416,0.20863421,-0.9999999,-8.7311505e-11,-1.7462301e-10,0.000616476,10
9251980000,0.9779852,-0.0022711223,-0.0033300158,0.20863567,-0.9999999,-8.7311505e-11,-1.7462301e-10,0.000616476,10
9252032000,0.97799015,-0.0023211744,-0.0033823648,0.20861067,-0.9999999,-8.7311505e-11,-1.7462301e-10,0.000616476,10
9252084000,0.977993,-0.0025826439,-0.0035060516,0.20859247,-0.9999999,-8.7311505e-11,-1.7462301e-10,0.000616476,10
9252136000,0.97676045,0.013022798,-0.007665543,0.21380076,-0.9999999,-8.7311505e-11,-1.7462301e-10,0.000616476,10
9252192000,0.9689033,0.05006947,-0.017125469,0.24171534,-0.9999999,-8.7311505e-11,-1.7462301e-10,0.000616476,10
9252240000,0.9561811,0.0713878,-0.01992341,0.2832394,-0.9999999,-8.7311505e-11,-1.7462301e-10,0.000616476,10
9252292000,0.93658525,0.08809695,-0.017325934,0.33874327,-0.9999999,-8.7311505e-11,-1.7462301e-10,0.000616476,10
9252344000,0.9117235,0.094691135,-0.009058254,0.3996396,-0.9999999,-8.7311505e-11,-1.7462301e-10,0.000616476,10
9252396000,0.88279897,0.089141496,-0.0003385512,0.46121565,-0.9999999,-8.7311505e-11,-1.7462301e-10,0.000616476,10
9252448000,0.85165673,0.07464637,0.0035510971,0.51874465,-0.9999999,-8.7311505e-11,-1.7462301e-10,0.000616476,10
9252500000,0.8200676,0.05750478,0.0030399093,0.56936204,-0.9999999,-8.7311505e-11,-1.7462301e-10,0.000616476,10
9252552000,0.78934634,0.042789843,0.00038824335,0.6124552,-0.9999999,-8.7311505e-11,-1.7462301e-10,0.000616476,10
9252604000,0.76039594,0.03305651,-0.0035195008,0.64860857,-0.9999999,-8.7311505e-11,-1.7462301e-10,0.000616476,10
9252656000,0.7337408,0.028337859,-0.0075158603,0.67879665,-0.9999999,-8.7311505e-11,-1.7462301e-10,0.000616476,10
9252708000,0.7097813,0.0273845,-0.01115077,0.70380133,-0.9999999,-8.7311505e-11,-1.7462301e-10,0.000616476,10
9252760000,0.6884975,0.028474284,-0.014061342,0.72454315,-0.9999999,-8.7311505e-11,-1.7462301e-10,0.000616476,10
9252812000,0.669816,0.030273354,-0.016360715,0.7417293,-0.9999999,-8.7311505e-11,-1.7462301e-10,0.000616476,10
9252864000,0.65358067,0.032192867,-0.017944936,0.7559589,-0.9999999,-8.7311505e-11,-1.7462301e-10,0.000616476,10
9252920000,0.638467,0.034017343,-0.019151745,0.7686586,-0.9999999,-8.7311505e-11,-1.7462301e-10,0.000616476,10
9252968000,0.62720454,0.03506135,-0.019808171,0.77781296,-0.9999999,-8.7311505e-11,-1.7462301e-10,0.000616476,10
9253024000,0.6159402,0.035947118,-0.020649139,0.7867014,-0.9999999,-8.7311505e-11,-1.7462301e-10,0.000616476,10
9253076000,0.60711396,0.03638259,-0.021426292,0.79349226,-0.9999999,-8.7311505e-11,-1.7462301e-10,0.000616476,10
9253124000,0.6000243,0.036681093,-0.021986296,0.79883784,-0.9999999,-8.7311505e-11,-1.7462301e-10,0.000616476,10
9253176000,0.5933627,0.03709829,-0.0226862,0.8037599,-0.9999999,-8.7311505e-11,-1.7462301e-10,0.000616476,10
9253228000,0.5877528,0.037431013,-0.023553224,0.807831,-0.9999999,-8.7311505e-11,-1.7462301e-10,0.000616476,10
9253280000,0.5829327,0.037710033,-0.024349267,0.81127965,-0.9999999,-8.7311505e-11,-1.7462301e-10,0.000616476,10
9253332000,0.5787598,0.038208187,-0.02508783,0.81421614,-0.9999999,-8.7311505e-11,-1.7462301e-10,0.000616476,10
9253388000,0.57507384,0.03900389,-0.025838893,0.8167627,-0.9999999,-8.7311505e-11,-1.7462301e-10,0.000616476,10
9253440000,0.57220995,0.039748233,-0.026696688,0.81870824,-0.9999999,-8.7311505e-11,-1.7462301e-10,0.000616476,10
9253488000,0.5698703,0.040404566,-0.027505435,0.82027966,-0.9999999,-8.7311505e-11,-1.7462301e-10,0.000616476,10
9253544000,0.567535,0.04120331,-0.028290607,0.8218309,-0.9999999,-8.7311505e-11,-1.7462301e-10,0.000616476,10
9253592000,0.5658865,0.04182408,-0.028833346,0.82291675,-0.9999999,-8.7311505e-11,-1.7462301e-10,0.000616476,10
9253644000,0.5643789,0.04241699,-0.02944949,0.82389927,-0.9999999,-8.7311505e-11,-1.7462301e-10,0.000616476,10
9253700000,0.5631049,0.043044943,-0.03014346,0.82471293,-0.9999999,-8.7311505e-11,-1.7462301e-10,0.000616476,10
9253748000,0.56211007,0.04370933,-0.030832505,0.82533085,-0.9999999,-8.7311505e-11,-1.7462301e-10,0.000616476,10
9253804000,0.5611219,0.044494405,-0.03167808,0.82592916,-0.9999999,-8.7311505e-11,-1.7462301e-10,0.000616476,10
9253852000,0.5604896,0.045080267,-0.032301843,0.8263025,-0.9999999,-8.7311505e-11,-1.7462301e-10,0.000616476,10
9253908000,0.5597896,0.04587495,-0.032992307,0.8267059,-0.9999999,-8.7311505e-11,-1.7462301e-10,0.000616476,10
9253956000,0.5592433,0.04666072,-0.033748776,0.827001,-0.9999999,-8.7311505e-11,-1.7462301e-10,0.000616476,10
9254008000,0.55885434,0.047467027,-0.034654353,0.8271807,-0.9999999,-8.7311505e-11,-1.7462301e-10,0.000616476,10
9254060000,0.558534,0.048285812,-0.035561215,0.82731116,-0.9999999,-8.7311505e-11,-1.7462301e-10,0.000616476,10
9254112000,0.5582466,0.049132556,-0.036402825,0.8274186,-0.9999999,-8.7311505e-11,-1.7462301e-10,0.000616476,10
9254164000,0.5580544,0.049937874,-0.037225865,0.8274634,-0.9999999,-8.7311505e-11,-1.7462301e-10,0.000616476,10
9254216000,0.5578323,0.050789762,-0.037853703,0.8275328,-0.9999999,-8.7311505e-11,-1.7462301e-10,0.000616476,10
9254268000,0.5576706,0.05151834,-0.03864198,0.82756037,-0.9999999,-8.7311505e-11,-1.7462301e-10,0.000616476,10
9254320000,0.55756265,0.052341036,-0.039464023,0.8275427,-0.9999999,-8.7311505e-11,-1.7462301e-10,0.000616476,10
9254372000,0.55747235,0.053426165,-0.040143006,0.82750165,-0.9999999,-8.7311505e-11,-1.7462301e-10,0.000616476,10
9254424000,0.55739695,0.054651916,-0.04077723,0.8274413,-0.9999999,-8.7311505e-11,-1.7462301e-10,0.000616476,10
9254476000,0.5572567,0.055708457,-0.041386392,0.82743496,-0.9999999,-8.7311505e-11,-1.7462301e-10,0.000616476,10
9254528000,0.55718666,0.05666327,-0.042069748,0.82738286,-0.9999999,-8.7311505e-11,-1.7462301e-10,0.000616476,10
9254580000,0.55713457,0.057545986,-0.042720035,0.82732373,-0.9999999,-8.7311505e-11,-1.7462301e-10,0.000616476,10
9254632000,0.5571457,0.058409218,-0.04320324,0.82723075,-0.9999999,-8.7311505e-11,-1.7462301e-10,0.000616476,10
9254684000,0.5571305,0.05942279,-0.043768372,0.82713896,-0.9999999,-8.7311505e-11,-1.7462301e-10,0.000616476,10
9254736000,0.55707926,0.06070468,-0.04440575,0.82704645,-0.9999999,-8.7311505e-11,-1.7462301e-10,0.000616476,10
9254788000,0.5570421,0.061877232,-0.045405142,0.8269303,-0.9999999,-8.7311505e-11,-1.7462301e-10,0.000616476,10
9254840000,0.55704236,0.06302828,-0.0463535,0.82679063,-0.9999999,-8.7311505e-11,-1.7462301e-10,0.000616476,10
9254896000,0.5570718,0.06412466,-0.047405537,0.8266267,-0.9999999,-8.7311505e-11,-1.7462301e-10,0.000616476,10
9254948000,0.557125,0.06502849,-0.048275918,0.8264699,-0.9999999,-8.7311505e-11,-1.7462301e-10,0.000616476,10
9254996000,0.5571806,0.066035,-0.04894084,0.82631356,-0.9999999,-8.7311505e-11,-1.7462301e-10,0.000616476,10
9255048000,0.5571717,0.06726063,-0.04962789,0.8261796,-0.9999999,-8.7311505e-11,-1.7462301e-10,0.000616476,10
9255100000,0.55710834,0.06843446,-0.050545633,0.8260703,-0.9999999,-8.7311505e-11,-1.7462301e-10,0.000616476,10
9255152000,0.5570982,0.06954871,-0.05148035,0.8259264,-0.9999999,-8.7311505e-11,-1.7462301e-10,0.000616476,10
9255204000,0.557075,0.07091123,-0.052287158,0.8257755,-0.9999999,-8.7311505e-11,-1.7462301e-10,0.000616476,10
9255256000,0.5570227,0.07226604,-0.053033344,0.8256457,-0.9999999,-8.7311505e-11,-1.7462301e-10,0.000616476,10
9255308000,0.55699605,0.073754475,-0.053909805,0.82547534,-0.9999999,-8.7311505e-11,-1.7462301e-10,0.000616476,10
9255360000,0.5570307,0.075391024,-0.05473483,0.82524973,-0.9999999,-8.7311505e-11,-1.7462301e-10,0.000616476,10
9255412000,0.55697227,0.07694955,-0.055700526,0.82508075,-0.9999999,-8.7311505e-11,-1.7462301e-10,0.000616476,10
9255464000,0.55696005,0.07834746,-0.05677717,0.8248839,-0.9999999,-8.7311505e-11,-1.7462301e-10,0.000616476,10
9255516000,0.5569134,0.079701625,-0.05800565,0.8247003,-0.9999999,-8.7311505e-11,-1.7462301e-10,0.000616476,10
9255572000,0.55684274,0.08121762,-0.059189983,0.8245159,-0.9999999,-8.7311505e-11,-1.7462301e-10,0.000616476,10
9255624000,0.5567931,0.08258839,-0.060075063,0.8243492,-0.9999999,-8.7311505e-11,-1.7462301e-10,0.000616476,10
9255672000,0.5567483,0.08398614,-0.060927533,0.82417566,-0.9999999,-8.7311505e-11,-1.7462301e-10,0.000616476,10
9255728000,0.55670947,0.08545672,-0.061877735,0.8239799,-0.9999999,-8.7311505e-11,-1.7462301e-10,0.000616476,10
9255776000,0.5566384,0.08673388,-0.062479537,0.82384896,-0.9999999,-8.7311505e-11,-1.7462301e-10,0.000616476,10
9255828000,0.5565616,0.08826134,-0.063383654,0.8236696,-0.9999999,-8.7311505e-11,-1.7462301e-10,0.000616476,10
9255880000,0.5564807,0.089952044,-0.064494155,0.8234551,-0.9999999,-8.7311505e-11,-1.7462301e-10,0.000616476,10
9255932000,0.5563404,0.09182021,-0.06550595,0.8232638,-0.9999999,-8.7311505e-11,-1.7462301e-10,0.000616476,10
9255984000,0.5561901,0.09376413,-0.06657779,0.8230604,-0.9999999,-8.7311505e-11,-1.7462301e-10,0.000616476,10
9256036000,0.556068,0.09568181,-0.067792885,0.822823,-0.9999999,-8.7311505e-11,-1.7462301e-10,0.000616476,10
9256088000,0.55591005,0.09756656,-0.06882282,0.8226228,-0.9999999,-8.7311505e-11,-1.7462301e-10,0.000616476,10
9256144000,0.5557854,0.09933881,-0.06974645,0.822417,-0.9999999,-8.7311505e-11,-1.7462301e-10,0.000616476,10
9256196000,0.5556745,0.10096197,-0.07072418,0.8222108,-0.9999999,-8.7311505e-11,-1.7462301e-10,0.000616476,10
9256244000,0.5555407,0.10257804,-0.07172605,0.8220144,-0.9999999,-8.7311505e-11,-1.7462301e-10,0.000616476,10
9256296000,0.55538666,0.10438563,-0.07292418,0.82178545,-0.9999999,-8.7311505e-11,-1.7462301e-10,0.000616476,10
9256352000,0.55522585,0.106379725,-0.07422579,0.82152194,-0.9999999,-8.7311505e-11,-1.7462301e-10,0.000616476,10
9256400000,0.55507326,0.10821648,-0.07521343,0.82129526,-0.9999999,-8.7311505e-11,-1.7462301e-10,0.000616476,10
9256456000,0.55495673,0.11019751,-0.076232925,0.8210165,-0.9999999,-8.7311505e-11,-1.7462301e-10,0.000616476,10
9256504000,0.55479467,0.11197678,-0.07716687,0.8207981,-0.9999999,-8.7311505e-11,-1.7462301e-10,0.000616476,10
9256560000,0.55462015,0.1141078,-0.07844727,0.82050097,-0.9999999,-8.7311505e-11,-1.7462301e-10,0.000616476,10
9256608000,0.55447614,0.11596704,-0.07945071,0.8202411,-0.9999999,-8.7311505e-11,-1.7462301e-10,0.000616476,10
9256660000,0.55426663,0.1180603,-0.08065243,0.8199668,-0.9999999,-8.7311505e-11,-1.7462301e-10,0.000616476,10
9256712000,0.55411166,0.120232195,-0.08172475,0.8196496,-0.9999999,-8.7311505e-11,-1.7462301e-10,0.000616476,10
9256764000,0.5539223,0.122360416,-0.08310561,0.8193238,-0.9999999,-8.7311505e-11,-1.7462301e-10,0.000616476,10
9256816000,0.5536843,0.12439198,-0.08451021,0.8190351,-0.9999999,-8.7311505e-11,-1.7462301e-10,0.000616476,10
9256868000,0.5533997,0.1264687,-0.08583782,0.8187712,-0.9999999,-8.7311505e-11,-1.7462301e-10,0.000616476,10
9256920000,0.5532123,0.12877256,-0.08743021,0.8183703,-0.9999999,-8.7311505e-11,-1.7462301e-10,0.000616476,10
9256972000,0.55298924,0.13116144,-0.08891058,0.81798196,-0.9999999,-8.7311505e-11,-1.7462301e-10,0.000616476,10
9257024000,0.55269915,0.13358876,-0.09019126,0.8176449,-0.9999999,-8.7311505e-11,-1.7462301e-10,0.000616476,10
9257080000,0.55236727,0.13612275,-0.09158779,0.8172959,-0.9999999,-8.7311505e-11,-1.7462301e-10,0.000616476,10
9257128000,0.55213964,0.13815321,-0.092943154,0.816956,-0.9999999,-8.7311505e-11,-1.7462301e-10,0.000616476,10
9257180000,0.55192053,0.14032309,-0.09442487,0.81656426,-0.9999999,-8.7311505e-11,-1.7462301e-10,0.000616476,10
9257232000,0.55166537,0.14248301,-0.09592798,0.8161873,-0.9999999,-8.7311505e-11,-1.7462301e-10,0.000616476,10
9257288000,0.55142057,0.14479458,-0.097416215,0.8157697,-0.9999999,-8.7311505e-11,-1.7462301e-10,0.000616476,10
9257336000,0.55116475,0.1468169,-0.09870008,0.8154265,-0.9999999,-8.7311505e-11,-1.7462301e-10,0.000616476,10
9257388000,0.55086285,0.14910313,-0.10008823,0.8150465,-0.9999999,-8.7311505e-11,-1.7462301e-10,0.000616476,10
9257440000,0.5505146,0.15157616,-0.10128591,0.81467754,-0.9999999,-8.7311505e-11,-1.7462301e-10,0.000616476,10
9257492000,0.55019885,0.15402296,-0.102650434,0.814261,-0.9999999,-8.7311505e-11,-1.7462301e-10,0.000616476,10
9257544000,0.5498625,0.15654476,-0.10396573,0.81384027,-0.9999999,-8.7311505e-11,-1.7462301e-10,0.000616476,10
9257596000,0.54946744,0.15937161,-0.10550208,0.81336075,-0.9999999,-8.7311505e-11,-1.7462301e-10,0.000616476,10
9257648000,0.5490467,0.1623473,-0.107157834,0.8128396,-0.9999999,-8.7311505e-11,-1.7462301e-10,0.000616476,10
9257704000,0.54858106,0.16547063,-0.10901085,0.81227773,-0.9999999,-8.7311505e-11,-1.7462301e-10,0.000616476,10
9257752000,0.54817075,0.1680887,-0.11055033,0.8118089,-0.9999999,-8.7311505e-11,-1.7462301e-10,0.000616476,10
9257804000,0.5477092,0.1708147,-0.11207336,0.8113424,-0.9999999,-8.7311505e-11,-1.7462301e-10,0.000616476,10
9257856000,0.5472119,0.17384748,-0.11379643,0.8107939,-0.9999999,-8.7311505e-11,-1.7462301e-10,0.000616476,10
9257908000,0.5467537,0.17666794,-0.11545403,0.81025875,-0.9999999,-8.7311505e-11,-1.7462301e-10,0.000616476,10
9257960000,0.5462876,0.17961371,-0.11713289,0.80968434,-0.9999999,-8.7311505e-11,-1.7462301e-10,0.000616476,10
9258012000,0.54583985,0.18256724,-0.1186069,0.80911094,-0.9999999,-8.7311505e-11,-1.7462301e-10,0.000616476,10
9258064000,0.5453886,0.1853314,-0.12028375,0.8085391,-0.9999999,-8.7311505e-11,-1.7462301e-10,0.000616476,10
9258116000,0.54498434,0.18784918,-0.12192655,0.8079843,-0.9999999,-8.7311505e-11,-1.7462301e-10,0.000616476,10
9258168000,0.54447305,0.19059107,-0.12344276,0.8074566,-0.9999999,-8.7311505e-11,-1.7462301e-10,0.000616476,10
9258224000,0.54393905,0.19371282,-0.1250909,0.8068197,-0.9999999,-8.7311505e-11,-1.7462301e-10,0.000616476,10
9258272000,0.54342574,0.1965023,-0.12664844,0.80624783,-0.9999999,-8.7311505e-11,-1.7462301e-10,0.000616476,10
9258324000,0.54282856,0.19961213,-0.1282798,0.8056281,-0.9999999,-8.7311505e-11,-1.7462301e-10,0.000616476,10
9258376000,0.54215723,0.20282856,-0.12970154,0.80504894,-0.9999999,-8.7311505e-11,-1.7462301e-10,0.000616476,10
9258428000,0.5415467,0.20611794,-0.1312659,0.8043706,-0.9999999,-8.7311505e-11,-1.7462301e-10,0.000616476,10
9258480000,0.5409441,0.20933864,-0.13297984,0.8036623,-0.9999999,-8.7311505e-11,-1.7462301e-10,0.000616476,10
9258532000,0.5403176,0.21255068,-0.13480254,0.80293685,-0.9999999,-8.7311505e-11,-1.7462301e-10,0.000616476,10
9258584000,0.5396555,0.2158424,-0.1366084,0.8021984,-0.9999999,-8.7311505e-11,-1.7462301e-10,0.000616476,10
9258636000,0.5389669,0.21923314,-0.13856831,0.8014054,-0.9999999,-8.7311505e-11,-1.7462301e-10,0.000616476,10
9258688000,0.53824073,0.22261995,-0.14052099,0.8006193,-0.9999999,-8.7311505e-11,-1.7462301e-10,0.000616476,10
9258740000,0.5376142,0.22576638,-0.14231242,0.7998424,-0.9999999,-8.7311505e-11,-1.7462301e-10,0.000616476,10
9258792000,0.5369405,0.22890347,-0.14394227,0.7991112,-0.9999999,-8.7311505e-11,-1.7462301e-10,0.000616476,10
9258844000,0.53622735,0.2317626,-0.1452369,0.79853153,-0.9999999,-8.7311505e-11,-1.7462301e-10,0.000616476,10
9258896000,0.53586143,0.232767,-0.1449459,0.79853785,-0.9999999,-8.7311505e-11,-1.7462301e-10,0.000616476,10
9258948000,0.5361052,0.23112948,-0.14283617,0.79922986,-0.9999999,-8.7311505e-11,-1.7462301e-10,0.000616476,10
9259004000,0.5367787,0.22663923,-0.1389516,0.80074704,-0.9999999,-8.7311505e-11,-1.7462301e-10,0.000616476,10
9259052000,0.5376071,0.22152254,-0.13493453,0.80230874,-0.9999999,-8.7311505e-11,-1.7462301e-10,0.000616476,10
9259108000,0.5386397,0.21562608,-0.13055716,0.803945,-0.9999999,-8.7311505e-11,-1.7462301e-10,0.000616476,10
9259156000,0.5393242,0.21158142,-0.12767726,0.80502254,-0.9999999,-8.7311505e-11,-1.7462301e-10,0.000616476,10
9259212000,0.54017836,0.20680766,-0.124630615,0.806167,-0.9999999,-8.7311505e-11,-1.7462301e-10,0.000616476,10
9259260000,0.5410682,0.2012982,-0.12139357,0.80745757,-0.9999999,-8.7311505e-11,-1.7462301e-10,0.000616476,10
9259316000,0.542462,0.1931361,-0.11636961,0.8092537,-0.9999999,-8.7311505e-11,-1.7462301e-10,0.000616476,10
9259368000,0.54387003,0.1842938,-0.11063062,0.81117326,-0.9999999,-8.7311505e-11,-1.7462301e-10,0.000616476,10
9259416000,0.5451594,0.17600368,-0.10540282,0.8128433,-0.9999999,-8.7311505e-11,-1.7462301e-10,0.000616476,10
9259468000,0.5463883,0.16770557,-0.100403786,0.81440395,-0.9999999,-8.7311505e-11,-1.7462301e-10,0.000616476,10
9259520000,0.5473283,0.16119729,-0.09692807,0.81550735,-0.9999999,-8.7311505e-11,-1.7462301e-10,0.000616476,10
