timestamp,timestamp_sample,xyz[0],xyz[1],xyz[2]
9232328000,9232328000,0.0009122238,0.00012538163,-0.0015986066
9232336000,9232336000,0.0039635175,-0.0021948046,-0.00033017603
9232352000,9232352000,-0.0018422906,-0.0039225905,0.0017022886
9232364000,9232364000,-0.0013517621,-0.0055276486,0.00022939418
9232372000,9232372000,0.002646717,0.0017571123,0.0007293762
9232388000,9232388000,0.0015216995,0.00020014727,-0.0038122137
9232400000,9232400000,-0.0018888105,-0.0021080882,-6.695674e-05
9232408000,9232408000,-0.0038485387,-0.0011121891,0.003037794
9232420000,9232420000,0.00014517299,0.003098614,-0.0016912329
9232432000,9232432000,-0.006014231,0.0047351117,0.0036387914
9232444000,9232444000,-0.0038471506,0.001466386,0.0018149898
9232460000,9232460000,0.0003063167,-1.8021092e-06,-0.00824291
9232468000,9232468000,0.001252302,0.00017672405,-0.0031209765
9232480000,9232480000,-0.0032743488,0.0011535026,0.0081832325
9232496000,9232496000,-0.002478749,0.0036678566,0.0016510605
9232508000,9232508000,-0.0003545353,0.003394532,0.0010573657
9232520000,9232520000,-0.0037358971,0.0009551747,-0.0009173888
9232532000,9232532000,-7.735228e-05,0.0007211915,-0.0025369055
9232544000,9232544000,-0.0002724824,0.0018706713,-0.0022208635
9232556000,9232556000,0.0020506696,-0.0033011334,-0.0032857389
9232568000,9232568000,-0.0018060679,-0.003519889,0.000596018
9232580000,9232580000,0.003464472,-0.0029452643,0.0069273245
9232592000,9232592000,-0.0053200754,-0.005922898,0.0033181806
9232604000,9232604000,-0.0019444737,-0.0048566707,0.0024038884
9232616000,9232616000,0.0010691929,-0.004890378,-0.0038577141
9232628000,9232628000,0.0008489537,-2.3198314e-05,-0.0032332714
9232636000,9232636000,0.0020391895,9.816559e-05,-0.0013642688
9232648000,9232648000,0.0040088748,0.0040363558,-0.0058765984
9232664000,9232664000,-0.004298212,0.0003365483,-6.6259934e-05
9232676000,9232676000,-0.0018634934,0.0026168074,-0.00040965987
9232688000,9232688000,0.0011865824,0.001893308,-7.31778e-05
9232696000,9232696000,0.00049870485,0.0001479648,-0.0006917241
9232712000,9232712000,0.004243513,-0.0022652033,-0.007910896
9232724000,9232724000,0.004765559,0.0011755861,-0.004537934
9232736000,9232736000,-9.570771e-05,0.0012364653,-0.0028292644
9232748000,9232748000,0.0004923719,0.002569675,-0.002406425
9232760000,9232760000,-0.00288215,0.0029158029,0.00091812946
9232772000,9232772000,-0.001310869,0.0033934503,0.00023876154
9232784000,9232784000,0.00076181046,-0.0015286328,-0.0010997972
9232796000,9232796000,-0.00069600565,0.0026263488,0.0025261452
9232808000,9232808000,0.00075665885,-0.0009579356,0.0019900082
9232820000,9232820000,-0.0005785378,-0.0016636252,0.0027515178
9232832000,9232832000,-0.002631802,0.0023588487,0.0027409054
9232844000,9232844000,0.0009132152,0.0030427289,-0.00051686325
9232856000,9232856000,0.0026266356,0.0020745052,-4.6312343e-05
9232868000,9232868000,0.0036740303,0.004591395,0.0051279506
9232880000,9232880000,0.0031189616,-0.00015989738,0.003028443
9232892000,9232892000,0.0002968402,0.0024688672,0.004882156
9232904000,9232904000,-0.0016593146,-0.0028213463,0.00057973276
9232916000,9232916000,-0.00078026496,-0.0016399999,-0.0013133734
9232924000,9232924000,0.0007649144,-0.0028414815,0.0024287861
9232940000,9232940000,-0.002368682,0.00068098586,-0.004530147
9232952000,9232952000,-0.005438508,-0.0059929746,-0.0015057055
9232964000,9232964000,0.000617888,0.0019674236,-0.00028460065
9232976000,9232976000,-0.0055817887,-0.0011757305,-0.00027558487
9232988000,9232988000,0.0004158853,-0.0013980521,-0.0014490047
9233000000,9233000000,-0.0027396444,-0.0011961982,-0.0055681667
9233012000,9233012000,0.00016990385,-0.0015940769,0.000907728
9233024000,9233024000,0.004842827,-0.0032383786,-0.0005918946
9233032000,9233032000,0.0027372926,-0.0015886682,-0.00074521906
9233048000,9233048000,0.0013247278,0.001451239,-0.0004291662
9233060000,9233060000,-0.003415713,0.0033786623,-0.0022412902
9233072000,9233072000,-0.001800234,0.002977625,-0.0022843028
9233080000,9233080000,-0.001282136,-0.002653643,0.0014986782
9233096000,9233096000,-0.0026185643,-0.0032539503,0.003312557
9233108000,9233108000,-0.0028394475,-0.0025043432,-0.00015196181
9233120000,9233120000,-0.0016827224,0.0010136054,0.0029027143
9233132000,9233132000,-0.001794086,-0.001998045,0.000100414734
9233144000,9233144000,-0.002477751,0.0012282962,0.0026304033
9233156000,9233156000,-0.0020916057,0.0018522027,0.0019831422
9233164000,9233164000,-0.00042816217,0.0023601414,0.0015972322
9233180000,9233180000,-0.0033350368,0.0009607184,-0.00020101172
9233192000,9233192000,-0.004084336,-0.00389513,0.0012619704
9233204000,9233204000,-0.0023131394,-0.0001950562,-0.0029580016
9233216000,9233216000,0.0069744173,8.727377e-05,-0.0017161546
9233228000,9233228000,0.00461104,0.00054379785,-0.00071256014
9233240000,9233240000,-0.0003492611,0.0010351329,-0.0037764348
9233252000,9233252000,0.0023378083,-0.0022394839,-0.00071944104
9233264000,9233264000,-7.988757e-05,0.0006252774,0.0011386758
9233276000,9233276000,0.0030700974,-0.0016958681,0.00038358264
9233284000,9233284000,0.004793188,-0.0031061508,-0.0002778566
9233300000,9233300000,0.002634598,-1.9562896e-05,0.0012787952
9233312000,9233312000,2.9393355e-05,-0.0019268333,-0.00059886504
9233324000,9233324000,-0.0023555346,0.0013350802,0.00034538805
9233332000,9233332000,0.0020443844,0.0063606603,0.0020221516
9233348000,9233348000,0.0017671253,-0.000519719,-0.0014477603
9233360000,9233360000,-0.0041916603,-0.00092700403,-0.001232771
9233368000,9233368000,-0.0041825166,0.0013585435,-0.0014484033
9233384000,9233384000,-0.0017166868,-0.0024035503,-0.0028752626
9233396000,9233396000,-7.809431e-05,-0.0014485316,-0.0016289668
9233408000,9233408000,-0.00085291313,0.001039709,-0.0025554188
9233420000,9233420000,-0.0031197073,0.0014312486,-0.0026428425
9233432000,9233432000,-0.0007949616,-0.0024974574,-0.0043434976
9233444000,9233444000,0.004623012,-0.00538878,-0.0012865085
9233456000,9233456000,-9.0445974e-05,-0.0009963862,0.0044755745
9233468000,9233468000,-0.0008910382,-0.0030097049,-0.0024991862
9233480000,9233480000,0.0015849613,-0.000859065,0.0016454159
9233492000,9233492000,0.0012918538,-0.0020882976,0.0014892963
9233500000,9233500000,0.0013949871,0.0025547617,-0.0052574053
9233516000,9233516000,-0.0020029114,0.001194064,-0.0005543328
9233528000,9233528000,-0.0028702437,-0.002361258,-0.004634103
9233540000,9233540000,0.000981012,-0.0049270573,-0.00090146484
9233552000,9233552000,0.00095899316,0.00057867216,0.003849381
9233564000,9233564000,0.0049448824,-0.0022235904,-0.0008491612
9233576000,9233576000,0.0028048272,0.00019249553,0.0014708247
9233588000,9233588000,4.812714e-05,0.0021244888,0.0037271776
9233596000,9233596000,0.0016752393,-0.0012962227,0.001357249
9233608000,9233608000,0.0023041423,0.0010895547,0.0064785536
9233620000,9233620000,-0.004038614,0.001828386,0.002255309
9233636000,9233636000,-0.0024512473,-0.0026638363,-0.0007046378
9233644000,9233644000,0.004375655,-0.001191216,0.00029916872
9233660000,9233660000,0.0032848315,0.0038629598,0.0007475577
9233668000,9233668000,1.2533274e-06,-0.0011258884,0.00018671615
9233684000,9233684000,0.0044507077,-0.004978869,0.0010169973
9233696000,9233696000,-0.00032580295,-0.0020867921,-0.002631149
9233708000,9233708000,0.0014388958,0.0023958962,-0.0031819683
9233720000,9233720000,0.001281058,-0.0014891312,0.002023689
9233732000,9233732000,-0.0003991773,0.003981231,0.0037421552
9233744000,9233744000,-0.00036559487,-0.00011142157,0.002313612
9233756000,9233756000,-0.0050226874,-0.00052556535,0.00039906334
9233768000,9233768000,-0.0016995701,-0.005511629,-0.0012080038
9233780000,9233780000,-0.0044682035,0.0037049865,-0.00482032
9233788000,9233788000,-0.0009683032,0.0039530676,-0.0015648291
9233804000,9233804000,0.0067458274,0.00073771086,-0.0030079756
9233816000,9233816000,0.0010741805,0.0023535076,-0.0040745717
9233828000,9233828000,-0.003603959,-0.0013171476,0.0010698336
9233836000,9233836000,0.0022339518,0.0029460136,0.0035377291
9233848000,9233848000,0.005989263,0.0031403906,-0.0015572361
9233864000,9233864000,0.0039031138,-0.0035960372,0.0019032671
9233876000,9233876000,0.0015745747,-0.006934763,0.0035574539
9233888000,9233888000,0.0009200171,-0.00081891473,-0.0016593927
9233900000,9233900000,-0.0027592396,-0.00061528664,-0.0011064578
9233912000,9233912000,-0.0005652312,0.0032956186,-0.0014791384
9233924000,9233924000,-0.0033617457,0.0029436965,-0.0005724234
9233936000,9233936000,-0.00075616746,0.0027166256,-0.003208686
9233948000,9233948000,6.7429966e-05,0.0020838077,-0.004780016
9233960000,9233960000,-0.00080714724,-0.003372328,-0.0023481683
9233972000,9233972000,0.0038499315,-0.004426132,0.002468442
9233984000,9233984000,-0.0009847017,-0.0015026396,-0.0044029662
9233992000,9233992000,0.00021401205,0.0025802907,-0.003926575
9234008000,9234008000,0.0033055362,0.0021761432,0.0012631854
9234020000,9234020000,-0.00076232373,0.001788402,0.00023103983
9234032000,9234032000,0.0026618931,-0.0027164202,0.00017995603
9234044000,9234044000,-0.001263145,-0.0042210715,-0.0056818943
9234052000,9234052000,-0.0010385542,-0.0024483055,-0.0044743004
9234064000,9234064000,0.003107232,0.0027901344,-0.0035993294
9234080000,9234080000,0.004737596,-9.8144636e-05,0.003969728
9234092000,9234092000,0.007914312,0.0010217237,-0.004891941
9234104000,9234104000,0.013475623,-0.005958374,-0.0008949991
9234116000,9234116000,0.029729951,-0.021275721,-0.004741066
9234128000,9234128000,0.057109408,-0.04358943,0.00076550746
9234140000,9234140000,0.08088123,-0.06348358,-0.0019122665
9234152000,9234152000,0.101612724,-0.090060756,-0.0024306362
9234164000,9234164000,0.12268231,-0.11407681,0.00014741812
9234176000,9234176000,0.12515742,-0.12394683,-0.0032173358
9234188000,9234188000,0.119382225,-0.11926186,0.0001667079
9234200000,9234200000,0.10251919,-0.11984436,0.0032027792
9234212000,9234212000,0.0854067,-0.10578312,0.0037504712
9234224000,9234224000,0.07835729,-0.08581778,0.00070837
9234236000,9234236000,0.06163463,-0.07475859,0.007463163
9234244000,9234244000,0.05230575,-0.07455118,0.0063284338
9234260000,9234260000,0.04736258,-0.056326408,0.003363783
9234268000,9234268000,0.040818505,-0.045395087,0.002746218
9234280000,9234280000,0.028012926,-0.033843815,0.0034030885
9234296000,9234296000,0.018253708,-0.019361915,0.0072628926
9234304000,9234304000,0.012436193,-0.014549436,0.0062995544
9234320000,9234320000,-0.006481717,-0.00020466745,-0.00028030283
9234332000,9234332000,-0.020045225,0.010216638,0.0025546812
9234344000,9234344000,-0.023566086,0.016929632,0.004509336
9234352000,9234352000,-0.032279022,0.023766363,0.002356527
9234368000,9234368000,-0.042493086,0.030766873,-0.00067390763
9234376000,9234376000,-0.045764472,0.032044888,0.0028707916
9234392000,9234392000,-0.04001731,0.044880416,0.0014376573
9234404000,9234404000,-0.04493406,0.045847386,-0.00095439266
9234416000,9234416000,-0.046673015,0.044098295,0.003014952
9234428000,9234428000,-0.04552153,0.044733886,0.0025581068
9234440000,9234440000,-0.045200832,0.04281946,-0.0010745071
9234452000,9234452000,-0.04592342,0.04272273,0.00030376902
9234464000,9234464000,-0.047721095,0.04131503,-0.0012530632
9234476000,9234476000,-0.043389156,0.042924784,-0.0024101776
9234488000,9234488000,-0.043430623,0.048287705,0.004136902
9234500000,9234500000,-0.042142056,0.04654458,0.002901874
9234512000,9234512000,-0.039253492,0.04768998,-0.00065254944
9234520000,9234520000,-0.035627447,0.04691162,0.00045002098
9234532000,9234532000,-0.028945906,0.04554239,0.0022169217
9234548000,9234548000,-0.03764813,0.045689277,-0.0022933881
9234556000,9234556000,-0.037870537,0.038968883,0.0017157807
9234572000,9234572000,-0.030829033,0.0323964,0.0041912673
9234584000,9234584000,-0.030470071,0.028372264,0.0017604621
9234596000,9234596000,-0.03251872,0.030185342,0.0010587602
9234608000,9234608000,-0.03147453,0.02382381,0.000105482875
9234616000,9234616000,-0.032133743,0.022012431,0.0005985525
9234628000,9234628000,-0.027228171,0.021206114,0.0033944214
9234644000,9234644000,-0.01824567,0.017657558,0.0018179051
9234652000,9234652000,-0.01275347,0.014616999,0.0022069125
9234664000,9234664000,-0.009843713,0.012151597,0.0006943996
9234680000,9234680000,-0.015394359,0.010392936,-0.0010673462
9234692000,9234692000,-0.0172051,0.013703551,-0.0025479768
9234704000,9234704000,-0.015347157,0.010045217,0.001985454
9234712000,9234712000,-0.018717106,0.014299742,-0.0018202384
9234728000,9234728000,-0.019392308,0.017629292,-0.0006678149
9234740000,9234740000,-0.010519413,0.015298825,0.00268987
9234752000,9234752000,-0.0015046238,0.0075412635,0.004134486
9234764000,9234764000,-0.007744138,0.008076186,-0.0038785515
9234776000,9234776000,-0.004813493,0.016386267,-0.0020970402
9234788000,9234788000,-0.008386051,0.010215037,0.0033541117
9234800000,9234800000,-0.009480114,0.009660209,0.0029313099
9234812000,9234812000,-0.011139257,0.008344502,0.0015586275
9234824000,9234824000,-0.011848923,0.009712809,-0.0020740698
9234836000,9234836000,-0.010613302,0.010682888,-0.0002724621
9234844000,9234844000,-0.009472166,0.0085747065,-0.0022380492
9234856000,9234856000,-0.0052407123,-0.0009139655,0.0009896698
9234868000,9234868000,-0.0030874326,0.0027211737,0.0027834545
9234884000,9234884000,-0.0036760925,0.005879424,0.0039207325
9234896000,9234896000,-0.0043042717,0.00088582374,-0.002603576
9234908000,9234908000,-0.0021459484,0.0022502556,0.00026757264
9234920000,9234920000,-0.009189079,0.0025123795,0.0006407184
9234928000,9234928000,-0.0061038584,0.0009397543,-0.00040531548
9234944000,9234944000,-0.0065860087,0.004696384,-0.0031642872
9234956000,9234956000,-0.0058982316,0.0019247294,-0.004304954
9234968000,9234968000,-0.011593589,0.008568819,0.006116097
9234976000,9234976000,-0.013509235,0.0035616206,0.0056176847
9234992000,9234992000,-0.012095334,0.0042971633,0.001275007
9235004000,9235004000,-0.0069827037,0.000200924,-0.00043162546
9235016000,9235016000,-0.000366556,-0.00067596417,-0.0012109213
9235028000,9235028000,-0.003614262,0.00017726468,0.003730896
9235040000,9235040000,-0.0023303025,0.0029673507,-0.00052053446
9235052000,9235052000,-0.0013794287,0.00846533,0.0025933085
9235064000,9235064000,-0.00828556,0.006905501,0.0043679755
9235076000,9235076000,-0.0077168755,-0.0016100984,0.0012151048
9235088000,9235088000,-0.0007839311,0.0018115407,0.0011858671
9235100000,9235100000,-0.0001892735,-0.00031136535,-0.0011767341
9235112000,9235112000,0.0010629005,-0.00023565069,-0.0057274206
9235124000,9235124000,-0.002733524,-0.0021585315,-0.0023718893
9235136000,9235136000,-0.007158593,0.0022760015,-0.0018651078
9235144000,9235144000,-0.006106511,0.0055989223,-0.0010223739
9235160000,9235160000,-0.0076325387,0.00637741,-0.0037767615
9235172000,9235172000,-0.0054116645,0.010592605,-0.0029849566
9235184000,9235184000,-0.0062418063,0.008734083,-0.0006719321
9235196000,9235196000,-0.0006871468,0.014139329,0.002715433
9235208000,9235208000,-0.0021168615,0.010271529,0.0010124682
9235220000,9235220000,-0.009094432,0.013147397,0.005300821
9235232000,9235232000,-0.008591669,0.008551076,0.0026171727
9235244000,9235244000,-0.011412362,0.014484938,0.004551055
9235256000,9235256000,-0.015414322,0.016999198,0.0032322675
9235268000,9235268000,-0.008455223,0.01210401,0.002899325
9235280000,9235280000,-0.0070152823,0.010755606,-0.00084062014
9235292000,9235292000,-0.009071058,0.009212663,-0.0048618503
9235304000,9235304000,-0.015507876,0.0044717314,0.00094647607
9235316000,9235316000,-0.008518352,0.0014661979,0.001319547
9235324000,9235324000,-0.0024568937,0.0012117373,-0.001119514
9235340000,9235340000,-0.011709246,0.009823249,-0.0008206382
9235348000,9235348000,-0.013416855,0.012240593,-0.0025307646
9235360000,9235360000,-0.015669085,0.011094604,0.0005696435
9235376000,9235376000,-0.0031179779,0.00864004,-0.0035634974
9235388000,9235388000,0.0011651744,0.005433488,-0.0038530414
9235400000,9235400000,0.004604769,0.002967123,-0.0057156766
9235412000,9235412000,0.0022073877,0.008877933,-0.00014467078
9235424000,9235424000,-0.0019835941,0.004074991,-0.0049744737
9235432000,9235432000,0.0010229639,0.00045440532,0.0004342376
9235448000,9235448000,0.0032437332,0.00048007164,0.0013656798
9235460000,9235460000,-0.0011911873,-0.0004708562,0.006069861
9235472000,9235472000,-2.3344415e-05,-0.002681748,0.00049551396
9235480000,9235480000,0.0021449104,-0.003979414,0.003535207
9235496000,9235496000,-0.000845455,-0.010740649,-0.0012692022
9235508000,9235508000,-0.0004507316,-0.0039820815,0.006706345
9235520000,9235520000,-0.0061742384,-0.0011309381,0.001614733
9235532000,9235532000,-0.0062249214,0.0034234263,0.005189713
9235540000,9235540000,-0.0029992773,0.0016395757,0.0034942375
9235552000,9235552000,-0.006416183,0.0017913734,0.0011191099
9235568000,9235568000,-0.0017095145,0.005498625,-0.0047810855
9235580000,9235580000,-0.004092545,0.0022080648,-0.004851068
9235592000,9235592000,-0.003108249,9.2813745e-05,-0.0023369794
9235600000,9235600000,-0.005075725,0.0024252562,2.0738458e-05
9235612000,9235612000,0.003961019,0.009225354,0.0040353797
9235624000,9235624000,0.0049918015,0.010861933,0.0023303973
9235640000,9235640000,0.003695327,0.008081201,-2.5985704e-05
9235652000,9235652000,-0.00066494965,0.011978977,-0.0011676939
9235664000,9235664000,0.0045827767,0.016972812,0.0006001353
9235676000,9235676000,0.0008923642,0.01552001,-0.0010202408
9235688000,9235688000,0.0017328633,0.010570475,-0.006064969
9235696000,9235696000,0.003221823,0.0055253645,-0.003165844
9235712000,9235712000,-0.0012374038,0.006986223,-1.4104531e-05
9235724000,9235724000,-0.0025281908,0.004116392,-0.0023827646
9235736000,9235736000,0.0030329954,-0.0015189662,-0.00048393448
9235748000,9235748000,0.00084503216,-0.0022606389,-0.00031434308
9235760000,9235760000,-0.0028004916,-0.00017259084,-0.0017774499
9235772000,9235772000,0.0012637981,-0.0023766514,-0.004831805
9235784000,9235784000,-7.2274124e-06,-0.005927803,-0.0017971603
9235796000,9235796000,-0.0042054993,-0.0038296725,0.0013765153
9235808000,9235808000,-0.0030504465,-0.0055183494,0.005940357
9235820000,9235820000,-0.009736377,-0.0030077673,-0.00013999123
9235832000,9235832000,-0.0061933585,-0.0005939044,-0.0038032425
9235844000,9235844000,-0.003850731,-0.008633044,-0.00023636961
9235856000,9235856000,0.00086748414,-0.008213481,8.7644905e-05
9235868000,9235868000,-0.0019262771,0.00068293186,-0.0038172351
9235880000,9235880000,-0.0016631177,0.00035879295,0.0020541975
9235892000,9235892000,-0.0027201537,-0.00033941772,0.0041221716
9235904000,9235904000,-0.0033635313,-0.00039644726,0.0024930919
9235916000,9235916000,-0.00033335295,0.0052308072,0.0020934278
9235928000,9235928000,-0.001803696,0.00531588,0.0073649064
9235940000,9235940000,-0.0063891597,0.0013613757,0.00254641
9235948000,9235948000,-0.01029414,-0.00084226765,0.005935316
9235964000,9235964000,-0.0060993508,-0.0031926623,-0.0005638821
9235976000,9235976000,0.0020445602,-0.009063078,0.005555151
9235988000,9235988000,-0.0028470207,-0.011807898,0.0077940184
9235996000,9235996000,-0.005432219,-0.010614714,0.007636026
9236012000,9236012000,-0.0054477733,0.0006962451,0.0010085043
9236020000,9236020000,-0.009180937,0.00032019056,4.8179936e-05
9236036000,9236036000,-0.009403238,-0.00092788367,-0.0011959433
9236048000,9236048000,-0.00033210847,-0.0016391235,0.00204157
9236056000,9236056000,-0.00060179154,0.0017424398,0.00364142
9236072000,9236072000,0.0036424266,-8.256035e-05,0.0035267563
9236084000,9236084000,0.00678208,0.0036671474,0.0005193088
9236096000,9236096000,0.0016481049,0.008575726,0.0012738185
9236108000,9236108000,0.002092522,0.008807084,-0.0020557877
9236116000,9236116000,0.0010219079,0.010376068,-0.0024355634
9236132000,9236132000,-0.0090732025,0.009989208,0.00019856723
9236140000,9236140000,-0.005538033,0.008770939,0.002676872
9236156000,9236156000,-0.007966809,0.012718422,-0.0025153635
9236164000,9236164000,-0.008832433,0.015010298,-0.0022217468
9236180000,9236180000,-0.008275828,0.006710994,6.384612e-05
9236192000,9236192000,-0.010759462,0.006361888,0.00011359586
9236204000,9236204000,-0.013859345,0.0033544586,-0.0064790086
9236216000,9236216000,-0.013723589,0.0039778,-0.0030585313
9236228000,9236228000,-0.007615279,0.0009978781,0.0023350741
9236240000,9236240000,-0.012068333,0.0036493852,-0.0014441689
9236252000,9236252000,-0.00860266,0.0026778937,0.0018076764
9236264000,9236264000,-0.0054423753,-0.0035862043,0.0011252202
9236276000,9236276000,-0.005270943,-0.005177798,0.00020637561
9236288000,9236288000,-0.0033480658,-0.0021232492,-0.0035679005
9236296000,9236296000,-0.0046322653,-0.0020421282,-0.0026999027
9236308000,9236308000,-0.004334142,-0.005429192,-0.004306932
9236324000,9236324000,-0.006261863,-0.011822427,0.00095733674
9236336000,9236336000,-0.0024120482,-0.0049740192,-0.0004136769
9236348000,9236348000,0.00083595345,-0.0028295428,0.0011629686
9236360000,9236360000,-0.0019890876,-0.005399385,0.000121681835
9236372000,9236372000,-0.0007964255,-0.0006824597,0.0030482567
9236384000,9236384000,-0.0063751065,0.0074922945,0.004765871
9236396000,9236396000,-0.003812754,0.006500573,-0.003134069
9236404000,9236404000,-0.0019153927,0.005045815,-0.0042884136
9236420000,9236420000,-0.003149533,-0.0027220803,-0.0015152956
9236432000,9236432000,0.004098461,0.00037887646,-0.0069654463
9236444000,9236444000,0.007052218,-0.0005980204,-0.0054748296
9236456000,9236456000,0.008259846,0.003033558,0.00097007724
9236468000,9236468000,0.008038501,-0.00032052724,-0.0005056113
9236480000,9236480000,0.003543728,0.0065932637,0.00063450914
9236488000,9236488000,0.0015110925,0.010645315,-7.078156e-05
9236504000,9236504000,-0.003136817,0.010794839,-0.0008978622
9236516000,9236516000,-7.2387047e-07,0.010924472,0.000119204284
9236528000,9236528000,0.0020531772,0.008889668,-0.0015058378
9236540000,9236540000,0.0008730723,0.010985399,-0.002374018
9236552000,9236552000,0.0001941034,0.008258101,0.0026715575
9236560000,9236560000,0.00653031,0.0064769345,0.0013821614
9236576000,9236576000,0.0047143167,0.0036328107,-0.0016753975
9236584000,9236584000,0.0024264944,0.0055942787,-0.004249595
9236600000,9236600000,-0.002760598,0.00045354385,-0.0036361637
9236612000,9236612000,-0.0051048673,0.0066116955,0.0021124166
9236624000,9236624000,-0.006779025,0.008381716,0.0013916665
9236636000,9236636000,-0.0073276684,0.003754896,0.002353732
9236648000,9236648000,-0.005557537,-0.0048565823,0.00468016
9236660000,9236660000,-0.011455418,-0.00871142,0.00011181587
9236672000,9236672000,-0.006875318,-0.008759549,0.000112385605
9236684000,9236684000,-0.0049564233,-0.009709336,-0.0007487807
9236696000,9236696000,-0.0039017047,-0.008190788,0.00015016313
9236708000,9236708000,-0.007772335,0.00053373305,-0.0041433577
9236720000,9236720000,-0.0028265314,-0.0010503405,-0.003374076
9236732000,9236732000,-0.002284892,-0.0005939095,-0.0032276073
9236744000,9236744000,-0.005485377,-0.005403259,-0.0010636793
9236756000,9236756000,-7.602398e-05,-0.0030039996,0.0005797289
9236768000,9236768000,0.005871705,0.0013189912,0.00058807945
9236780000,9236780000,-0.002170371,-0.007277075,-0.0011298398
9236792000,9236792000,0.0012442807,-0.0038283765,-0.00011949334
9236804000,9236804000,0.00078517734,0.002336586,-0.0029419425
9236816000,9236816000,-0.0022200737,0.003711999,-0.0074283592
9236828000,9236828000,-0.0013945209,0.0030693687,0.0015380995
9236840000,9236840000,-0.010304559,0.004972742,0.0016105409
9236848000,9236848000,-0.01357991,0.007967528,-0.00086041243
9236864000,9236864000,-0.013947868,0.0017812345,-0.0043790517
9236876000,9236876000,-0.012454327,0.0030636145,0.00070278323
9236888000,9236888000,-0.004122996,0.004196235,-0.0011741202
9236900000,9236900000,-0.0033423943,0.005308876,0.00084878516
9236912000,9236912000,-0.003517361,0.00515856,-0.0056468057
9236924000,9236924000,0.0061584376,0.00490895,-0.0014094485
9236936000,9236936000,0.011335005,0.0052980212,0.0025409972
9236948000,9236948000,0.008051891,0.0055718003,0.00083341595
9236956000,9236956000,0.0055527333,0.0062969592,-0.0017820036
9236972000,9236972000,0.003087853,-0.00069458317,-0.0027674309
9236984000,9236984000,0.0007727919,-0.0034845723,-0.002192284
9236996000,9236996000,0.0017086179,0.0030419095,-0.008353585
9237004000,9237004000,-0.00088744285,0.007884406,-0.0012742861
9237020000,9237020000,0.00298137,0.014506509,4.4670305e-06
9237032000,9237032000,0.001921461,0.016324572,-0.0035761672
9237044000,9237044000,0.0047764285,0.009002187,0.002309912
9237056000,9237056000,0.0016771187,0.004748619,-1.7860613e-05
9237068000,9237068000,0.000873087,0.011042031,-0.00032367883
9237080000,9237080000,-0.0025982992,0.011895981,0.00017991883
9237092000,9237092000,-0.0026247427,0.009147394,0.0012936678
9237104000,9237104000,-0.0025636116,0.010354608,0.00012266479
9237116000,9237116000,-0.0040071965,0.010361365,0.0022307287
9237128000,9237128000,-0.00677816,0.0013844213,-0.004658854
9237140000,9237140000,-0.009021794,0.003564618,0.0036384808
9237152000,9237152000,-0.0012638494,0.008009454,0.0002673307
9237164000,9237164000,-0.0011417718,0.004991048,0.0014876379
9237176000,9237176000,0.0033551226,0.0024764598,-0.0030920492
9237188000,9237188000,0.0031297791,-0.006857127,0.0006460401
9237196000,9237196000,0.0022756301,-0.0044498136,0.0018896654
9237212000,9237212000,0.0008335109,-0.006786212,-0.0032425814
9237224000,9237224000,0.0017984456,-0.0028201998,-0.0015218556
9237236000,9237236000,0.0021618244,-0.0043544997,0.0011173025
9237248000,9237248000,0.004025703,-0.0020852643,-0.008036282
9237256000,9237256000,0.007223862,0.0007016277,-0.006744226
9237268000,9237268000,0.010324346,0.0007347432,-0.0028006071
9237284000,9237284000,0.0027012993,0.001170869,-0.002575513
9237296000,9237296000,0.0026552472,0.00501348,0.002135146
9237308000,9237308000,-0.0029271776,0.0070549524,-0.0013347764
9237320000,9237320000,-0.001327597,0.0071335994,-0.00269764
9237332000,9237332000,0.00056701794,0.0025432496,-0.006160816
9237344000,9237344000,0.0019370748,-0.0032659485,-0.006882095
9237356000,9237356000,0.0008573502,-0.006809414,-0.008144951
9237364000,9237364000,0.0011792877,-0.011303091,-0.0047603175
9237376000,9237376000,-0.0020336695,-0.011287697,-0.005456194
9237392000,9237392000,-0.0069465227,-0.007113653,-0.00479608
9237404000,9237404000,-0.01054551,-0.008436728,-0.006575076
9237416000,9237416000,-0.014270103,-0.012525294,-0.00024750613
9237428000,9237428000,-0.013271137,-0.0025316128,-0.0037331085
9237440000,9237440000,-0.005874825,-0.007475098,-0.0026277676
9237448000,9237448000,-0.003893748,-0.009706443,-0.0017204271
9237464000,9237464000,-0.006494388,-0.012354434,-0.0043976186
9237476000,9237476000,-0.0016852622,-0.006921208,-0.007006821
9237488000,9237488000,0.00499713,-0.0048838104,-0.010518946
9237500000,9237500000,0.0033250442,-0.0026602247,-0.0035741075
9237512000,9237512000,0.004116052,0.0051512383,-0.0048658065
9237520000,9237520000,0.004112838,0.008212525,-0.0028718584
9237536000,9237536000,0.0060905805,3.1769276e-05,-0.0053860494
9237548000,9237548000,0.007532319,-0.0021880371,-0.008676639
9237560000,9237560000,0.010468747,-0.0007362603,-0.00055210356
9237568000,9237568000,0.0147205815,0.004319674,-0.0002188473
9237580000,9237580000,0.015689299,0.00074083544,-0.00010022143
9237596000,9237596000,0.0068463013,0.006153239,-0.0034053633
9237608000,9237608000,0.00016324088,0.010693954,-0.0009795927
9237620000,9237620000,-0.0054822536,0.0015265732,-0.004545198
9237632000,9237632000,-0.010195317,-0.002172369,0.00075388874
9237640000,9237640000,-0.005642823,-0.0039063566,0.0001249481
9237656000,9237656000,-0.005696327,-0.005127503,-0.0034691428
9237664000,9237664000,-0.0073470026,-0.0070174416,-0.0024139013
9237680000,9237680000,-0.008652242,-0.0065415283,-0.0011305679
9237692000,9237692000,0.00090721657,-0.0053398074,0.0020272543
9237704000,9237704000,-0.0002877697,-0.009073589,-5.760335e-05
9237716000,9237716000,0.001123402,-0.0033447691,-0.0034230938
9237728000,9237728000,-0.00034929148,-0.002461106,-0.008862391
9237736000,9237736000,-0.0030288831,-0.00026631448,-0.009670341
9237752000,9237752000,0.0010934991,0.0031596613,-0.0026074173
9237764000,9237764000,-0.0016802512,0.0023808978,-0.0043171644
9237776000,9237776000,-0.0029397819,-0.0017468156,0.0030518284
9237788000,9237788000,-0.008200016,-0.002666288,0.00657407
9237800000,9237800000,-0.0045975735,-0.0061464612,0.004079993
9237812000,9237812000,-0.0047611324,-0.008127967,-6.112119e-05
9237824000,9237824000,-0.0028602523,-0.0044345935,-0.004785903
9237836000,9237836000,-0.00238259,-0.0035216645,0.004665155
9237848000,9237848000,-0.002816301,-0.006983736,0.0022982024
9237860000,9237860000,-0.005629468,-0.012754714,-0.0010936898
9237868000,9237868000,-0.006592971,-0.008473195,-0.003314239
9237880000,9237880000,-0.002256235,-0.0002270271,0.0019376085
9237896000,9237896000,-0.006148681,-0.0030142833,0.0024482813
9237908000,9237908000,-0.0042726556,-0.002008256,-0.0023274063
9237920000,9237920000,0.000755079,-0.0036526467,-0.00442872
9237932000,9237932000,0.0070398897,0.0037613488,-0.0020147623
9237944000,9237944000,0.00799041,0.005746364,-0.0026792116
9237956000,9237956000,0.0061909007,-0.00075739063,-0.004016809
9237964000,9237964000,0.009227867,-0.0050147674,0.0028198026
9237980000,9237980000,0.0056041833,-0.008228322,0.0028627533
9237992000,9237992000,0.008138045,-0.0064585013,0.00058693526
9238004000,9238004000,0.00886325,-0.0006940197,-0.00516348
9238016000,9238016000,0.009750291,-0.00019287365,-0.0021091783
9238028000,9238028000,0.012934727,0.0017904094,-0.0009794364
9238040000,9238040000,0.009491272,0.00030004838,-0.002147667
9238048000,9238048000,0.0041566445,-0.00043972302,0.002026086
9238064000,9238064000,0.0102955345,-0.00536751,-0.00323518
9238076000,9238076000,0.0069468315,-0.007349928,-0.0028729339
9238088000,9238088000,0.007920254,-0.005064705,-0.003790443
9238100000,9238100000,0.0009935233,-0.006187583,-0.0034404625
9238112000,9238112000,-0.0014765187,-0.009341251,-0.0012201307
9238124000,9238124000,-0.001933849,-0.0020292518,-0.0034444598
9238136000,9238136000,0.0043332027,-0.0027263225,-0.0031658295
9238148000,9238148000,0.004686485,-0.00025692256,-0.0005658048
9238160000,9238160000,-0.004723192,-0.0009435741,-0.0037378664
9238172000,9238172000,-0.0052024326,-0.00037480937,0.0008770328
9238184000,9238184000,-0.011044077,-0.00269598,-0.00011775299
9238196000,9238196000,-0.006218101,-0.0007283371,0.00046876413
9238208000,9238208000,-0.0045848195,-0.0012282562,-0.002810855
9238220000,9238220000,-0.0069039203,-0.0016235355,-0.0047275033
9238232000,9238232000,-0.0026259413,0.0040793307,-0.004270333
9238244000,9238244000,-0.0013628834,0.0035835747,-0.0012361964
9238256000,9238256000,0.0017663859,0.0026890133,0.0016547481
9238268000,9238268000,0.0027363198,0.0045911265,-0.003141376
9238280000,9238280000,0.002805339,0.00017931359,-0.0051361704
9238292000,9238292000,0.0042977193,-0.0047663753,0.0023389624
9238304000,9238304000,0.0073693516,-0.0076915394,-0.0027649342
9238316000,9238316000,0.009246084,-0.0055294833,-0.0031037126
9238328000,9238328000,0.008801726,5.675247e-05,0.0010941426
9238340000,9238340000,0.01024608,-0.000509243,-0.00066714827
9238352000,9238352000,0.014756412,-0.0065075816,0.0033582663
9238364000,9238364000,0.0221489,-0.009248817,-0.0018901981
9238372000,9238372000,0.02303099,-0.0109616695,-0.0041123587
9238384000,9238384000,0.015682142,-0.01216678,-0.0011236137
9238400000,9238400000,0.018802729,-0.004112559,-0.0053035636
9238412000,9238412000,0.01129694,-0.00625276,0.0024896127
9238424000,9238424000,0.014263768,-0.009992718,0.0012310832
9238436000,9238436000,0.010980474,-0.012019414,-0.0022656224
9238448000,9238448000,0.0130824875,-0.008839231,0.0018700194
9238460000,9238460000,0.006994793,-0.006956597,0.0042381617
9238472000,9238472000,0.00082095066,-0.0054597594,0.00062509975
9238484000,9238484000,0.0011113164,-0.0038165743,-0.00016257016
9238496000,9238496000,-0.0010197491,-0.0061411536,-0.004892305
9238508000,9238508000,0.0015274622,-0.0054692263,-0.011365296
9238520000,9238520000,0.00036668265,9.001233e-05,0.0011754686
9238532000,9238532000,-7.018447e-06,-0.004835749,0.0048767044
9238544000,9238544000,0.0032618658,-0.010702816,-0.0074820183
9238556000,9238556000,-0.00021833158,-0.005297407,-0.003458378
9238568000,9238568000,-0.003951045,-0.0057775136,0.000572774
9238580000,9238580000,-4.573667e-05,-0.0011241343,0.00015706755
9238588000,9238588000,0.0022189785,-0.003722827,-0.0024890043
9238604000,9238604000,-0.004550905,-0.0060715815,0.0013966244
9238616000,9238616000,0.0015779287,-0.0078020766,0.00057773804
9238628000,9238628000,-0.00029252353,-0.0035285512,0.00077695504
9238640000,9238640000,-0.0069223894,-0.004514866,-0.0036867247
9238652000,9238652000,-0.009196587,-0.0035541607,0.0005218931
9238664000,9238664000,-0.01128204,-0.0019753035,-0.0008015503
9238676000,9238676000,-0.0013685875,0.0011438346,-0.0031940292
9238688000,9238688000,-9.2962175e-05,-0.0017599892,-0.0069942987
9238696000,9238696000,0.004505917,-0.00062213,-0.0019338473
9238712000,9238712000,0.00080746994,-0.006017363,0.00077746937
9238720000,9238720000,0.0018453969,-0.007599897,0.0032846392
9238732000,9238732000,-0.001750619,-0.00397928,0.00019250752
9238748000,9238748000,-0.003045851,0.00030270498,0.0019074113
9238760000,9238760000,-0.0031981152,-0.0052540232,0.001878754
9238772000,9238772000,0.0019873255,-0.005011259,-0.00057853747
9238784000,9238784000,0.0037090168,-0.008798042,-0.004755488
9238796000,9238796000,0.007869029,-0.008868631,-0.003223714
9238808000,9238808000,0.008753418,-0.011538293,-0.0018100657
9238816000,9238816000,0.008922606,-0.010202138,-0.0016337908
9238828000,9238828000,0.010040358,-0.011451162,-0.0054569235
9238844000,9238844000,0.008196546,-0.0073448066,-0.0006266173
9238856000,9238856000,0.008676715,-0.0059411237,-0.00076862087
9238868000,9238868000,0.006660964,-0.0018743109,0.00055117253
9238880000,9238880000,0.015417104,-0.0052479333,0.0019350119
9238892000,9238892000,0.006303625,-0.0074174213,-0.0006295733
9238904000,9238904000,-0.00081135763,-0.006515936,-0.00037699443
9238916000,9238916000,-0.0014103284,-0.007243879,-0.0021345175
9238928000,9238928000,0.0021959892,-0.008112991,-0.0027914187
9238936000,9238936000,0.0045448695,-0.007742259,-0.0039092964
9238952000,9238952000,0.005704524,-0.0062218267,0.00087973615
9238964000,9238964000,0.0049516363,-0.002074014,-0.001924326
9238972000,9238972000,0.00802453,-0.001928275,-0.0017436901
9238988000,9238988000,0.0043708156,-0.007270372,-0.0011320482
9239000000,9239000000,0.008217541,-0.0027326061,-0.00010253454
9239008000,9239008000,0.006563885,-0.0017878301,-0.0032298975
9239024000,9239024000,0.00333972,0.004990641,0.0024453604
9239036000,9239036000,0.0007236095,-0.0012338036,0.0012791113
9239048000,9239048000,0.006437734,-0.0062411926,-0.00041771383
9239060000,9239060000,0.007992506,-0.009634616,0.0007671509
9239068000,9239068000,0.0074889297,-0.011868622,0.0030982243
9239084000,9239084000,0.009910975,-0.009212576,0.0072000087
9239096000,9239096000,0.013187819,-0.0076579605,0.0022702173
9239108000,9239108000,0.0055304803,-0.009500907,-0.0043387893
9239120000,9239120000,-0.00045780418,-0.006015699,0.00049967424
9239132000,9239132000,-0.005312696,-0.00090626953,0.0034840764
9239144000,9239144000,-0.0036818236,0.003930619,-0.002064881
9239156000,9239156000,-0.0070328773,-0.0012254016,0.00072751375
9239168000,9239168000,-0.005689027,0.0011893753,-0.0016164677
9239180000,9239180000,-0.0068250066,0.0022490602,-0.0026218498
9239192000,9239192000,-0.00543797,0.008416151,0.0021733972
9239204000,9239204000,-0.0035256501,0.00775518,0.0012568398
9239216000,9239216000,-0.0046610325,0.003149751,0.000318927
9239228000,9239228000,-0.0082843825,0.00092178816,-0.001103684
9239240000,9239240000,-0.009332171,0.001329476,0.0028027561
9239252000,9239252000,-0.009249102,0.0019582217,0.002344507
9239264000,9239264000,-0.004950456,0.011966702,-0.0015883623
9239276000,9239276000,-0.0015877533,0.011879038,-0.006748323
9239288000,9239288000,0.0017600538,0.007082818,-0.0041590724
9239300000,9239300000,0.0026316326,0.0035282227,-0.006093029
9239312000,9239312000,0.0054502715,0.0029635248,-0.0012744227
9239320000,9239320000,-0.00011632277,0.005135582,0.0043504173
9239336000,9239336000,0.00073887594,0.0055367546,0.003898344
9239348000,9239348000,0.0019038724,0.0049056998,0.0010711743
9239360000,9239360000,0.0036485952,0.007120407,0.0021669413
9239368000,9239368000,0.0030266538,0.011525931,-0.0010140284
9239384000,9239384000,0.005928528,0.009076001,-0.002977599
9239396000,9239396000,0.0034504663,-0.0005215383,0.001605725
9239404000,9239404000,0.0011346015,-0.0061689354,-0.0013374975
9239420000,9239420000,0.0025212034,-0.010137383,-0.0041434933
9239432000,9239432000,0.008290382,-0.012233447,-0.0029623287
9239440000,9239440000,0.0030451398,-0.0071822926,-0.0012609917
9239456000,9239456000,-0.0015605709,-0.0061286055,0.00055431866
9239468000,9239468000,-0.0022911676,-0.0066171847,0.0023915768
9239480000,9239480000,-0.0032967916,-0.0038100025,0.002869675
9239492000,9239492000,-4.4112676e-05,-0.0032075546,-0.0010616197
9239504000,9239504000,0.0016627004,-0.0031302306,-0.0016803057
9239512000,9239512000,0.0037436301,-0.00063743256,-0.0005887186
9239528000,9239528000,0.009223928,0.0048857084,-0.0029270197
9239540000,9239540000,0.0104214335,-0.003022585,-0.0017364583
9239552000,9239552000,0.010042653,-0.0024808324,-0.0003423111
9239564000,9239564000,0.004231943,0.0024494347,-0.003665267
9239576000,9239576000,0.005901888,5.3946394e-05,0.003715166
9239588000,9239588000,0.009150452,-0.0010043378,0.0024300688
9239600000,9239600000,0.008663215,-0.011321729,-0.0034217862
9239612000,9239612000,-0.00056278065,-0.011932523,-0.004702624
9239624000,9239624000,0.0029622265,-0.011724351,-0.0038605179
9239636000,9239636000,0.0029929557,-0.008939678,0.001960926
9239644000,9239644000,0.002026722,-0.0066477964,-0.00046239147
9239660000,9239660000,0.003413775,-0.01424565,0.0016245292
9239668000,9239668000,0.00016142259,-0.014139514,-0.0010574227
9239684000,9239684000,0.0018260935,-0.006169815,0.00015373778
9239692000,9239692000,-0.0007385416,-0.004335643,-0.0015720625
9239708000,9239708000,0.0016530171,-0.0031717028,0.003979207
9239720000,9239720000,0.0024756985,0.0037400173,0.0009973408
9239732000,9239732000,-0.006674477,0.0012452169,0.0036014826
9239744000,9239744000,-0.0047040796,0.00088527193,0.0010288346
9239756000,9239756000,-0.010950945,-0.005482646,0.0027071387
9239768000,9239768000,-0.009589322,-0.004006117,-0.0018980602
9239780000,9239780000,-0.0073839813,-0.0072502396,-5.3731783e-05
9239788000,9239788000,-0.007396952,-0.004533499,-0.0005311666
9239800000,9239800000,-0.006642743,-0.0023756884,-0.0053186542
9239812000,9239812000,-0.008773936,-0.008711118,-0.003847729
9239828000,9239828000,-0.006353439,-0.009363912,0.00030258903
9239840000,9239840000,0.0007996685,-0.003665071,-0.0022203638
9239852000,9239852000,0.006081243,0.00091935974,-0.0009882463
9239864000,9239864000,0.014216205,-0.0037737475,0.0016125808
9239876000,9239876000,0.014524441,-0.00719701,-0.0040107863
9239888000,9239888000,0.014896613,-0.008588527,-0.00011841988
9239900000,9239900000,0.012072813,-0.0065215714,-5.6562712e-05
9239912000,9239912000,0.0073942663,-0.004439468,-0.0024514683
9239924000,9239924000,0.005480131,-0.0066846265,-0.0033031057
9239936000,9239936000,0.0117422175,-0.0028582793,0.00087661424
9239944000,9239944000,0.012919837,-0.0023327237,-0.0031536957
9239960000,9239960000,0.0072594164,-0.002997253,0.0008563151
9239972000,9239972000,-0.0012038522,-0.0019097608,0.0009046629
9239984000,9239984000,0.0015384828,0.00020918762,0.00037019592
9239996000,9239996000,0.0018026433,0.0040268926,0.0038589104
9240008000,9240008000,0.006327112,0.00036659697,0.008272021
9240020000,9240020000,0.011271906,0.00054529356,0.0054657254
9240032000,9240032000,0.009783474,-0.002311225,-0.0012404982
9240044000,9240044000,0.011408123,-0.0058490695,-0.0038036439
9240052000,9240052000,0.010325667,-0.002318786,-0.0028646502
9240068000,9240068000,0.0056410693,0.0034438493,-0.0014900009
9240080000,9240080000,0.0052594203,-0.00039731152,0.004083803
9240092000,9240092000,0.002740501,0.0028597452,0.0055853073
9240104000,9240104000,0.0076517086,-0.0020115776,-0.005674668
9240116000,9240116000,0.009091615,-0.008909165,-0.0032443125
9240128000,9240128000,0.0042688665,-0.010176507,0.0018753542
9240140000,9240140000,-4.3492648e-05,-0.006966352,0.002207933
9240152000,9240152000,0.0016842936,-0.0057601267,0.00045349819
9240164000,9240164000,0.005326283,-0.00063869124,-0.0008600121
9240176000,9240176000,0.0055693025,-0.0022741458,0.0004886102
9240188000,9240188000,0.0041897725,-0.0024312022,-0.002819326
9240200000,9240200000,-0.001976883,-0.001522711,-0.002264424
9240208000,9240208000,-0.0004127546,0.00097523956,-0.0015798144
9240220000,9240220000,-0.008086013,0.0059122145,0.0018869897
9240236000,9240236000,-0.004347184,-0.001413425,-0.00022348139
9240244000,9240244000,-0.001792756,-0.0018591508,-0.0030162814
9240260000,9240260000,-0.0008352159,-0.00058801053,0.0008080677
9240268000,9240268000,0.0033734255,-0.0006710901,-0.0006976435
9240284000,9240284000,0.002858976,0.0032008013,-0.0033543855
9240296000,9240296000,0.00418075,0.003824632,0.0002887663
9240308000,9240308000,-0.004005351,0.00035291724,0.0021213875
9240320000,9240320000,-0.0074029295,-0.0022563008,-0.0014123791
9240328000,9240328000,-0.009486877,-0.0026853005,0.00089560397
9240344000,9240344000,-0.012592287,-0.005401463,-0.0019963696
9240356000,9240356000,-0.012230148,0.0012718872,0.0007977646
9240368000,9240368000,-0.018657222,0.0026474888,0.0036908307
9240380000,9240380000,-0.019777773,-0.00017342065,0.003003968
9240392000,9240392000,-0.015852097,-0.012279494,-0.0013354844
9240404000,9240404000,-0.018021991,-0.016210105,0.002890141
9240416000,9240416000,-0.017299868,-0.015770214,0.004257184
9240424000,9240424000,-0.016155424,-0.0186121,-0.0024194072
9240440000,9240440000,-0.017168753,-0.01819471,-0.0015638547
9240452000,9240452000,-0.0063291662,-0.015769817,0.0026264547
9240464000,9240464000,-0.00089500495,-0.014584558,-0.0012580769
9240472000,9240472000,0.0070930505,-0.010574259,-0.00027886016
9240488000,9240488000,0.006346745,-0.0071779722,5.3695985e-05
9240500000,9240500000,0.005728159,-0.009633408,0.0017992265
9240512000,9240512000,0.0065382253,-0.008388696,-0.0015713067
9240524000,9240524000,0.003948682,-0.0043493435,-0.0015902886
9240536000,9240536000,0.008476,-0.001692812,-0.0021504727
9240548000,9240548000,0.00388287,-0.0063556354,0.0046476535
9240560000,9240560000,0.008902069,-0.0028226296,-0.00028228993
9240572000,9240572000,0.0012675433,-0.0054779286,-0.00077424163
9240584000,9240584000,0.0033493135,-0.007568117,0.0018331618
9240596000,9240596000,0.006479394,0.00231678,-0.003983761
9240608000,9240608000,0.010605498,0.007277282,0.0013410938
9240620000,9240620000,0.00807587,0.008791529,0.00036614054
9240628000,9240628000,0.007724315,0.008887775,-0.0043592667
9240644000,9240644000,0.002652737,0.0067344974,-0.00094861
9240656000,9240656000,0.00016186456,0.0070839464,-0.0009097252
9240668000,9240668000,-0.00293142,0.002744054,-0.0036343562
9240676000,9240676000,0.00076278776,0.00024255691,-0.0017677869
9240692000,9240692000,0.002402625,-0.003704959,0.0013031213
9240700000,9240700000,0.005820447,-0.0052468707,-0.0012079282
9240716000,9240716000,0.005078301,-0.008808166,-0.002632733
9240728000,9240728000,0.003200557,-0.008712325,-0.0026698106
9240740000,9240740000,-0.0006545638,-0.0074746273,0.00034521238
9240752000,9240752000,-8.531369e-05,-0.009257405,0.0011347204
9240764000,9240764000,-0.0068586767,-0.0068013323,-0.00091404526
9240776000,9240776000,-0.012738295,-0.0097571965,-0.0013365399
9240788000,9240788000,-0.009029164,-0.010882441,0.0014874672
9240800000,9240800000,-0.0072116856,-0.013122177,0.0025938079
9240812000,9240812000,-0.009749105,-0.0045101303,-0.004577169
9240824000,9240824000,-0.014150588,-0.0006345534,-0.0024199625
9240836000,9240836000,-0.017141577,0.0022297031,0.0026317625
9240848000,9240848000,-0.016797287,-0.0015094071,-7.097493e-05
9240860000,9240860000,-0.01402204,0.0013037729,-0.0020372684
9240872000,9240872000,-0.015439032,-0.00043798517,-0.0001282224
9240884000,9240884000,-0.011187083,0.0030785615,-0.0031982884
9240892000,9240892000,-0.009259559,0.0045033335,-0.0035555062
9240904000,9240904000,-0.012362227,0.0055199275,0.0057912706
9240920000,9240920000,-0.01187617,0.006196107,0.0018348852
9240928000,9240928000,-0.010115262,0.008250093,0.0018891642
9240944000,9240944000,-0.010271037,0.01230734,0.0011372946
9240956000,9240956000,-0.008788252,0.006812512,0.0016440481
9240968000,9240968000,-0.0056239143,0.00086938636,0.0016357802
9240976000,9240976000,-0.0032464054,0.00016539777,0.0061640264
9240988000,9240988000,-3.7279795e-05,-0.001585173,-0.0016171645
9241000000,9241000000,0.0018443085,0.001259292,0.001710578
9241016000,9241016000,0.0042576636,-4.069088e-05,0.0020593915
9241028000,9241028000,0.007408121,-0.0064841467,0.0020837383
9241040000,9241040000,0.008754224,-0.0012350571,0.002247868
9241048000,9241048000,0.0046449075,0.0025532865,0.0016046714
9241060000,9241060000,0.0005244083,0.0059006587,0.0028464634
9241072000,9241072000,0.0013761941,0.0006086044,-0.002497356
9241084000,9241084000,0.0026422853,-0.0039275493,0.0005530133
9241100000,9241100000,0.0059557203,-0.0016746391,-0.0052984348
9241112000,9241112000,0.0055948095,0.002574298,-0.0016947808
9241124000,9241124000,0.006224627,0.004368717,-0.004267883
9241136000,9241136000,0.0015929716,0.004557224,-0.0022171838
9241144000,9241144000,-0.0044058114,0.002810446,0.00094841304
9241156000,9241156000,-0.007021791,0.00012920983,0.0076455963
9241172000,9241172000,-0.0016090219,0.0074790367,0.00057394686
9241184000,9241184000,-0.0028768657,0.01011662,0.0019155409
9241196000,9241196000,0.0005217721,0.006613429,0.0023159522
9241208000,9241208000,0.0054832096,0.0051861317,0.0008935642
9241220000,9241220000,0.0020265407,0.004021538,0.0027027843
9241232000,9241232000,0.008539599,0.0014929487,0.0021958682
9241240000,9241240000,0.009422135,0.0018863338,0.0003822105
9241256000,9241256000,0.010111858,-0.0024154363,-0.0017244853
9241268000,9241268000,0.011434088,-0.0076152342,-0.0007340945
9241280000,9241280000,0.0029447628,-0.0043482087,0.00015816197
9241292000,9241292000,0.004278934,-0.006396545,-0.003115021
9241304000,9241304000,0.0070103016,-0.0031444887,-0.004234832
9241316000,9241316000,0.0033164658,-0.0030385675,0.0020930527
9241324000,9241324000,0.00028131856,-0.005192533,0.0033026673
9241340000,9241340000,0.0031974826,-0.011569595,0.0018446981
9241352000,9241352000,0.004042574,-0.012579609,0.0033564277
9241364000,9241364000,0.00037731812,-0.0071560116,0.004056623
9241376000,9241376000,-0.0022315192,-0.008072969,-0.0028635322
9241388000,9241388000,-0.0053285775,-0.005774326,-0.0020900094
9241400000,9241400000,-0.00052008685,-0.008166358,-0.0013855393
9241412000,9241412000,0.0029468345,-0.0077132005,-0.005087981
9241420000,9241420000,0.0076633543,-0.006530987,0.0012075863
9241436000,9241436000,0.006104685,0.00043458026,-0.001483802
9241448000,9241448000,0.008045856,0.004164449,0.003201416
9241460000,9241460000,0.007027982,0.004612118,-0.004190322
9241472000,9241472000,0.0045734164,0.0021805163,-0.00039242778
9241480000,9241480000,0.0025406152,0.0051911236,-0.0022854558
9241496000,9241496000,0.006554096,0.007313571,-0.0006405758
9241508000,9241508000,0.0058475914,0.0059552453,0.0008891271
9241520000,9241520000,0.005786256,0.004130006,0.0017089525
9241528000,9241528000,0.005707344,0.0050564082,0.00093062775
9241544000,9241544000,-0.0006678819,0.008078524,-0.0062102494
9241556000,9241556000,0.007139805,0.0061315885,-0.0022961504
9241568000,9241568000,0.007059112,0.0045123356,-0.0022292887
9241580000,9241580000,0.009812461,0.003436484,0.0014146483
9241592000,9241592000,0.013395741,0.0017003417,0.00045769374
9241600000,9241600000,0.011416943,-0.00054588495,0.00043956377
9241616000,9241616000,0.009236148,-0.0025808732,0.0041981395
9241628000,9241628000,-8.767005e-06,-0.0019596163,0.0031885365
9241640000,9241640000,-0.0011818929,0.0013795029,-0.0017089763
9241652000,9241652000,0.0030392213,0.0016623684,-0.0027767906
9241664000,9241664000,-0.004708869,0.004798564,0.005611823
9241676000,9241676000,-2.8524082e-05,0.0027276236,0.004004435
9241688000,9241688000,0.0037315295,0.0098314155,0.0032172226
9241700000,9241700000,0.0011379144,0.0057619438,0.0046687713
9241712000,9241712000,0.0033112266,0.0044485787,-0.0021256392
9241724000,9241724000,0.0032314542,-0.00029687025,-0.003493113
9241736000,9241736000,0.0013318812,0.0003961916,-0.0025330083
9241744000,9241744000,-0.00024687953,0.0026976406,0.0012455967
9241760000,9241760000,-0.0021758312,0.0046608755,-0.0011498954
9241768000,9241768000,-0.0017371149,0.009631574,0.0037592493
9241780000,9241780000,0.0014567544,0.011545175,0.0006555446
9241796000,9241796000,-0.0029517156,0.010676917,-3.5986246e-05
9241808000,9241808000,-0.004464973,0.011764794,0.0018466505
9241820000,9241820000,-0.003982063,0.010310315,-0.001990858
9241832000,9241832000,-0.0023803809,0.001729839,-0.0037286158
9241844000,9241844000,0.00067482464,0.0029688156,0.002055183
9241852000,9241852000,0.0020854399,0.0055537615,0.0019771808
9241868000,9241868000,0.0075896387,0.010719664,0.0010320053
9241880000,9241880000,0.0054300157,0.005153138,0.0029443174
9241888000,9241888000,0.008383178,0.0021375082,0.0012492237
9241904000,9241904000,0.0067250635,-0.0072604623,-0.0017566687
9241916000,9241916000,0.0032944381,-0.0027013472,-0.0030686539
9241928000,9241928000,0.00069664815,-0.0074275755,-7.9305726e-05
9241940000,9241940000,0.00018563366,-0.0055318954,-0.00033400877
9241952000,9241952000,-0.0019716164,-0.0041791177,0.0014641826
9241964000,9241964000,-0.00029763381,0.0021049306,0.0034563076
9241976000,9241976000,0.0006913173,0.0008325055,-0.0022941683
9241988000,9241988000,0.0006257375,0.0012267367,-0.0026046108
9242000000,9242000000,0.0043632844,-0.0013391273,0.00069628365
9242012000,9242012000,0.008978728,0.0010688752,0.0005827961
9242024000,9242024000,0.0077185906,0.0036519098,0.0008914493
9242032000,9242032000,0.008281917,0.002627809,0.00082649814
9242048000,9242048000,0.007653568,-0.0035148505,0.0038688458
9242060000,9242060000,0.0076138065,-0.0015940089,-0.0024699783
9242072000,9242072000,0.005893308,0.0030133887,0.0011947847
9242080000,9242080000,0.00601639,0.0063667116,0.0022692936
9242096000,9242096000,0.005914876,0.006087984,-0.00060352986
9242104000,9242104000,0.005486463,0.008535777,-0.0009144471
9242120000,9242120000,-0.0012232232,0.016326942,0.0035081934
9242128000,9242128000,0.004098677,0.012474854,0.0011460606
9242144000,9242144000,0.0137007935,0.008158741,-0.0014519609
9242156000,9242156000,0.011721755,0.0032346225,-0.0025701644
9242168000,9242168000,0.00865483,0.0057091746,0.0014394156
9242180000,9242180000,0.0066676624,0.01045631,0.0010537525
9242188000,9242188000,0.002345072,0.007971918,-0.0006726356
9242204000,9242204000,0.0035317277,0.008544277,-0.00016892183
9242216000,9242216000,0.0002404481,0.0122454595,0.0057377336
9242228000,9242228000,0.00085852575,0.009270945,0.0036594137
9242240000,9242240000,-0.0005056311,0.007984584,0.0013635191
9242248000,9242248000,0.00093147135,0.004378802,-0.002448923
9242260000,9242260000,0.00551753,0.0068510394,-0.002247157
9242272000,9242272000,0.002975789,0.011373114,0.0013913328
9242288000,9242288000,-0.0027164547,0.01043871,-0.0034481366
9242300000,9242300000,-0.0061394647,0.007808393,0.0047395807
9242308000,9242308000,-0.004472282,0.010097759,0.0065922188
9242324000,9242324000,-0.006050844,0.0119572915,-0.002912634
9242336000,9242336000,-0.0028053205,0.012484203,-0.0043669324
9242348000,9242348000,0.0032767216,0.0083385855,-0.002404841
9242360000,9242360000,0.0059933946,0.009282104,0.0022855024
9242372000,9242372000,0.0064976537,0.008399467,0.0024883754
9242384000,9242384000,0.008937771,0.0039575994,0.0042904727
9242396000,9242396000,0.014324712,-0.0067199674,0.0069313482
9242408000,9242408000,0.00582455,-0.003913561,-0.0005899489
9242420000,9242420000,0.0054380205,-0.0023893407,0.0008747245
9242428000,9242428000,0.011153156,-0.005472686,0.0009933433
9242444000,9242444000,0.0125551475,-0.00716241,-0.0026068944
9242452000,9242452000,0.008721767,-0.0070506055,-0.00034999696
9242468000,9242468000,0.006487333,-0.004709603,0.002072651
9242476000,9242476000,0.003979617,0.0020556957,0.0011692058
9242492000,9242492000,-0.0012112716,0.00815898,0.0028669103
9242504000,9242504000,-0.0044636717,0.0014571534,-0.002225238
9242516000,9242516000,-0.009716838,-0.0042284024,0.0018028727
9242524000,9242524000,-0.007030084,-0.0033031008,-0.0020596148
9242540000,9242540000,-0.00064716616,-0.0019504786,-0.0043074545
9242548000,9242548000,0.001421969,-0.001883659,-0.0021665075
9242564000,9242564000,-0.0053130523,-0.0013696393,0.004684739
9242572000,9242572000,-0.007660308,0.0005846182,0.00066683517
9242588000,9242588000,-0.0069994316,-0.0035779555,0.0017461056
9242596000,9242596000,-0.0057884865,-0.0018595853,-0.0005303503
9242608000,9242608000,-0.0072869733,0.0022762222,0.00088691106
9242620000,9242620000,-0.0072592525,0.0018093903,0.0014474884
9242632000,9242632000,-0.0056124693,-0.0011654142,0.00011838798
9242648000,9242648000,-0.006202006,-0.005712506,0.003015884
9242660000,9242660000,-0.0044797794,-0.0027542207,0.00049912115
9242672000,9242672000,0.00030415272,0.0006993129,0.0042671813
9242684000,9242684000,0.0032372703,0.005802175,0.00434628
9242696000,9242696000,-0.0008756182,0.0015390413,-0.005906887
9242708000,9242708000,-0.0029255636,-0.002710482,-0.004078262
9242720000,9242720000,-0.0071337307,-0.0053834394,-0.008737408
9242728000,9242728000,-0.0074161235,-8.6116605e-05,-0.0052338038
9242740000,9242740000,-0.001317085,0.004755945,-0.0019526236
9242756000,9242756000,0.0014055911,-0.0009949608,0.00521617
9242768000,9242768000,-0.0059927893,-0.0018848544,0.004925661
9242780000,9242780000,-0.011532411,-0.0056987423,0.000118197524
9242792000,9242792000,-0.002395018,-0.004944551,-0.004396185
9242800000,9242800000,-0.0014217921,-0.006644939,0.002001834
9242816000,9242816000,-0.0067833075,-0.012372112,-0.004295655
9242824000,9242824000,-0.0056092897,-0.0106210075,-0.0041152695
9242840000,9242840000,-0.006374636,-0.008638589,-0.0017567792
9242848000,9242848000,-0.0041604815,-0.010868691,-0.00433004
9242860000,9242860000,0.006073695,-0.004065667,-7.397187e-05
9242872000,9242872000,-0.00067520107,-0.0021311152,-0.0021860665
9242888000,9242888000,-0.0038431217,-0.010780664,0.003871765
9242900000,9242900000,0.0005905854,-0.013381039,0.0044755093
9242912000,9242912000,0.0005979936,-0.011237467,-0.0008451726
9242924000,9242924000,-0.0020059163,-0.004358192,0.0010911521
9242936000,9242936000,0.00028337789,-0.0004706923,-0.002280706
9242944000,9242944000,-0.0011486835,-0.0012893775,-0.006230568
9242956000,9242956000,9.323133e-05,0.003160167,-0.00087244454
9242968000,9242968000,-0.0010065137,0.0018501561,-0.0024434528
9242984000,9242984000,0.00039776345,0.0060857097,0.0017372203
9242992000,9242992000,-0.00415387,0.0034354168,0.0023078702
9243008000,9243008000,0.00052488595,-0.006159374,0.0027884524
9243020000,9243020000,0.0010077811,-0.0061791786,0.00012885977
9243032000,9243032000,0.006007041,-0.0033622277,0.00023260555
9243040000,9243040000,0.0049488046,-0.0049702404,0.0031128083
9243056000,9243056000,-0.0007309078,-0.00788754,0.0030404334
9243068000,9243068000,0.0054893615,-0.0054229302,0.00053574744
9243080000,9243080000,0.008285891,0.005287762,-0.00069949246
9243092000,9243092000,0.0062829945,0.0098092165,0.0050135003
9243104000,9243104000,0.0017221647,0.0050217663,0.0043634414
9243112000,9243112000,-0.00047239184,-0.0010058167,-0.004004487
9243128000,9243128000,-0.0022570784,-0.004183704,-0.0005070929
9243140000,9243140000,-0.00062886614,-0.00065036584,-0.0005427232
9243152000,9243152000,-0.0036413618,-0.000171958,-0.0059325206
9243164000,9243164000,-0.00050791225,0.006252865,0.00068372977
9243176000,9243176000,-0.005927185,0.007941029,0.00045514767
9243188000,9243188000,-0.0050513074,0.007379205,-0.0022046526
9243200000,9243200000,-0.003957751,0.0014136508,0.0011536761
9243212000,9243212000,-0.0028532012,0.0022802697,-0.0020199227
9243224000,9243224000,-0.008034734,0.0053071715,8.4014435e-05
9243236000,9243236000,-0.0045593968,0.00978353,0.001703701
9243248000,9243248000,0.00039014168,0.0061433176,-0.0014913459
9243256000,9243256000,-0.0035717906,0.004777939,0.0012061272
9243272000,9243272000,-0.0028982898,0.001125602,-0.00222035
9243280000,9243280000,-0.0029172315,0.0046392893,-0.0004174143
9243296000,9243296000,-0.0057132277,0.0028051618,0.0039755125
9243308000,9243308000,-0.0037648983,0.0029095518,0.00694518
9243320000,9243320000,-0.0068862564,0.0010367851,-0.0008074316
9243328000,9243328000,-0.0054952926,0.005176566,-0.0018746818
9243344000,9243344000,-0.0059720427,0.008026502,0.002273893
9243356000,9243356000,-0.0008053577,0.009537273,0.00092153007
9243368000,9243368000,7.0733135e-05,0.006278538,0.003322719
9243380000,9243380000,0.0041979197,0.005193096,0.0012817988
9243392000,9243392000,0.0073657623,-0.0009583547,-0.0027808752
9243404000,9243404000,0.0059146546,-0.0042470796,-0.0002856115
9243416000,9243416000,0.008099124,-0.004605756,0.0010848809
9243424000,9243424000,0.010966499,-0.00081255194,-0.003697895
9243440000,9243440000,0.008920153,0.0024260227,-0.0013249919
9243452000,9243452000,0.008815077,0.0047991644,0.0010379513
9243464000,9243464000,0.013898868,0.0018043253,-0.0020090314
9243476000,9243476000,0.008714729,-0.007034516,0.0009819767
9243488000,9243488000,0.011693696,-0.008283452,0.0029222092
9243500000,9243500000,0.014366739,-0.006088505,0.0023430362
9243512000,9243512000,0.013672734,-0.00860924,0.00037769836
9243524000,9243524000,0.00975609,-0.0039998735,0.0032197128
9243536000,9243536000,0.0071250303,-0.003136232,4.262221e-05
9243544000,9243544000,0.006383963,0.0011717682,-0.002182964
9243560000,9243560000,0.0018537287,0.0041565476,0.0006888996
9243572000,9243572000,0.0012634965,0.0071532917,0.0045283167
9243584000,9243584000,0.003263027,0.0033955846,0.0040457346
9243596000,9243596000,0.0061405716,0.0025985609,0.0015135752
9243608000,9243608000,0.008116124,-0.0016997657,-0.0054664635
9243616000,9243616000,0.009998353,-0.0065000164,-0.0015668249
9243632000,9243632000,0.006880651,-0.008423334,7.97736e-06
9243644000,9243644000,0.0071666725,-0.0041604363,-0.0016705065
9243656000,9243656000,0.008055106,-0.0020826817,-0.0026018964
9243664000,9243664000,0.008469933,-0.0017049317,-0.00012625486
9243676000,9243676000,-0.0007415399,-0.005864817,-0.0014366078
9243692000,9243692000,0.0015041819,-0.0032609743,-0.0024413865
9243704000,9243704000,-0.0003508192,0.0011075898,0.00029051534
9243712000,9243712000,-0.0022655427,0.0012453427,0.00038919316
9243724000,9243724000,-0.0016070603,0.0031500156,-0.0033731959
9243736000,9243736000,0.00016335835,0.0042488165,0.004830712
9243748000,9243748000,-0.0033463403,-0.0013219044,0.007502434
9243760000,9243760000,-0.0014289595,-0.0016518258,0.002389401
9243776000,9243776000,-0.0011739115,0.0015433268,0.000993118
9243788000,9243788000,-1.6463222e-05,0.0041332315,0.002478956
9243800000,9243800000,-0.00033328508,0.006682473,0.0011517492
9243812000,9243812000,-0.0008202618,0.006799463,-0.0006432374
9243824000,9243824000,-0.0006849336,0.0076500014,0.003481363
9243836000,9243836000,0.0006121103,0.01137081,0.004056716
9243848000,9243848000,0.0053631226,0.009917324,0.002121598
9243860000,9243860000,0.0057812734,0.010503546,0.0007281393
9243872000,9243872000,0.00053871714,0.010262605,0.0017469816
9243884000,9243884000,0.003588365,0.006505164,-0.0018771163
9243896000,9243896000,0.0017576639,0.0058515687,-0.00068967417
9243908000,9243908000,0.007925064,0.0067044822,0.0026070606
9243916000,9243916000,0.005960105,0.008890481,0.0033610784
9243932000,9243932000,0.007117892,0.0062903347,-0.0052115736
9243944000,9243944000,0.003965094,0.0016681533,-0.0017068333
9243956000,9243956000,-0.000216807,0.007596744,-0.0022917285
9243968000,9243968000,0.0029321813,0.008106105,-0.0028929892
9243980000,9243980000,-0.0019379081,0.010914562,-0.00022112153
9243992000,9243992000,0.0007463581,0.006808947,-0.003677857
