timestamp,noutputs,output[0],output[1],output[2],output[3],output[4],output[5],output[6],output[7],output[8],output[9],output[10],output[11],output[12],output[13],output[14],output[15]
146200000,6,900.0,900.0,900.0,900.0,900.0,900.0,nan,nan,nan,nan,nan,nan,nan,nan,nan,nan
146296000,6,1000.0,1000.0,1000.0,1000.0,1500.0,1500.0,nan,nan,nan,nan,nan,nan,nan,nan,nan,nan
146396000,6,1000.0,1000.0,1000.0,1000.0,1500.0,1500.0,nan,nan,nan,nan,nan,nan,nan,nan,nan,nan
146496000,6,1000.0,1000.0,1000.0,1000.0,1500.0,1500.0,nan,nan,nan,nan,nan,nan,nan,nan,nan,nan
146596000,6,1000.0,1000.0,1000.0,1000.0,1500.0,1500.0,nan,nan,nan,nan,nan,nan,nan,nan,nan,nan
146700000,6,1000.0,1000.0,1000.0,1000.0,1500.0,1500.0,nan,nan,nan,nan,nan,nan,nan,nan,nan,nan
146796000,6,1000.0,1000.0,1000.0,1000.0,1500.0,1500.0,nan,nan,nan,nan,nan,nan,nan,nan,nan,nan
146900000,6,1000.0,1000.0,1000.0,1000.0,1500.0,1500.0,nan,nan,nan,nan,nan,nan,nan,nan,nan,nan
147000000,6,1000.0,1000.0,1000.0,1000.0,1500.0,1500.0,nan,nan,nan,nan,nan,nan,nan,nan,nan,nan
147096000,6,1000.0,1000.0,1000.0,1000.0,1500.0,1500.0,nan,nan,nan,nan,nan,nan,nan,nan,nan,nan
147196000,6,1000.0,1000.0,1000.0,1000.0,1500.0,1500.0,nan,nan,nan,nan,nan,nan,nan,nan,nan,nan
147296000,6,1076.4473,1163.771,1108.2263,1131.9143,1500.0,1500.0,nan,nan,nan,nan,nan,nan,nan,nan,nan,nan
147400000,6,1081.8313,1173.4034,1102.8755,1147.6826,1500.0,1500.0,nan,nan,nan,nan,nan,nan,nan,nan,nan,nan
147496000,6,1153.4537,1212.3455,1164.1349,1197.7552,1500.0,1500.0,nan,nan,nan,nan,nan,nan,nan,nan,nan,nan
147596000,6,1226.9879,1274.1179,1234.8262,1264.9763,1500.0,1500.0,nan,nan,nan,nan,nan,nan,nan,nan,nan,nan
147696000,6,1287.8944,1332.31,1298.8807,1322.9934,1500.0,1500.0,nan,nan,nan,nan,nan,nan,nan,nan,nan,nan
147800000,6,1373.1542,1413.3823,1382.8053,1400.6774,1500.0,1500.0,nan,nan,nan,nan,nan,nan,nan,nan,nan,nan
147896000,6,1446.6393,1483.4069,1454.3546,1472.7703,1500.0,1500.0,nan,nan,nan,nan,nan,nan,nan,nan,nan,nan
147996000,6,1516.976,1552.1804,1526.245,1541.4268,1500.0,1500.0,nan,nan,nan,nan,nan,nan,nan,nan,nan,nan
148096000,6,1611.6772,1619.7411,1611.3762,1614.4536,1500.0,1500.0,nan,nan,nan,nan,nan,nan,nan,nan,nan,nan
148196000,6,1613.1234,1600.3052,1608.4136,1604.7062,1500.0,1500.0,nan,nan,nan,nan,nan,nan,nan,nan,nan,nan
148300000,6,1612.3446,1609.6921,1609.5276,1610.2217,1500.0,1500.0,nan,nan,nan,nan,nan,nan,nan,nan,nan,nan
148396000,6,1614.7281,1617.9071,1617.6455,1615.1613,1500.0,1500.0,nan,nan,nan,nan,nan,nan,nan,nan,nan,nan
148496000,6,1614.897,1613.6215,1614.6464,1614.648,1500.0,1500.0,nan,nan,nan,nan,nan,nan,nan,nan,nan,nan
148596000,6,1613.1956,1613.95,1614.3556,1615.2118,1500.0,1500.0,nan,nan,nan,nan,nan,nan,nan,nan,nan,nan
148696000,6,1615.0208,1615.7706,1613.827,1616.5367,1500.0,1500.0,nan,nan,nan,nan,nan,nan,nan,nan,nan,nan
148796000,6,1622.4272,1623.5225,1623.3374,1624.0433,1500.0,1500.0,nan,nan,nan,nan,nan,nan,nan,nan,nan,nan
148896000,6,1622.2704,1625.4136,1625.1993,1621.9745,1500.0,1500.0,nan,nan,nan,nan,nan,nan,nan,nan,nan,nan
148996000,6,1622.1149,1628.0021,1621.6642,1628.492,1500.0,1500.0,nan,nan,nan,nan,nan,nan,nan,nan,nan,nan
149100000,6,1622.0204,1626.1375,1624.2922,1625.5953,1500.0,1500.0,nan,nan,nan,nan,nan,nan,nan,nan,nan,nan
149200000,6,1624.2402,1628.9507,1624.3224,1628.2288,1500.0,1500.0,nan,nan,nan,nan,nan,nan,nan,nan,nan,nan
149296000,6,1626.2885,1626.2378,1627.1512,1628.1128,1500.0,1500.0,nan,nan,nan,nan,nan,nan,nan,nan,nan,nan
149400000,6,1632.977,1637.1473,1635.0696,1636.7677,1500.0,1500.0,nan,nan,nan,nan,nan,nan,nan,nan,nan,nan
149500000,6,1633.0741,1635.3716,1633.6571,1633.1714,1500.0,1500.0,nan,nan,nan,nan,nan,nan,nan,nan,nan,nan
149596000,6,1636.086,1635.1149,1636.7021,1634.6675,1500.0,1500.0,nan,nan,nan,nan,nan,nan,nan,nan,nan,nan
149696000,6,1635.2333,1634.5724,1633.7195,1636.0786,1500.0,1500.0,nan,nan,nan,nan,nan,nan,nan,nan,nan,nan
149796000,6,1641.0428,1641.635,1643.8438,1645.266,1500.0,1500.0,nan,nan,nan,nan,nan,nan,nan,nan,nan,nan
149896000,6,1591.5616,1585.6669,1590.7848,1589.0977,1500.0,1500.0,nan,nan,nan,nan,nan,nan,nan,nan,nan,nan
149996000,6,1508.5974,1508.9362,1512.0505,1505.6411,1500.0,1500.0,nan,nan,nan,nan,nan,nan,nan,nan,nan,nan
150100000,6,1553.6393,1548.95,1551.4554,1547.9642,1500.0,1500.0,nan,nan,nan,nan,nan,nan,nan,nan,nan,nan
150196000,6,1550.8721,1549.1537,1549.3915,1550.6095,1500.0,1500.0,nan,nan,nan,nan,nan,nan,nan,nan,nan,nan
150296000,6,1551.6981,1547.21,1550.7986,1547.4376,1500.0,1500.0,nan,nan,nan,nan,nan,nan,nan,nan,nan,nan
150396000,6,1549.7511,1552.5511,1549.0884,1549.1603,1500.0,1500.0,nan,nan,nan,nan,nan,nan,nan,nan,nan,nan
150496000,6,1556.7899,1552.6226,1551.0919,1552.8091,1500.0,1500.0,nan,nan,nan,nan,nan,nan,nan,nan,nan,nan
150596000,6,1551.2668,1552.9504,1551.1904,1550.243,1500.0,1500.0,nan,nan,nan,nan,nan,nan,nan,nan,nan,nan
150700000,6,1551.8691,1550.9966,1554.7245,1550.0781,1500.0,1500.0,nan,nan,nan,nan,nan,nan,nan,nan,nan,nan
150796000,6,1556.4839,1556.8054,1558.3582,1557.5544,1500.0,1500.0,nan,nan,nan,nan,nan,nan,nan,nan,nan,nan
150896000,6,1559.7339,1557.6935,1558.7275,1557.4174,1500.0,1500.0,nan,nan,nan,nan,nan,nan,nan,nan,nan,nan
151000000,6,1558.25,1559.8666,1559.5088,1558.3898,1500.0,1500.0,nan,nan,nan,nan,nan,nan,nan,nan,nan,nan
151096000,6,1556.5764,1559.8508,1557.2509,1556.5522,1500.0,1500.0,nan,nan,nan,nan,nan,nan,nan,nan,nan,nan
151196000,6,1561.5564,1562.2192,1560.3208,1560.3384,1500.0,1500.0,nan,nan,nan,nan,nan,nan,nan,nan,nan,nan
151296000,6,1562.1992,1563.9009,1559.7559,1563.9769,1500.0,1500.0,nan,nan,nan,nan,nan,nan,nan,nan,nan,nan
151400000,6,1561.4297,1562.6565,1560.9452,1562.2491,1500.0,1500.0,nan,nan,nan,nan,nan,nan,nan,nan,nan,nan
151500000,6,1561.7201,1560.6803,1564.2317,1560.6807,1500.0,1500.0,nan,nan,nan,nan,nan,nan,nan,nan,nan,nan
151596000,6,1563.0497,1556.9825,1561.9933,1560.865,1500.0,1500.0,nan,nan,nan,nan,nan,nan,nan,nan,nan,nan
151696000,6,1558.4796,1567.2299,1560.5168,1563.7588,1500.0,1500.0,nan,nan,nan,nan,nan,nan,nan,nan,nan,nan
151800000,6,1563.9777,1567.2927,1564.0532,1564.9934,1500.0,1500.0,nan,nan,nan,nan,nan,nan,nan,nan,nan,nan
151896000,6,1564.3225,1561.7826,1567.6122,1563.7094,1500.0,1500.0,nan,nan,nan,nan,nan,nan,nan,nan,nan,nan
151996000,6,1563.4594,1560.3218,1563.1025,1561.1687,1500.0,1500.0,nan,nan,nan,nan,nan,nan,nan,nan,nan,nan
152096000,6,1563.6893,1563.6011,1563.399,1562.6726,1500.0,1500.0,nan,nan,nan,nan,nan,nan,nan,nan,nan,nan
152196000,6,1565.0673,1563.7361,1564.6306,1564.6477,1500.0,1500.0,nan,nan,nan,nan,nan,nan,nan,nan,nan,nan
152296000,6,1564.8785,1563.7344,1563.207,1564.061,1500.0,1500.0,nan,nan,nan,nan,nan,nan,nan,nan,nan,nan
152396000,6,1563.0964,1563.996,1565.6196,1560.9203,1500.0,1500.0,nan,nan,nan,nan,nan,nan,nan,nan,nan,nan
152496000,6,1563.0151,1564.7024,1561.4862,1565.9897,1500.0,1500.0,nan,nan,nan,nan,nan,nan,nan,nan,nan,nan
152600000,6,1563.3052,1564.6865,1567.4181,1562.3191,1500.0,1500.0,nan,nan,nan,nan,nan,nan,nan,nan,nan,nan
152696000,6,1567.8579,1565.0865,1566.9976,1563.5398,1500.0,1500.0,nan,nan,nan,nan,nan,nan,nan,nan,nan,nan
152796000,6,1564.7079,1564.2034,1564.6975,1566.369,1500.0,1500.0,nan,nan,nan,nan,nan,nan,nan,nan,nan,nan
152900000,6,1562.1462,1564.8827,1564.6298,1562.3397,1500.0,1500.0,nan,nan,nan,nan,nan,nan,nan,nan,nan,nan
153000000,6,1564.5765,1567.7087,1565.571,1565.1475,1500.0,1500.0,nan,nan,nan,nan,nan,nan,nan,nan,nan,nan
153096000,6,1565.9932,1562.3611,1566.1797,1564.3232,1500.0,1500.0,nan,nan,nan,nan,nan,nan,nan,nan,nan,nan
153196000,6,1564.5876,1565.02,1567.4316,1561.3735,1500.0,1500.0,nan,nan,nan,nan,nan,nan,nan,nan,nan,nan
153296000,6,1562.0972,1568.1252,1563.3383,1565.6969,1500.0,1500.0,nan,nan,nan,nan,nan,nan,nan,nan,nan,nan
153396000,6,1565.2594,1564.1161,1565.251,1566.8578,1500.0,1500.0,nan,nan,nan,nan,nan,nan,nan,nan,nan,nan
153496000,6,1566.4741,1563.5914,1562.7793,1565.5966,1500.0,1500.0,nan,nan,nan,nan,nan,nan,nan,nan,nan,nan
153596000,6,1564.6898,1564.0066,1566.3698,1562.9526,1500.0,1500.0,nan,nan,nan,nan,nan,nan,nan,nan,nan,nan
153696000,6,1563.9475,1567.4646,1567.3025,1563.301,1500.0,1500.0,nan,nan,nan,nan,nan,nan,nan,nan,nan,nan
153800000,6,1561.6624,1565.3013,1563.7251,1563.426,1500.0,1500.0,nan,nan,nan,nan,nan,nan,nan,nan,nan,nan
153896000,6,1565.38,1562.1849,1568.0093,1563.337,1500.0,1500.0,nan,nan,nan,nan,nan,nan,nan,nan,nan,nan
153996000,6,1564.6112,1562.2507,1565.0344,1561.7966,1500.0,1500.0,nan,nan,nan,nan,nan,nan,nan,nan,nan,nan
154096000,6,1566.4841,1561.1833,1564.9287,1563.7909,1500.0,1500.0,nan,nan,nan,nan,nan,nan,nan,nan,nan,nan
154196000,6,1566.5763,1563.5367,1565.0111,1562.8418,1500.0,1500.0,nan,nan,nan,nan,nan,nan,nan,nan,nan,nan
154296000,6,1565.5396,1564.3867,1562.4061,1567.0386,1500.0,1500.0,nan,nan,nan,nan,nan,nan,nan,nan,nan,nan
154396000,6,1565.5312,1564.2339,1565.7427,1560.0848,1500.0,1500.0,nan,nan,nan,nan,nan,nan,nan,nan,nan,nan
154500000,6,1561.915,1565.5107,1562.6246,1562.9348,1500.0,1500.0,nan,nan,nan,nan,nan,nan,nan,nan,nan,nan
154600000,6,1567.1824,1564.1334,1563.2931,1565.7129,1500.0,1500.0,nan,nan,nan,nan,nan,nan,nan,nan,nan,nan
154696000,6,1563.7045,1565.0494,1564.3961,1566.2031,1500.0,1500.0,nan,nan,nan,nan,nan,nan,nan,nan,nan,nan
154796000,6,1563.649,1564.9624,1563.5254,1565.3396,1500.0,1500.0,nan,nan,nan,nan,nan,nan,nan,nan,nan,nan
154896000,6,1564.8862,1562.3867,1564.0388,1563.6532,1500.0,1500.0,nan,nan,nan,nan,nan,nan,nan,nan,nan,nan
155000000,6,1565.3939,1566.1956,1564.8744,1565.2546,1500.0,1500.0,nan,nan,nan,nan,nan,nan,nan,nan,nan,nan
155100000,6,1564.8782,1562.8834,1565.5161,1562.319,1500.0,1500.0,nan,nan,nan,nan,nan,nan,nan,nan,nan,nan
155200000,6,1566.1652,1564.2778,1564.616,1564.9467,1500.0,1500.0,nan,nan,nan,nan,nan,nan,nan,nan,nan,nan
155296000,6,1565.091,1565.3395,1561.3273,1567.4868,1500.0,1500.0,nan,nan,nan,nan,nan,nan,nan,nan,nan,nan
155396000,6,1564.5459,1565.0819,1563.4418,1563.7428,1500.0,1500.0,nan,nan,nan,nan,nan,nan,nan,nan,nan,nan
155496000,6,1566.0675,1563.8274,1562.7825,1567.4628,1500.0,1500.0,nan,nan,nan,nan,nan,nan,nan,nan,nan,nan
155596000,6,1561.6648,1565.3492,1560.288,1566.1238,1500.0,1500.0,nan,nan,nan,nan,nan,nan,nan,nan,nan,nan
155696000,6,1564.7938,1564.3226,1561.6353,1568.0991,1500.0,1500.0,nan,nan,nan,nan,nan,nan,nan,nan,nan,nan
155796000,6,1564.9385,1563.6724,1564.3407,1562.4781,1500.0,1500.0,nan,nan,nan,nan,nan,nan,nan,nan,nan,nan
155896000,6,1563.8673,1563.6456,1562.9382,1563.6549,1500.0,1500.0,nan,nan,nan,nan,nan,nan,nan,nan,nan,nan
155996000,6,1564.3048,1561.9281,1566.0962,1561.6277,1500.0,1500.0,nan,nan,nan,nan,nan,nan,nan,nan,nan,nan
156100000,6,1563.19,1564.1946,1563.1405,1564.1885,1500.0,1500.0,nan,nan,nan,nan,nan,nan,nan,nan,nan,nan
156200000,6,1564.9974,1565.3735,1563.4059,1563.31,1500.0,1500.0,nan,nan,nan,nan,nan,nan,nan,nan,nan,nan
156296000,6,1564.5299,1562.7373,1563.6469,1563.5195,1500.0,1500.0,nan,nan,nan,nan,nan,nan,nan,nan,nan,nan
156400000,6,1566.7571,1565.3068,1565.491,1562.9741,1500.0,1500.0,nan,nan,nan,nan,nan,nan,nan,nan,nan,nan
156496000,6,1564.5142,1564.5369,1564.3723,1565.24,1500.0,1500.0,nan,nan,nan,nan,nan,nan,nan,nan,nan,nan
156596000,6,1562.5632,1564.4294,1563.2056,1566.2332,1500.0,1500.0,nan,nan,nan,nan,nan,nan,nan,nan,nan,nan
156700000,6,1564.2003,1564.6716,1565.047,1564.6694,1500.0,1500.0,nan,nan,nan,nan,nan,nan,nan,nan,nan,nan
156796000,6,1561.7045,1565.1007,1565.1589,1566.8917,1500.0,1500.0,nan,nan,nan,nan,nan,nan,nan,nan,nan,nan
156900000,6,1567.7775,1563.5734,1566.6058,1563.1792,1500.0,1500.0,nan,nan,nan,nan,nan,nan,nan,nan,nan,nan
157000000,6,1567.3726,1561.9866,1564.736,1562.8333,1500.0,1500.0,nan,nan,nan,nan,nan,nan,nan,nan,nan,nan
157096000,6,1564.4274,1563.169,1564.5594,1562.0421,1500.0,1500.0,nan,nan,nan,nan,nan,nan,nan,nan,nan,nan
157200000,6,1562.8802,1562.8174,1563.0118,1563.9503,1500.0,1500.0,nan,nan,nan,nan,nan,nan,nan,nan,nan,nan
157296000,6,1565.8865,1562.1927,1562.7457,1560.8617,1500.0,1500.0,nan,nan,nan,nan,nan,nan,nan,nan,nan,nan
157400000,6,1562.4716,1565.4711,1564.1611,1561.9028,1500.0,1500.0,nan,nan,nan,nan,nan,nan,nan,nan,nan,nan
157496000,6,1563.0798,1562.6228,1562.9833,1563.7821,1500.0,1500.0,nan,nan,nan,nan,nan,nan,nan,nan,nan,nan
157596000,6,1563.808,1561.9434,1560.8395,1564.604,1500.0,1500.0,nan,nan,nan,nan,nan,nan,nan,nan,nan,nan
157700000,6,1564.6815,1563.8352,1566.628,1562.2656,1500.0,1500.0,nan,nan,nan,nan,nan,nan,nan,nan,nan,nan
157796000,6,1560.2454,1568.379,1562.0001,1564.5773,1500.0,1500.0,nan,nan,nan,nan,nan,nan,nan,nan,nan,nan
157896000,6,1565.3723,1564.0815,1567.0647,1563.2953,1500.0,1500.0,nan,nan,nan,nan,nan,nan,nan,nan,nan,nan
157996000,6,1564.3489,1563.0039,1564.7494,1562.3054,1500.0,1500.0,nan,nan,nan,nan,nan,nan,nan,nan,nan,nan
158096000,6,1564.9175,1566.1492,1566.4727,1564.7625,1500.0,1500.0,nan,nan,nan,nan,nan,nan,nan,nan,nan,nan
158196000,6,1561.7186,1566.0984,1562.5907,1563.5775,1500.0,1500.0,nan,nan,nan,nan,nan,nan,nan,nan,nan,nan
158296000,6,1562.2024,1566.8931,1564.437,1564.4185,1500.0,1500.0,nan,nan,nan,nan,nan,nan,nan,nan,nan,nan
158396000,6,1566.1185,1564.3169,1565.3134,1560.9161,1500.0,1500.0,nan,nan,nan,nan,nan,nan,nan,nan,nan,nan
158496000,6,1561.5889,1562.6633,1562.3406,1562.1045,1500.0,1500.0,nan,nan,nan,nan,nan,nan,nan,nan,nan,nan
158596000,6,1565.1577,1559.248,1560.3438,1560.2568,1500.0,1500.0,nan,nan,nan,nan,nan,nan,nan,nan,nan,nan
158696000,6,1559.1686,1566.811,1563.1985,1562.8505,1500.0,1500.0,nan,nan,nan,nan,nan,nan,nan,nan,nan,nan
158796000,6,1563.7181,1563.2614,1565.1943,1565.6823,1500.0,1500.0,nan,nan,nan,nan,nan,nan,nan,nan,nan,nan
158896000,6,1561.4825,1564.0437,1562.5885,1563.2452,1500.0,1500.0,nan,nan,nan,nan,nan,nan,nan,nan,nan,nan
159000000,6,1566.5498,1562.1632,1563.83,1565.1096,1500.0,1500.0,nan,nan,nan,nan,nan,nan,nan,nan,nan,nan
159096000,6,1559.3907,1567.01,1560.1407,1566.1301,1500.0,1500.0,nan,nan,nan,nan,nan,nan,nan,nan,nan,nan
159196000,6,1562.6116,1563.5747,1563.8638,1563.2678,1500.0,1500.0,nan,nan,nan,nan,nan,nan,nan,nan,nan,nan
159296000,6,1565.3254,1563.4061,1563.8832,1561.2522,1500.0,1500.0,nan,nan,nan,nan,nan,nan,nan,nan,nan,nan
159400000,6,1564.0947,1564.054,1565.6464,1562.4574,1500.0,1500.0,nan,nan,nan,nan,nan,nan,nan,nan,nan,nan
159500000,6,1561.3633,1563.7992,1559.9377,1564.2307,1500.0,1500.0,nan,nan,nan,nan,nan,nan,nan,nan,nan,nan
159600000,6,1563.2126,1561.6614,1561.3367,1561.1812,1500.0,1500.0,nan,nan,nan,nan,nan,nan,nan,nan,nan,nan
159700000,6,1561.7085,1564.9126,1560.6339,1568.9363,1500.0,1500.0,nan,nan,nan,nan,nan,nan,nan,nan,nan,nan
159796000,6,1560.5076,1562.6958,1563.6908,1562.4755,1500.0,1500.0,nan,nan,nan,nan,nan,nan,nan,nan,nan,nan
159900000,6,1560.277,1564.7819,1563.751,1563.5458,1500.0,1500.0,nan,nan,nan,nan,nan,nan,nan,nan,nan,nan
159996000,6,1561.0931,1564.2732,1561.4634,1562.8654,1500.0,1500.0,nan,nan,nan,nan,nan,nan,nan,nan,nan,nan
160100000,6,1562.8196,1562.4807,1566.4534,1560.6578,1500.0,1500.0,nan,nan,nan,nan,nan,nan,nan,nan,nan,nan
160196000,6,1561.213,1564.4763,1560.3014,1564.461,1500.0,1500.0,nan,nan,nan,nan,nan,nan,nan,nan,nan,nan
160296000,6,1559.9066,1564.9808,1559.184,1563.1593,1500.0,1500.0,nan,nan,nan,nan,nan,nan,nan,nan,nan,nan
160400000,6,1561.4685,1562.9612,1561.4614,1565.092,1500.0,1500.0,nan,nan,nan,nan,nan,nan,nan,nan,nan,nan
160500000,6,1563.1544,1561.9567,1563.822,1562.4156,1500.0,1500.0,nan,nan,nan,nan,nan,nan,nan,nan,nan,nan
160600000,6,1561.444,1560.2993,1562.1356,1561.9824,1500.0,1500.0,nan,nan,nan,nan,nan,nan,nan,nan,nan,nan
160696000,6,1564.628,1560.7622,1563.507,1561.3656,1500.0,1500.0,nan,nan,nan,nan,nan,nan,nan,nan,nan,nan
160796000,6,1558.8594,1564.1971,1559.1139,1561.0364,1500.0,1500.0,nan,nan,nan,nan,nan,nan,nan,nan,nan,nan
160900000,6,1561.1771,1562.521,1560.6592,1563.3098,1500.0,1500.0,nan,nan,nan,nan,nan,nan,nan,nan,nan,nan
160996000,6,1563.6057,1561.3618,1563.3063,1562.2941,1500.0,1500.0,nan,nan,nan,nan,nan,nan,nan,nan,nan,nan
161100000,6,1562.2297,1560.728,1561.5349,1559.8721,1500.0,1500.0,nan,nan,nan,nan,nan,nan,nan,nan,nan,nan
161196000,6,1562.94,1560.4633,1563.0671,1561.3319,1500.0,1500.0,nan,nan,nan,nan,nan,nan,nan,nan,nan,nan
161296000,6,1563.8339,1560.5527,1562.8231,1563.3451,1500.0,1500.0,nan,nan,nan,nan,nan,nan,nan,nan,nan,nan
161400000,6,1565.52,1558.2245,1565.2797,1558.1696,1500.0,1500.0,nan,nan,nan,nan,nan,nan,nan,nan,nan,nan
161500000,6,1565.5588,1560.8073,1564.5422,1561.0035,1500.0,1500.0,nan,nan,nan,nan,nan,nan,nan,nan,nan,nan
161596000,6,1565.5527,1563.5596,1564.1691,1566.1945,1500.0,1500.0,nan,nan,nan,nan,nan,nan,nan,nan,nan,nan
161700000,6,1562.8625,1564.6318,1562.5138,1562.4901,1500.0,1500.0,nan,nan,nan,nan,nan,nan,nan,nan,nan,nan
161800000,6,1562.0093,1564.8973,1562.4211,1564.483,1500.0,1500.0,nan,nan,nan,nan,nan,nan,nan,nan,nan,nan
161900000,6,1565.2601,1560.7754,1561.3043,1565.7618,1500.0,1500.0,nan,nan,nan,nan,nan,nan,nan,nan,nan,nan
162000000,6,1560.9131,1561.668,1558.7892,1564.1713,1500.0,1500.0,nan,nan,nan,nan,nan,nan,nan,nan,nan,nan
162100000,6,1559.6376,1565.411,1563.7312,1563.9268,1500.0,1500.0,nan,nan,nan,nan,nan,nan,nan,nan,nan,nan
162200000,6,1562.5242,1559.8917,1562.0785,1559.9545,1500.0,1500.0,nan,nan,nan,nan,nan,nan,nan,nan,nan,nan
162296000,6,1561.94,1562.6945,1559.4448,1564.1609,1500.0,1500.0,nan,nan,nan,nan,nan,nan,nan,nan,nan,nan
162400000,6,1564.6199,1562.0073,1563.0692,1563.174,1500.0,1500.0,nan,nan,nan,nan,nan,nan,nan,nan,nan,nan
162500000,6,1559.8395,1563.0339,1562.3624,1562.612,1500.0,1500.0,nan,nan,nan,nan,nan,nan,nan,nan,nan,nan
162596000,6,1563.4408,1560.2456,1562.5447,1561.8815,1500.0,1500.0,nan,nan,nan,nan,nan,nan,nan,nan,nan,nan
162696000,6,1561.2638,1563.451,1561.5867,1562.8412,1500.0,1500.0,nan,nan,nan,nan,nan,nan,nan,nan,nan,nan
162800000,6,1563.0825,1562.399,1563.889,1563.7443,1500.0,1500.0,nan,nan,nan,nan,nan,nan,nan,nan,nan,nan
162896000,6,1564.286,1561.7887,1564.6637,1561.0936,1500.0,1500.0,nan,nan,nan,nan,nan,nan,nan,nan,nan,nan
162996000,6,1563.1912,1566.7753,1564.6068,1565.0254,1500.0,1500.0,nan,nan,nan,nan,nan,nan,nan,nan,nan,nan
163100000,6,1565.349,1564.0688,1564.1587,1563.0266,1500.0,1500.0,nan,nan,nan,nan,nan,nan,nan,nan,nan,nan
163200000,6,1563.3223,1562.5186,1565.0033,1562.1294,1500.0,1500.0,nan,nan,nan,nan,nan,nan,nan,nan,nan,nan
163300000,6,1566.702,1560.4197,1564.2881,1561.272,1500.0,1500.0,nan,nan,nan,nan,nan,nan,nan,nan,nan,nan
163396000,6,1558.4364,1563.9813,1561.4458,1563.8369,1500.0,1500.0,nan,nan,nan,nan,nan,nan,nan,nan,nan,nan
163496000,6,1564.5396,1564.0806,1565.155,1563.9598,1500.0,1500.0,nan,nan,nan,nan,nan,nan,nan,nan,nan,nan
163600000,6,1563.4037,1562.1372,1562.8945,1561.1075,1500.0,1500.0,nan,nan,nan,nan,nan,nan,nan,nan,nan,nan
163696000,6,1562.6699,1561.0859,1564.7375,1560.8752,1500.0,1500.0,nan,nan,nan,nan,nan,nan,nan,nan,nan,nan
163800000,6,1563.7225,1560.1526,1563.0227,1564.0011,1500.0,1500.0,nan,nan,nan,nan,nan,nan,nan,nan,nan,nan
163900000,6,1562.8802,1563.8871,1562.6664,1562.3916,1500.0,1500.0,nan,nan,nan,nan,nan,nan,nan,nan,nan,nan
163996000,6,1564.6217,1564.4799,1564.5393,1564.1816,1500.0,1500.0,nan,nan,nan,nan,nan,nan,nan,nan,nan,nan
164100000,6,1564.7976,1565.0708,1563.6567,1563.4828,1500.0,1500.0,nan,nan,nan,nan,nan,nan,nan,nan,nan,nan
164200000,6,1562.8767,1563.5413,1561.6531,1563.9241,1500.0,1500.0,nan,nan,nan,nan,nan,nan,nan,nan,nan,nan
164300000,6,1564.2704,1565.8945,1565.7125,1563.6624,1500.0,1500.0,nan,nan,nan,nan,nan,nan,nan,nan,nan,nan
164400000,6,1562.8259,1565.5253,1566.1224,1563.0303,1500.0,1500.0,nan,nan,nan,nan,nan,nan,nan,nan,nan,nan
164496000,6,1565.9789,1562.7992,1564.9067,1564.5657,1500.0,1500.0,nan,nan,nan,nan,nan,nan,nan,nan,nan,nan
164596000,6,1565.1345,1563.7668,1562.426,1564.6304,1500.0,1500.0,nan,nan,nan,nan,nan,nan,nan,nan,nan,nan
164700000,6,1563.0254,1563.0447,1563.2587,1563.8379,1500.0,1500.0,nan,nan,nan,nan,nan,nan,nan,nan,nan,nan
164796000,6,1559.5194,1567.7139,1560.1421,1563.8074,1500.0,1500.0,nan,nan,nan,nan,nan,nan,nan,nan,nan,nan
164900000,6,1566.0238,1561.515,1562.5999,1565.9191,1500.0,1500.0,nan,nan,nan,nan,nan,nan,nan,nan,nan,nan
164996000,6,1564.9031,1561.5286,1564.3123,1563.1849,1500.0,1500.0,nan,nan,nan,nan,nan,nan,nan,nan,nan,nan
165100000,6,1564.6823,1563.0892,1565.9303,1562.1047,1500.0,1500.0,nan,nan,nan,nan,nan,nan,nan,nan,nan,nan
165196000,6,1560.9066,1564.7878,1558.9163,1566.3354,1500.0,1500.0,nan,nan,nan,nan,nan,nan,nan,nan,nan,nan
165296000,6,1560.782,1562.1111,1560.8552,1565.4231,1500.0,1500.0,nan,nan,nan,nan,nan,nan,nan,nan,nan,nan
165396000,6,1561.2859,1568.2949,1564.1599,1564.6298,1500.0,1500.0,nan,nan,nan,nan,nan,nan,nan,nan,nan,nan
165500000,6,1564.2401,1564.3915,1563.9332,1562.9734,1500.0,1500.0,nan,nan,nan,nan,nan,nan,nan,nan,nan,nan
165600000,6,1558.5133,1567.2876,1561.2117,1563.8972,1500.0,1500.0,nan,nan,nan,nan,nan,nan,nan,nan,nan,nan
165696000,6,1560.6411,1560.3425,1562.542,1563.0679,1500.0,1500.0,nan,nan,nan,nan,nan,nan,nan,nan,nan,nan
165800000,6,1563.3687,1562.8638,1563.3406,1564.5822,1500.0,1500.0,nan,nan,nan,nan,nan,nan,nan,nan,nan,nan
165900000,6,1566.3042,1561.1632,1563.7428,1562.3568,1500.0,1500.0,nan,nan,nan,nan,nan,nan,nan,nan,nan,nan
165996000,6,1562.43,1561.9716,1562.8615,1563.0686,1500.0,1500.0,nan,nan,nan,nan,nan,nan,nan,nan,nan,nan
166096000,6,1565.2982,1566.2936,1566.1334,1567.7742,1500.0,1500.0,nan,nan,nan,nan,nan,nan,nan,nan,nan,nan
166196000,6,1564.8369,1563.6433,1564.9525,1563.893,1500.0,1500.0,nan,nan,nan,nan,nan,nan,nan,nan,nan,nan
166300000,6,1559.455,1568.6086,1563.0203,1564.0798,1500.0,1500.0,nan,nan,nan,nan,nan,nan,nan,nan,nan,nan
166396000,6,1563.3307,1564.1405,1562.7142,1565.8528,1500.0,1500.0,nan,nan,nan,nan,nan,nan,nan,nan,nan,nan
166500000,6,1564.8044,1563.1086,1566.6431,1564.357,1500.0,1500.0,nan,nan,nan,nan,nan,nan,nan,nan,nan,nan
166596000,6,1563.4342,1565.5054,1565.2847,1563.7429,1500.0,1500.0,nan,nan,nan,nan,nan,nan,nan,nan,nan,nan
166696000,6,1564.4258,1564.2657,1564.4415,1563.6056,1500.0,1500.0,nan,nan,nan,nan,nan,nan,nan,nan,nan,nan
166796000,6,1565.7173,1563.8685,1564.3699,1566.6777,1500.0,1500.0,nan,nan,nan,nan,nan,nan,nan,nan,nan,nan
166896000,6,1566.6051,1561.9917,1566.1234,1562.2437,1500.0,1500.0,nan,nan,nan,nan,nan,nan,nan,nan,nan,nan
166996000,6,1562.1454,1562.2919,1561.2347,1562.3231,1500.0,1500.0,nan,nan,nan,nan,nan,nan,nan,nan,nan,nan
167100000,6,1563.5516,1564.9897,1562.2274,1565.2201,1500.0,1500.0,nan,nan,nan,nan,nan,nan,nan,nan,nan,nan
167196000,6,1563.9044,1565.7189,1565.6581,1563.7631,1500.0,1500.0,nan,nan,nan,nan,nan,nan,nan,nan,nan,nan
167296000,6,1565.7787,1561.9451,1565.076,1565.0757,1500.0,1500.0,nan,nan,nan,nan,nan,nan,nan,nan,nan,nan
167396000,6,1561.7466,1563.563,1564.5015,1559.6586,1500.0,1500.0,nan,nan,nan,nan,nan,nan,nan,nan,nan,nan
167500000,6,1565.2025,1561.2825,1563.5612,1562.0596,1500.0,1500.0,nan,nan,nan,nan,nan,nan,nan,nan,nan,nan
167596000,6,1564.3743,1564.7457,1564.122,1564.5271,1500.0,1500.0,nan,nan,nan,nan,nan,nan,nan,nan,nan,nan
167696000,6,1565.371,1563.1631,1564.2979,1564.0597,1500.0,1500.0,nan,nan,nan,nan,nan,nan,nan,nan,nan,nan
167800000,6,1564.0931,1562.9259,1563.8154,1563.889,1500.0,1500.0,nan,nan,nan,nan,nan,nan,nan,nan,nan,nan
167900000,6,1561.9121,1566.9761,1563.5566,1563.7605,1500.0,1500.0,nan,nan,nan,nan,nan,nan,nan,nan,nan,nan
167996000,6,1566.1298,1562.5426,1564.706,1562.1678,1500.0,1500.0,nan,nan,nan,nan,nan,nan,nan,nan,nan,nan
168100000,6,1565.1466,1564.7881,1565.9259,1563.7977,1500.0,1500.0,nan,nan,nan,nan,nan,nan,nan,nan,nan,nan
168200000,6,1563.5265,1564.1707,1563.8401,1564.747,1500.0,1500.0,nan,nan,nan,nan,nan,nan,nan,nan,nan,nan
168296000,6,1976.8993,1795.1643,1198.5564,1165.4978,1500.0,1500.0,nan,nan,nan,nan,nan,nan,nan,nan,nan,nan
168396000,6,1595.371,1510.5366,1383.5604,1317.6936,1500.0,1500.0,nan,nan,nan,nan,nan,nan,nan,nan,nan,nan
168496000,6,1575.6201,1575.8389,1564.4042,1541.5454,1500.0,1500.0,nan,nan,nan,nan,nan,nan,nan,nan,nan,nan
168600000,6,1547.6725,1597.1027,1589.2793,1591.053,1500.0,1500.0,nan,nan,nan,nan,nan,nan,nan,nan,nan,nan
168700000,6,1528.8335,1570.449,1566.5656,1581.7577,1500.0,1500.0,nan,nan,nan,nan,nan,nan,nan,nan,nan,nan
168796000,6,1549.7623,1569.9812,1576.7825,1586.0615,1500.0,1500.0,nan,nan,nan,nan,nan,nan,nan,nan,nan,nan
168896000,6,1557.9711,1568.4407,1577.0647,1583.9504,1500.0,1500.0,nan,nan,nan,nan,nan,nan,nan,nan,nan,nan
168996000,6,1560.6382,1563.8479,1573.4812,1579.5872,1500.0,1500.0,nan,nan,nan,nan,nan,nan,nan,nan,nan,nan
169096000,6,1562.5856,1568.5299,1576.6987,1575.097,1500.0,1500.0,nan,nan,nan,nan,nan,nan,nan,nan,nan,nan
169196000,6,1561.0708,1570.0198,1571.1605,1575.1995,1500.0,1500.0,nan,nan,nan,nan,nan,nan,nan,nan,nan,nan
169300000,6,1565.5575,1573.3091,1572.7439,1576.9823,1500.0,1500.0,nan,nan,nan,nan,nan,nan,nan,nan,nan,nan
169396000,6,1563.8395,1576.5797,1568.85,1578.5443,1500.0,1500.0,nan,nan,nan,nan,nan,nan,nan,nan,nan,nan
169496000,6,1565.6057,1573.6859,1570.435,1578.2043,1500.0,1500.0,nan,nan,nan,nan,nan,nan,nan,nan,nan,nan
169596000,6,1564.578,1577.052,1569.8417,1579.2603,1500.0,1500.0,nan,nan,nan,nan,nan,nan,nan,nan,nan,nan
169700000,6,1565.6682,1579.2231,1568.8396,1578.1008,1500.0,1500.0,nan,nan,nan,nan,nan,nan,nan,nan,nan,nan
169796000,6,1568.7144,1579.8528,1571.2002,1578.4436,1500.0,1500.0,nan,nan,nan,nan,nan,nan,nan,nan,nan,nan
169896000,6,1569.9907,1577.3639,1570.172,1581.2025,1500.0,1500.0,nan,nan,nan,nan,nan,nan,nan,nan,nan,nan
169996000,6,1570.5287,1577.262,1572.2048,1579.7101,1500.0,1500.0,nan,nan,nan,nan,nan,nan,nan,nan,nan,nan
170096000,6,1568.3528,1581.787,1571.1707,1584.0317,1500.0,1500.0,nan,nan,nan,nan,nan,nan,nan,nan,nan,nan
170196000,6,1571.1572,1577.766,1569.2938,1583.707,1500.0,1500.0,nan,nan,nan,nan,nan,nan,nan,nan,nan,nan
170300000,6,1572.7657,1578.6001,1570.1869,1582.0636,1500.0,1500.0,nan,nan,nan,nan,nan,nan,nan,nan,nan,nan
170400000,6,1570.1963,1584.3125,1567.9717,1583.1061,1500.0,1500.0,nan,nan,nan,nan,nan,nan,nan,nan,nan,nan
170496000,6,1570.6056,1582.6815,1569.8278,1585.0594,1500.0,1500.0,nan,nan,nan,nan,nan,nan,nan,nan,nan,nan
170596000,6,1570.975,1584.6105,1570.0249,1583.7434,1500.0,1500.0,nan,nan,nan,nan,nan,nan,nan,nan,nan,nan
170696000,6,1573.1978,1581.8488,1571.9124,1585.5443,1500.0,1500.0,nan,nan,nan,nan,nan,nan,nan,nan,nan,nan
170800000,6,1569.3466,1588.1694,1568.7872,1589.0579,1500.0,1500.0,nan,nan,nan,nan,nan,nan,nan,nan,nan,nan
170896000,6,1575.1208,1583.7286,1573.8885,1585.2665,1500.0,1500.0,nan,nan,nan,nan,nan,nan,nan,nan,nan,nan
170996000,6,1569.4559,1589.0276,1570.8473,1588.0375,1500.0,1500.0,nan,nan,nan,nan,nan,nan,nan,nan,nan,nan
171096000,6,1574.4722,1585.0663,1572.2446,1586.8394,1500.0,1500.0,nan,nan,nan,nan,nan,nan,nan,nan,nan,nan
171196000,6,1573.2747,1589.3636,1573.6333,1590.7977,1500.0,1500.0,nan,nan,nan,nan,nan,nan,nan,nan,nan,nan
171300000,6,1572.974,1590.339,1573.5775,1590.8694,1500.0,1500.0,nan,nan,nan,nan,nan,nan,nan,nan,nan,nan
171396000,6,1576.2084,1589.5665,1574.252,1589.6321,1500.0,1500.0,nan,nan,nan,nan,nan,nan,nan,nan,nan,nan
171500000,6,1571.7175,1593.3356,1574.3484,1593.9973,1500.0,1500.0,nan,nan,nan,nan,nan,nan,nan,nan,nan,nan
171596000,6,1577.5055,1593.1122,1577.2855,1595.4365,1500.0,1500.0,nan,nan,nan,nan,nan,nan,nan,nan,nan,nan
171696000,6,1575.1829,1597.8777,1577.5508,1595.3801,1500.0,1500.0,nan,nan,nan,nan,nan,nan,nan,nan,nan,nan
171800000,6,1579.8635,1595.4644,1579.584,1596.1068,1500.0,1500.0,nan,nan,nan,nan,nan,nan,nan,nan,nan,nan
171896000,6,1578.5409,1599.2802,1581.1705,1598.922,1500.0,1500.0,nan,nan,nan,nan,nan,nan,nan,nan,nan,nan
172000000,6,1572.1635,1601.1682,1577.6294,1602.5409,1500.0,1500.0,nan,nan,nan,nan,nan,nan,nan,nan,nan,nan
172096000,6,1578.398,1601.4425,1581.5924,1599.5593,1500.0,1500.0,nan,nan,nan,nan,nan,nan,nan,nan,nan,nan
172196000,6,1578.6621,1605.4739,1578.8615,1606.3809,1500.0,1500.0,nan,nan,nan,nan,nan,nan,nan,nan,nan,nan
172296000,6,1582.1049,1604.5538,1583.2793,1603.9908,1500.0,1500.0,nan,nan,nan,nan,nan,nan,nan,nan,nan,nan
172400000,6,1583.7815,1607.4537,1581.2556,1610.6389,1500.0,1500.0,nan,nan,nan,nan,nan,nan,nan,nan,nan,nan
172496000,6,1581.9236,1611.2366,1583.5249,1612.1945,1500.0,1500.0,nan,nan,nan,nan,nan,nan,nan,nan,nan,nan
172596000,6,1582.0493,1611.7446,1581.7014,1614.5057,1500.0,1500.0,nan,nan,nan,nan,nan,nan,nan,nan,nan,nan
172696000,6,1584.353,1612.5632,1587.574,1613.0812,1500.0,1500.0,nan,nan,nan,nan,nan,nan,nan,nan,nan,nan
172796000,6,1585.8009,1617.3086,1585.5253,1618.4404,1500.0,1500.0,nan,nan,nan,nan,nan,nan,nan,nan,nan,nan
172896000,6,1591.6669,1615.2571,1590.2137,1617.4493,1500.0,1500.0,nan,nan,nan,nan,nan,nan,nan,nan,nan,nan
172996000,6,1590.2211,1622.2981,1592.5444,1621.3092,1500.0,1500.0,nan,nan,nan,nan,nan,nan,nan,nan,nan,nan
173096000,6,1591.0687,1623.3427,1589.375,1625.5438,1500.0,1500.0,nan,nan,nan,nan,nan,nan,nan,nan,nan,nan
173196000,6,1591.971,1627.09,1593.8955,1628.0641,1500.0,1500.0,nan,nan,nan,nan,nan,nan,nan,nan,nan,nan
173296000,6,1595.8989,1626.3422,1599.0095,1629.3151,1500.0,1500.0,nan,nan,nan,nan,nan,nan,nan,nan,nan,nan
173400000,6,1599.0117,1627.3112,1599.6531,1629.0902,1500.0,1500.0,nan,nan,nan,nan,nan,nan,nan,nan,nan,nan
173496000,6,1597.705,1635.2944,1598.6335,1636.8691,1500.0,1500.0,nan,nan,nan,nan,nan,nan,nan,nan,nan,nan
173596000,6,1601.6205,1635.6001,1605.061,1637.3173,1500.0,1500.0,nan,nan,nan,nan,nan,nan,nan,nan,nan,nan
173700000,6,1603.2684,1642.0798,1602.1943,1644.001,1500.0,1500.0,nan,nan,nan,nan,nan,nan,nan,nan,nan,nan
173800000,6,1607.5404,1641.8112,1609.3999,1642.1765,1500.0,1500.0,nan,nan,nan,nan,nan,nan,nan,nan,nan,nan
173896000,6,1606.2328,1650.2592,1609.3582,1648.088,1500.0,1500.0,nan,nan,nan,nan,nan,nan,nan,nan,nan,nan
173996000,6,1610.3682,1655.3431,1613.2386,1656.4678,1500.0,1500.0,nan,nan,nan,nan,nan,nan,nan,nan,nan,nan
174100000,6,1612.4835,1657.872,1612.5365,1660.2656,1500.0,1500.0,nan,nan,nan,nan,nan,nan,nan,nan,nan,nan
174200000,6,1616.84,1657.6698,1619.1978,1661.0343,1500.0,1500.0,nan,nan,nan,nan,nan,nan,nan,nan,nan,nan
174296000,6,1619.8286,1664.6637,1619.2811,1665.4752,1500.0,1500.0,nan,nan,nan,nan,nan,nan,nan,nan,nan,nan
174400000,6,1623.0859,1666.6499,1629.5452,1665.6079,1500.0,1500.0,nan,nan,nan,nan,nan,nan,nan,nan,nan,nan
174496000,6,1626.3401,1673.5038,1624.086,1678.2982,1500.0,1500.0,nan,nan,nan,nan,nan,nan,nan,nan,nan,nan
174596000,6,1630.2081,1679.3795,1631.6798,1683.1251,1500.0,1500.0,nan,nan,nan,nan,nan,nan,nan,nan,nan,nan
174700000,6,1637.6509,1680.646,1636.1362,1681.8856,1500.0,1500.0,nan,nan,nan,nan,nan,nan,nan,nan,nan,nan
174800000,6,1638.8461,1692.3849,1638.8157,1693.5062,1500.0,1500.0,nan,nan,nan,nan,nan,nan,nan,nan,nan,nan
174896000,6,1644.0149,1691.7552,1647.2601,1692.8353,1500.0,1500.0,nan,nan,nan,nan,nan,nan,nan,nan,nan,nan
174996000,6,1647.8676,1703.3524,1651.0123,1705.6694,1500.0,1500.0,nan,nan,nan,nan,nan,nan,nan,nan,nan,nan
175096000,6,1661.1293,1677.8538,1658.3682,1679.0103,1500.0,1500.0,nan,nan,nan,nan,nan,nan,nan,nan,nan,nan
175200000,6,1650.6737,1692.0233,1652.6782,1691.5713,1500.0,1500.0,nan,nan,nan,nan,nan,nan,nan,nan,nan,nan
175300000,6,1641.8125,1706.8848,1648.6118,1708.9783,1500.0,1500.0,nan,nan,nan,nan,nan,nan,nan,nan,nan,nan
175396000,6,1625.5175,1719.5754,1634.418,1717.2076,1500.0,1500.0,nan,nan,nan,nan,nan,nan,nan,nan,nan,nan
175496000,6,1632.9054,1709.2234,1632.4452,1712.5145,1500.0,1500.0,nan,nan,nan,nan,nan,nan,nan,nan,nan,nan
175596000,6,1640.9545,1696.715,1641.906,1699.1887,1500.0,1500.0,nan,nan,nan,nan,nan,nan,nan,nan,nan,nan
175700000,6,1643.5016,1698.8577,1643.9086,1700.0706,1500.0,1500.0,nan,nan,nan,nan,nan,nan,nan,nan,nan,nan
175796000,6,1642.9325,1701.4619,1646.618,1704.1494,1500.0,1500.0,nan,nan,nan,nan,nan,nan,nan,nan,nan,nan
175896000,6,1637.636,1706.3499,1640.3555,1709.6857,1500.0,1500.0,nan,nan,nan,nan,nan,nan,nan,nan,nan,nan
176000000,6,1638.7799,1704.3185,1641.6782,1703.6477,1500.0,1500.0,nan,nan,nan,nan,nan,nan,nan,nan,nan,nan
176100000,6,1638.9404,1705.4412,1640.5205,1706.702,1500.0,1500.0,nan,nan,nan,nan,nan,nan,nan,nan,nan,nan
176200000,6,1642.5331,1701.689,1642.479,1701.7417,1500.0,1500.0,nan,nan,nan,nan,nan,nan,nan,nan,nan,nan
176300000,6,1638.5352,1703.9717,1639.6226,1706.711,1500.0,1500.0,nan,nan,nan,nan,nan,nan,nan,nan,nan,nan
176396000,6,1640.1533,1703.8921,1644.322,1704.8959,1500.0,1500.0,nan,nan,nan,nan,nan,nan,nan,nan,nan,nan
176500000,6,1643.3795,1705.1267,1646.473,1705.4586,1500.0,1500.0,nan,nan,nan,nan,nan,nan,nan,nan,nan,nan
176596000,6,1639.5397,1703.9166,1643.155,1705.209,1500.0,1500.0,nan,nan,nan,nan,nan,nan,nan,nan,nan,nan
176700000,6,1641.6621,1702.5067,1646.3258,1701.085,1500.0,1500.0,nan,nan,nan,nan,nan,nan,nan,nan,nan,nan
176796000,6,1641.4827,1704.3575,1642.3524,1705.1171,1500.0,1500.0,nan,nan,nan,nan,nan,nan,nan,nan,nan,nan
176900000,6,1640.6881,1704.1786,1643.6456,1704.6417,1500.0,1500.0,nan,nan,nan,nan,nan,nan,nan,nan,nan,nan
177000000,6,1639.3364,1704.8547,1641.8674,1707.3625,1500.0,1500.0,nan,nan,nan,nan,nan,nan,nan,nan,nan,nan
177096000,6,1638.5685,1706.181,1641.7034,1708.8959,1500.0,1500.0,nan,nan,nan,nan,nan,nan,nan,nan,nan,nan
177196000,6,1639.3335,1707.6963,1640.8735,1709.6765,1500.0,1500.0,nan,nan,nan,nan,nan,nan,nan,nan,nan,nan
177296000,6,1642.0535,1704.492,1643.6373,1709.5908,1500.0,1500.0,nan,nan,nan,nan,nan,nan,nan,nan,nan,nan
177400000,6,1642.4298,1704.9741,1644.3678,1705.128,1500.0,1500.0,nan,nan,nan,nan,nan,nan,nan,nan,nan,nan
177496000,6,1640.9312,1706.514,1642.4817,1707.718,1500.0,1500.0,nan,nan,nan,nan,nan,nan,nan,nan,nan,nan
177600000,6,1641.9216,1705.4785,1645.0604,1706.6494,1500.0,1500.0,nan,nan,nan,nan,nan,nan,nan,nan,nan,nan
177696000,6,1638.9368,1708.4572,1642.9485,1710.6907,1500.0,1500.0,nan,nan,nan,nan,nan,nan,nan,nan,nan,nan
177796000,6,1639.3065,1706.0221,1642.52,1706.6469,1500.0,1500.0,nan,nan,nan,nan,nan,nan,nan,nan,nan,nan
177896000,6,1643.9598,1704.5497,1645.9629,1704.9603,1500.0,1500.0,nan,nan,nan,nan,nan,nan,nan,nan,nan,nan
177996000,6,1645.9586,1705.155,1647.9486,1705.7913,1500.0,1500.0,nan,nan,nan,nan,nan,nan,nan,nan,nan,nan
178100000,6,1638.6534,1710.4883,1644.9086,1710.1619,1500.0,1500.0,nan,nan,nan,nan,nan,nan,nan,nan,nan,nan
178196000,6,1639.5049,1706.2316,1641.9545,1710.5172,1500.0,1500.0,nan,nan,nan,nan,nan,nan,nan,nan,nan,nan
178296000,6,1641.9396,1709.5116,1645.344,1710.4735,1500.0,1500.0,nan,nan,nan,nan,nan,nan,nan,nan,nan,nan
178396000,6,1643.3787,1705.0094,1643.4362,1709.1818,1500.0,1500.0,nan,nan,nan,nan,nan,nan,nan,nan,nan,nan
178496000,6,1642.7203,1704.039,1645.243,1711.2124,1500.0,1500.0,nan,nan,nan,nan,nan,nan,nan,nan,nan,nan
178596000,6,1655.9402,1671.8624,1655.6162,1674.6758,1500.0,1500.0,nan,nan,nan,nan,nan,nan,nan,nan,nan,nan
178696000,6,1638.72,1682.1255,1639.1967,1681.6791,1500.0,1500.0,nan,nan,nan,nan,nan,nan,nan,nan,nan,nan
178796000,6,1621.6445,1705.5521,1626.6769,1702.0105,1500.0,1500.0,nan,nan,nan,nan,nan,nan,nan,nan,nan,nan
178896000,6,1604.1696,1703.549,1606.1194,1702.7102,1500.0,1500.0,nan,nan,nan,nan,nan,nan,nan,nan,nan,nan
178996000,6,1604.3054,1685.8959,1606.7561,1683.2482,1500.0,1500.0,nan,nan,nan,nan,nan,nan,nan,nan,nan,nan
179100000,6,1611.1027,1669.4066,1614.2314,1667.8685,1500.0,1500.0,nan,nan,nan,nan,nan,nan,nan,nan,nan,nan
179200000,6,1603.8563,1667.5748,1604.3701,1671.2921,1500.0,1500.0,nan,nan,nan,nan,nan,nan,nan,nan,nan,nan
179296000,6,1608.9806,1662.2444,1610.8137,1658.737,1500.0,1500.0,nan,nan,nan,nan,nan,nan,nan,nan,nan,nan
179396000,6,1603.0559,1659.6619,1603.0513,1659.6935,1500.0,1500.0,nan,nan,nan,nan,nan,nan,nan,nan,nan,nan
179496000,6,1596.7671,1654.2883,1596.436,1654.2256,1500.0,1500.0,nan,nan,nan,nan,nan,nan,nan,nan,nan,nan
179600000,6,1594.2792,1649.7446,1596.6438,1647.3573,1500.0,1500.0,nan,nan,nan,nan,nan,nan,nan,nan,nan,nan
179696000,6,1592.3374,1649.0884,1593.9347,1646.1871,1500.0,1500.0,nan,nan,nan,nan,nan,nan,nan,nan,nan,nan
179800000,6,1595.1508,1639.3397,1592.9565,1638.783,1500.0,1500.0,nan,nan,nan,nan,nan,nan,nan,nan,nan,nan
179900000,6,1593.6045,1635.3713,1592.3147,1634.6058,1500.0,1500.0,nan,nan,nan,nan,nan,nan,nan,nan,nan,nan
179996000,6,1587.9277,1632.5146,1589.4288,1632.6997,1500.0,1500.0,nan,nan,nan,nan,nan,nan,nan,nan,nan,nan
180096000,6,1583.9543,1634.8439,1585.4338,1633.8137,1500.0,1500.0,nan,nan,nan,nan,nan,nan,nan,nan,nan,nan
180200000,6,1581.9908,1628.6323,1584.1504,1628.4148,1500.0,1500.0,nan,nan,nan,nan,nan,nan,nan,nan,nan,nan
180296000,6,1586.8998,1620.7501,1589.0,1618.8372,1500.0,1500.0,nan,nan,nan,nan,nan,nan,nan,nan,nan,nan
180396000,6,1578.8835,1622.7441,1582.0991,1623.635,1500.0,1500.0,nan,nan,nan,nan,nan,nan,nan,nan,nan,nan
180496000,6,1580.1503,1618.492,1581.0876,1616.4198,1500.0,1500.0,nan,nan,nan,nan,nan,nan,nan,nan,nan,nan
180600000,6,1579.2891,1616.1006,1577.6611,1616.7856,1500.0,1500.0,nan,nan,nan,nan,nan,nan,nan,nan,nan,nan
180700000,6,1571.6276,1616.28,1576.0336,1615.1034,1500.0,1500.0,nan,nan,nan,nan,nan,nan,nan,nan,nan,nan
180800000,6,1577.3905,1607.3024,1579.6793,1605.8989,1500.0,1500.0,nan,nan,nan,nan,nan,nan,nan,nan,nan,nan
180896000,6,1576.3536,1605.1033,1575.566,1603.6172,1500.0,1500.0,nan,nan,nan,nan,nan,nan,nan,nan,nan,nan
180996000,6,1576.6937,1602.9142,1574.7935,1601.9932,1500.0,1500.0,nan,nan,nan,nan,nan,nan,nan,nan,nan,nan
181096000,6,1572.0171,1607.3998,1569.1671,1606.4283,1500.0,1500.0,nan,nan,nan,nan,nan,nan,nan,nan,nan,nan
181196000,6,1574.6432,1596.2202,1574.7238,1597.8701,1500.0,1500.0,nan,nan,nan,nan,nan,nan,nan,nan,nan,nan
181296000,6,1571.8337,1597.7952,1573.0461,1598.2203,1500.0,1500.0,nan,nan,nan,nan,nan,nan,nan,nan,nan,nan
181396000,6,1571.9513,1594.7406,1573.4783,1596.5038,1500.0,1500.0,nan,nan,nan,nan,nan,nan,nan,nan,nan,nan
181496000,6,1567.9521,1597.4506,1566.3458,1596.8293,1500.0,1500.0,nan,nan,nan,nan,nan,nan,nan,nan,nan,nan
181600000,6,1567.1565,1590.1035,1568.5715,1592.2963,1500.0,1500.0,nan,nan,nan,nan,nan,nan,nan,nan,nan,nan
181696000,6,1571.0557,1587.0311,1572.5303,1586.6138,1500.0,1500.0,nan,nan,nan,nan,nan,nan,nan,nan,nan,nan
181796000,6,1569.6057,1589.8002,1569.6985,1591.333,1500.0,1500.0,nan,nan,nan,nan,nan,nan,nan,nan,nan,nan
181896000,6,1566.4646,1591.2842,1570.1414,1589.9745,1500.0,1500.0,nan,nan,nan,nan,nan,nan,nan,nan,nan,nan
182000000,6,1569.2667,1589.6198,1568.8892,1584.0442,1500.0,1500.0,nan,nan,nan,nan,nan,nan,nan,nan,nan,nan
182096000,6,1561.6735,1581.8928,1562.6147,1578.616,1500.0,1500.0,nan,nan,nan,nan,nan,nan,nan,nan,nan,nan
182200000,6,1540.3922,1558.8994,1571.3812,1528.4331,1500.0,1500.0,nan,nan,nan,nan,nan,nan,nan,nan,nan,nan
182296000,6,1922.2555,1510.3777,1444.576,1903.8975,1500.0,1500.0,nan,nan,nan,nan,nan,nan,nan,nan,nan,nan
182400000,6,1403.3341,1579.1207,1514.8479,1492.6984,1500.0,1500.0,nan,nan,nan,nan,nan,nan,nan,nan,nan,nan
182500000,6,1427.8005,1643.1016,1569.2218,1509.0367,1500.0,1500.0,nan,nan,nan,nan,nan,nan,nan,nan,nan,nan
182596000,6,1589.8403,1597.5399,1588.0347,1592.7723,1500.0,1500.0,nan,nan,nan,nan,nan,nan,nan,nan,nan,nan
182696000,6,1608.0902,1546.208,1566.8489,1595.9713,1500.0,1500.0,nan,nan,nan,nan,nan,nan,nan,nan,nan,nan
182796000,6,1595.5771,1545.5149,1559.1227,1588.695,1500.0,1500.0,nan,nan,nan,nan,nan,nan,nan,nan,nan,nan
182896000,6,1581.6531,1565.6711,1568.8297,1583.5194,1500.0,1500.0,nan,nan,nan,nan,nan,nan,nan,nan,nan,nan
182996000,6,1578.6926,1571.6865,1570.5724,1578.5221,1500.0,1500.0,nan,nan,nan,nan,nan,nan,nan,nan,nan,nan
183100000,6,1572.8304,1575.5923,1565.9751,1583.7041,1500.0,1500.0,nan,nan,nan,nan,nan,nan,nan,nan,nan,nan
183200000,6,1579.1038,1571.2067,1570.8223,1576.5587,1500.0,1500.0,nan,nan,nan,nan,nan,nan,nan,nan,nan,nan
183296000,6,1578.209,1571.8837,1570.9064,1578.9492,1500.0,1500.0,nan,nan,nan,nan,nan,nan,nan,nan,nan,nan
183396000,6,1581.9382,1574.1873,1569.3218,1579.3809,1500.0,1500.0,nan,nan,nan,nan,nan,nan,nan,nan,nan,nan
183500000,6,1582.7904,1569.834,1571.9387,1578.1316,1500.0,1500.0,nan,nan,nan,nan,nan,nan,nan,nan,nan,nan
183600000,6,1578.2698,1574.824,1569.9121,1581.1796,1500.0,1500.0,nan,nan,nan,nan,nan,nan,nan,nan,nan,nan
183696000,6,1579.4457,1572.8666,1569.6909,1581.0482,1500.0,1500.0,nan,nan,nan,nan,nan,nan,nan,nan,nan,nan
183796000,6,1578.6034,1572.5242,1569.5901,1579.2683,1500.0,1500.0,nan,nan,nan,nan,nan,nan,nan,nan,nan,nan
183896000,6,1581.3961,1573.99,1573.4315,1579.2303,1500.0,1500.0,nan,nan,nan,nan,nan,nan,nan,nan,nan,nan
184000000,6,1580.8026,1570.1947,1571.0336,1577.0691,1500.0,1500.0,nan,nan,nan,nan,nan,nan,nan,nan,nan,nan
184096000,6,1583.68,1570.5046,1572.365,1577.6155,1500.0,1500.0,nan,nan,nan,nan,nan,nan,nan,nan,nan,nan
184196000,6,1584.4287,1575.4857,1570.114,1581.7412,1500.0,1500.0,nan,nan,nan,nan,nan,nan,nan,nan,nan,nan
184296000,6,1581.3391,1576.5198,1568.9958,1580.9403,1500.0,1500.0,nan,nan,nan,nan,nan,nan,nan,nan,nan,nan
184400000,6,1578.7589,1573.3063,1570.0276,1579.6566,1500.0,1500.0,nan,nan,nan,nan,nan,nan,nan,nan,nan,nan
184496000,6,1581.4473,1576.1451,1574.2904,1581.075,1500.0,1500.0,nan,nan,nan,nan,nan,nan,nan,nan,nan,nan
184596000,6,1585.0077,1566.5037,1572.7574,1580.5033,1500.0,1500.0,nan,nan,nan,nan,nan,nan,nan,nan,nan,nan
184696000,6,1581.059,1573.2158,1571.4071,1576.9645,1500.0,1500.0,nan,nan,nan,nan,nan,nan,nan,nan,nan,nan
184796000,6,1579.649,1574.2339,1571.8605,1580.4084,1500.0,1500.0,nan,nan,nan,nan,nan,nan,nan,nan,nan,nan
184896000,6,1582.9117,1571.6559,1572.3745,1582.4781,1500.0,1500.0,nan,nan,nan,nan,nan,nan,nan,nan,nan,nan
185000000,6,1582.6453,1572.8862,1573.2747,1577.0332,1500.0,1500.0,nan,nan,nan,nan,nan,nan,nan,nan,nan,nan
185096000,6,1582.2668,1572.6617,1570.5518,1579.0448,1500.0,1500.0,nan,nan,nan,nan,nan,nan,nan,nan,nan,nan
185196000,6,1580.0966,1573.0355,1571.2557,1579.5325,1500.0,1500.0,nan,nan,nan,nan,nan,nan,nan,nan,nan,nan
185296000,6,1583.4231,1572.3591,1573.4233,1578.4689,1500.0,1500.0,nan,nan,nan,nan,nan,nan,nan,nan,nan,nan
185396000,6,1581.0372,1573.9546,1574.8384,1579.8905,1500.0,1500.0,nan,nan,nan,nan,nan,nan,nan,nan,nan,nan
185496000,6,1589.1195,1569.2524,1570.9133,1582.1392,1500.0,1500.0,nan,nan,nan,nan,nan,nan,nan,nan,nan,nan
185600000,6,1579.7598,1574.2959,1569.7983,1581.6481,1500.0,1500.0,nan,nan,nan,nan,nan,nan,nan,nan,nan,nan
185696000,6,1584.4442,1571.9795,1570.5192,1578.3756,1500.0,1500.0,nan,nan,nan,nan,nan,nan,nan,nan,nan,nan
185796000,6,1578.9343,1572.6976,1571.4155,1579.699,1500.0,1500.0,nan,nan,nan,nan,nan,nan,nan,nan,nan,nan
185896000,6,1583.5392,1571.9255,1571.5322,1580.9159,1500.0,1500.0,nan,nan,nan,nan,nan,nan,nan,nan,nan,nan
185996000,6,1581.2936,1571.8947,1572.6543,1581.1768,1500.0,1500.0,nan,nan,nan,nan,nan,nan,nan,nan,nan,nan
186100000,6,1582.278,1574.3689,1571.9828,1580.388,1500.0,1500.0,nan,nan,nan,nan,nan,nan,nan,nan,nan,nan
186196000,6,1583.6428,1574.9015,1571.0343,1581.3612,1500.0,1500.0,nan,nan,nan,nan,nan,nan,nan,nan,nan,nan
186300000,6,1579.4017,1571.8651,1569.7878,1580.2307,1500.0,1500.0,nan,nan,nan,nan,nan,nan,nan,nan,nan,nan
186396000,6,1581.8464,1576.5267,1570.5807,1582.9757,1500.0,1500.0,nan,nan,nan,nan,nan,nan,nan,nan,nan,nan
186496000,6,1583.0504,1574.292,1571.2587,1581.7556,1500.0,1500.0,nan,nan,nan,nan,nan,nan,nan,nan,nan,nan
186596000,6,1581.1813,1575.168,1570.5872,1582.6027,1500.0,1500.0,nan,nan,nan,nan,nan,nan,nan,nan,nan,nan
186696000,6,1582.8276,1573.3773,1573.1582,1578.0718,1500.0,1500.0,nan,nan,nan,nan,nan,nan,nan,nan,nan,nan
186800000,6,1583.0234,1573.5419,1571.5388,1581.0833,1500.0,1500.0,nan,nan,nan,nan,nan,nan,nan,nan,nan,nan
186896000,6,1581.8248,1573.9661,1568.9498,1584.7245,1500.0,1500.0,nan,nan,nan,nan,nan,nan,nan,nan,nan,nan
186996000,6,1579.3054,1574.6653,1569.1637,1582.8671,1500.0,1500.0,nan,nan,nan,nan,nan,nan,nan,nan,nan,nan
187100000,6,1579.6106,1576.5065,1570.0378,1582.4227,1500.0,1500.0,nan,nan,nan,nan,nan,nan,nan,nan,nan,nan
187196000,6,1585.212,1573.1338,1571.1237,1578.8684,1500.0,1500.0,nan,nan,nan,nan,nan,nan,nan,nan,nan,nan
187300000,6,1582.6396,1574.5178,1571.2599,1582.0366,1500.0,1500.0,nan,nan,nan,nan,nan,nan,nan,nan,nan,nan
187400000,6,1581.9375,1573.7849,1569.1746,1581.1309,1500.0,1500.0,nan,nan,nan,nan,nan,nan,nan,nan,nan,nan
187496000,6,1584.5956,1572.7223,1571.5513,1581.1372,1500.0,1500.0,nan,nan,nan,nan,nan,nan,nan,nan,nan,nan
187600000,6,1585.5641,1569.766,1569.5409,1582.0261,1500.0,1500.0,nan,nan,nan,nan,nan,nan,nan,nan,nan,nan
187696000,6,1585.6533,1572.641,1574.9092,1581.7834,1500.0,1500.0,nan,nan,nan,nan,nan,nan,nan,nan,nan,nan
187800000,6,1581.8132,1575.9828,1567.9475,1584.2775,1500.0,1500.0,nan,nan,nan,nan,nan,nan,nan,nan,nan,nan
187896000,6,1580.3059,1575.3917,1569.1311,1581.325,1500.0,1500.0,nan,nan,nan,nan,nan,nan,nan,nan,nan,nan
188000000,6,1578.5459,1580.5157,1574.6196,1581.5403,1500.0,1500.0,nan,nan,nan,nan,nan,nan,nan,nan,nan,nan
188096000,6,1583.7328,1574.258,1572.4729,1580.587,1500.0,1500.0,nan,nan,nan,nan,nan,nan,nan,nan,nan,nan
188196000,6,1586.4263,1574.0831,1573.7197,1578.6984,1500.0,1500.0,nan,nan,nan,nan,nan,nan,nan,nan,nan,nan
188300000,6,1583.3624,1574.9492,1574.4119,1582.328,1500.0,1500.0,nan,nan,nan,nan,nan,nan,nan,nan,nan,nan
188396000,6,1581.4216,1574.2314,1572.514,1580.4297,1500.0,1500.0,nan,nan,nan,nan,nan,nan,nan,nan,nan,nan
188500000,6,1583.3656,1573.8954,1573.5975,1580.4482,1500.0,1500.0,nan,nan,nan,nan,nan,nan,nan,nan,nan,nan
188596000,6,1581.034,1576.455,1570.5505,1582.9111,1500.0,1500.0,nan,nan,nan,nan,nan,nan,nan,nan,nan,nan
188700000,6,1582.2136,1575.4924,1570.8202,1584.887,1500.0,1500.0,nan,nan,nan,nan,nan,nan,nan,nan,nan,nan
188796000,6,1582.6979,1575.8414,1570.1965,1580.4161,1500.0,1500.0,nan,nan,nan,nan,nan,nan,nan,nan,nan,nan
188896000,6,1582.1636,1573.7954,1572.4147,1580.2981,1500.0,1500.0,nan,nan,nan,nan,nan,nan,nan,nan,nan,nan
188996000,6,1583.6456,1575.0187,1573.479,1580.1027,1500.0,1500.0,nan,nan,nan,nan,nan,nan,nan,nan,nan,nan
189096000,6,1585.1215,1572.5986,1574.0752,1582.4172,1500.0,1500.0,nan,nan,nan,nan,nan,nan,nan,nan,nan,nan
189196000,6,1585.9681,1573.3005,1574.241,1580.2842,1500.0,1500.0,nan,nan,nan,nan,nan,nan,nan,nan,nan,nan
189296000,6,1582.9458,1575.7354,1575.5061,1578.7947,1500.0,1500.0,nan,nan,nan,nan,nan,nan,nan,nan,nan,nan
189396000,6,1583.2313,1573.993,1574.1617,1579.129,1500.0,1500.0,nan,nan,nan,nan,nan,nan,nan,nan,nan,nan
189500000,6,1583.2297,1576.2585,1571.7054,1581.5632,1500.0,1500.0,nan,nan,nan,nan,nan,nan,nan,nan,nan,nan
189600000,6,1582.8594,1571.806,1573.8798,1577.5304,1500.0,1500.0,nan,nan,nan,nan,nan,nan,nan,nan,nan,nan
189696000,6,1580.8993,1575.4907,1570.1309,1584.3159,1500.0,1500.0,nan,nan,nan,nan,nan,nan,nan,nan,nan,nan
189796000,6,1582.9769,1574.2994,1571.9712,1583.8403,1500.0,1500.0,nan,nan,nan,nan,nan,nan,nan,nan,nan,nan
189896000,6,1585.4606,1575.1296,1572.6094,1581.7351,1500.0,1500.0,nan,nan,nan,nan,nan,nan,nan,nan,nan,nan
190000000,6,1579.3563,1577.166,1570.6989,1580.5006,1500.0,1500.0,nan,nan,nan,nan,nan,nan,nan,nan,nan,nan
190100000,6,1580.5099,1576.296,1572.281,1581.1702,1500.0,1500.0,nan,nan,nan,nan,nan,nan,nan,nan,nan,nan
190200000,6,1581.5979,1578.1553,1571.4365,1582.7465,1500.0,1500.0,nan,nan,nan,nan,nan,nan,nan,nan,nan,nan
190300000,6,1580.204,1577.3387,1570.5702,1582.94,1500.0,1500.0,nan,nan,nan,nan,nan,nan,nan,nan,nan,nan
190396000,6,1585.0563,1574.9862,1570.5751,1583.1609,1500.0,1500.0,nan,nan,nan,nan,nan,nan,nan,nan,nan,nan
190496000,6,1583.9497,1574.8313,1571.2953,1580.8871,1500.0,1500.0,nan,nan,nan,nan,nan,nan,nan,nan,nan,nan
190596000,6,1582.9387,1572.8313,1571.8923,1579.2156,1500.0,1500.0,nan,nan,nan,nan,nan,nan,nan,nan,nan,nan
190700000,6,1582.8707,1574.7021,1571.1581,1581.5093,1500.0,1500.0,nan,nan,nan,nan,nan,nan,nan,nan,nan,nan
190796000,6,1583.3674,1572.7867,1573.5226,1580.347,1500.0,1500.0,nan,nan,nan,nan,nan,nan,nan,nan,nan,nan
190896000,6,1581.9689,1578.7854,1574.6108,1583.6714,1500.0,1500.0,nan,nan,nan,nan,nan,nan,nan,nan,nan,nan
190996000,6,1585.2554,1574.5787,1572.3357,1583.505,1500.0,1500.0,nan,nan,nan,nan,nan,nan,nan,nan,nan,nan
191100000,6,1583.9908,1576.6715,1571.0703,1584.5885,1500.0,1500.0,nan,nan,nan,nan,nan,nan,nan,nan,nan,nan
191200000,6,1583.7676,1575.6471,1574.6747,1582.2025,1500.0,1500.0,nan,nan,nan,nan,nan,nan,nan,nan,nan,nan
191296000,6,1584.9587,1575.0217,1575.7152,1580.1841,1500.0,1500.0,nan,nan,nan,nan,nan,nan,nan,nan,nan,nan
191396000,6,1585.6407,1573.249,1573.8806,1581.4283,1500.0,1500.0,nan,nan,nan,nan,nan,nan,nan,nan,nan,nan
191496000,6,1583.6165,1574.4812,1572.434,1576.3429,1500.0,1500.0,nan,nan,nan,nan,nan,nan,nan,nan,nan,nan
191600000,6,1583.0548,1576.1676,1572.1443,1581.82,1500.0,1500.0,nan,nan,nan,nan,nan,nan,nan,nan,nan,nan
191700000,6,1581.9618,1576.3461,1571.5476,1582.9265,1500.0,1500.0,nan,nan,nan,nan,nan,nan,nan,nan,nan,nan
191796000,6,1584.8086,1574.252,1574.5275,1580.3525,1500.0,1500.0,nan,nan,nan,nan,nan,nan,nan,nan,nan,nan
191896000,6,1586.3738,1576.042,1573.6709,1585.245,1500.0,1500.0,nan,nan,nan,nan,nan,nan,nan,nan,nan,nan
191996000,6,1585.9764,1573.6558,1572.9784,1580.1359,1500.0,1500.0,nan,nan,nan,nan,nan,nan,nan,nan,nan,nan
192100000,6,1584.3279,1577.77,1572.9205,1580.9243,1500.0,1500.0,nan,nan,nan,nan,nan,nan,nan,nan,nan,nan
192196000,6,1585.19,1574.1553,1573.1023,1581.6136,1500.0,1500.0,nan,nan,nan,nan,nan,nan,nan,nan,nan,nan
192296000,6,1582.5305,1574.9456,1571.9716,1583.5706,1500.0,1500.0,nan,nan,nan,nan,nan,nan,nan,nan,nan,nan
192400000,6,1584.4452,1574.2747,1573.8156,1583.5623,1500.0,1500.0,nan,nan,nan,nan,nan,nan,nan,nan,nan,nan
192496000,6,1584.1511,1578.1274,1571.2335,1584.128,1500.0,1500.0,nan,nan,nan,nan,nan,nan,nan,nan,nan,nan
192596000,6,1581.8947,1576.1919,1570.2285,1583.5449,1500.0,1500.0,nan,nan,nan,nan,nan,nan,nan,nan,nan,nan
192696000,6,1583.398,1575.7524,1573.6926,1584.4119,1500.0,1500.0,nan,nan,nan,nan,nan,nan,nan,nan,nan,nan
192796000,6,1586.428,1573.4766,1574.5775,1578.4629,1500.0,1500.0,nan,nan,nan,nan,nan,nan,nan,nan,nan,nan
192900000,6,1583.4893,1574.8188,1573.661,1583.1366,1500.0,1500.0,nan,nan,nan,nan,nan,nan,nan,nan,nan,nan
193000000,6,1582.7947,1577.2797,1571.0532,1583.2596,1500.0,1500.0,nan,nan,nan,nan,nan,nan,nan,nan,nan,nan
193100000,6,1586.6549,1574.5122,1574.6224,1584.6814,1500.0,1500.0,nan,nan,nan,nan,nan,nan,nan,nan,nan,nan
193200000,6,1585.6428,1576.8198,1574.7078,1582.0685,1500.0,1500.0,nan,nan,nan,nan,nan,nan,nan,nan,nan,nan
193296000,6,1587.107,1576.07,1576.6956,1582.5977,1500.0,1500.0,nan,nan,nan,nan,nan,nan,nan,nan,nan,nan
193400000,6,1585.9778,1577.2896,1572.2399,1581.4677,1500.0,1500.0,nan,nan,nan,nan,nan,nan,nan,nan,nan,nan
193500000,6,1583.7158,1576.9658,1573.7205,1580.8755,1500.0,1500.0,nan,nan,nan,nan,nan,nan,nan,nan,nan,nan
193596000,6,1582.5587,1578.3535,1571.4265,1588.1663,1500.0,1500.0,nan,nan,nan,nan,nan,nan,nan,nan,nan,nan
193696000,6,1583.4332,1574.2825,1569.8843,1585.7327,1500.0,1500.0,nan,nan,nan,nan,nan,nan,nan,nan,nan,nan
193796000,6,1585.2063,1578.1116,1573.035,1585.9211,1500.0,1500.0,nan,nan,nan,nan,nan,nan,nan,nan,nan,nan
193896000,6,1586.1995,1578.8821,1572.678,1585.0908,1500.0,1500.0,nan,nan,nan,nan,nan,nan,nan,nan,nan,nan
193996000,6,1585.067,1577.1318,1572.3992,1585.3069,1500.0,1500.0,nan,nan,nan,nan,nan,nan,nan,nan,nan,nan
194096000,6,1584.6536,1576.2573,1572.5115,1582.8833,1500.0,1500.0,nan,nan,nan,nan,nan,nan,nan,nan,nan,nan
194196000,6,1583.338,1576.1108,1572.3411,1583.0117,1500.0,1500.0,nan,nan,nan,nan,nan,nan,nan,nan,nan,nan
194300000,6,1583.0692,1575.6055,1568.3422,1583.4663,1500.0,1500.0,nan,nan,nan,nan,nan,nan,nan,nan,nan,nan
194400000,6,1582.9498,1576.3253,1572.4849,1583.2112,1500.0,1500.0,nan,nan,nan,nan,nan,nan,nan,nan,nan,nan
194500000,6,1586.8889,1574.8906,1574.3531,1581.4415,1500.0,1500.0,nan,nan,nan,nan,nan,nan,nan,nan,nan,nan
194596000,6,1590.4147,1574.4541,1575.2115,1581.7445,1500.0,1500.0,nan,nan,nan,nan,nan,nan,nan,nan,nan,nan
194700000,6,1586.5155,1578.3177,1575.1433,1586.3248,1500.0,1500.0,nan,nan,nan,nan,nan,nan,nan,nan,nan,nan
194796000,6,1587.5,1574.5938,1573.3845,1583.2914,1500.0,1500.0,nan,nan,nan,nan,nan,nan,nan,nan,nan,nan
194896000,6,1585.3008,1577.6841,1575.4768,1584.454,1500.0,1500.0,nan,nan,nan,nan,nan,nan,nan,nan,nan,nan
195000000,6,1583.9854,1575.5476,1570.8137,1584.0366,1500.0,1500.0,nan,nan,nan,nan,nan,nan,nan,nan,nan,nan
195096000,6,1585.6354,1579.2207,1574.7213,1585.1432,1500.0,1500.0,nan,nan,nan,nan,nan,nan,nan,nan,nan,nan
195196000,6,1587.9893,1575.3414,1575.008,1580.116,1500.0,1500.0,nan,nan,nan,nan,nan,nan,nan,nan,nan,nan
195296000,6,1588.0416,1573.9244,1575.7252,1582.0933,1500.0,1500.0,nan,nan,nan,nan,nan,nan,nan,nan,nan,nan
195400000,6,1581.9147,1578.0579,1571.0205,1584.5396,1500.0,1500.0,nan,nan,nan,nan,nan,nan,nan,nan,nan,nan
195500000,6,1584.3912,1577.0452,1572.4498,1581.9635,1500.0,1500.0,nan,nan,nan,nan,nan,nan,nan,nan,nan,nan
195600000,6,1584.9485,1574.458,1572.3859,1582.3776,1500.0,1500.0,nan,nan,nan,nan,nan,nan,nan,nan,nan,nan
195700000,6,1583.7153,1575.7649,1573.7378,1582.7,1500.0,1500.0,nan,nan,nan,nan,nan,nan,nan,nan,nan,nan
195800000,6,1586.0731,1577.7864,1575.0061,1581.7413,1500.0,1500.0,nan,nan,nan,nan,nan,nan,nan,nan,nan,nan
195896000,6,1581.8572,1579.204,1571.821,1583.996,1500.0,1500.0,nan,nan,nan,nan,nan,nan,nan,nan,nan,nan
196000000,6,1587.4203,1573.4247,1572.8608,1582.918,1500.0,1500.0,nan,nan,nan,nan,nan,nan,nan,nan,nan,nan
196096000,6,1583.2058,1574.7378,1571.0627,1583.5421,1500.0,1500.0,nan,nan,nan,nan,nan,nan,nan,nan,nan,nan
196200000,6,1585.4325,1576.5874,1573.2393,1580.849,1500.0,1500.0,nan,nan,nan,nan,nan,nan,nan,nan,nan,nan
196296000,6,1584.0586,1578.6014,1574.2395,1585.6815,1500.0,1500.0,nan,nan,nan,nan,nan,nan,nan,nan,nan,nan
196400000,6,1586.571,1575.0507,1573.0403,1581.1852,1500.0,1500.0,nan,nan,nan,nan,nan,nan,nan,nan,nan,nan
196496000,6,1585.6646,1573.1891,1572.3009,1583.2896,1500.0,1500.0,nan,nan,nan,nan,nan,nan,nan,nan,nan,nan
196596000,6,1585.5913,1576.4674,1575.587,1581.5433,1500.0,1500.0,nan,nan,nan,nan,nan,nan,nan,nan,nan,nan
196700000,6,1584.8115,1578.343,1569.9736,1585.9568,1500.0,1500.0,nan,nan,nan,nan,nan,nan,nan,nan,nan,nan
196796000,6,1588.9113,1578.624,1575.7898,1585.6991,1500.0,1500.0,nan,nan,nan,nan,nan,nan,nan,nan,nan,nan
196896000,6,1585.4453,1580.079,1572.7512,1588.5961,1500.0,1500.0,nan,nan,nan,nan,nan,nan,nan,nan,nan,nan
197000000,6,1585.303,1576.3088,1573.5614,1581.2374,1500.0,1500.0,nan,nan,nan,nan,nan,nan,nan,nan,nan,nan
197100000,6,1587.3093,1575.2732,1572.9878,1583.2891,1500.0,1500.0,nan,nan,nan,nan,nan,nan,nan,nan,nan,nan
197196000,6,1587.086,1572.072,1574.1819,1583.6722,1500.0,1500.0,nan,nan,nan,nan,nan,nan,nan,nan,nan,nan
197296000,6,1586.1063,1574.753,1572.0493,1581.9572,1500.0,1500.0,nan,nan,nan,nan,nan,nan,nan,nan,nan,nan
197396000,6,1586.555,1577.1324,1573.5186,1583.2764,1500.0,1500.0,nan,nan,nan,nan,nan,nan,nan,nan,nan,nan
197500000,6,1586.226,1575.454,1575.2069,1584.6077,1500.0,1500.0,nan,nan,nan,nan,nan,nan,nan,nan,nan,nan
197596000,6,1582.0319,1577.1284,1570.6422,1583.871,1500.0,1500.0,nan,nan,nan,nan,nan,nan,nan,nan,nan,nan
197696000,6,1586.3137,1576.5962,1574.8696,1582.3444,1500.0,1500.0,nan,nan,nan,nan,nan,nan,nan,nan,nan,nan
197796000,6,1584.2745,1574.7924,1572.1995,1584.3772,1500.0,1500.0,nan,nan,nan,nan,nan,nan,nan,nan,nan,nan
197896000,6,1585.6323,1574.9104,1570.0748,1583.3685,1500.0,1500.0,nan,nan,nan,nan,nan,nan,nan,nan,nan,nan
198000000,6,1586.1971,1574.8385,1572.7178,1582.9553,1500.0,1500.0,nan,nan,nan,nan,nan,nan,nan,nan,nan,nan
198096000,6,1583.9832,1576.469,1572.7283,1583.4537,1500.0,1500.0,nan,nan,nan,nan,nan,nan,nan,nan,nan,nan
198196000,6,1586.9915,1573.1162,1574.1029,1582.1165,1500.0,1500.0,nan,nan,nan,nan,nan,nan,nan,nan,nan,nan
198300000,6,1585.2897,1577.1267,1573.4006,1587.1631,1500.0,1500.0,nan,nan,nan,nan,nan,nan,nan,nan,nan,nan
198396000,6,1584.7406,1576.7701,1574.5966,1583.9451,1500.0,1500.0,nan,nan,nan,nan,nan,nan,nan,nan,nan,nan
198496000,6,1584.7379,1578.3069,1571.0706,1584.2059,1500.0,1500.0,nan,nan,nan,nan,nan,nan,nan,nan,nan,nan
198596000,6,1586.9391,1575.6483,1574.335,1585.2609,1500.0,1500.0,nan,nan,nan,nan,nan,nan,nan,nan,nan,nan
198696000,6,1588.073,1573.9229,1571.341,1585.0449,1500.0,1500.0,nan,nan,nan,nan,nan,nan,nan,nan,nan,nan
198796000,6,1586.175,1575.3401,1573.1346,1581.5581,1500.0,1500.0,nan,nan,nan,nan,nan,nan,nan,nan,nan,nan
198896000,6,1584.6968,1574.4825,1572.1271,1584.1028,1500.0,1500.0,nan,nan,nan,nan,nan,nan,nan,nan,nan,nan
199000000,6,1582.376,1576.7693,1570.9083,1581.7493,1500.0,1500.0,nan,nan,nan,nan,nan,nan,nan,nan,nan,nan
199100000,6,1586.444,1574.3225,1573.3661,1581.565,1500.0,1500.0,nan,nan,nan,nan,nan,nan,nan,nan,nan,nan
199196000,6,1586.089,1573.734,1570.4692,1584.6086,1500.0,1500.0,nan,nan,nan,nan,nan,nan,nan,nan,nan,nan
199296000,6,1581.3895,1577.2368,1573.4308,1584.1332,1500.0,1500.0,nan,nan,nan,nan,nan,nan,nan,nan,nan,nan
199396000,6,1585.357,1577.5013,1575.802,1583.6055,1500.0,1500.0,nan,nan,nan,nan,nan,nan,nan,nan,nan,nan
199500000,6,1585.1143,1577.4204,1573.1129,1583.3939,1500.0,1500.0,nan,nan,nan,nan,nan,nan,nan,nan,nan,nan
199596000,6,1588.0609,1575.9451,1573.5994,1585.4532,1500.0,1500.0,nan,nan,nan,nan,nan,nan,nan,nan,nan,nan
199696000,6,1585.559,1573.8265,1570.8026,1583.698,1500.0,1500.0,nan,nan,nan,nan,nan,nan,nan,nan,nan,nan
199796000,6,1583.2949,1575.7461,1575.1831,1581.459,1500.0,1500.0,nan,nan,nan,nan,nan,nan,nan,nan,nan,nan
199896000,6,1583.9532,1577.9824,1572.5292,1586.3896,1500.0,1500.0,nan,nan,nan,nan,nan,nan,nan,nan,nan,nan
199996000,6,1588.7549,1575.5043,1575.6494,1583.663,1500.0,1500.0,nan,nan,nan,nan,nan,nan,nan,nan,nan,nan
200096000,6,1585.3894,1576.8422,1573.0975,1584.3844,1500.0,1500.0,nan,nan,nan,nan,nan,nan,nan,nan,nan,nan
200196000,6,1586.4897,1576.574,1572.439,1585.8315,1500.0,1500.0,nan,nan,nan,nan,nan,nan,nan,nan,nan,nan
200296000,6,1586.4504,1575.364,1571.886,1584.6925,1500.0,1500.0,nan,nan,nan,nan,nan,nan,nan,nan,nan,nan
200400000,6,1584.4221,1575.7316,1570.3878,1582.669,1500.0,1500.0,nan,nan,nan,nan,nan,nan,nan,nan,nan,nan
200496000,6,1583.5149,1579.806,1572.2064,1585.6656,1500.0,1500.0,nan,nan,nan,nan,nan,nan,nan,nan,nan,nan
200600000,6,1589.2476,1576.3773,1572.7797,1588.9666,1500.0,1500.0,nan,nan,nan,nan,nan,nan,nan,nan,nan,nan
200696000,6,1587.1282,1573.046,1572.257,1584.2708,1500.0,1500.0,nan,nan,nan,nan,nan,nan,nan,nan,nan,nan
200800000,6,1587.6544,1574.692,1570.7087,1582.8513,1500.0,1500.0,nan,nan,nan,nan,nan,nan,nan,nan,nan,nan
200896000,6,1585.7275,1576.2871,1573.0764,1586.008,1500.0,1500.0,nan,nan,nan,nan,nan,nan,nan,nan,nan,nan
201000000,6,1588.7212,1575.4165,1572.6287,1584.3993,1500.0,1500.0,nan,nan,nan,nan,nan,nan,nan,nan,nan,nan
201100000,6,1585.7354,1575.8541,1574.5459,1582.619,1500.0,1500.0,nan,nan,nan,nan,nan,nan,nan,nan,nan,nan
201200000,6,1584.2798,1578.1182,1570.8112,1584.9492,1500.0,1500.0,nan,nan,nan,nan,nan,nan,nan,nan,nan,nan
201296000,6,1588.3229,1573.5359,1573.5784,1583.4784,1500.0,1500.0,nan,nan,nan,nan,nan,nan,nan,nan,nan,nan
201396000,6,1588.2334,1574.3008,1574.9347,1583.3975,1500.0,1500.0,nan,nan,nan,nan,nan,nan,nan,nan,nan,nan
201496000,6,1584.8516,1574.0037,1576.9833,1583.8462,1500.0,1500.0,nan,nan,nan,nan,nan,nan,nan,nan,nan,nan
201600000,6,1587.115,1573.9785,1576.1011,1582.0936,1500.0,1500.0,nan,nan,nan,nan,nan,nan,nan,nan,nan,nan
201696000,6,1586.8542,1575.1246,1574.2102,1582.2905,1500.0,1500.0,nan,nan,nan,nan,nan,nan,nan,nan,nan,nan
201800000,6,1587.2546,1576.3142,1576.123,1581.2965,1500.0,1500.0,nan,nan,nan,nan,nan,nan,nan,nan,nan,nan
201896000,6,1583.4402,1577.2302,1572.4514,1585.6786,1500.0,1500.0,nan,nan,nan,nan,nan,nan,nan,nan,nan,nan
201996000,6,1587.0787,1576.621,1573.4282,1584.0059,1500.0,1500.0,nan,nan,nan,nan,nan,nan,nan,nan,nan,nan
202100000,6,1587.1603,1576.3619,1575.8757,1582.9862,1500.0,1500.0,nan,nan,nan,nan,nan,nan,nan,nan,nan,nan
202196000,6,1587.8275,1573.6348,1574.0005,1584.4333,1500.0,1500.0,nan,nan,nan,nan,nan,nan,nan,nan,nan,nan
202296000,6,1584.739,1576.8312,1572.957,1583.4629,1500.0,1500.0,nan,nan,nan,nan,nan,nan,nan,nan,nan,nan
202400000,6,1587.6342,1578.7368,1572.5425,1585.3218,1500.0,1500.0,nan,nan,nan,nan,nan,nan,nan,nan,nan,nan
202496000,6,1584.5452,1580.848,1572.0857,1589.7949,1500.0,1500.0,nan,nan,nan,nan,nan,nan,nan,nan,nan,nan
202596000,6,1586.0638,1576.5374,1573.7579,1583.9055,1500.0,1500.0,nan,nan,nan,nan,nan,nan,nan,nan,nan,nan
202696000,6,1585.2452,1581.0393,1573.3717,1586.254,1500.0,1500.0,nan,nan,nan,nan,nan,nan,nan,nan,nan,nan
202796000,6,1586.7314,1577.6409,1574.214,1583.375,1500.0,1500.0,nan,nan,nan,nan,nan,nan,nan,nan,nan,nan
202896000,6,1585.7319,1574.6698,1575.7252,1582.317,1500.0,1500.0,nan,nan,nan,nan,nan,nan,nan,nan,nan,nan
