timestamp,timestamp_sample,control[0],control[1],control[2],control[3],control[4],control[5],control[6],control[7]
146200000,146200000,0.008763796,0.0038041533,-0.22900057,-0.0,0.0,0.0,0.0,-1.0
146300000,146300000,0.00636076,0.0021444522,-0.22985063,-0.0,0.0,0.0,0.0,-1.0
146396000,146396000,0.008056089,0.00083392835,-0.23017648,-0.0,0.0,0.0,0.0,-1.0
146500000,146500000,0.009086479,0.0007885824,-0.22905755,-0.0,0.0,0.0,0.0,-1.0
146596000,146596000,0.009084555,0.002409823,-0.22900172,-0.0,0.0,0.0,0.0,-1.0
146700000,146700000,0.007888525,0.0002188622,-0.22899194,-0.0,0.0,0.0,0.0,-1.0
146800000,146800000,0.007812843,0.0020757455,-0.22939037,-0.0,0.0,0.0,0.0,-1.0
146900000,146900000,0.008643216,0.0019435533,-0.2284054,-0.0,0.0,0.0,0.0,-1.0
147000000,147000000,0.0075302226,1.6884063e-05,-0.22889486,-0.0,0.0,0.0,0.0,-1.0
147100000,147100000,0.005968815,-0.00016266474,-0.22882095,-0.0,0.0,0.0,0.0,-1.0
147200000,147200000,0.008068644,0.00043875782,-0.22766621,-0.0,0.0,0.0,0.0,-1.0
147300000,147300000,0.032759625,-0.039238054,0.00012777909,0.120089725,0.0,0.0,0.0,-1.0
147400000,147400000,0.023286656,-0.04821741,0.0013245767,0.12644821,0.0,0.0,0.0,-1.0
147496000,147496000,0.0124911675,-0.032707967,0.0011071819,0.1819223,0.0,0.0,0.0,-1.0
147600000,147600000,0.009881866,-0.025908254,0.00033464975,0.25022706,0.0,0.0,0.0,-1.0
147700000,147700000,0.010580014,-0.02626501,0.00014841126,0.31051964,0.0,0.0,0.0,-1.0
147800000,147800000,0.011077352,-0.020541519,0.0008649152,0.3925048,0.0,0.0,0.0,-1.0
147900000,147900000,0.011295359,-0.018490423,0.0006988516,0.46429276,0.0,0.0,0.0,-1.0
147996000,147996000,0.010004958,-0.017814213,0.00042049107,0.53420705,0.0,0.0,0.0,-1.0
148100000,148100000,0.00034668203,-0.00094797555,0.0014915593,0.61431205,0.0,0.0,0.0,-1.0
148200000,148200000,-0.0042224093,0.0037992941,-0.0001775348,0.60663706,0.0,0.0,0.0,-1.0
148300000,148300000,-0.0018423991,0.0006923871,0.0006479249,0.61044645,0.0,0.0,0.0,-1.0
148400000,148400000,0.0035612467,7.73971e-05,-0.00063450943,0.6163605,0.0,0.0,0.0,-1.0
148500000,148500000,-0.0013896006,-0.0012373291,0.00016768,0.6144532,0.0,0.0,0.0,-1.0
148596000,148596000,0.000111077214,-0.00056944555,-0.00068595423,0.61417824,0.0,0.0,0.0,-1.0
148700000,148700000,-0.00020980136,4.8417598e-05,-7.02331e-05,0.6152888,0.0,0.0,0.0,-1.0
148800000,148800000,-0.001397437,-0.0002659117,-0.00028040353,0.6233326,0.0,0.0,0.0,-1.0
148900000,148900000,0.0012549605,0.0008517066,0.00016932943,0.62648696,0.0,0.0,0.0,-1.0
148996000,148996000,-0.000472059,-0.0044953823,-1.1112381e-05,0.62506825,0.0,0.0,0.0,-1.0
149100000,149100000,0.0015360771,-0.0019163305,-0.00048992404,0.62451136,0.0,0.0,0.0,-1.0
149200000,149200000,0.00036282174,-0.0030464828,0.00018121694,0.6264355,0.0,0.0,0.0,-1.0
149296000,149296000,-0.00032719807,-0.0003220816,-0.00077546545,0.6269476,0.0,0.0,0.0,-1.0
149400000,149400000,0.001362511,-0.0020748293,-0.00048510265,0.6354904,0.0,0.0,0.0,-1.0
149500000,149500000,0.0012961171,-0.0006405399,0.00045807072,0.63381857,0.0,0.0,0.0,-1.0
149596000,149596000,0.00054797187,0.0010627457,-4.7797315e-05,0.63564265,0.0,0.0,0.0,-1.0
149700000,149700000,-0.0017696524,-0.0007280187,-0.00019746847,0.6349009,0.0,0.0,0.0,-1.0
149800000,149800000,0.0019398355,0.0010037653,-0.0022269716,0.6375851,0.0,0.0,0.0,1.0
149896000,149896000,-0.0019453984,0.002680615,-0.0007517032,0.58927774,0.0,0.0,0.0,1.0
150000000,150000000,0.0012165918,0.0038022879,-0.00038378185,0.5088063,0.0,0.0,0.0,1.0
150100000,150100000,-0.000817195,0.0028922688,0.0008977257,0.55050224,0.0,0.0,0.0,1.0
150196000,150196000,-0.0014835037,0.0001768982,6.9796006e-06,0.5500067,0.0,0.0,0.0,1.0
150300000,150300000,-0.0018482406,0.000441859,0.00026706984,0.54928607,0.0,0.0,0.0,1.0
150396000,150396000,0.0011048334,-0.0010153849,0.001148125,0.5501377,0.0,0.0,0.0,1.0
150500000,150500000,-0.0015261455,0.0008076805,0.0012762614,0.5533284,0.0,0.0,0.0,1.0
150596000,150596000,0.0011408902,-0.00026027663,0.0007884826,0.5514127,0.0,0.0,0.0,1.0
150700000,150700000,0.0020344078,0.0019511805,-0.0005486227,0.5519171,0.0,0.0,0.0,1.0
150800000,150800000,0.00091352465,0.0022730543,-0.0008584924,0.55730045,0.0,0.0,0.0,1.0
150900000,150900000,-0.00042462413,-0.0010951414,0.00024338011,0.5607363,0.0,0.0,0.0,1.0
151000000,151000000,0.00136585,-0.00017592232,6.17535e-05,0.5590038,0.0,0.0,0.0,1.0
151096000,151096000,0.0018290031,-0.00091071636,0.0007432639,0.5575576,0.0,0.0,0.0,1.0
151196000,151196000,0.000116594485,-0.00024060463,0.00088270096,0.5611087,0.0,0.0,0.0,1.0
151300000,151300000,-0.00016600284,0.0004419025,0.000118323675,0.5624582,0.0,0.0,0.0,1.0
151400000,151400000,-9.87485e-05,-0.0008947735,0.00025257794,0.56182015,0.0,0.0,0.0,1.0
151500000,151500000,0.0014359887,0.0016231015,-0.00071148947,0.5618282,0.0,0.0,0.0,1.0
151600000,151600000,-0.0024308753,0.0033156273,-0.0003424997,0.56072265,0.0,0.0,0.0,1.0
151700000,151700000,0.002328441,-0.0022223196,9.937173e-05,0.5624963,0.0,0.0,0.0,1.0
151800000,151800000,0.0010492638,-0.0015044239,0.00062983064,0.5650793,0.0,0.0,0.0,1.0
151896000,151896000,0.0010377743,0.0022779016,-0.0014774895,0.5643566,0.0,0.0,0.0,1.0
152000000,152000000,0.0002868648,0.0015855534,0.0001479629,0.5629996,0.0,0.0,0.0,1.0
152100000,152100000,0.0008944112,-0.0004726356,0.00053488254,0.5633405,0.0,0.0,0.0,1.0
152196000,152196000,-0.0006485315,0.00046458017,-0.00013454029,0.5645204,0.0,0.0,0.0,1.0
152296000,152296000,-0.0010985895,0.00010258395,0.0003809506,0.5639702,0.0,0.0,0.0,1.0
152400000,152400000,0.0036724673,0.0014664624,-3.4948185e-05,0.5634081,0.0,0.0,0.0,1.0
152500000,152500000,-0.0011751809,-0.0011635107,0.00014504316,0.56379837,0.0,0.0,0.0,1.0
152600000,152600000,0.003387482,0.0013143842,-0.00049436593,0.5644322,0.0,0.0,0.0,1.0
152700000,152700000,0.00022124092,0.0035218159,0.00029832486,0.56587046,0.0,0.0,0.0,1.0
152800000,152800000,-0.001574477,-0.0017415293,-0.0005792874,0.56499445,0.0,0.0,0.0,1.0
152900000,152900000,0.0025327317,-0.00015777984,1.6837432e-05,0.56349957,0.0,0.0,0.0,1.0
153000000,153000000,0.0016894025,-0.0009576848,0.00044377064,0.56575096,0.0,0.0,0.0,1.0
153100000,153100000,-0.0017251496,0.0016320087,-0.0002615918,0.5647143,0.0,0.0,0.0,1.0
153200000,153200000,0.0017597232,0.002004348,0.00039899204,0.5646032,0.0,0.0,0.0,1.0
153296000,153296000,0.001772209,-0.0029652207,0.00033629767,0.5648144,0.0,0.0,0.0,1.0
153396000,153396000,-0.0012045305,-0.00016383646,-0.0007741625,0.56537104,0.0,0.0,0.0,1.0
153496000,153496000,-0.002989904,2.3121334e-05,0.0004785967,0.56461036,0.0,0.0,0.0,1.0
153596000,153596000,0.0014216801,0.001449737,-0.00017725126,0.5645047,0.0,0.0,0.0,1.0
153700000,153700000,0.0022240754,-0.00035589546,0.00052819814,0.5655039,0.0,0.0,0.0,1.0
153800000,153800000,0.0019998641,-0.0011808346,-5.3081836e-05,0.56352866,0.0,0.0,0.0,1.0
153896000,153896000,0.0009991591,0.0027815185,-0.0010710381,0.56472784,0.0,0.0,0.0,1.0
153996000,153996000,0.00044068613,0.0019792719,8.763744e-06,0.5634233,0.0,0.0,0.0,1.0
154100000,154100000,0.000651075,-5.0786926e-05,-0.00092844834,0.5640968,0.0,0.0,0.0,1.0
154200000,154200000,-0.00080023985,0.0022899513,0.00017433745,0.5651703,0.0,0.0,0.0,1.0
154300000,154300000,0.000108345805,-0.000552845,-0.00035781457,0.56484276,0.0,0.0,0.0,1.0
154396000,154396000,0.0019363334,0.0024589922,0.0011152981,0.56389815,0.0,0.0,0.0,1.0
154500000,154500000,0.0015327255,-0.0013808873,0.0005286115,0.5632463,0.0,0.0,0.0,1.0
154596000,154596000,-0.003107922,0.0012798673,0.00056450936,0.56508046,0.0,0.0,0.0,1.0
154696000,154696000,-0.00010939671,-0.0011144116,-0.0005226581,0.5648383,0.0,0.0,0.0,1.0
154800000,154800000,0.00040034234,0.00024296186,0.00044738967,0.56436914,0.0,0.0,0.0,1.0
154900000,154900000,-0.0027501513,0.0014097322,0.00016967906,0.56374127,0.0,0.0,0.0,1.0
155000000,155000000,0.00011467546,-0.00041782623,0.00041363,0.5654296,0.0,0.0,0.0,1.0
155100000,155100000,0.00061178516,0.0018356459,-2.0832873e-05,0.56389916,0.0,0.0,0.0,1.0
155200000,155200000,-0.0011785285,0.0005503998,0.00024930952,0.5650014,0.0,0.0,0.0,1.0
155300000,155300000,-0.0017457341,-0.0018140384,0.00034375882,0.56427556,0.0,0.0,0.0,1.0
155396000,155396000,-4.5353372e-05,-0.00029593307,0.0006920248,0.5642031,0.0,0.0,0.0,1.0
155500000,155500000,-0.00040935617,-0.0010798501,-0.00025561446,0.56503505,0.0,0.0,0.0,1.0
155600000,155600000,-0.0022208132,-0.0028050458,-0.00020114101,0.5638508,0.0,0.0,0.0,1.0
155700000,155700000,-0.0040380275,-0.00156832,-0.00014349048,0.5647127,0.0,0.0,0.0,1.0
155800000,155800000,0.0038341775,8.197082e-05,0.00027271104,0.56385744,0.0,0.0,0.0,1.0
155900000,155900000,0.0017447688,-0.00033180503,-3.1811243e-05,0.56372344,0.0,0.0,0.0,1.0
156000000,156000000,0.00013310701,0.0005436105,0.00014925095,0.5634892,0.0,0.0,0.0,1.0
156100000,156100000,-2.5712907e-05,-0.0007257026,1.5764084e-05,0.5636784,0.0,0.0,0.0,1.0
156200000,156200000,-7.0941696e-06,-9.913402e-05,0.0010352522,0.56427175,0.0,0.0,0.0,1.0
156300000,156300000,-0.0015385611,-0.0013977283,-2.2356846e-05,0.5636084,0.0,0.0,0.0,1.0
156400000,156400000,0.00029680887,0.0014026151,0.0010192794,0.56513226,0.0,0.0,0.0,1.0
156500000,156500000,0.0009659202,0.0019074513,-0.00055544433,0.56466585,0.0,0.0,0.0,1.0
156600000,156600000,0.0020739494,-0.0015748305,-0.0006136165,0.56410784,0.0,0.0,0.0,1.0
156700000,156700000,0.00048510585,-3.3093995e-05,-0.00023921406,0.5646471,0.0,0.0,0.0,1.0
156800000,156800000,0.0012292922,-0.0021022372,-0.0005425028,0.56471395,0.0,0.0,0.0,1.0
156900000,156900000,-0.00049742404,0.0026978697,0.00044349485,0.565284,0.0,0.0,0.0,1.0
157000000,157000000,-0.0018779589,0.00257698,0.00050695817,0.5642321,0.0,0.0,0.0,1.0
157100000,157100000,-4.6325513e-05,0.002072499,0.00015731493,0.56354946,0.0,0.0,0.0,1.0
157200000,157200000,-0.00042049005,-0.00030951572,-0.0003581788,0.56316495,0.0,0.0,0.0,1.0
157300000,157300000,4.30996e-05,0.00096629525,0.0010347295,0.56212485,0.0,0.0,0.0,1.0
157400000,157400000,0.002527353,-0.00026209015,0.00053211476,0.56350166,0.0,0.0,0.0,1.0
157500000,157500000,-0.00049964397,0.0009698004,0.00024977053,0.563117,0.0,0.0,0.0,1.0
157596000,157596000,-0.0028614379,-0.0006717439,8.720049e-05,0.56279874,0.0,0.0,0.0,1.0
157700000,157700000,0.0017997326,0.0018415445,-0.00010681037,0.5643526,0.0,0.0,0.0,1.0
157796000,157796000,0.0026668422,-0.003786855,0.00057980366,0.56380045,0.0,0.0,0.0,1.0
157900000,157900000,0.0008117158,0.0010697888,-7.770093e-06,0.56495345,0.0,0.0,0.0,1.0
158000000,158000000,-0.00010296205,0.0023386963,3.304841e-05,0.5636019,0.0,0.0,0.0,1.0
158096000,158096000,0.0014959732,0.00016920744,-4.773837e-05,0.5655754,0.0,0.0,0.0,1.0
158200000,158200000,-0.0011102275,-0.002804046,0.00071678316,0.5634963,0.0,0.0,0.0,1.0
158296000,158296000,0.0023604222,-0.0016517979,6.802504e-05,0.56448776,0.0,0.0,0.0,1.0
158396000,158396000,0.0010277263,0.0021915957,0.0011912587,0.56416625,0.0,0.0,0.0,1.0
158496000,158496000,0.0006743608,-0.00029641617,-5.463143e-05,0.5621743,0.0,0.0,0.0,1.0
158600000,158600000,-0.0028735676,-0.00095497497,0.00073563453,0.5612516,0.0,0.0,0.0,1.0
158700000,158700000,0.0023159597,-0.0019895686,0.000103216444,0.56338584,0.0,0.0,0.0,1.0
158800000,158800000,0.0007593555,0.00048506784,-0.0008199636,0.56446403,0.0,0.0,0.0,1.0
158896000,158896000,0.0009817525,-0.001137722,-8.70798e-05,0.56284,0.0,0.0,0.0,1.0
159000000,159000000,-0.0028443295,0.0010985008,-6.417918e-05,0.56441313,0.0,0.0,0.0,1.0
159096000,159096000,0.0008138384,-0.0048114,3.675684e-05,0.5631679,0.0,0.0,0.0,1.0
159200000,159200000,-0.0013655442,-0.00020338572,-2.5147468e-05,0.56332946,0.0,0.0,0.0,1.0
159300000,159300000,0.0011671383,0.0020158614,0.0009758256,0.5634667,0.0,0.0,0.0,1.0
159400000,159400000,0.0015857604,0.0011418887,1.26862815e-05,0.56406313,0.0,0.0,0.0,1.0
159500000,159500000,-0.0010038769,-0.0023790265,0.00028153404,0.56233275,0.0,0.0,0.0,1.0
159600000,159600000,-0.00086255226,0.00060340395,0.0006673649,0.561848,0.0,0.0,0.0,1.0
159700000,159700000,-0.002374937,-0.0040681367,-0.0008352718,0.5640478,0.0,0.0,0.0,1.0
159796000,159796000,0.0019164585,-0.00034398946,-0.0008392217,0.5623424,0.0,0.0,0.0,1.0
159900000,159900000,0.0025270982,-0.0015201881,-0.00063382793,0.5630889,0.0,0.0,0.0,1.0
160000000,160000000,-0.0015202583,-0.0027637219,0.00015299505,0.56242377,0.0,0.0,0.0,1.0
160100000,160100000,0.0028751902,0.002168832,-0.0005129015,0.56310284,0.0,0.0,0.0,1.0
160200000,160200000,-0.0015842718,-0.002352963,0.00019892999,0.56261295,0.0,0.0,0.0,1.0
160300000,160300000,-0.0014439481,-0.0022379712,0.00023407557,0.5618077,0.0,0.0,0.0,1.0
160400000,160400000,-0.0009364874,-0.001811327,-0.0006015374,0.5627458,0.0,0.0,0.0,1.0
160500000,160500000,0.00018085605,0.00092066574,-0.00031905068,0.5628372,0.0,0.0,0.0,1.0
160600000,160600000,-0.0003410437,0.00045888955,-0.0006726423,0.5614653,0.0,0.0,0.0,1.0
160700000,160700000,-0.0033088252,-0.0012753824,-8.847978e-05,0.5611506,0.0,0.0,0.0,1.0
160796000,160796000,0.0015285522,-0.0025668894,0.00082314725,0.5608017,0.0,0.0,0.0,1.0
160900000,160900000,-0.00064127066,-0.0014122847,-7.6746684e-05,0.56191677,0.0,0.0,0.0,1.0
161000000,161000000,-0.0005404549,0.002638251,-0.0005159515,0.562642,0.0,0.0,0.0,1.0
161100000,161100000,-2.2661552e-05,0.0011188156,0.00043925512,0.5610912,0.0,0.0,0.0,1.0
161200000,161200000,-0.0012520882,0.00024489005,-4.7921774e-05,0.56195056,0.0,0.0,0.0,1.0
161300000,161300000,-0.000861373,-0.0007782666,-0.00019223936,0.56244725,0.0,0.0,0.0,1.0
161400000,161400000,-0.00011344995,0.005093151,8.3615814e-05,0.56179845,0.0,0.0,0.0,1.0
161500000,161500000,-0.0006670233,0.0029310533,0.00023233074,0.56297797,0.0,0.0,0.0,1.0
161600000,161600000,-0.00036374282,-0.00033366727,-0.00052222837,0.5648689,0.0,0.0,0.0,1.0
161700000,161700000,0.0007378387,-0.00061719783,0.0007053602,0.5631246,0.0,0.0,0.0,1.0
161800000,161800000,0.00041675445,-0.0017500301,6.790958e-07,0.5634527,0.0,0.0,0.0,1.0
161900000,161900000,-0.004443562,9.64744e-06,-0.00029193,0.5632754,0.0,0.0,0.0,1.0
162000000,162000000,-0.002309713,-0.0021697388,-0.00010746128,0.5613854,0.0,0.0,0.0,1.0
162100000,162100000,0.0029899746,-0.0021103339,-0.000739068,0.56317663,0.0,0.0,0.0,1.0
162200000,162200000,-0.0002822801,0.0016816701,0.00010843176,0.5611122,0.0,0.0,0.0,1.0
162296000,162296000,-0.0020682835,-0.001934133,0.00029137844,0.56206,0.0,0.0,0.0,1.0
162400000,162400000,-0.0013970925,0.0008866511,0.000108761255,0.5632176,0.0,0.0,0.0,1.0
162500000,162500000,0.0016270739,-0.0012176895,-0.0005950777,0.56196195,0.0,0.0,0.0,1.0
162600000,162600000,-0.0011172136,0.00030811894,-0.00010736874,0.5620281,0.0,0.0,0.0,1.0
162700000,162700000,0.0014099884,-0.0014846782,-3.189771e-05,0.56228566,0.0,0.0,0.0,1.0
162800000,162800000,-0.00012754565,0.0002928131,-0.00060944934,0.56327873,0.0,0.0,0.0,1.0
162896000,162896000,0.0005200694,0.0021451593,8.9904344e-05,0.562958,0.0,0.0,0.0,1.0
163000000,163000000,-0.00043639072,-0.00028518063,-5.0138315e-06,0.5648997,0.0,0.0,0.0,1.0
163100000,163100000,-0.00022461006,0.00085283036,0.00063232693,0.5641508,0.0,0.0,0.0,1.0
163200000,163200000,0.0011313745,0.001300273,-0.00036591687,0.5632434,0.0,0.0,0.0,1.0
163300000,163300000,-0.001753146,0.0032875154,0.00044230957,0.56317043,0.0,0.0,0.0,1.0
163400000,163400000,0.0009641118,-0.0025929876,-0.0012973705,0.5619251,0.0,0.0,0.0,1.0
163500000,163500000,0.0022455577,0.0019701165,-6.779334e-05,0.56461924,0.0,0.0,0.0,1.0
163600000,163600000,0.0001594651,0.0010795367,0.0004358173,0.56238574,0.0,0.0,0.0,1.0
163700000,163700000,0.0020775571,-0.00041721575,-0.0008151843,0.56305623,0.0,0.0,0.0,1.0
163800000,163800000,-0.002084115,0.00091627886,-0.0008918675,0.5627247,0.0,0.0,0.0,1.0
163900000,163900000,0.000532096,-0.00025884862,0.0004841692,0.56295633,0.0,0.0,0.0,1.0
164000000,164000000,-0.0002496386,0.0014324834,0.00031875214,0.5644556,0.0,0.0,0.0,1.0
164100000,164100000,4.2543135e-05,-3.5097706e-05,0.0007728925,0.56425196,0.0,0.0,0.0,1.0
164200000,164200000,-0.0008671565,-0.001037859,0.00023818805,0.5629988,0.0,0.0,0.0,1.0
164300000,164300000,0.0018013116,0.00015061002,0.0002237697,0.56488496,0.0,0.0,0.0,1.0
164400000,164400000,0.0029765922,0.00013887117,-0.00022703971,0.564376,0.0,0.0,0.0,1.0
164500000,164500000,-0.0028574911,-0.00016394092,-0.0006029479,0.5645626,0.0,0.0,0.0,1.0
164600000,164600000,-0.0024610003,-0.00045456394,0.00021246122,0.56398946,0.0,0.0,0.0,1.0
164700000,164700000,-0.00021369716,-0.00021164873,-0.00029075163,0.56329167,0.0,0.0,0.0,1.0
164796000,164796000,0.0020653426,-0.00419308,0.0009300916,0.5627957,0.0,0.0,0.0,1.0
164900000,164900000,-0.00388476,0.0004205851,-0.0002775667,0.56401443,0.0,0.0,0.0,1.0
165000000,165000000,-0.0022373062,0.0013080066,-0.00039055775,0.5634822,0.0,0.0,0.0,1.0
165100000,165100000,0.0011443897,0.0019157324,-7.461755e-05,0.5639516,0.0,0.0,0.0,1.0
165196000,165196000,-0.0018152155,-0.0039953133,0.00012541002,0.5627365,0.0,0.0,0.0,1.0
165300000,165300000,-0.0010248017,-0.00067732454,-0.0012483045,0.5622929,0.0,0.0,0.0,1.0
165396000,165396000,0.0032469702,-0.0026442439,0.00022409063,0.5645926,0.0,0.0,0.0,1.0
165500000,165500000,0.00044506576,0.00028581085,0.0004885846,0.56388456,0.0,0.0,0.0,1.0
165600000,165600000,0.0030263232,-0.0040516406,0.0001960322,0.56272745,0.0,0.0,0.0,1.0
165696000,165696000,-0.000105547166,-8.03787e-05,-0.0013103421,0.56164837,0.0,0.0,0.0,1.0
165800000,165800000,-0.0007680282,-0.00026049212,-0.00047872288,0.5635388,0.0,0.0,0.0,1.0
165900000,165900000,-0.0019867048,0.002307641,0.00038741063,0.56339175,0.0,0.0,0.0,1.0
166000000,166000000,-0.0008892944,0.0007161171,-0.00010387962,0.5625829,0.0,0.0,0.0,1.0
166100000,166100000,2.6241094e-05,-0.0014413364,-0.0006082878,0.56637484,0.0,0.0,0.0,1.0
166200000,166200000,-0.00055740535,-0.001015393,0.00042213095,0.5643314,0.0,0.0,0.0,1.0
166296000,166296000,0.0022345663,-0.00024757086,0.00079732854,0.5636627,0.0,0.0,0.0,1.0
166396000,166396000,-0.0011015794,-0.0013959182,-0.00031040088,0.56400955,0.0,0.0,0.0,1.0
166500000,166500000,0.0005049861,0.0014077858,-0.0008743963,0.5647283,0.0,0.0,0.0,1.0
166596000,166596000,0.0018291917,-0.000187197,-2.4901354e-05,0.56449175,0.0,0.0,0.0,1.0
166696000,166696000,0.0002978858,0.00035218417,0.00018252023,0.56418467,0.0,0.0,0.0,1.0
166800000,166800000,-0.0005955862,-0.00012412811,-0.00017493278,0.5656651,0.0,0.0,0.0,1.0
166900000,166900000,-0.0010938036,0.0030109226,-0.00012267804,0.564241,0.0,0.0,0.0,1.0
166996000,166996000,-0.0005342917,-0.00043656878,0.00024904503,0.5619988,0.0,0.0,0.0,1.0
167100000,167100000,-0.00085790304,-0.0015664847,0.00030983452,0.5639972,0.0,0.0,0.0,1.0
167196000,167196000,0.0018583838,2.8428854e-05,5.7275545e-05,0.5647611,0.0,0.0,0.0,1.0
167296000,167296000,-0.0017715944,0.001355531,-0.0006876894,0.56446886,0.0,0.0,0.0,1.0
167400000,167400000,0.0011219579,0.0015453835,0.00049624185,0.5623674,0.0,0.0,0.0,1.0
167500000,167500000,-0.0012784709,0.0019167755,0.0002447962,0.5630264,0.0,0.0,0.0,1.0
167596000,167596000,-4.8594702e-05,-0.00027454045,0.00013342954,0.5644423,0.0,0.0,0.0,1.0
167700000,167700000,0.00032479898,0.0022047693,-0.00027798716,0.5644642,0.0,0.0,0.0,1.0
167800000,167800000,-0.00058032275,0.0003866564,-0.00019412457,0.5636809,0.0,0.0,0.0,1.0
167900000,167900000,0.002347291,-0.0018624158,0.0004449429,0.56405133,0.0,0.0,0.0,1.0
167996000,167996000,-0.00065009395,0.0021657003,0.00050935993,0.5638866,0.0,0.0,0.0,1.0
168100000,168100000,0.00087896676,0.00087920047,5.9703183e-05,0.5649146,0.0,0.0,0.0,1.0
168200000,168200000,-7.290394e-05,-0.00054838485,-0.00025199231,0.56407106,0.0,0.0,0.0,1.0
168300000,168300000,-0.15778925,0.07820793,0.3846682,0.5340295,0.0,0.0,0.0,1.0
168396000,168396000,-0.036721803,0.053280912,0.11461287,0.4517904,0.0,0.0,0.0,1.0
168496000,168496000,0.008592946,0.008004429,0.012889902,0.56435215,0.0,0.0,0.0,1.0
168600000,168600000,0.026436001,-0.01810327,-0.010071125,0.58127683,0.0,0.0,0.0,1.0
168700000,168700000,0.016625071,-0.02008456,-0.01389016,0.5619014,0.0,0.0,0.0,1.0
168800000,168800000,0.008792603,-0.010986671,-0.011939706,0.5706469,0.0,0.0,0.0,1.0
168900000,168900000,0.0040858956,-0.0049471688,-0.009476623,0.57185674,0.0,0.0,0.0,1.0
168996000,168996000,0.00045604073,-0.0032936633,-0.008095585,0.5693886,0.0,0.0,0.0,1.0
169096000,169096000,0.005195695,-0.0015353555,-0.0058573885,0.5707278,0.0,0.0,0.0,1.0
169200000,169200000,0.0028747618,-0.004496895,-0.0041401098,0.56936264,0.0,0.0,0.0,1.0
169300000,169300000,0.0025015739,-0.0042390754,-0.003075865,0.5721482,0.0,0.0,0.0,1.0
169396000,169396000,0.0020051808,-0.007931817,-0.0019756192,0.57195336,0.0,0.0,0.0,1.0
169500000,169500000,-0.0006568972,-0.004690552,-0.0025590612,0.5719828,0.0,0.0,0.0,1.0
169596000,169596000,0.0020431168,-0.007740179,-0.0021163085,0.572683,0.0,0.0,0.0,1.0
169700000,169700000,0.0023043188,-0.008066752,-0.0005803555,0.57295793,0.0,0.0,0.0,1.0
169800000,169800000,0.0020355242,-0.005881477,-0.0006858222,0.5745527,0.0,0.0,0.0,1.0
169900000,169900000,-0.0017523428,-0.006810566,-0.0018987381,0.57488334,0.0,0.0,0.0,1.0
170000000,170000000,0.0016732445,-0.005446416,-0.0012888568,0.5749264,0.0,0.0,0.0,1.0
170096000,170096000,0.0006289795,-0.009296811,-0.0014339425,0.57633555,0.0,0.0,0.0,1.0
170196000,170196000,-0.00366505,-0.0074323816,-0.0011549168,0.575481,0.0,0.0,0.0,1.0
170300000,170300000,-0.0029898896,-0.006261817,-0.00025055138,0.5759041,0.0,0.0,0.0,1.0
170400000,170400000,-0.0007440352,-0.010341605,0.0009717974,0.57639664,0.0,0.0,0.0,1.0
170496000,170496000,-0.0014852497,-0.009654672,-0.00045320438,0.5770436,0.0,0.0,0.0,1.0
170596000,170596000,-0.00016378984,-0.0096710995,0.00051463395,0.57733846,0.0,0.0,0.0,1.0
170700000,170700000,-0.00011021708,-0.007381527,-0.00050476566,0.5781258,0.0,0.0,0.0,1.0
170800000,170800000,-0.00070856436,-0.013821665,-9.3236566e-05,0.57884026,0.0,0.0,0.0,1.0
170900000,170900000,-0.00072818255,-0.0074236086,-9.049382e-05,0.57950115,0.0,0.0,0.0,1.0
171000000,171000000,0.0016119315,-0.010705179,-0.0002531251,0.57934207,0.0,0.0,0.0,1.0
171100000,171100000,-0.0019878382,-0.010255311,-0.00013313768,0.5800813,0.0,0.0,0.0,1.0
171196000,171196000,-0.0004224634,-0.01175686,-0.0005077997,0.5817673,0.0,0.0,0.0,1.0
171300000,171300000,0.000112934395,-0.0122530805,-0.00032117264,0.58194,0.0,0.0,0.0,1.0
171400000,171400000,-0.0014770327,-0.009344692,0.00029128045,0.58241475,0.0,0.0,0.0,1.0
171500000,171500000,0.0012146551,-0.014590067,-0.00093254517,0.5833497,0.0,0.0,0.0,1.0
171600000,171600000,-0.0003887744,-0.014805559,-0.0007913548,0.5864165,0.0,0.0,0.0,1.0
171700000,171700000,0.0012292387,-0.014848864,1.5503261e-05,0.58649784,0.0,0.0,0.0,1.0
171800000,171800000,-0.00044101852,-0.011357387,-0.00010277983,0.58775467,0.0,0.0,0.0,1.0
171896000,171896000,0.0016602349,-0.013608515,-0.00064339,0.5894784,0.0,0.0,0.0,1.0
172000000,172000000,0.0025245883,-0.019062284,-0.0019369773,0.5883755,0.0,0.0,0.0,1.0
172096000,172096000,0.0026504323,-0.014499785,-0.00037139165,0.59024805,0.0,0.0,0.0,1.0
172196000,172196000,-0.00028287567,-0.019209012,-0.00031333952,0.5923446,0.0,0.0,0.0,1.0
172300000,172300000,0.00049308984,-0.014213694,-0.0003003478,0.5934822,0.0,0.0,0.0,1.0
172400000,172400000,-0.0028378402,-0.018757941,-0.0001867289,0.59578246,0.0,0.0,0.0,1.0
172496000,172496000,0.00049639004,-0.020499904,-0.00072486734,0.5972199,0.0,0.0,0.0,1.0
172600000,172600000,-0.00080209435,-0.023352575,-0.00031547027,0.59750026,0.0,0.0,0.0,1.0
172696000,172696000,0.0016150033,-0.01899199,-0.0010590197,0.59939283,0.0,0.0,0.0,1.0
172796000,172796000,-0.00065286434,-0.022776935,-0.00024251686,0.6017688,0.0,0.0,0.0,1.0
172896000,172896000,-0.0017901034,-0.017969675,-0.0002093293,0.60364676,0.0,0.0,0.0,1.0
172996000,172996000,0.001761111,-0.021510772,-0.00037796865,0.6065932,0.0,0.0,0.0,1.0
173100000,173100000,-0.0008992006,-0.023477212,-0.00038600597,0.6073325,0.0,0.0,0.0,1.0
173196000,173196000,0.000674169,-0.02449686,-0.0008210426,0.6102551,0.0,0.0,0.0,1.0
173300000,173300000,0.0014346236,-0.02441087,-0.0011449741,0.61374784,0.0,0.0,0.0,1.0
173400000,173400000,-0.00041178253,-0.020412933,-0.0006855846,0.61376655,0.0,0.0,0.0,1.0
173500000,173500000,0.0014318379,-0.025157992,-0.00088668714,0.6171255,0.0,0.0,0.0,1.0
173596000,173596000,0.001215775,-0.023417901,-0.0014608372,0.6198997,0.0,0.0,0.0,1.0
173700000,173700000,-0.0014547358,-0.028502744,-0.00023992464,0.6228859,0.0,0.0,0.0,1.0
173800000,173800000,0.00090331206,-0.023704806,-0.00063013285,0.625232,0.0,0.0,0.0,1.0
173896000,173896000,0.0027369622,-0.029258747,-0.00027025223,0.62848455,0.0,0.0,0.0,1.0
174000000,174000000,0.00015691985,-0.031184139,-0.0013906455,0.63385445,0.0,0.0,0.0,1.0
174100000,174100000,-0.0010171941,-0.032921966,-0.00069296843,0.6357894,0.0,0.0,0.0,1.0
174200000,174200000,-0.00012412659,-0.029226974,-0.0016207797,0.63868546,0.0,0.0,0.0,1.0
174300000,174300000,-0.0003381044,-0.030633166,-1.6711041e-05,0.64231217,0.0,0.0,0.0,1.0
174400000,174400000,0.0041490225,-0.028152235,-0.0015343697,0.64622223,0.0,0.0,0.0,1.0
174500000,174500000,-0.0029207221,-0.033262685,-0.00052160514,0.649872,0.0,0.0,0.0,1.0
174600000,174600000,-0.002046212,-0.03707388,-0.0011057004,0.6560981,0.0,0.0,0.0,1.0
174700000,174700000,-0.0014083461,-0.03137591,7.785048e-05,0.6590797,0.0,0.0,0.0,1.0
174800000,174800000,-0.0005079936,-0.03826487,-0.00030898364,0.6658882,0.0,0.0,0.0,1.0
174896000,174896000,0.0013827728,-0.03299197,-0.0012250727,0.6689664,0.0,0.0,0.0,1.0
175000000,175000000,0.0005547636,-0.03867625,-0.0014967577,0.6769754,0.0,0.0,0.0,1.0
175096000,175096000,-0.0020847812,-0.01321106,0.00045447814,0.66909033,0.0,0.0,0.0,1.0
175200000,175200000,0.0013437987,-0.028370082,-0.00043972416,0.67173666,0.0,0.0,0.0,1.0
175300000,175300000,0.0029715206,-0.044349317,-0.002518746,0.67657185,0.0,0.0,0.0,1.0
175396000,175396000,0.006125027,-0.06252512,-0.0018503108,0.6741796,0.0,0.0,0.0,1.0
175500000,175500000,0.00046680344,-0.055472072,-0.00081334653,0.6717721,0.0,0.0,0.0,1.0
175600000,175600000,0.0008728905,-0.039314322,-0.0007674248,0.669691,0.0,0.0,0.0,1.0
175700000,175700000,-0.00029798102,-0.03942753,-0.00045884782,0.6715846,0.0,0.0,0.0,1.0
175796000,175796000,0.0009313007,-0.041033674,-0.0018050713,0.67379045,0.0,0.0,0.0,1.0
175900000,175900000,-0.00073928596,-0.047148846,-0.00156714,0.6735604,0.0,0.0,0.0,1.0
176000000,176000000,0.0019507103,-0.045080915,-0.0006309448,0.6721061,0.0,0.0,0.0,1.0
176100000,176100000,0.00035172282,-0.046910234,-0.00080464536,0.67290103,0.0,0.0,0.0,1.0
176200000,176200000,-5.3942727e-05,-0.041867252,3.8841972e-07,0.6721107,0.0,0.0,0.0,1.0
176300000,176300000,-0.0005770307,-0.046854645,-0.0010838688,0.6722101,0.0,0.0,0.0,1.0
176396000,176396000,0.0019442094,-0.043951076,-0.0014650365,0.6733158,0.0,0.0,0.0,1.0
176500000,176500000,0.0016235211,-0.042685486,-0.0009701885,0.67510945,0.0,0.0,0.0,1.0
176596000,176596000,0.0015016936,-0.04470004,-0.0013900409,0.6729551,0.0,0.0,0.0,1.0
176700000,176700000,0.003288601,-0.040872075,-0.00091824867,0.6728949,0.0,0.0,0.0,1.0
176796000,176796000,0.00016494427,-0.044420257,-0.00046149315,0.67332745,0.0,0.0,0.0,1.0
176900000,176900000,0.0014882921,-0.044012666,-0.00096889486,0.6732885,0.0,0.0,0.0,1.0
177000000,177000000,0.00034972612,-0.046320222,-0.0014271806,0.6733553,0.0,0.0,0.0,1.0
177096000,177096000,0.0006044328,-0.04766079,-0.0016568368,0.6738372,0.0,0.0,0.0,1.0
177196000,177196000,1.4112506e-05,-0.048495427,-0.0009970419,0.67439497,0.0,0.0,0.0,1.0
177300000,177300000,-0.0013153336,-0.0461849,-0.0016377405,0.67465085,0.0,0.0,0.0,1.0
177400000,177400000,0.0010406175,-0.04359476,-0.0005925211,0.6742249,0.0,0.0,0.0,1.0
177500000,177500000,0.0018287958,-0.044945765,-0.0010661936,0.67441124,0.0,0.0,0.0,1.0
177600000,177600000,0.001282286,-0.04424576,-0.0012206552,0.6747775,0.0,0.0,0.0,1.0
177700000,177700000,0.0002858641,-0.048999824,-0.0011776374,0.6752583,0.0,0.0,0.0,1.0
177796000,177796000,0.0015640241,-0.046259776,-0.0010871014,0.67362386,0.0,0.0,0.0,1.0
177900000,177900000,-0.0014996727,-0.04356277,-0.0007877351,0.6748582,0.0,0.0,0.0,1.0
178000000,178000000,0.0007759911,-0.041379154,-0.00070873107,0.6762134,0.0,0.0,0.0,1.0
178100000,178100000,0.003719182,-0.048468024,-0.0016792401,0.67605305,0.0,0.0,0.0,1.0
178196000,178196000,-0.0004746751,-0.047832005,-0.0019077117,0.674552,0.0,0.0,0.0,1.0
178296000,178296000,0.0015255905,-0.04691709,-0.0012367272,0.6768172,0.0,0.0,0.0,1.0
178400000,178400000,-0.0023786868,-0.04441645,-0.0020308131,0.6752515,0.0,0.0,0.0,1.0
178500000,178500000,-0.0018319924,-0.04493469,-0.0022870584,0.67626405,0.0,0.0,0.0,1.0
178600000,178600000,-0.00044287514,-0.014463799,-0.0010498539,0.66452366,0.0,0.0,0.0,1.0
178696000,178696000,0.00046779672,-0.030365989,-8.586736e-06,0.6604303,0.0,0.0,0.0,1.0
178796000,178796000,0.0044269296,-0.056300256,-0.00042221285,0.663971,0.0,0.0,0.0,1.0
178900000,178900000,0.0031388602,-0.06635452,-2.0130537e-05,0.654137,0.0,0.0,0.0,1.0
178996000,178996000,0.0025597701,-0.055890597,5.57811e-05,0.6450514,0.0,0.0,0.0,1.0
179100000,179100000,0.0024619196,-0.03957714,-0.00045053803,0.6406523,0.0,0.0,0.0,1.0
179200000,179200000,-0.0013327851,-0.046188418,-0.0011984034,0.63677335,0.0,0.0,0.0,1.0
179300000,179300000,0.002856037,-0.038238596,0.00020374358,0.6352196,0.0,0.0,0.0,1.0
179396000,179396000,-1.6526785e-05,-0.040039252,-7.650058e-06,0.63136566,0.0,0.0,0.0,1.0
179500000,179500000,0.00064351683,-0.039229855,0.00027641846,0.6254293,0.0,0.0,0.0,1.0
179600000,179600000,0.002396496,-0.037539944,6.502436e-06,0.62200624,0.0,0.0,0.0,1.0
179700000,179700000,0.0016921794,-0.040790275,0.00063186506,0.6203869,0.0,0.0,0.0,1.0
179800000,179800000,-0.0010108654,-0.031825207,0.00077918085,0.6165575,0.0,0.0,0.0,1.0
179900000,179900000,-0.00040261552,-0.029718999,0.00058213464,0.6139741,0.0,0.0,0.0,1.0
180000000,180000000,0.00093969994,-0.032074712,-0.0003516411,0.61064273,0.0,0.0,0.0,1.0
180100000,180100000,0.0012493399,-0.029895999,-0.0002430121,0.6078841,0.0,0.0,0.0,1.0
180200000,180200000,0.0013298881,-0.032140058,-0.00055000273,0.6057971,0.0,0.0,0.0,1.0
180300000,180300000,0.00128116,-0.022226132,-0.0002483261,0.60387176,0.0,0.0,0.0,1.0
180400000,180400000,-0.00012977707,-0.025549494,-0.0014048432,0.60099816,0.0,0.0,0.0,1.0
180500000,180500000,0.0017955184,-0.024713766,-0.0005103919,0.5990374,0.0,0.0,0.0,1.0
180600000,180600000,-0.0012305141,-0.026847448,0.0002670349,0.59745914,0.0,0.0,0.0,1.0
180700000,180700000,0.003034088,-0.029600266,-0.0009146854,0.59476113,0.0,0.0,0.0,1.0
180800000,180800000,0.0019227541,-0.019845463,-0.00025079784,0.5925678,0.0,0.0,0.0,1.0
180900000,180900000,0.00055435224,-0.022242673,0.00062015967,0.59016,0.0,0.0,0.0,1.0
181000000,181000000,0.00073778635,-0.019869119,0.0013419758,0.58909863,0.0,0.0,0.0,1.0
181100000,181100000,-0.0017386954,-0.027102146,0.0010321622,0.5887531,0.0,0.0,0.0,1.0
181200000,181200000,-0.0001732076,-0.015810844,-0.00047942402,0.5858643,0.0,0.0,0.0,1.0
181300000,181300000,0.0005949229,-0.0144402515,-0.000117030475,0.58504534,0.0,0.0,0.0,1.0
181400000,181400000,0.0016036916,-0.016017493,-0.00047558398,0.5841685,0.0,0.0,0.0,1.0
181500000,181500000,0.0004789285,-0.017935567,0.00030928352,0.5818541,0.0,0.0,0.0,1.0
181600000,181600000,-0.0001503592,-0.016500989,-0.001021852,0.57953197,0.0,0.0,0.0,1.0
181700000,181700000,0.0011390696,-0.0096043525,0.0005633967,0.57930773,0.0,0.0,0.0,1.0
181796000,181796000,-0.0006176821,-0.0147887515,-0.0004604283,0.5801093,0.0,0.0,0.0,1.0
181900000,181900000,0.002932584,-0.015318136,-0.0007532197,0.57946616,0.0,0.0,0.0,1.0
182000000,182000000,0.002223768,-0.012553954,0.0016861367,0.57795495,0.0,0.0,0.0,1.0
182100000,182100000,0.006522035,-0.014193168,0.0003987209,0.5696462,0.0,0.0,0.0,1.0
182200000,182200000,0.031049121,0.008641165,-0.00014804672,0.5497765,0.0,0.0,0.0,1.0
182300000,182300000,-0.36483312,-0.032050956,0.021683143,0.6952767,0.0,0.0,0.0,1.0
182400000,182400000,0.10157397,-0.054318897,-0.007106799,0.49750027,0.0,0.0,0.0,1.0
182500000,182500000,0.13952047,-0.054841768,-0.0020836312,0.53729016,0.0,0.0,0.0,1.0
182596000,182596000,0.0010537747,-0.004397249,0.0018617742,0.5920468,0.0,0.0,0.0,1.0
182700000,182700000,-0.047556978,0.011286059,-0.0028618807,0.5792796,0.0,0.0,0.0,1.0
182800000,182800000,-0.03884653,0.0069394372,-0.001747507,0.5722274,0.0,0.0,0.0,1.0
182896000,182896000,-0.015141682,0.0004568817,-0.0014232099,0.5749183,0.0,0.0,0.0,1.0
183000000,183000000,-0.00862067,-0.00017332286,8.70612e-05,0.57486844,0.0,0.0,0.0,1.0
183100000,183100000,-0.0074689975,-0.007244642,-0.00035585294,0.5745255,0.0,0.0,0.0,1.0
183200000,183200000,-0.007076876,0.00076383445,0.00082967663,0.57442284,0.0,0.0,0.0,1.0
183300000,183300000,-0.0070593413,-0.00056097936,0.00018412726,0.57498705,0.0,0.0,0.0,1.0
183400000,183400000,-0.008716521,-0.00015264191,0.0017237708,0.57620704,0.0,0.0,0.0,1.0
183500000,183500000,-0.009835287,0.00239129,0.0007234072,0.5756737,0.0,0.0,0.0,1.0
183600000,183600000,-0.0075595747,-0.0027653705,0.0005669908,0.57604635,0.0,0.0,0.0,1.0
183696000,183696000,-0.009157343,-0.0016893451,0.00044557895,0.57576287,0.0,0.0,0.0,1.0
183800000,183800000,-0.008583188,0.0010639229,0.0005377455,0.5749965,0.0,0.0,0.0,1.0
183900000,183900000,-0.007873817,-2.5890768e-05,0.0009121759,0.577012,0.0,0.0,0.0,1.0
184000000,184000000,-0.008593472,0.0016166563,0.00081983977,0.574775,0.0,0.0,0.0,1.0
184100000,184100000,-0.008347543,0.0023366963,0.0011169779,0.5760413,0.0,0.0,0.0,1.0
184196000,184196000,-0.010921633,-0.0009490228,0.002282636,0.57794243,0.0,0.0,0.0,1.0
184300000,184300000,-0.010110276,-0.0008943898,0.0020746815,0.57694876,0.0,0.0,0.0,1.0
184400000,184400000,-0.0077708024,-0.0014765135,0.0006743845,0.57543737,0.0,0.0,0.0,1.0
184500000,184500000,-0.0065720514,0.0006660635,0.00043640047,0.57823944,0.0,0.0,0.0,1.0
184600000,184600000,-0.013524221,0.0025675532,0.00027205213,0.57619303,0.0,0.0,0.0,1.0
184696000,184696000,-0.0071587306,0.000808161,0.0016720089,0.5756616,0.0,0.0,0.0,1.0
184796000,184796000,-0.007154894,-0.0011075828,0.00045718107,0.57653797,0.0,0.0,0.0,1.0
184896000,184896000,-0.010760205,0.00040734874,-8.070981e-05,0.5773551,0.0,0.0,0.0,1.0
185000000,185000000,-0.00717227,0.0021214536,0.001479571,0.5764598,0.0,0.0,0.0,1.0
185100000,185100000,-0.0076318756,0.0012842232,0.001446146,0.5761313,0.0,0.0,0.0,1.0
185200000,185200000,-0.009176003,-0.0018765011,0.0007882321,0.57574177,0.0,0.0,0.0,1.0
185300000,185300000,-0.00855676,0.0015598189,0.0017300318,0.5769186,0.0,0.0,0.0,1.0
185400000,185400000,-0.0071372017,0.00017853838,-0.00020037958,0.5774302,0.0,0.0,0.0,1.0
185500000,185500000,-0.012771099,0.002365652,0.001787609,0.57814693,0.0,0.0,0.0,1.0
185600000,185600000,-0.008912554,-0.002257781,0.0007390355,0.57637554,0.0,0.0,0.0,1.0
185700000,185700000,-0.01286442,0.0036368598,0.0024629761,0.57632965,0.0,0.0,0.0,1.0
185796000,185796000,-0.0073625003,-0.0007236178,0.00014655181,0.57568663,0.0,0.0,0.0,1.0
185900000,185900000,-0.0094881505,-0.0004226857,0.00090920436,0.5769782,0.0,0.0,0.0,1.0
185996000,185996000,-0.009001029,0.00030984334,-0.00018209202,0.5767548,0.0,0.0,0.0,1.0
186100000,186100000,-0.008519971,-0.00017540963,0.0012111611,0.5772544,0.0,0.0,0.0,1.0
186196000,186196000,-0.0100355465,-0.0005605822,0.0017415894,0.57773495,0.0,0.0,0.0,1.0
186300000,186300000,-0.009157317,-0.001027499,0.0003535767,0.5753213,0.0,0.0,0.0,1.0
186400000,186400000,-0.0088172965,-0.0030145776,0.00198666,0.5779824,0.0,0.0,0.0,1.0
186496000,186496000,-0.010007808,-0.0006145986,0.001225899,0.57758915,0.0,0.0,0.0,1.0
186600000,186600000,-0.009375782,-0.0016790553,0.0011060808,0.57738477,0.0,0.0,0.0,1.0
186700000,186700000,-0.007571844,0.0004807255,0.0014417325,0.57685876,0.0,0.0,0.0,1.0
186800000,186800000,-0.009866247,-2.2151493e-05,0.0011168646,0.57729685,0.0,0.0,0.0,1.0
186896000,186896000,-0.012068798,-0.0027986842,0.000599457,0.5773663,0.0,0.0,0.0,1.0
187000000,187000000,-0.010097448,-0.0026545557,0.00085110083,0.57650036,0.0,0.0,0.0,1.0
187100000,187100000,-0.008061945,-0.003281257,0.0010356732,0.5771444,0.0,0.0,0.0,1.0
187200000,187200000,-0.010432194,6.680048e-05,0.0016234207,0.5770845,0.0,0.0,0.0,1.0
187300000,187300000,-0.009796408,-0.0009386459,0.0010935761,0.5776135,0.0,0.0,0.0,1.0
187400000,187400000,-0.010511606,-0.0013448833,0.0015342858,0.576507,0.0,0.0,0.0,1.0
187500000,187500000,-0.00977284,0.000738924,0.00095289847,0.5775016,0.0,0.0,0.0,1.0
187600000,187600000,-0.014525991,0.0011713008,0.0010658264,0.5767243,0.0,0.0,0.0,1.0
187696000,187696000,-0.010143386,0.0021701003,0.00045364548,0.57874674,0.0,0.0,0.0,1.0
187800000,187800000,-0.011557242,-0.003712143,0.0015778955,0.5775053,0.0,0.0,0.0,1.0
187900000,187900000,-0.010466559,-0.0018494324,0.0018172193,0.57653844,0.0,0.0,0.0,1.0
188000000,188000000,-0.0026931851,-0.003143302,0.0008218719,0.5788054,0.0,0.0,0.0,1.0
188100000,188100000,-0.01128439,-0.00091537996,0.0015012684,0.5777627,0.0,0.0,0.0,1.0
188200000,188200000,-0.00876248,0.00032408859,0.0020034828,0.5782319,0.0,0.0,0.0,1.0
188300000,188300000,-0.008346236,0.00017575684,0.00044517027,0.5787629,0.0,0.0,0.0,1.0
188396000,188396000,-0.007805122,-0.00025656677,0.0007674176,0.5771492,0.0,0.0,0.0,1.0
188500000,188500000,-0.008452303,0.000926139,0.00091071345,0.5778267,0.0,0.0,0.0,1.0
188596000,188596000,-0.008818949,-0.0027511958,0.0011406547,0.5777377,0.0,0.0,0.0,1.0
188700000,188700000,-0.010624949,-0.0025970652,0.0005661383,0.5783533,0.0,0.0,0.0,1.0
188796000,188796000,-0.0091493875,-0.0011890548,0.0022451573,0.577288,0.0,0.0,0.0,1.0
188900000,188900000,-0.00797369,0.00011582111,0.0011047137,0.5775179,0.0,0.0,0.0,1.0
188996000,188996000,-0.008037337,0.000708263,0.0014395623,0.57806146,0.0,0.0,0.0,1.0
189100000,189100000,-0.012040251,-0.00039241317,0.0006617395,0.57884145,0.0,0.0,0.0,1.0
189196000,189196000,-0.009760871,0.0023420611,0.0013435676,0.5784484,0.0,0.0,0.0,1.0
189300000,189300000,-0.0052089314,0.0007560027,0.0015263637,0.57824546,0.0,0.0,0.0,1.0
189396000,189396000,-0.007432925,0.0015100262,0.001114104,0.5776288,0.0,0.0,0.0,1.0
189500000,189500000,-0.008910227,-0.0010205724,0.0017616809,0.57818925,0.0,0.0,0.0,1.0
189600000,189600000,-0.0076390156,0.0026172725,0.0009220064,0.5765189,0.0,0.0,0.0,1.0
189700000,189700000,-0.010021061,-0.0035905873,0.0004324807,0.57815063,0.0,0.0,0.0,1.0
189796000,189796000,-0.0104673775,-0.001128398,0.00041490357,0.578272,0.0,0.0,0.0,1.0
189900000,189900000,-0.010255432,0.00023840574,0.001425106,0.5787337,0.0,0.0,0.0,1.0
190000000,190000000,-0.0064091287,-0.0026910857,0.0015076706,0.57693046,0.0,0.0,0.0,1.0
190100000,190100000,-0.006837703,-0.0016529844,0.0009501923,0.57756424,0.0,0.0,0.0,1.0
190200000,190200000,-0.007818769,-0.0027815267,0.0015776993,0.57848406,0.0,0.0,0.0,1.0
190300000,190300000,-0.007959079,-0.0033603944,0.0011421923,0.5777632,0.0,0.0,0.0,1.0
190400000,190400000,-0.011571193,-0.0020858485,0.002292906,0.5784446,0.0,0.0,0.0,1.0
190496000,190496000,-0.009885081,-0.00016735945,0.001868984,0.57774085,0.0,0.0,0.0,1.0
190596000,190596000,-0.009109292,0.0009843397,0.0013204961,0.57671946,0.0,0.0,0.0,1.0
190700000,190700000,-0.009675245,-0.000771675,0.0013894356,0.57756007,0.0,0.0,0.0,1.0
190800000,190800000,-0.009901632,0.0016910462,0.001238236,0.57750595,0.0,0.0,0.0,1.0
190900000,190900000,-0.00819985,-0.0020582986,0.00063101377,0.5797591,0.0,0.0,0.0,1.0
190996000,190996000,-0.011292726,-0.00017420392,0.0011310335,0.5789187,0.0,0.0,0.0,1.0
191096000,191096000,-0.008198063,-0.0019720984,0.001979003,0.57848126,0.0,0.0,0.0,1.0
191200000,191200000,-0.008067296,0.00020950774,0.000718688,0.57907295,0.0,0.0,0.0,1.0
191296000,191296000,-0.007543866,0.0019332895,0.001155911,0.57896996,0.0,0.0,0.0,1.0
191400000,191400000,-0.011115266,0.0029328295,0.00076865556,0.5785497,0.0,0.0,0.0,1.0
191500000,191500000,-0.0092689935,0.0011843957,0.0024470012,0.5767186,0.0,0.0,0.0,1.0
191600000,191600000,-0.00871148,-0.0009858803,0.0014893163,0.57829666,0.0,0.0,0.0,1.0
191700000,191700000,-0.008833801,-0.0020376127,0.0010858623,0.5781955,0.0,0.0,0.0,1.0
191796000,191796000,-0.008547689,0.0016729191,0.0011840612,0.57848513,0.0,0.0,0.0,1.0
191900000,191900000,-0.009929946,-0.002751323,0.0010056243,0.5803329,0.0,0.0,0.0,1.0
191996000,191996000,-0.010267082,0.0018255108,0.0018461342,0.57818663,0.0,0.0,0.0,1.0
192100000,192100000,-0.00790244,-0.0005112427,0.0023375968,0.5789857,0.0,0.0,0.0,1.0
192200000,192200000,-0.009604006,-0.00045801478,0.0015671018,0.5785153,0.0,0.0,0.0,1.0
192296000,192296000,-0.009811139,-0.001419177,0.000547775,0.5782545,0.0,0.0,0.0,1.0
192400000,192400000,-0.01014144,0.00014983903,0.00038017257,0.57902443,0.0,0.0,0.0,1.0
192500000,192500000,-0.00933288,-0.0037776139,0.002150442,0.5793808,0.0,0.0,0.0,1.0
192596000,192596000,-0.009887563,-0.0026918123,0.001221622,0.577965,0.0,0.0,0.0,1.0
192700000,192700000,-0.009513089,-0.00041742763,0.00030059804,0.57931376,0.0,0.0,0.0,1.0
192800000,192800000,-0.009783686,0.0022422452,0.0013967581,0.5782362,0.0,0.0,0.0,1.0
192900000,192900000,-0.009258944,-0.00028472362,0.00042784342,0.5787764,0.0,0.0,0.0,1.0
193000000,193000000,-0.0093298005,-0.0023657526,0.0016318548,0.57859683,0.0,0.0,0.0,1.0
193100000,193100000,-0.011329297,0.00073668914,0.00052773,0.58011776,0.0,0.0,0.0,1.0
193200000,193200000,-0.008548854,0.0005170109,0.0016106066,0.5798097,0.0,0.0,0.0,1.0
193300000,193300000,-0.008241406,0.0008272037,0.001230688,0.58061755,0.0,0.0,0.0,1.0
193400000,193400000,-0.009682986,-0.00019077581,0.0027077198,0.5792437,0.0,0.0,0.0,1.0
193500000,193500000,-0.0074255955,-0.00014323645,0.001723733,0.5788194,0.0,0.0,0.0,1.0
193596000,193596000,-0.010658599,-0.0044316184,0.00037369662,0.5801263,0.0,0.0,0.0,1.0
193696000,193696000,-0.012756968,-0.0023680036,0.0005944159,0.57833314,0.0,0.0,0.0,1.0
193800000,193800000,-0.009340065,-0.00012295361,0.002225068,0.5805685,0.0,0.0,0.0,1.0
193900000,193900000,-0.009708632,-0.0015304615,0.002363612,0.5804721,0.0,0.0,0.0,1.0
194000000,194000000,-0.011483052,-0.0029734795,0.00087928446,0.579905,0.0,0.0,0.0,1.0
194100000,194100000,-0.0091021955,-0.0015000011,0.0014830864,0.5790764,0.0,0.0,0.0,1.0
194196000,194196000,-0.009307147,-0.0012174429,0.0011601745,0.57870036,0.0,0.0,0.0,1.0
194300000,194300000,-0.011859978,-0.0027083224,0.0019447515,0.5776208,0.0,0.0,0.0,1.0
194400000,194400000,-0.008996327,-0.0014501683,0.0010137187,0.5787428,0.0,0.0,0.0,1.0
194500000,194500000,-0.010033894,0.0017358598,0.0016951642,0.57939357,0.0,0.0,0.0,1.0
194596000,194596000,-0.0118825,0.0033331409,0.002241196,0.5804562,0.0,0.0,0.0,1.0
194700000,194700000,-0.010005777,-0.0010549171,0.0009531084,0.58157533,0.0,0.0,0.0,1.0
194796000,194796000,-0.011876326,0.0010604116,0.0015345503,0.5796924,0.0,0.0,0.0,1.0
194900000,194900000,-0.009965293,0.0004686567,0.0008243439,0.5807289,0.0,0.0,0.0,1.0
195000000,195000000,-0.011245401,-0.0016917905,0.0013262406,0.5785958,0.0,0.0,0.0,1.0
195100000,195100000,-0.008186156,-0.0004546654,0.0017438403,0.58118016,0.0,0.0,0.0,1.0
195196000,195196000,-0.00951121,0.0026657516,0.0023243958,0.5796137,0.0,0.0,0.0,1.0
195300000,195300000,-0.009852777,0.003665206,0.00065231026,0.57994616,0.0,0.0,0.0,1.0
195400000,195400000,-0.00906496,-0.003416107,0.001249787,0.5788832,0.0,0.0,0.0,1.0
195500000,195500000,-0.008979554,-0.0007663821,0.0019892112,0.57896245,0.0,0.0,0.0,1.0
195600000,195600000,-0.010648096,0.00017636671,0.0013150919,0.5785425,0.0,0.0,0.0,1.0
195700000,195700000,-0.0087393345,-0.00035769245,0.0008617714,0.5789795,0.0,0.0,0.0,1.0
195800000,195800000,-0.008058111,0.00054853456,0.0020143753,0.58015174,0.0,0.0,0.0,1.0
195896000,195896000,-0.007835011,-0.0033664429,0.0014853387,0.5792196,0.0,0.0,0.0,1.0
196000000,196000000,-0.012478323,0.0013924852,0.0014349363,0.5791559,0.0,0.0,0.0,1.0
196096000,196096000,-0.010795233,-0.0014182492,0.0009456464,0.5781371,0.0,0.0,0.0,1.0
196200000,196200000,-0.008836235,0.00043678773,0.0022465326,0.57902706,0.0,0.0,0.0,1.0
196296000,196296000,-0.008712117,-0.002115964,0.0007758156,0.58064526,0.0,0.0,0.0,1.0
196400000,196400000,-0.010420542,0.0011934002,0.0020948988,0.5789618,0.0,0.0,0.0,1.0
196496000,196496000,-0.012060311,0.00052563153,0.000924231,0.578611,0.0,0.0,0.0,1.0
196596000,196596000,-0.0079409685,0.0011199162,0.0013958794,0.57979727,0.0,0.0,0.0,1.0
196700000,196700000,-0.011815217,-0.0033639476,0.002046169,0.5797712,0.0,0.0,0.0,1.0
196800000,196800000,-0.010895833,-0.00013270462,0.0015552241,0.582256,0.0,0.0,0.0,1.0
196900000,196900000,-0.012332353,-0.0021532143,0.00093661516,0.5817179,0.0,0.0,0.0,1.0
197000000,197000000,-0.008869916,0.00046608289,0.0019296717,0.57910264,0.0,0.0,0.0,1.0
197100000,197100000,-0.0116959615,0.0006133538,0.0017859968,0.57971483,0.0,0.0,0.0,1.0
197200000,197200000,-0.011939238,0.001250186,0.00022591546,0.579253,0.0,0.0,0.0,1.0
197300000,197300000,-0.011654596,0.0003568682,0.0017614278,0.57871646,0.0,0.0,0.0,1.0
197400000,197400000,-0.011611976,-0.0002481424,0.0014532466,0.58012056,0.0,0.0,0.0,1.0
197500000,197500000,-0.010305527,0.0004848283,0.0005283274,0.58037364,0.0,0.0,0.0,1.0
197596000,197596000,-0.009462361,-0.002943459,0.0013162614,0.5784184,0.0,0.0,0.0,1.0
197696000,197696000,-0.009058446,0.0007929584,0.001613338,0.580031,0.0,0.0,0.0,1.0
197800000,197800000,-0.010303267,0.0017862777,0.00071530865,0.5789109,0.0,0.0,0.0,1.0
197900000,197900000,-0.013069012,-0.00045275458,0.002598585,0.57857645,0.0,0.0,0.0,1.0
198000000,198000000,-0.011258631,0.00039637496,0.0015188826,0.5791772,0.0,0.0,0.0,1.0
198100000,198100000,-0.0089605935,-0.0015624608,0.0008244945,0.57915854,0.0,0.0,0.0,1.0
198200000,198200000,-0.011780852,0.0005274813,0.000989453,0.5790818,0.0,0.0,0.0,1.0
198300000,198300000,-0.011189197,-0.0019796998,0.0005247792,0.58074504,0.0,0.0,0.0,1.0
198396000,198396000,-0.008939418,-0.00048719445,0.0008409816,0.5800131,0.0,0.0,0.0,1.0
198496000,198496000,-0.0103955865,-0.002370358,0.0022002733,0.5795803,0.0,0.0,0.0,1.0
198600000,198600000,-0.011362294,0.0011257319,0.0008000423,0.5805458,0.0,0.0,0.0,1.0
198700000,198700000,-0.014461699,-0.0014252851,0.0018093005,0.57942003,0.0,0.0,0.0,1.0
198796000,198796000,-0.010176775,0.0008526064,0.0019322934,0.579052,0.0,0.0,0.0,1.0
198900000,198900000,-0.012761012,-0.0005206603,0.00022402534,0.5788523,0.0,0.0,0.0,1.0
199000000,199000000,-0.008735897,-0.001850573,0.0018375388,0.5779507,0.0,0.0,0.0,1.0
199100000,199100000,-0.010646311,0.0013868434,0.0016528328,0.57892436,0.0,0.0,0.0,1.0
199200000,199200000,-0.011909782,-0.0006279454,0.0009314761,0.5787252,0.0,0.0,0.0,1.0
199296000,199296000,-0.0075679747,-0.0023156342,0.00030087132,0.57904756,0.0,0.0,0.0,1.0
199396000,199396000,-0.008134114,1.8514285e-05,0.0009774268,0.58056647,0.0,0.0,0.0,1.0
199500000,199500000,-0.00947573,-0.0009146642,0.0017073206,0.5797604,0.0,0.0,0.0,1.0
199600000,199600000,-0.010269495,0.00094194635,0.0012402496,0.58076465,0.0,0.0,0.0,1.0
199700000,199700000,-0.012925393,0.0010426723,0.0011347884,0.57847154,0.0,0.0,0.0,1.0
199796000,199796000,-0.007137661,0.00045009147,0.0006794553,0.5789208,0.0,0.0,0.0,1.0
199900000,199900000,-0.008555679,-0.004167578,0.0010203696,0.5801086,0.0,0.0,0.0,1.0
199996000,199996000,-0.011063039,0.0018515803,0.0014011184,0.58089286,0.0,0.0,0.0,1.0
200096000,200096000,-0.010328195,-0.00096861774,0.001345255,0.5799284,0.0,0.0,0.0,1.0
200200000,200200000,-0.012933666,-0.0022842486,0.0009213429,0.5803336,0.0,0.0,0.0,1.0
200296000,200296000,-0.012409027,-0.00060814933,0.0014830334,0.57959825,0.0,0.0,0.0,1.0
200400000,200400000,-0.011059758,-0.001269415,0.0020101087,0.5783026,0.0,0.0,0.0,1.0
200500000,200500000,-0.008582861,-0.002956033,0.0019020867,0.58029824,0.0,0.0,0.0,1.0
200600000,200600000,-0.014924252,-0.0011725673,0.0010985738,0.5818428,0.0,0.0,0.0,1.0
200696000,200696000,-0.013414305,0.0007312864,0.0010328186,0.5791755,0.0,0.0,0.0,1.0
200800000,200800000,-0.01325901,0.00028985526,0.0024886783,0.57897663,0.0,0.0,0.0,1.0
200900000,200900000,-0.01002048,-0.0019378422,0.0008515222,0.58027476,0.0,0.0,0.0,1.0
201000000,201000000,-0.013131484,0.0005423557,0.00201376,0.58029145,0.0,0.0,0.0,1.0
201100000,201100000,-0.009357756,0.00063923514,0.0012532142,0.5796886,0.0,0.0,0.0,1.0
201200000,201200000,-0.010689801,-0.0028200846,0.0018800618,0.5795396,0.0,0.0,0.0,1.0
201296000,201296000,-0.012780721,0.0017278432,0.0013601076,0.5797289,0.0,0.0,0.0,1.0
201400000,201400000,-0.010447276,0.002113918,0.0014495631,0.5802166,0.0,0.0,0.0,1.0
201496000,201496000,-0.008805515,0.0014090027,-0.0005591641,0.5799212,0.0,0.0,0.0,1.0
201600000,201600000,-0.009848135,0.0025257324,0.00082102796,0.57982206,0.0,0.0,0.0,1.0
201696000,201696000,-0.010364814,0.0012902264,0.0015516046,0.5796199,0.0,0.0,0.0,1.0
201800000,201800000,-0.008544606,0.002038949,0.0017416927,0.5802471,0.0,0.0,0.0,1.0
201896000,201896000,-0.009979672,-0.0024809965,0.0007196036,0.5797001,0.0,0.0,0.0,1.0
202000000,202000000,-0.01121159,0.00035574203,0.002348146,0.58028346,0.0,0.0,0.0,1.0
202100000,202100000,-0.0093504395,0.0013038435,0.0013199401,0.580596,0.0,0.0,0.0,1.0
202200000,202200000,-0.013115587,0.0019621523,0.0008018543,0.57997406,0.0,0.0,0.0,1.0
202300000,202300000,-0.009477048,-0.001004624,0.0006892675,0.5794975,0.0,0.0,0.0,1.0
202400000,202400000,-0.011510093,-0.0013724391,0.0024094023,0.5810588,0.0,0.0,0.0,1.0
202500000,202500000,-0.009752193,-0.0034627065,0.00085297157,0.58181846,0.0,0.0,0.0,1.0
202600000,202600000,-0.011629712,0.0012154481,0.0011630054,0.58006614,0.0,0.0,0.0,1.0
202696000,202696000,-0.00907052,-0.0030676061,0.0018859936,0.5814775,0.0,0.0,0.0,1.0
202800000,202800000,-0.008875074,-0.0017280413,0.0020435276,0.58049035,0.0,0.0,0.0,1.0
202900000,202900000,-0.008992324,0.00063616945,0.0008577164,0.579877,0.0,0.0,0.0,1.0
203000000,203000000,-0.011545151,-0.00017973047,0.0012663889,0.58034736,0.0,0.0,0.0,1.0
203100000,203100000,-0.009720541,0.00034288585,0.0011110837,0.5807196,0.0,0.0,0.0,1.0
203200000,203200000,-0.010538457,-0.001082801,0.0018241664,0.5807241,0.0,0.0,0.0,1.0
203300000,203300000,-0.007983135,-0.0022945781,0.001251625,0.58058774,0.0,0.0,0.0,1.0
203400000,203400000,-0.008052121,0.00103487,0.00066767,0.5803618,0.0,0.0,0.0,1.0
203496000,203496000,-0.009398144,-0.002027743,0.001223068,0.5813672,0.0,0.0,0.0,1.0
203600000,203600000,-0.012073642,0.0006048877,0.0018480304,0.58095306,0.0,0.0,0.0,1.0
203700000,203700000,-0.012502238,-0.0026773806,0.001705156,0.57981247,0.0,0.0,0.0,1.0
203800000,203800000,-0.012453292,0.00041443662,0.0017619424,0.5813979,0.0,0.0,0.0,1.0
203900000,203900000,-0.014114516,0.0006470169,0.0020957985,0.5806273,0.0,0.0,0.0,1.0
204000000,204000000,-0.011398112,0.00059144746,0.0016416189,0.58053666,0.0,0.0,0.0,1.0
204096000,204096000,-0.005719981,0.0009901602,0.0012577781,0.58120215,0.0,0.0,0.0,1.0
204200000,204200000,-0.011256016,-0.00069969066,0.0015989906,0.5812803,0.0,0.0,0.0,1.0
204300000,204300000,-0.012944601,-0.0019673032,0.001138903,0.5808196,0.0,0.0,0.0,1.0
204396000,204396000,-0.0065208976,-0.00073236605,0.00084453507,0.5819167,0.0,0.0,0.0,1.0
204500000,204500000,-0.0101874145,-0.00036232485,0.0007324691,0.58074796,0.0,0.0,0.0,1.0
204596000,204596000,-0.009818128,-0.0013695454,0.0027150582,0.5804511,0.0,0.0,0.0,1.0
204700000,204700000,-0.014250818,-0.0011634728,0.0016068877,0.58140284,0.0,0.0,0.0,1.0
204800000,204800000,-0.00882462,-0.0009873974,0.0022523522,0.5823569,0.0,0.0,0.0,1.0
204900000,204900000,-0.013087317,-0.0011583999,0.0006360509,0.5814681,0.0,0.0,0.0,1.0
205000000,205000000,-0.009897587,-0.0031084875,0.0016687356,0.5812895,0.0,0.0,0.0,1.0
205096000,205096000,-0.01217356,-0.0012584841,0.0023030627,0.5822783,0.0,0.0,0.0,1.0
205200000,205200000,-0.014788277,-0.00035317952,0.0017014153,0.5816451,0.0,0.0,0.0,1.0
205300000,205300000,-0.009406357,-0.0007725094,-0.00012255937,0.58014935,0.0,0.0,0.0,1.0
205400000,205400000,-0.008341337,-0.00074875593,0.0019259377,0.5825049,0.0,0.0,0.0,1.0
205496000,205496000,-0.01240188,0.0013355989,0.00045179186,0.5807931,0.0,0.0,0.0,1.0
205596000,205596000,-0.00985325,-0.0019676657,0.001184179,0.5797735,0.0,0.0,0.0,1.0
205700000,205700000,-0.0097360285,0.00057032617,0.00092160224,0.581403,0.0,0.0,0.0,1.0
205800000,205800000,-0.013698228,0.0001447881,0.0015199699,0.5820697,0.0,0.0,0.0,1.0
205896000,205896000,-0.008318912,-0.001506683,0.0016738484,0.5804929,0.0,0.0,0.0,1.0
206000000,206000000,-0.014156252,0.0018026961,0.0010357689,0.5812101,0.0,0.0,0.0,1.0
206100000,206100000,-0.011243581,-0.0006417376,0.0017199039,0.5803145,0.0,0.0,0.0,1.0
206200000,206200000,-0.013612797,-0.000447962,0.0007377166,0.58092105,0.0,0.0,0.0,1.0
206296000,206296000,-0.01181176,-0.00052337337,-6.552774e-05,0.5811656,0.0,0.0,0.0,1.0
206400000,206400000,-0.0137548335,-0.0007947266,0.0015631545,0.5819111,0.0,0.0,0.0,1.0
206500000,206500000,-0.008967641,-0.00029745296,0.0017047694,0.5813284,0.0,0.0,0.0,1.0
206600000,206600000,-0.008021127,0.0020009705,0.0014226869,0.5811097,0.0,0.0,0.0,1.0
206700000,206700000,-0.009664154,-0.0007489735,0.0019100842,0.58147234,0.0,0.0,0.0,1.0
206800000,206800000,-0.008059465,0.00019881706,0.0011554643,0.58168936,0.0,0.0,0.0,1.0
206900000,206900000,-0.008673186,-0.0017442268,0.0027827146,0.581975,0.0,0.0,0.0,1.0
207000000,207000000,-0.012691278,-0.00043160556,0.0015790407,0.58136797,0.0,0.0,0.0,1.0
207100000,207100000,-0.012888386,-0.0015127487,0.0016643642,0.5799146,0.0,0.0,0.0,1.0
207200000,207200000,-0.009224853,-0.00068937894,0.0022990236,0.5798594,0.0,0.0,0.0,1.0
207296000,207296000,-0.010393986,-0.0013626912,0.0015711745,0.57975364,0.0,0.0,0.0,1.0
207396000,207396000,-0.011688178,-0.0003205602,0.0012391104,0.5791563,0.0,0.0,0.0,1.0
207500000,207500000,-0.010200377,-0.0014506467,0.00094873994,0.58185023,0.0,0.0,0.0,1.0
207600000,207600000,-0.012405227,-0.0021006614,0.0012051343,0.5801398,0.0,0.0,0.0,1.0
207696000,207696000,-0.010444519,-0.0024421515,0.0011611775,0.58254546,0.0,0.0,0.0,1.0
207800000,207800000,-0.012333963,-0.0031725627,0.0015391706,0.5790939,0.0,0.0,0.0,1.0
207900000,207900000,-0.008133387,-0.0021163658,0.0014989513,0.58063835,0.0,0.0,0.0,1.0
208000000,208000000,-0.0107232705,-0.00045920094,0.00026513613,0.57968014,0.0,0.0,0.0,1.0
208100000,208100000,-0.010409764,0.001514106,0.0012389366,0.5804324,0.0,0.0,0.0,1.0
208200000,208200000,-0.0102801025,-0.0012166523,0.0007918603,0.5802198,0.0,0.0,0.0,1.0
208296000,208296000,-0.010768095,-0.0006254272,0.0021399637,0.5803534,0.0,0.0,0.0,1.0
208396000,208396000,-0.008942699,0.0014751971,0.0018804178,0.5809305,0.0,0.0,0.0,1.0
208500000,208500000,-0.011552215,-0.0019048385,0.0013414238,0.58134794,0.0,0.0,0.0,1.0
208600000,208600000,-0.008318216,-0.0019673042,0.0014270282,0.58148843,0.0,0.0,0.0,1.0
208700000,208700000,-0.009483609,-0.0026379705,0.0018188434,0.5806613,0.0,0.0,0.0,1.0
208800000,208800000,-0.014390961,-0.00319693,0.0018901053,0.58085847,0.0,0.0,0.0,1.0
208900000,208900000,-0.009690395,-0.0007202659,0.0007109247,0.58042186,0.0,0.0,0.0,1.0
209000000,209000000,-0.0060719373,-0.0012660313,0.00077276025,0.5814375,0.0,0.0,0.0,1.0
209100000,209100000,-0.010152098,-0.0008043863,0.0013289544,0.58064866,0.0,0.0,0.0,1.0
209200000,209200000,-0.011936297,0.00019909209,0.0013454722,0.58076715,0.0,0.0,0.0,1.0
209300000,209300000,-0.0117521845,0.00063871697,0.002224522,0.5810212,0.0,0.0,0.0,1.0
209400000,209400000,-0.013243863,0.00013514713,0.00024238252,0.58119774,0.0,0.0,0.0,1.0
209500000,209500000,-0.009151662,-0.0014129531,0.0007255888,0.57966506,0.0,0.0,0.0,1.0
209600000,209600000,-0.010744635,0.0004956415,0.001703623,0.58090603,0.0,0.0,0.0,1.0
209700000,209700000,-0.011542294,-0.0016004171,0.0012885293,0.58068436,0.0,0.0,0.0,1.0
209796000,209796000,-0.010797793,-0.00033272261,0.0017181265,0.58078533,0.0,0.0,0.0,1.0
209900000,209900000,-0.009324843,-0.002730449,0.0004068216,0.58006674,0.0,0.0,0.0,1.0
210000000,210000000,-0.011796578,0.001237347,0.0009823202,0.5814376,0.0,0.0,0.0,1.0
210100000,210100000,-0.0075726886,-0.0010241524,0.0019098233,0.5822023,0.0,0.0,0.0,1.0
210200000,210200000,-0.009575336,-0.0011384527,0.0011484157,0.58166814,0.0,0.0,0.0,1.0
210300000,210300000,-0.009713199,-0.001624811,0.00092772394,0.5818706,0.0,0.0,0.0,1.0
210396000,210396000,-0.01053858,-0.000116382376,0.0012409795,0.58027345,0.0,0.0,0.0,1.0
210500000,210500000,-0.009802886,-0.0010517209,0.00073073787,0.58148843,0.0,0.0,0.0,1.0
210600000,210600000,-0.010644455,-0.0021628344,0.0010034076,0.581545,0.0,0.0,0.0,1.0
210700000,210700000,-0.008129543,0.0002928921,0.0014296006,0.5802987,0.0,0.0,0.0,1.0
210796000,210796000,-0.014405427,-0.0019155019,0.0005151103,0.5815595,0.0,0.0,0.0,1.0
210900000,210900000,-0.010218672,0.0007976373,0.0008125329,0.5817999,0.0,0.0,0.0,1.0
211000000,211000000,-0.010084073,-0.001295719,0.0012835403,0.5819142,0.0,0.0,0.0,1.0
211100000,211100000,-0.012028929,-0.0034910743,0.0012694497,0.58040494,0.0,0.0,0.0,1.0
211200000,211200000,-0.009643221,-0.0042431136,0.0018993209,0.58022016,0.0,0.0,0.0,1.0
211300000,211300000,-0.011088599,0.00092080457,0.0022869438,0.5804937,0.0,0.0,0.0,1.0
211400000,211400000,-0.0116810305,-0.0012703557,0.0008036673,0.5791127,0.0,0.0,0.0,1.0
211500000,211500000,-0.0088454895,-0.002677704,0.0014693299,0.58069146,0.0,0.0,0.0,1.0
211596000,211596000,-0.010216705,-0.001494952,0.0026208847,0.5810588,0.0,0.0,0.0,1.0
211696000,211696000,-0.011577681,0.00019763072,0.001556626,0.5819482,0.0,0.0,0.0,1.0
211800000,211800000,-0.011705328,-3.361865e-05,0.00213139,0.5806387,0.0,0.0,0.0,1.0
211900000,211900000,-0.013713391,-0.0018507524,0.0008846308,0.58179104,0.0,0.0,0.0,1.0
212000000,212000000,-0.010600882,-0.002133041,0.0011514465,0.5797428,0.0,0.0,0.0,1.0
212096000,212096000,-0.009817167,-0.002745286,0.0010421353,0.5796862,0.0,0.0,0.0,1.0
212200000,212200000,-0.013338087,0.00029585726,0.0022362287,0.58091795,0.0,0.0,0.0,1.0
212300000,212300000,-0.009224527,-0.0027629866,0.00016845507,0.57854885,0.0,0.0,0.0,1.0
212400000,212400000,-0.010611111,0.00055366417,0.002108485,0.5801138,0.0,0.0,0.0,1.0
212496000,212496000,-0.010639519,-0.0002020445,0.0022954429,0.57978666,0.0,0.0,0.0,1.0
212596000,212596000,-0.009418128,-0.0012606925,0.0013481736,0.57887167,0.0,0.0,0.0,1.0
212700000,212700000,-0.010294949,-0.0022995742,0.0005594686,0.58069676,0.0,0.0,0.0,1.0
212796000,212796000,-0.00983614,-0.0017828085,0.0017707662,0.5801099,0.0,0.0,0.0,1.0
212900000,212900000,-0.008495847,-0.0013510942,0.0016055192,0.5795197,0.0,0.0,0.0,1.0
213000000,213000000,-0.014539418,-0.00051653635,0.0009584958,0.5785209,0.0,0.0,0.0,1.0
213100000,213100000,-0.0109367585,0.0013079874,0.0013230034,0.57926387,0.0,0.0,0.0,1.0
213200000,213200000,-0.012032188,-0.00040636433,0.0018287731,0.5787465,0.0,0.0,0.0,1.0
213300000,213300000,-0.009507743,5.266769e-05,0.0011017922,0.5792804,0.0,0.0,0.0,1.0
213396000,213396000,-0.0112613235,0.0009481294,0.0012473069,0.57857484,0.0,0.0,0.0,1.0
213500000,213500000,-0.0124339145,0.00052758184,0.0009311297,0.5790481,0.0,0.0,0.0,1.0
213600000,213600000,-0.01004879,-0.0019169792,0.0011402592,0.57850826,0.0,0.0,0.0,1.0
213696000,213696000,-0.009593396,-0.0020426249,0.0016086653,0.579635,0.0,0.0,0.0,1.0
213796000,213796000,-0.011646829,0.00017697748,0.0014308887,0.5787125,0.0,0.0,0.0,1.0
213900000,213900000,-0.012679027,0.0021672458,0.002138224,0.5787806,0.0,0.0,0.0,1.0
214000000,214000000,-0.011163457,-0.0013320486,0.0009362763,0.57932764,0.0,0.0,0.0,1.0
214096000,214096000,-0.011296655,-0.00039929082,0.0019862861,0.57917553,0.0,0.0,0.0,1.0
214200000,214200000,-0.012671888,-0.0022595332,-0.00018579897,0.5773031,0.0,0.0,0.0,1.0
214300000,214300000,-0.008597378,0.0014426225,0.0014649098,0.5787506,0.0,0.0,0.0,1.0
214400000,214400000,-0.011104636,0.00025172316,0.0023915893,0.5777229,0.0,0.0,0.0,1.0
214500000,214500000,-0.010379521,0.00077398703,0.0007095336,0.5780248,0.0,0.0,0.0,1.0
214600000,214600000,-0.009942682,-0.004217783,0.0018579857,0.57853526,0.0,0.0,0.0,1.0
214700000,214700000,-0.009148325,-0.0013707019,0.0004763353,0.57880914,0.0,0.0,0.0,1.0
214800000,214800000,-0.011031531,0.0025726147,0.0013103805,0.580018,0.0,0.0,0.0,1.0
214900000,214900000,-0.010712412,-0.0010674233,0.0020666274,0.5800074,0.0,0.0,0.0,1.0
214996000,214996000,-0.011107773,0.00096544577,0.0021007846,0.5799423,0.0,0.0,0.0,1.0
215096000,215096000,-0.011286622,-0.0012501619,0.0012378403,0.58019334,0.0,0.0,0.0,1.0
215200000,215200000,-0.011832958,-0.00018044043,0.00060390687,0.5812913,0.0,0.0,0.0,1.0
