timestamp,q[0],q[1],q[2],q[3],delta_q_reset[0],delta_q_reset[1],delta_q_reset[2],delta_q_reset[3],quat_reset_counter
146200000,0.9785039,0.00014288348,7.970774e-05,0.20625041,0.0,0.0,0.0,0.0,0
146212000,0.9785039,0.00014297104,7.9763e-05,0.20625041,0.0,0.0,0.0,0.0,0
146224000,0.9785039,0.00014306665,7.982237e-05,0.20625041,0.0,0.0,0.0,0.0,0
146232000,0.9785039,0.00014312826,7.9859194e-05,0.20625041,0.0,0.0,0.0,0.0,0
146244000,0.9785039,0.00014321924,7.9922655e-05,0.20625041,0.0,0.0,0.0,0.0,0
146256000,0.9785039,0.0001433041,7.997375e-05,0.20625041,0.0,0.0,0.0,0.0,0
146272000,0.9785039,0.00014342686,8.00408e-05,0.20625041,0.0,0.0,0.0,0.0,0
146284000,0.9785039,0.00014351483,8.009398e-05,0.20625041,0.0,0.0,0.0,0.0,0
146292000,0.9785039,0.0001435858,8.013447e-05,0.20625041,0.0,0.0,0.0,0.0,0
146308000,0.9785039,0.00014370226,8.021953e-05,0.20625041,0.0,0.0,0.0,0.0,0
146320000,0.9785039,0.00014378759,8.0287704e-05,0.20625041,0.0,0.0,0.0,0.0,0
146332000,0.9785039,0.00014386578,8.035197e-05,0.20625041,0.0,0.0,0.0,0.0,0
146344000,0.9785039,0.00014397255,8.042513e-05,0.20625041,0.0,0.0,0.0,0.0,0
146356000,0.9785039,0.00014406402,8.049509e-05,0.20625041,0.0,0.0,0.0,0.0,0
146368000,0.9785039,0.00014414932,8.056914e-05,0.20625041,0.0,0.0,0.0,0.0,0
146376000,0.9785039,0.00014419405,8.061769e-05,0.20625041,0.0,0.0,0.0,0.0,0
146388000,0.9785039,0.00014427784,8.069393e-05,0.20625041,0.0,0.0,0.0,0.0,0
146404000,0.9785039,0.00014439198,8.08004e-05,0.20625041,0.0,0.0,0.0,0.0,0
146416000,0.9785039,0.00014447524,8.088197e-05,0.20625041,0.0,0.0,0.0,0.0,0
146428000,0.9785039,0.000144565,8.096439e-05,0.20625041,0.0,0.0,0.0,0.0,0
146440000,0.9785039,0.00014465532,8.10183e-05,0.20625041,0.0,0.0,0.0,0.0,0
146448000,0.9785039,0.00014471854,8.106297e-05,0.20625041,0.0,0.0,0.0,0.0,0
146460000,0.9785039,0.00014479525,8.115084e-05,0.20625041,0.0,0.0,0.0,0.0,0
146476000,0.9785039,0.00014491263,8.125094e-05,0.20625041,0.0,0.0,0.0,0.0,0
146488000,0.9785039,0.00014500455,8.129821e-05,0.20625041,0.0,0.0,0.0,0.0,0
146500000,0.9785039,0.00014509309,8.137278e-05,0.20625041,0.0,0.0,0.0,0.0,0
146512000,0.9785039,0.00014518404,8.143901e-05,0.20625041,0.0,0.0,0.0,0.0,0
146524000,0.9785039,0.00014526956,8.148822e-05,0.20625041,0.0,0.0,0.0,0.0,0
146536000,0.9785039,0.00014535138,8.153293e-05,0.20625041,0.0,0.0,0.0,0.0,0
146548000,0.9785039,0.00014543944,8.1580874e-05,0.20625041,0.0,0.0,0.0,0.0,0
146560000,0.9785039,0.00014553644,8.164697e-05,0.20625041,0.0,0.0,0.0,0.0,0
146572000,0.9785039,0.00014562803,8.169976e-05,0.20625041,0.0,0.0,0.0,0.0,0
146584000,0.9785039,0.0001457179,8.1749495e-05,0.20625041,0.0,0.0,0.0,0.0,0
146596000,0.9785039,0.00014580846,8.180288e-05,0.20625041,0.0,0.0,0.0,0.0,0
146608000,0.9785039,0.00014590078,8.186289e-05,0.20625041,0.0,0.0,0.0,0.0,0
146620000,0.9785039,0.00014599861,8.192951e-05,0.20625041,0.0,0.0,0.0,0.0,0
146632000,0.9785039,0.00014606542,8.199417e-05,0.20625041,0.0,0.0,0.0,0.0,0
146644000,0.9785039,0.00014616756,8.206636e-05,0.20625041,0.0,0.0,0.0,0.0,0
146656000,0.9785039,0.00014624807,8.2135186e-05,0.20625041,0.0,0.0,0.0,0.0,0
146668000,0.9785039,0.00014633506,8.2205865e-05,0.20625041,0.0,0.0,0.0,0.0,0
146680000,0.9785039,0.00014642152,8.2277074e-05,0.20625041,0.0,0.0,0.0,0.0,0
146692000,0.9785039,0.0001465054,8.2351275e-05,0.20625041,0.0,0.0,0.0,0.0,0
146704000,0.9785039,0.00014658859,8.242897e-05,0.20625041,0.0,0.0,0.0,0.0,0
146712000,0.9785039,0.00014666091,8.2485894e-05,0.20625041,0.0,0.0,0.0,0.0,0
146724000,0.9785039,0.00014673985,8.256597e-05,0.20625041,0.0,0.0,0.0,0.0,0
146736000,0.9785039,0.00014682741,8.265026e-05,0.20625041,0.0,0.0,0.0,0.0,0
146752000,0.9785039,0.00014693868,8.274374e-05,0.20625041,0.0,0.0,0.0,0.0,0
146764000,0.9785039,0.00014703177,8.280803e-05,0.20625041,0.0,0.0,0.0,0.0,0
146776000,0.9785039,0.00014712205,8.289713e-05,0.20625041,0.0,0.0,0.0,0.0,0
146788000,0.9785039,0.00014719988,8.2970204e-05,0.20625041,0.0,0.0,0.0,0.0,0
146796000,0.9785039,0.00014726023,8.300529e-05,0.20625041,0.0,0.0,0.0,0.0,0
146808000,0.9785039,0.00014735508,8.305917e-05,0.20625041,0.0,0.0,0.0,0.0,0
146820000,0.9785039,0.00014743584,8.312973e-05,0.20625041,0.0,0.0,0.0,0.0,0
146836000,0.9785039,0.00014755547,8.319623e-05,0.20625041,0.0,0.0,0.0,0.0,0
146844000,0.9785039,0.00014761767,8.323085e-05,0.20625041,0.0,0.0,0.0,0.0,0
146860000,0.9785039,0.00014773637,8.3301784e-05,0.20625041,0.0,0.0,0.0,0.0,0
146872000,0.9785039,0.00014782019,8.33635e-05,0.20625041,0.0,0.0,0.0,0.0,0
146884000,0.9785039,0.00014791422,8.341733e-05,0.20625041,0.0,0.0,0.0,0.0,0
146896000,0.9785039,0.00014800364,8.346659e-05,0.20625041,0.0,0.0,0.0,0.0,0
146908000,0.9785039,0.00014810365,8.3520914e-05,0.20625041,0.0,0.0,0.0,0.0,0
146920000,0.9785039,0.0001481987,8.357843e-05,0.20625041,0.0,0.0,0.0,0.0,0
146928000,0.9785039,0.00014825768,8.362117e-05,0.20625041,0.0,0.0,0.0,0.0,0
146944000,0.9785039,0.00014836893,8.371042e-05,0.20625041,0.0,0.0,0.0,0.0,0
146956000,0.9785039,0.00014844813,8.3777784e-05,0.20625041,0.0,0.0,0.0,0.0,0
146968000,0.9785039,0.00014855326,8.385141e-05,0.20625041,0.0,0.0,0.0,0.0,0
146980000,0.9785039,0.00014864122,8.3921936e-05,0.20625041,0.0,0.0,0.0,0.0,0
146992000,0.9785039,0.00014873038,8.399461e-05,0.20625041,0.0,0.0,0.0,0.0,0
147004000,0.9785039,0.00014881245,8.4070714e-05,0.20625041,0.0,0.0,0.0,0.0,0
147012000,0.9785039,0.00014885904,8.411842e-05,0.20625041,0.0,0.0,0.0,0.0,0
147028000,0.9785039,0.00014897496,8.422468e-05,0.20625041,0.0,0.0,0.0,0.0,0
147036000,0.9785039,0.00014904543,8.4281484e-05,0.20625041,0.0,0.0,0.0,0.0,0
147052000,0.9785039,0.00014914449,8.438945e-05,0.20625041,0.0,0.0,0.0,0.0,0
147064000,0.9785039,0.00014923874,8.445835e-05,0.20625041,0.0,0.0,0.0,0.0,0
147076000,0.9785039,0.00014933222,8.451876e-05,0.20625041,0.0,0.0,0.0,0.0,0
147084000,0.9785039,0.0001493741,8.457089e-05,0.20625041,0.0,0.0,0.0,0.0,0
147100000,0.9785039,0.000149492,8.4685715e-05,0.20625041,0.0,0.0,0.0,0.0,0
147112000,0.9785039,0.00014958382,8.473905e-05,0.20625041,0.0,0.0,0.0,0.0,0
147124000,0.9785039,0.00014967771,8.480018e-05,0.20625041,0.0,0.0,0.0,0.0,0
147132000,0.9785039,0.00014973916,8.4850464e-05,0.20625041,0.0,0.0,0.0,0.0,0
147144000,0.9785039,0.00014981219,8.4899424e-05,0.20625041,0.0,0.0,0.0,0.0,0
147156000,0.9785039,0.00014991309,8.495529e-05,0.20625041,0.0,0.0,0.0,0.0,0
147172000,0.9785039,0.00015002073,8.501154e-05,0.20625041,0.0,0.0,0.0,0.0,0
147184000,0.9785039,0.0001501133,8.5076535e-05,0.20625041,0.0,0.0,0.0,0.0,0
147192000,0.9785039,0.0001501768,8.511629e-05,0.20625041,0.0,0.0,0.0,0.0,0
147208000,0.9785039,0.00015029579,8.518408e-05,0.20625041,0.0,0.0,0.0,0.0,0
147216000,0.9785039,0.00015035948,8.5218315e-05,0.20625041,0.0,0.0,0.0,0.0,0
147232000,0.9785039,0.00015048709,8.52946e-05,0.20625041,0.0,0.0,0.0,0.0,0
147244000,0.9785039,0.00015056177,8.5348955e-05,0.20625041,0.0,0.0,0.0,0.0,0
147256000,0.9785039,0.00015064939,8.5404805e-05,0.20625041,0.0,0.0,0.0,0.0,0
147268000,0.9785039,0.00015073743,8.5458145e-05,0.20625041,0.0,0.0,0.0,0.0,0
147280000,0.9785039,0.00015081593,8.552082e-05,0.20625041,0.0,0.0,0.0,0.0,0
147292000,0.9785039,0.0001508906,8.5590626e-05,0.20625041,0.0,0.0,0.0,0.0,0
147304000,0.9785039,0.00015100848,8.567841e-05,0.2062504,0.0,0.0,0.0,0.0,0
147316000,0.9785039,0.00015108474,8.576267e-05,0.2062504,0.0,0.0,0.0,0.0,0
147328000,0.9785039,0.00015115674,8.5852495e-05,0.2062504,0.0,0.0,0.0,0.0,0
147340000,0.9785039,0.00015123059,8.592476e-05,0.2062504,0.0,0.0,0.0,0.0,0
147352000,0.9785039,0.00015130802,8.5979984e-05,0.2062504,0.0,0.0,0.0,0.0,0
147364000,0.9785039,0.00015138811,8.602382e-05,0.2062504,0.0,0.0,0.0,0.0,0
147372000,0.9785039,0.00015144792,8.606595e-05,0.2062504,0.0,0.0,0.0,0.0,0
147388000,0.9785039,0.00015157202,8.613692e-05,0.2062504,0.0,0.0,0.0,0.0,0
147400000,0.9785039,0.00015165831,8.619736e-05,0.2062504,0.0,0.0,0.0,0.0,0
147408000,0.9785039,0.00015172512,8.623925e-05,0.2062504,0.0,0.0,0.0,0.0,0
147424000,0.9785039,0.00015181668,8.632179e-05,0.2062504,0.0,0.0,0.0,0.0,0
147432000,0.9785039,0.00015186667,8.636977e-05,0.2062504,0.0,0.0,0.0,0.0,0
147448000,0.9785039,0.00015198895,8.647642e-05,0.2062504,0.0,0.0,0.0,0.0,0
147460000,0.9785039,0.00015206863,8.6545595e-05,0.2062504,0.0,0.0,0.0,0.0,0
147472000,0.9785039,0.00015214454,8.660254e-05,0.2062504,0.0,0.0,0.0,0.0,0
147484000,0.9785039,0.0001522208,8.665526e-05,0.2062504,0.0,0.0,0.0,0.0,0
147492000,0.9785039,0.00015228955,8.670356e-05,0.2062504,0.0,0.0,0.0,0.0,0
147508000,0.9785039,0.00015238435,8.6783584e-05,0.2062504,0.0,0.0,0.0,0.0,0
147516000,0.9785039,0.00015241615,8.6806474e-05,0.2062504,0.0,0.0,0.0,0.0,0
147528000,0.9785039,0.00015251723,8.687467e-05,0.2062504,0.0,0.0,0.0,0.0,0
147544000,0.9785039,0.00015261858,8.6956396e-05,0.2062504,0.0,0.0,0.0,0.0,0
147552000,0.9785039,0.0001526652,8.699142e-05,0.2062504,0.0,0.0,0.0,0.0,0
147568000,0.9785039,0.00015275358,8.7060864e-05,0.2062504,0.0,0.0,0.0,0.0,0
147580000,0.9785039,0.00015282826,8.711157e-05,0.2062504,0.0,0.0,0.0,0.0,0
147588000,0.9785039,0.00015287126,8.714959e-05,0.2062504,0.0,0.0,0.0,0.0,0
147604000,0.9785039,0.00015297777,8.7228276e-05,0.2062504,0.0,0.0,0.0,0.0,0
147616000,0.9785039,0.00015303887,8.728175e-05,0.2062504,0.0,0.0,0.0,0.0,0
147624000,0.9785039,0.00015306637,8.7311506e-05,0.2062504,0.0,0.0,0.0,0.0,0
147640000,0.9785039,0.00015317884,8.739473e-05,0.2062504,0.0,0.0,0.0,0.0,0
147652000,0.9785039,0.00015325453,8.743865e-05,0.2062504,0.0,0.0,0.0,0.0,0
147664000,0.9785039,0.00015333813,8.748479e-05,0.2062504,0.0,0.0,0.0,0.0,0
147676000,0.9785039,0.00015336032,8.752202e-05,0.2062504,0.0,0.0,0.0,0.0,0
147688000,0.9785039,0.00015343563,8.756929e-05,0.2062504,0.0,0.0,0.0,0.0,0
147700000,0.9785039,0.00015349855,8.762283e-05,0.2062504,0.0,0.0,0.0,0.0,0
147708000,0.9785039,0.0001535201,8.7658205e-05,0.2062504,0.0,0.0,0.0,0.0,0
147720000,0.9785039,0.00015358736,8.7710665e-05,0.2062504,0.0,0.0,0.0,0.0,0
147732000,0.9785039,0.00015365584,8.775221e-05,0.2062504,0.0,0.0,0.0,0.0,0
147748000,0.9785039,0.0001537208,8.78002e-05,0.2062504,0.0,0.0,0.0,0.0,0
147760000,0.9785039,0.000153791,8.784265e-05,0.2062504,0.0,0.0,0.0,0.0,0
147772000,0.9785039,0.00015385418,8.7888584e-05,0.2062504,0.0,0.0,0.0,0.0,0
147784000,0.9785039,0.00015391652,8.7939356e-05,0.2062504,0.0,0.0,0.0,0.0,0
147796000,0.9785039,0.00015398378,8.7983615e-05,0.2062504,0.0,0.0,0.0,0.0,0
147808000,0.9785039,0.0001539904,8.800303e-05,0.2062504,0.0,0.0,0.0,0.0,0
147816000,0.9785039,0.00015401846,8.802141e-05,0.2062504,0.0,0.0,0.0,0.0,0
147832000,0.9785039,0.00015413943,8.80759e-05,0.2062504,0.0,0.0,0.0,0.0,0
147844000,0.9785039,0.0001542009,8.8115965e-05,0.2062504,0.0,0.0,0.0,0.0,0
147852000,0.9785039,0.00015421564,8.813788e-05,0.2062504,0.0,0.0,0.0,0.0,0
147868000,0.9785039,0.00015425547,8.817332e-05,0.2062504,0.0,0.0,0.0,0.0,0
147880000,0.9785039,0.00015433399,8.82025e-05,0.2062504,0.0,0.0,0.0,0.0,0
147892000,0.9785039,0.00015430959,8.821591e-05,0.2062504,0.0,0.0,0.0,0.0,0
147900000,0.9785039,0.00015431976,8.823601e-05,0.2062504,0.0,0.0,0.0,0.0,0
147916000,0.9785039,0.00015443476,8.828635e-05,0.2062504,0.0,0.0,0.0,0.0,0
147928000,0.9785039,0.00015441762,8.829475e-05,0.2062504,0.0,0.0,0.0,0.0,0
147940000,0.9785039,0.00015448945,8.83196e-05,0.2062504,0.0,0.0,0.0,0.0,0
147952000,0.9785039,0.00015455189,8.834334e-05,0.20625038,0.0,0.0,0.0,0.0,0
147960000,0.9785039,0.00015455554,8.835601e-05,0.20625038,0.0,0.0,0.0,0.0,0
147976000,0.9785039,0.00015456569,8.837202e-05,0.20625038,0.0,0.0,0.0,0.0,0
147988000,0.9785039,0.000154529,8.836768e-05,0.20625038,0.0,0.0,0.0,0.0,0
148000000,0.9785039,0.00015458214,8.838553e-05,0.20625038,0.0,0.0,0.0,0.0,0
148012000,0.9785039,0.00015463376,8.840326e-05,0.20625038,0.0,0.0,0.0,0.0,0
148024000,0.9785039,0.00015457257,8.839696e-05,0.20625038,0.0,0.0,0.0,0.0,0
148036000,0.9785039,0.0001546579,8.842122e-05,0.20625038,0.0,0.0,0.0,0.0,0
148048000,0.9785039,0.0001545786,8.8428016e-05,0.20625038,0.0,0.0,0.0,0.0,0
148056000,0.9785039,0.0001558252,8.285685e-05,0.20625046,0.0,0.0,0.0,0.0,0
148072000,0.97850513,0.00018813105,-2.2683244e-05,0.20624454,0.0,0.0,0.0,0.0,0
148084000,0.9785075,0.0002786389,-0.00020550916,0.20623295,0.0,0.0,0.0,0.0,0
148092000,0.97850996,0.00039637648,-0.00038897016,0.20622091,0.0,0.0,0.0,0.0,0
148104000,0.9785132,0.00067184016,-0.0007449873,0.20620392,0.0,0.0,0.0,0.0,0
148120000,0.97851586,0.0011691562,-0.00131053,0.20618622,0.0,0.0,0.0,0.0,0
148132000,0.97851646,0.0015724801,-0.0017542951,0.20617726,0.0,0.0,0.0,0.0,0
148144000,0.9785158,0.001964553,-0.00217099,0.20617315,0.0,0.0,0.0,0.0,0
148156000,0.9785137,0.0023232677,-0.0025521808,0.20617492,0.0,0.0,0.0,0.0,0
148168000,0.97851044,0.0026384757,-0.002901196,0.20618199,0.0,0.0,0.0,0.0,0
148180000,0.9785064,0.0029206634,-0.0032166326,0.2061929,0.0,0.0,0.0,0.0,0
148192000,0.9785018,0.0031666837,-0.0034954227,0.20620646,0.0,0.0,0.0,0.0,0
148200000,0.97849864,0.0033104422,-0.0036619743,0.2062164,0.0,0.0,0.0,0.0,0
148216000,0.97849226,0.003539862,-0.0039447146,0.2062376,0.0,0.0,0.0,0.0,0
148228000,0.9784877,0.003663166,-0.004112466,0.20625396,0.0,0.0,0.0,0.0,0
148240000,0.9784833,0.0037525133,-0.004240441,0.20627022,0.0,0.0,0.0,0.0,0
148248000,0.97848064,0.0037976152,-0.0043066824,0.20628072,0.0,0.0,0.0,0.0,0
148264000,0.9784757,0.003870588,-0.004394562,0.20630121,0.0,0.0,0.0,0.0,0
148272000,0.9784733,0.003904417,-0.004411051,0.20631136,0.0,0.0,0.0,0.0,0
148288000,0.9784689,0.003960919,-0.0043845265,0.20633179,0.0,0.0,0.0,0.0,0
148300000,0.9784661,0.003983984,-0.00431519,0.20634614,0.0,0.0,0.0,0.0,0
148308000,0.9784644,0.003982531,-0.004248062,0.20635556,0.0,0.0,0.0,0.0,0
148324000,0.9784612,0.0039281924,-0.0040779267,0.20637518,0.0,0.0,0.0,0.0,0
148336000,0.9784589,0.0038528698,-0.0039351783,0.20639025,0.0,0.0,0.0,0.0,0
148348000,0.9784567,0.0037527778,-0.0037899548,0.20640539,0.0,0.0,0.0,0.0,0
148360000,0.97845465,0.0036308507,-0.0036497863,0.2064196,0.0,0.0,0.0,0.0,0
148368000,0.9784536,0.0035420337,-0.0035588997,0.20642805,0.0,0.0,0.0,0.0,0
148384000,0.97845155,0.0033557178,-0.0033919895,0.2064435,0.0,0.0,0.0,0.0,0
148396000,0.9784501,0.0032127565,-0.0032724943,0.20645438,0.0,0.0,0.0,0.0,0
148404000,0.97844917,0.0031180503,-0.0031920783,0.20646167,0.0,0.0,0.0,0.0,0
148420000,0.9784471,0.0029472078,-0.00302945,0.20647661,0.0,0.0,0.0,0.0,0
148432000,0.97844553,0.002846039,-0.0028995245,0.20648703,0.0,0.0,0.0,0.0,0
148440000,0.97844464,0.0027848384,-0.0028069273,0.2064936,0.0,0.0,0.0,0.0,0
148452000,0.9784433,0.0027007791,-0.0026632906,0.20650281,0.0,0.0,0.0,0.0,0
148468000,0.9784419,0.0025983148,-0.0024583496,0.20651323,0.0,0.0,0.0,0.0,0
148480000,0.978441,0.0025243592,-0.0022912945,0.20652038,0.0,0.0,0.0,0.0,0
148488000,0.9784404,0.0024770973,-0.0021775,0.20652503,0.0,0.0,0.0,0.0,0
148504000,0.9784394,0.0023760684,-0.0019559716,0.20653322,0.0,0.0,0.0,0.0,0
148516000,0.97843885,0.002291519,-0.001793539,0.20653836,0.0,0.0,0.0,0.0,0
148528000,0.97843826,0.0022019192,-0.0016362263,0.20654324,0.0,0.0,0.0,0.0,0
148536000,0.9784379,0.0021476299,-0.0015335989,0.20654641,0.0,0.0,0.0,0.0,0
148552000,0.9784371,0.0020613635,-0.0013486949,0.20655231,0.0,0.0,0.0,0.0,0
148564000,0.97843647,0.0020035575,-0.0012318152,0.20655662,0.0,0.0,0.0,0.0,0
148576000,0.978436,0.0019341041,-0.0011293626,0.20656013,0.0,0.0,0.0,0.0,0
148584000,0.9784357,0.0018829388,-0.0010647615,0.20656231,0.0,0.0,0.0,0.0,0
148596000,0.9784351,0.0018076338,-0.0009739579,0.20656621,0.0,0.0,0.0,0.0,0
148612000,0.97843415,0.0017071798,-0.0008522638,0.20657234,0.0,0.0,0.0,0.0,0
148624000,0.97843343,0.0016303046,-0.0007551679,0.20657657,0.0,0.0,0.0,0.0,0
148636000,0.97843283,0.0015551515,-0.00064825296,0.20658042,0.0,0.0,0.0,0.0,0
148648000,0.9784323,0.0014923951,-0.0005354295,0.20658378,0.0,0.0,0.0,0.0,0
148656000,0.978432,0.0014595045,-0.00045864598,0.20658566,0.0,0.0,0.0,0.0,0
148672000,0.9784315,0.0014143543,-0.0003096936,0.20658843,0.0,0.0,0.0,0.0,0
148680000,0.9784314,0.0013985862,-0.00024153614,0.20658904,0.0,0.0,0.0,0.0,0
148696000,0.9784313,0.0013737016,-0.00012321424,0.20658997,0.0,0.0,0.0,0.0,0
148708000,0.97843087,0.0013498705,-4.9091566e-05,0.20659204,0.0,0.0,0.0,0.0,0
148716000,0.9784305,0.001332212,-7.827384e-06,0.20659387,0.0,0.0,0.0,0.0,0
148728000,0.97843,0.0013037678,4.673269e-05,0.20659682,0.0,0.0,0.0,0.0,0
148744000,0.97842896,0.0012637839,0.00011458884,0.20660165,0.0,0.0,0.0,0.0,0
148752000,0.97842824,0.0012407795,0.00014936565,0.2066052,0.0,0.0,0.0,0.0,0
148768000,0.97842634,0.0011875822,0.00021577592,0.20661457,0.0,0.0,0.0,0.0,0
148780000,0.9784247,0.0011506457,0.00025338723,0.20662236,0.0,0.0,0.0,0.0,0
148788000,0.97842366,0.0011273809,0.0002691322,0.20662741,0.0,0.0,0.0,0.0,0
148804000,0.97842175,0.00107399,0.0002836561,0.20663673,0.0,0.0,0.0,0.0,0
148816000,0.9784207,0.0010319683,0.00029022718,0.20664208,0.0,0.0,0.0,0.0,0
148828000,0.9784198,0.0009821273,0.0002942851,0.20664646,0.0,0.0,0.0,0.0,0
148840000,0.97841907,0.00091919134,0.00029624178,0.20665033,0.0,0.0,0.0,0.0,0
148848000,0.97841865,0.00086937676,0.00029315046,0.20665239,0.0,0.0,0.0,0.0,0
148864000,0.9784183,0.00076236774,0.00026488662,0.20665441,0.0,0.0,0.0,0.0,0
148872000,0.9784183,0.00071711396,0.00024790122,0.20665473,0.0,0.0,0.0,0.0,0
148888000,0.978418,0.0006487776,0.0002240837,0.20665634,0.0,0.0,0.0,0.0,0
148900000,0.97841763,0.0006012196,0.00022758853,0.20665827,0.0,0.0,0.0,0.0,0
148912000,0.97841716,0.0005619728,0.00025899406,0.20666055,0.0,0.0,0.0,0.0,0
148924000,0.9784165,0.0005364624,0.00031398056,0.20666353,0.0,0.0,0.0,0.0,0
148932000,0.978416,0.0005215379,0.0003647257,0.2066659,0.0,0.0,0.0,0.0,0
148948000,0.9784148,0.00049226265,0.0004963836,0.20667167,0.0,0.0,0.0,0.0,0
148960000,0.97841364,0.00046080136,0.00061250274,0.20667683,0.0,0.0,0.0,0.0,0
148972000,0.97841233,0.0004232652,0.0007260509,0.20668262,0.0,0.0,0.0,0.0,0
148980000,0.9784114,0.00039579198,0.0007974519,0.206687,0.0,0.0,0.0,0.0,0
148992000,0.97841,0.00034426834,0.00088922074,0.2066931,0.0,0.0,0.0,0.0,0
149008000,0.9784086,0.00027569776,0.000978524,0.20669957,0.0,0.0,0.0,0.0,0
149016000,0.97840804,0.00024353284,0.001003601,0.20670213,0.0,0.0,0.0,0.0,0
149032000,0.97840726,0.0001917927,0.0010299699,0.20670578,0.0,0.0,0.0,0.0,0
149044000,0.97840667,0.00015321138,0.0010466089,0.20670845,0.0,0.0,0.0,0.0,0
149056000,0.97840583,0.00011906908,0.0010646112,0.20671237,0.0,0.0,0.0,0.0,0
149064000,0.9784051,0.00010121549,0.0010771803,0.20671555,0.0,0.0,0.0,0.0,0
149080000,0.9784038,8.343752e-05,0.0011246247,0.20672171,0.0,0.0,0.0,0.0,0
149092000,0.97840315,8.3390965e-05,0.0011786097,0.20672454,0.0,0.0,0.0,0.0,0
149104000,0.9784029,8.421234e-05,0.00125075,0.20672512,0.0,0.0,0.0,0.0,0
149116000,0.9784033,7.677546e-05,0.0013351433,0.20672283,0.0,0.0,0.0,0.0,0
149128000,0.97840405,6.996442e-05,0.0014216146,0.20671864,0.0,0.0,0.0,0.0,0
149140000,0.978405,6.548472e-05,0.001507233,0.20671345,0.0,0.0,0.0,0.0,0
149148000,0.9784057,6.178108e-05,0.0015662329,0.20670974,0.0,0.0,0.0,0.0,0
149164000,0.9784068,4.6558256e-05,0.0016789886,0.20670363,0.0,0.0,0.0,0.0,0
149176000,0.97840697,2.4981642e-05,0.0017535537,0.20670234,0.0,0.0,0.0,0.0,0
149188000,0.97840667,-2.110295e-06,0.0018217333,0.20670326,0.0,0.0,0.0,0.0,0
149200000,0.97840613,-3.745038e-05,0.0018834593,0.20670518,0.0,0.0,0.0,0.0,0
149212000,0.9784056,-8.037199e-05,0.0019354454,0.20670724,0.0,0.0,0.0,0.0,0
149224000,0.97840506,-0.00012455367,0.001971019,0.20670943,0.0,0.0,0.0,0.0,0
149236000,0.9784046,-0.00017605543,0.0019882298,0.20671126,0.0,0.0,0.0,0.0,0
149244000,0.9784044,-0.00021257442,0.0019917614,0.20671208,0.0,0.0,0.0,0.0,0
149256000,0.9784041,-0.000254922,0.0019852303,0.20671369,0.0,0.0,0.0,0.0,0
149268000,0.97840333,-0.00028239068,0.0019703556,0.20671722,0.0,0.0,0.0,0.0,0
149280000,0.9784024,-0.00029990348,0.0019527839,0.20672208,0.0,0.0,0.0,0.0,0
149296000,0.9784012,-0.0003117231,0.0019370964,0.20672788,0.0,0.0,0.0,0.0,0
149308000,0.9784003,-0.00032579285,0.0019296559,0.20673208,0.0,0.0,0.0,0.0,0
149320000,0.9783995,-0.0003445706,0.0019200859,0.20673569,0.0,0.0,0.0,0.0,0
149332000,0.9783989,-0.00036947994,0.0019100857,0.20673859,0.0,0.0,0.0,0.0,0
149340000,0.9783985,-0.000388659,0.0019065571,0.20674053,0.0,0.0,0.0,0.0,0
149352000,0.97839797,-0.00041910206,0.0019043424,0.20674305,0.0,0.0,0.0,0.0,0
149368000,0.97839755,-0.00045969765,0.0019000875,0.20674495,0.0,0.0,0.0,0.0,0
149380000,0.97839755,-0.0004832411,0.0018997405,0.2067451,0.0,0.0,0.0,0.0,0
149392000,0.9783976,-0.00050200656,0.0019124132,0.20674458,0.0,0.0,0.0,0.0,0
149404000,0.9783978,-0.000516278,0.0019397964,0.20674336,0.0,0.0,0.0,0.0,0
149416000,0.97839826,-0.0005206014,0.0019757086,0.20674078,0.0,0.0,0.0,0.0,0
149424000,0.9783988,-0.00051583536,0.001998363,0.20673819,0.0,0.0,0.0,0.0,0
149440000,0.97840023,-0.0004893796,0.002038608,0.20673093,0.0,0.0,0.0,0.0,0
149452000,0.9784015,-0.0004597427,0.0020588979,0.2067249,0.0,0.0,0.0,0.0,0
149460000,0.9784022,-0.0004393326,0.0020698588,0.20672147,0.0,0.0,0.0,0.0,0
149476000,0.9784037,-0.00040572204,0.0020857304,0.20671424,0.0,0.0,0.0,0.0,0
149484000,0.9784045,-0.0003923294,0.0020848364,0.20671032,0.0,0.0,0.0,0.0,0
149500000,0.978406,-0.0003728098,0.002072892,0.20670342,0.0,0.0,0.0,0.0,0
149512000,0.9784067,-0.00036411968,0.002076977,0.20670015,0.0,0.0,0.0,0.0,0
149524000,0.97840685,-0.00035753957,0.0020904387,0.20669934,0.0,0.0,0.0,0.0,0
149536000,0.9784063,-0.00034822812,0.0021017543,0.20670174,0.0,0.0,0.0,0.0,0
149548000,0.97840506,-0.0003434511,0.0021035573,0.20670784,0.0,0.0,0.0,0.0,0
149556000,0.9784038,-0.00034354397,0.0020977966,0.20671386,0.0,0.0,0.0,0.0,0
149572000,0.9784007,-0.0003430984,0.0020826685,0.20672859,0.0,0.0,0.0,0.0,0
149584000,0.9783983,-0.00034758882,0.0020638406,0.20674014,0.0,0.0,0.0,0.0,0
149596000,0.9783958,-0.00035226977,0.002039954,0.20675217,0.0,0.0,0.0,0.0,0
149608000,0.9783932,-0.00036071692,0.0020126167,0.20676485,0.0,0.0,0.0,0.0,0
149620000,0.9783905,-0.00037408544,0.0019840465,0.20677763,0.0,0.0,0.0,0.0,0
149632000,0.97838795,-0.00038344756,0.0019584117,0.20679009,0.0,0.0,0.0,0.0,0
149644000,0.97838527,-0.00039123252,0.0019430892,0.20680282,0.0,0.0,0.0,0.0,0
149652000,0.9783835,-0.00039591308,0.0019375876,0.20681152,0.0,0.0,0.0,0.0,0
149668000,0.9783797,-0.00040056586,0.0019339678,0.20682918,0.0,0.0,0.0,0.0,0
149680000,0.97837687,-0.0003938822,0.00193206,0.20684266,0.0,0.0,0.0,0.0,0
149688000,0.97837514,-0.0003815128,0.0019260659,0.20685096,0.0,0.0,0.0,0.0,0
149704000,0.9783722,-0.00032908385,0.0019041491,0.20686512,0.0,0.0,0.0,0.0,0
149716000,0.9783702,-0.0002824644,0.0018811722,0.20687492,0.0,0.0,0.0,0.0,0
149728000,0.9783683,-0.00024073178,0.0018515672,0.20688425,0.0,0.0,0.0,0.0,0
149740000,0.97836643,-0.00021519924,0.0018156519,0.20689331,0.0,0.0,0.0,0.0,0
149748000,0.97836536,-0.0002039402,0.0017906793,0.20689881,0.0,0.0,0.0,0.0,0
149764000,0.97836375,-0.00020360394,0.001750151,0.20690665,0.0,0.0,0.0,0.0,0
149776000,0.9783633,-0.00022150115,0.00174475,0.20690882,0.0,0.0,0.0,0.0,0
149788000,0.97836345,-0.00024387788,0.0017582758,0.20690794,0.0,0.0,0.0,0.0,0
149800000,0.97836417,-0.0002640994,0.0017850236,0.20690419,0.0,0.0,0.0,0.0,0
149808000,0.97836494,-0.0002746282,0.0018035736,0.2069005,0.0,0.0,0.0,0.0,0
149824000,0.97836745,-0.00029133784,0.0018338345,0.20688848,0.0,0.0,0.0,0.0,0
149836000,0.97837037,-0.0002982806,0.0018575328,0.20687427,0.0,0.0,0.0,0.0,0
149844000,0.9783729,-0.0002978506,0.0018716952,0.20686243,0.0,0.0,0.0,0.0,0
149860000,0.97837853,-0.0002742515,0.0018914544,0.20683534,0.0,0.0,0.0,0.0,0
149872000,0.978383,-0.00023540673,0.0019021581,0.2068143,0.0,0.0,0.0,0.0,0
149884000,0.97838736,-0.00017607624,0.0019104882,0.20679364,0.0,0.0,0.0,0.0,0
149896000,0.9783917,-0.0001037141,0.0019203451,0.20677288,0.0,0.0,0.0,0.0,0
149908000,0.97839636,-2.8250455e-05,0.001934114,0.20675077,0.0,0.0,0.0,0.0,0
149920000,0.9784014,3.902816e-05,0.0019536465,0.20672683,0.0,0.0,0.0,0.0,0
149932000,0.97840655,9.182177e-05,0.001972887,0.2067024,0.0,0.0,0.0,0.0,0
149944000,0.9784114,0.00012905007,0.0019832794,0.20667939,0.0,0.0,0.0,0.0,0
149952000,0.97841436,0.0001449529,0.0019829026,0.20666513,0.0,0.0,0.0,0.0,0
149968000,0.97841984,0.00014538679,0.0019643,0.2066393,0.0,0.0,0.0,0.0,0
149980000,0.9784234,0.000119047145,0.0019383974,0.20662272,0.0,0.0,0.0,0.0,0
149988000,0.9784255,8.891072e-05,0.0019171715,0.20661303,0.0,0.0,0.0,0.0,0
150004000,0.97842914,-3.4643726e-06,0.0018694383,0.20659617,0.0,0.0,0.0,0.0,0
150012000,0.9784308,-5.5814588e-05,0.0018449372,0.20658875,0.0,0.0,0.0,0.0,0
150028000,0.97843385,-0.00015737649,0.001807551,0.20657451,0.0,0.0,0.0,0.0,0
150040000,0.9784363,-0.00021947197,0.001794351,0.2065629,0.0,0.0,0.0,0.0,0
150052000,0.97843885,-0.00026531,0.0017953094,0.20655087,0.0,0.0,0.0,0.0,0
150060000,0.9784405,-0.0002895442,0.001803138,0.20654283,0.0,0.0,0.0,0.0,0
150076000,0.97844356,-0.00031593518,0.001822786,0.20652801,0.0,0.0,0.0,0.0,0
150084000,0.9784449,-0.00032061955,0.001828993,0.20652194,0.0,0.0,0.0,0.0,0
150100000,0.9784467,-0.0003181685,0.0018271678,0.20651302,0.0,0.0,0.0,0.0,0
150112000,0.9784478,-0.00031067536,0.0018229504,0.20650816,0.0,0.0,0.0,0.0,0
150124000,0.9784484,-0.00031166017,0.0018265239,0.20650515,0.0,0.0,0.0,0.0,0
150132000,0.97844857,-0.0003186154,0.0018305444,0.20650448,0.0,0.0,0.0,0.0,0
150148000,0.97844815,-0.00033243382,0.0018347111,0.20650618,0.0,0.0,0.0,0.0,0
150156000,0.9784477,-0.0003317796,0.0018342782,0.20650856,0.0,0.0,0.0,0.0,0
150172000,0.9784463,-0.00031799744,0.0018159141,0.20651516,0.0,0.0,0.0,0.0,0
150180000,0.9784456,-0.00030543053,0.0017986642,0.20651875,0.0,0.0,0.0,0.0,0
150192000,0.9784445,-0.00028279715,0.0017741323,0.20652401,0.0,0.0,0.0,0.0,0
150208000,0.9784429,-0.00025337734,0.0017557705,0.20653188,0.0,0.0,0.0,0.0,0
150220000,0.9784414,-0.00023719712,0.0017514701,0.20653895,0.0,0.0,0.0,0.0,0
150228000,0.97844034,-0.00022738466,0.0017485319,0.20654413,0.0,0.0,0.0,0.0,0
150240000,0.9784386,-0.00021220537,0.0017418768,0.2065524,0.0,0.0,0.0,0.0,0
150256000,0.9784365,-0.00019129315,0.0017237931,0.20656244,0.0,0.0,0.0,0.0,0
150268000,0.97843534,-0.00016920465,0.0017093851,0.20656836,0.0,0.0,0.0,0.0,0
150280000,0.97843415,-0.00014204076,0.0016957498,0.20657395,0.0,0.0,0.0,0.0,0
150292000,0.97843295,-0.00010371449,0.0016820485,0.20657985,0.0,0.0,0.0,0.0,0
150304000,0.9784316,-5.637145e-05,0.0016678675,0.20658654,0.0,0.0,0.0,0.0,0
150316000,0.97843,-2.0995296e-06,0.0016618675,0.206594,0.0,0.0,0.0,0.0,0
150328000,0.97842824,4.9848535e-05,0.0016637136,0.2066023,0.0,0.0,0.0,0.0,0
150336000,0.9784269,8.245966e-05,0.0016675058,0.20660867,0.0,0.0,0.0,0.0,0
150352000,0.97842383,0.00014267168,0.0016774025,0.206623,0.0,0.0,0.0,0.0,0
150364000,0.97842133,0.0001685744,0.0016851015,0.20663469,0.0,0.0,0.0,0.0,0
150376000,0.97841865,0.00018079382,0.0016929788,0.20664747,0.0,0.0,0.0,0.0,0
150388000,0.97841567,0.00017802973,0.001696768,0.2066614,0.0,0.0,0.0,0.0,0
150400000,0.9784125,0.00016601551,0.0016999809,0.2066763,0.0,0.0,0.0,0.0,0
150412000,0.9784092,0.00015464869,0.0016952018,0.2066922,0.0,0.0,0.0,0.0,0
150424000,0.97840554,0.00014783152,0.0016825108,0.20670967,0.0,0.0,0.0,0.0,0
150436000,0.97840166,0.00014010291,0.001667103,0.20672818,0.0,0.0,0.0,0.0,0
150448000,0.97839755,0.00012927954,0.0016443575,0.20674759,0.0,0.0,0.0,0.0,0
150460000,0.9783932,0.00012578501,0.0016228922,0.20676853,0.0,0.0,0.0,0.0,0
150472000,0.9783886,0.00012134857,0.0015976834,0.20679036,0.0,0.0,0.0,0.0,0
150484000,0.97838414,0.0001139566,0.0015685165,0.20681183,0.0,0.0,0.0,0.0,0
150496000,0.97837955,0.00010949386,0.0015408696,0.20683357,0.0,0.0,0.0,0.0,0
150508000,0.9783748,9.0911e-05,0.0015160341,0.20685634,0.0,0.0,0.0,0.0,0
150520000,0.9783696,4.4114557e-05,0.0014921967,0.2068813,0.0,0.0,0.0,0.0,0
150532000,0.97836393,-1.5235611e-05,0.0014740038,0.20690799,0.0,0.0,0.0,0.0,0
150544000,0.9783581,-7.111478e-05,0.0014655442,0.20693576,0.0,0.0,0.0,0.0,0
150556000,0.9783519,-0.00012416222,0.0014675482,0.2069651,0.0,0.0,0.0,0.0,0
150564000,0.9783474,-0.00015683472,0.0014717762,0.20698595,0.0,0.0,0.0,0.0,0
150580000,0.97833806,-0.00022542513,0.0014768618,0.20703027,0.0,0.0,0.0,0.0,0
150592000,0.9783308,-0.000275449,0.001482992,0.20706448,0.0,0.0,0.0,0.0,0
150604000,0.9783234,-0.0003232929,0.0014946242,0.20709926,0.0,0.0,0.0,0.0,0
150612000,0.97831833,-0.00035483294,0.0015027365,0.20712303,0.0,0.0,0.0,0.0,0
150628000,0.978308,-0.00041664188,0.0015243643,0.2071714,0.0,0.0,0.0,0.0,0
150640000,0.97830033,-0.0004649393,0.0015375777,0.20720758,0.0,0.0,0.0,0.0,0
150652000,0.9782926,-0.00052172213,0.0015404529,0.2072439,0.0,0.0,0.0,0.0,0
150664000,0.9782848,-0.00059468916,0.0015467801,0.2072806,0.0,0.0,0.0,0.0,0
150676000,0.97827685,-0.0006745077,0.0015625118,0.20731771,0.0,0.0,0.0,0.0,0
150688000,0.97826886,-0.00075661147,0.0015909106,0.20735498,0.0,0.0,0.0,0.0,0
150700000,0.9782609,-0.0008521102,0.0016344727,0.20739172,0.0,0.0,0.0,0.0,0
150712000,0.97825307,-0.0009607589,0.0016868096,0.20742768,0.0,0.0,0.0,0.0,0
150724000,0.9782455,-0.0010694219,0.0017461233,0.20746252,0.0,0.0,0.0,0.0,0
150732000,0.9782405,-0.0011346424,0.0017886253,0.20748521,0.0,0.0,0.0,0.0,0
150744000,0.9782331,-0.0012131191,0.0018499199,0.20751931,0.0,0.0,0.0,0.0,0
150760000,0.97822326,-0.0012887263,0.0019086729,0.20756447,0.0,0.0,0.0,0.0,0
150772000,0.9782161,-0.0013324512,0.0019443693,0.20759767,0.0,0.0,0.0,0.0,0
150784000,0.9782091,-0.001360926,0.0019742574,0.20763044,0.0,0.0,0.0,0.0,0
150796000,0.97820216,-0.0013798306,0.0020010788,0.20766264,0.0,0.0,0.0,0.0,0
150808000,0.9781957,-0.0013912321,0.0020166936,0.20769264,0.0,0.0,0.0,0.0,0
150820000,0.97819,-0.0013948767,0.0020190792,0.20771956,0.0,0.0,0.0,0.0,0
150832000,0.97818506,-0.0013910092,0.0020158475,0.20774296,0.0,0.0,0.0,0.0,0
150844000,0.9781808,-0.0013766623,0.001998484,0.20776315,0.0,0.0,0.0,0.0,0
150852000,0.9781782,-0.0013647099,0.00197954,0.20777573,0.0,0.0,0.0,0.0,0
150864000,0.9781745,-0.0013476541,0.0019424304,0.20779364,0.0,0.0,0.0,0.0,0
150880000,0.9781702,-0.0013230568,0.0018863587,0.20781443,0.0,0.0,0.0,0.0,0
150892000,0.9781677,-0.0013027543,0.0018351398,0.20782669,0.0,0.0,0.0,0.0,0
150900000,0.97816634,-0.0012873508,0.0017912771,0.20783359,0.0,0.0,0.0,0.0,0
150916000,0.978164,-0.0012562216,0.0016988369,0.20784563,0.0,0.0,0.0,0.0,0
150928000,0.9781624,-0.0012329136,0.0016238247,0.20785397,0.0,0.0,0.0,0.0,0
150936000,0.9781614,-0.0012143385,0.0015698252,0.20785913,0.0,0.0,0.0,0.0,0
150948000,0.97816,-0.0011817665,0.001488216,0.20786633,0.0,0.0,0.0,0.0,0
150964000,0.97815835,-0.0011369993,0.0013788446,0.20787525,0.0,0.0,0.0,0.0,0
150976000,0.97815734,-0.0011112554,0.001296229,0.20788068,0.0,0.0,0.0,0.0,0
150988000,0.9781566,-0.0011030848,0.0012124035,0.20788471,0.0,0.0,0.0,0.0,0
151000000,0.97815627,-0.0011081358,0.0011383146,0.20788662,0.0,0.0,0.0,0.0,0
151008000,0.9781563,-0.0011156626,0.0010981922,0.2078866,0.0,0.0,0.0,0.0,0
151024000,0.97815675,-0.0011214329,0.0010371126,0.20788488,0.0,0.0,0.0,0.0,0
151036000,0.97815734,-0.0011130105,0.0009878589,0.20788254,0.0,0.0,0.0,0.0,0
151048000,0.978158,-0.0010991553,0.00094059855,0.20787965,0.0,0.0,0.0,0.0,0
151060000,0.97815883,-0.0010771566,0.0009044234,0.20787606,0.0,0.0,0.0,0.0,0
151072000,0.9781597,-0.0010474479,0.00088089885,0.20787191,0.0,0.0,0.0,0.0,0
151084000,0.9781607,-0.0010106743,0.0008752246,0.20786764,0.0,0.0,0.0,0.0,0
151096000,0.9781615,-0.000976302,0.0008872916,0.20786391,0.0,0.0,0.0,0.0,0
151108000,0.97816193,-0.00095589116,0.0009184025,0.20786183,0.0,0.0,0.0,0.0,0
151120000,0.9781619,-0.0009425107,0.00096351915,0.20786208,0.0,0.0,0.0,0.0,0
151132000,0.97816145,-0.00093281857,0.0010217429,0.20786388,0.0,0.0,0.0,0.0,0
151144000,0.9781607,-0.00092535507,0.0010837939,0.20786713,0.0,0.0,0.0,0.0,0
151156000,0.9781596,-0.0009112607,0.0011456874,0.20787197,0.0,0.0,0.0,0.0,0
151168000,0.9781583,-0.0008865043,0.0012067757,0.20787786,0.0,0.0,0.0,0.0,0
151180000,0.9781567,-0.0008563156,0.0012674801,0.20788528,0.0,0.0,0.0,0.0,0
151192000,0.97815466,-0.0008301952,0.0013244157,0.20789447,0.0,0.0,0.0,0.0,0
151204000,0.9781524,-0.0008101947,0.0013772475,0.20790501,0.0,0.0,0.0,0.0,0
151216000,0.9781498,-0.00078832096,0.001425129,0.20791693,0.0,0.0,0.0,0.0,0
151228000,0.9781469,-0.0007663564,0.0014673304,0.20793024,0.0,0.0,0.0,0.0,0
151236000,0.978145,-0.0007529701,0.0014870806,0.2079392,0.0,0.0,0.0,0.0,0
151252000,0.9781416,-0.0007217532,0.0015047287,0.20795518,0.0,0.0,0.0,0.0,0
151264000,0.9781393,-0.00069248694,0.0015108747,0.20796609,0.0,0.0,0.0,0.0,0
151276000,0.97813696,-0.0006568875,0.0015179464,0.20797719,0.0,0.0,0.0,0.0,0
151288000,0.97813445,-0.0006239126,0.0015258576,0.20798887,0.0,0.0,0.0,0.0,0
151300000,0.9781318,-0.0005916604,0.0015364218,0.20800158,0.0,0.0,0.0,0.0,0
151312000,0.9781288,-0.00056402484,0.0015399851,0.20801567,0.0,0.0,0.0,0.0,0
151324000,0.9781256,-0.00054108276,0.0015316514,0.2080307,0.0,0.0,0.0,0.0,0
151332000,0.9781235,-0.0005273772,0.0015209804,0.20804076,0.0,0.0,0.0,0.0,0
151344000,0.9781204,-0.0005109358,0.0014966499,0.20805554,0.0,0.0,0.0,0.0,0
151360000,0.9781164,-0.000499504,0.0014431359,0.20807478,0.0,0.0,0.0,0.0,0
151368000,0.97811437,-0.0004982538,0.0014086209,0.20808458,0.0,0.0,0.0,0.0,0
151384000,0.9781101,-0.00048521213,0.001345758,0.20810512,0.0,0.0,0.0,0.0,0
151396000,0.9781065,-0.00046830683,0.0013074239,0.20812216,0.0,0.0,0.0,0.0,0
151408000,0.9781023,-0.00045259195,0.0012747666,0.20814195,0.0,0.0,0.0,0.0,0
151420000,0.9780977,-0.00043620207,0.0012368904,0.20816427,0.0,0.0,0.0,0.0,0
151432000,0.9780927,-0.00042512076,0.0011943443,0.20818785,0.0,0.0,0.0,0.0,0
151444000,0.9780876,-0.0004227737,0.0011595517,0.20821202,0.0,0.0,0.0,0.0,0
151456000,0.97808254,-0.00043006876,0.001132182,0.20823595,0.0,0.0,0.0,0.0,0
151468000,0.9780776,-0.00044906803,0.0011119659,0.20825931,0.0,0.0,0.0,0.0,0
151476000,0.97807425,-0.00046833267,0.001102923,0.20827478,0.0,0.0,0.0,0.0,0
151492000,0.9780679,-0.0005084195,0.0010853927,0.20830488,0.0,0.0,0.0,0.0,0
151504000,0.9780633,-0.00053040305,0.0010739905,0.20832644,0.0,0.0,0.0,0.0,0
151516000,0.97805893,-0.0005363926,0.0010661862,0.20834672,0.0,0.0,0.0,0.0,0
151528000,0.97805506,-0.0005302297,0.0010637502,0.20836517,0.0,0.0,0.0,0.0,0
151540000,0.9780515,-0.00051836047,0.001063425,0.20838182,0.0,0.0,0.0,0.0,0
151552000,0.978048,-0.00050407666,0.0010643597,0.20839798,0.0,0.0,0.0,0.0,0
151564000,0.9780446,-0.00048455477,0.001070065,0.20841405,0.0,0.0,0.0,0.0,0
151576000,0.97804105,-0.00045665837,0.0010833327,0.20843072,0.0,0.0,0.0,0.0,0
151588000,0.9780373,-0.0004163496,0.0011060237,0.20844842,0.0,0.0,0.0,0.0,0
151600000,0.97803354,-0.0003623618,0.0011383335,0.20846598,0.0,0.0,0.0,0.0,0
151612000,0.9780301,-0.0003035486,0.0011662344,0.20848204,0.0,0.0,0.0,0.0,0
151624000,0.978027,-0.0002551567,0.0011927863,0.2084965,0.0,0.0,0.0,0.0,0
151636000,0.9780241,-0.00023017851,0.001216149,0.20850988,0.0,0.0,0.0,0.0,0
151648000,0.9780214,-0.00023125552,0.0012392607,0.20852265,0.0,0.0,0.0,0.0,0
151660000,0.97801864,-0.00024445666,0.0012682901,0.20853516,0.0,0.0,0.0,0.0,0
151672000,0.97801596,-0.00026394596,0.0012962272,0.20854759,0.0,0.0,0.0,0.0,0
151680000,0.97801423,-0.0002825123,0.0013085426,0.2085556,0.0,0.0,0.0,0.0,0
151696000,0.9780109,-0.0003339843,0.0013192403,0.20857124,0.0,0.0,0.0,0.0,0
151708000,0.9780083,-0.00038326287,0.0013215275,0.20858328,0.0,0.0,0.0,0.0,0
151720000,0.9780055,-0.00042252528,0.0013096819,0.20859632,0.0,0.0,0.0,0.0,0
151728000,0.97800356,-0.00044119346,0.0012989985,0.2086054,0.0,0.0,0.0,0.0,0
151744000,0.9779998,-0.00046084222,0.0012808533,0.20862325,0.0,0.0,0.0,0.0,0
151756000,0.9779974,-0.0004630606,0.0012764542,0.2086345,0.0,0.0,0.0,0.0,0
151768000,0.9779954,-0.00046116952,0.0012804669,0.20864397,0.0,0.0,0.0,0.0,0
151780000,0.9779935,-0.00045906194,0.001296497,0.20865269,0.0,0.0,0.0,0.0,0
151792000,0.97799164,-0.00045951502,0.001327963,0.20866105,0.0,0.0,0.0,0.0,0
151804000,0.97799,-0.0004611034,0.0013665714,0.20866884,0.0,0.0,0.0,0.0,0
151816000,0.97798836,-0.0004606438,0.0014019327,0.20867611,0.0,0.0,0.0,0.0,0
151828000,0.9779867,-0.00045357278,0.0014299282,0.20868374,0.0,0.0,0.0,0.0,0
151840000,0.9779849,-0.00044236155,0.0014527511,0.20869192,0.0,0.0,0.0,0.0,0
151848000,0.9779837,-0.00043441152,0.0014648443,0.20869756,0.0,0.0,0.0,0.0,0
151860000,0.9779818,-0.0004201521,0.0014787382,0.20870635,0.0,0.0,0.0,0.0,0
151876000,0.9779789,-0.00039142423,0.0014800691,0.20872012,0.0,0.0,0.0,0.0,0
151888000,0.9779764,-0.00037155757,0.0014703007,0.208732,0.0,0.0,0.0,0.0,0
151896000,0.97797465,-0.0003624239,0.0014653545,0.20873995,0.0,0.0,0.0,0.0,0
151912000,0.9779715,-0.0003531745,0.0014527785,0.20875487,0.0,0.0,0.0,0.0,0
151920000,0.9779702,-0.00034794078,0.0014478737,0.20876104,0.0,0.0,0.0,0.0,0
151936000,0.9779683,-0.0003350264,0.0014408178,0.20877016,0.0,0.0,0.0,0.0,0
151948000,0.9779672,-0.00032873754,0.0014430422,0.20877522,0.0,0.0,0.0,0.0,0
151956000,0.9779666,-0.0003269762,0.0014506605,0.20877801,0.0,0.0,0.0,0.0,0
151972000,0.97796553,-0.00034014904,0.0014760817,0.2087826,0.0,0.0,0.0,0.0,0
151984000,0.97796494,-0.00036380813,0.0014965464,0.20878522,0.0,0.0,0.0,0.0,0
151996000,0.97796446,-0.00038255207,0.0015096456,0.20878746,0.0,0.0,0.0,0.0,0
152008000,0.9779641,-0.0003970558,0.0015105837,0.2087892,0.0,0.0,0.0,0.0,0
152016000,0.97796386,-0.000407262,0.001508567,0.2087902,0.0,0.0,0.0,0.0,0
152032000,0.97796327,-0.00042402314,0.0015061119,0.20879292,0.0,0.0,0.0,0.0,0
152044000,0.9779625,-0.00042998756,0.0015153736,0.20879647,0.0,0.0,0.0,0.0,0
152056000,0.9779616,-0.0004312112,0.0015431368,0.20880045,0.0,0.0,0.0,0.0,0
152068000,0.9779607,-0.00042767602,0.0015879557,0.20880432,0.0,0.0,0.0,0.0,0
152080000,0.9779598,-0.00042195176,0.0016477411,0.20880815,0.0,0.0,0.0,0.0,0
152092000,0.9779588,-0.00041587785,0.0017196498,0.20881228,0.0,0.0,0.0,0.0,0
152104000,0.9779577,-0.00041032094,0.0017869815,0.20881681,0.0,0.0,0.0,0.0,0
152116000,0.97795653,-0.0004101752,0.0018433995,0.20882185,0.0,0.0,0.0,0.0,0
152124000,0.97795564,-0.00041049655,0.0018754997,0.20882562,0.0,0.0,0.0,0.0,0
152140000,0.97795385,-0.00039452311,0.0019263163,0.20883374,0.0,0.0,0.0,0.0,0
152152000,0.9779525,-0.00036422547,0.0019541378,0.20883998,0.0,0.0,0.0,0.0,0
152164000,0.9779511,-0.00032238528,0.0019807105,0.20884614,0.0,0.0,0.0,0.0,0
152176000,0.9779498,-0.00027189887,0.0020138088,0.208852,0.0,0.0,0.0,0.0,0
152188000,0.97794867,-0.00022074023,0.0020490247,0.20885713,0.0,0.0,0.0,0.0,0
152200000,0.9779477,-0.00016972065,0.002085986,0.20886108,0.0,0.0,0.0,0.0,0
152212000,0.9779472,-0.000121805926,0.0021229873,0.20886344,0.0,0.0,0.0,0.0,0
152220000,0.97794694,-9.323412e-05,0.0021483032,0.20886435,0.0,0.0,0.0,0.0,0
152236000,0.97794664,-4.7618974e-05,0.0021929522,0.20886521,0.0,0.0,0.0,0.0,0
152248000,0.97794664,-2.0835725e-05,0.0022172858,0.20886482,0.0,0.0,0.0,0.0,0
152260000,0.9779469,1.8587954e-06,0.0022303592,0.20886377,0.0,0.0,0.0,0.0,0
152272000,0.9779471,2.5018244e-05,0.0022304896,0.20886247,0.0,0.0,0.0,0.0,0
152284000,0.9779473,4.8828384e-05,0.0022161813,0.2088619,0.0,0.0,0.0,0.0,0
152296000,0.9779473,7.04421e-05,0.0021910984,0.20886202,0.0,0.0,0.0,0.0,0
152308000,0.9779475,9.660429e-05,0.0021597124,0.20886172,0.0,0.0,0.0,0.0,0
152320000,0.97794753,0.00012890832,0.002121895,0.20886174,0.0,0.0,0.0,0.0,0
152328000,0.9779475,0.0001466779,0.0020965387,0.2088622,0.0,0.0,0.0,0.0,0
152340000,0.97794724,0.0001638787,0.0020655561,0.20886354,0.0,0.0,0.0,0.0,0
152356000,0.9779465,0.00017663259,0.0020280196,0.20886743,0.0,0.0,0.0,0.0,0
152368000,0.97794557,0.00018872357,0.0020003512,0.20887193,0.0,0.0,0.0,0.0,0
152380000,0.97794455,0.0002125374,0.0019676492,0.20887716,0.0,0.0,0.0,0.0,0
152392000,0.97794336,0.00023733891,0.0019395284,0.20888276,0.0,0.0,0.0,0.0,0
152400000,0.9779426,0.0002490073,0.0019268845,0.20888674,0.0,0.0,0.0,0.0,0
152416000,0.9779408,0.00026402491,0.0019165819,0.2088952,0.0,0.0,0.0,0.0,0
152428000,0.97793937,0.0002835812,0.0019251283,0.20890169,0.0,0.0,0.0,0.0,0
152436000,0.9779385,0.00030035127,0.0019367092,0.20890571,0.0,0.0,0.0,0.0,0
152448000,0.9779372,0.00032774897,0.0019633356,0.20891143,0.0,0.0,0.0,0.0,0
152460000,0.9779359,0.00035265126,0.0020005647,0.20891719,0.0,0.0,0.0,0.0,0
152476000,0.9779342,0.00037107567,0.0020580296,0.20892444,0.0,0.0,0.0,0.0,0
152488000,0.97793305,0.0003690456,0.002095301,0.2089294,0.0,0.0,0.0,0.0,0
152500000,0.9779315,0.00035659663,0.0021143355,0.20893645,0.0,0.0,0.0,0.0,0
152512000,0.97792953,0.00034482704,0.0021105947,0.20894583,0.0,0.0,0.0,0.0,0
152520000,0.97792804,0.00033645355,0.002096496,0.20895283,0.0,0.0,0.0,0.0,0
152536000,0.9779248,0.00031971707,0.0020455446,0.20896848,0.0,0.0,0.0,0.0,0
152548000,0.9779222,0.00030234526,0.001986514,0.20898148,0.0,0.0,0.0,0.0,0
152560000,0.9779195,0.00027576898,0.0019115759,0.20899464,0.0,0.0,0.0,0.0,0
152572000,0.9779169,0.00024293337,0.0018211723,0.20900773,0.0,0.0,0.0,0.0,0
152584000,0.97791433,0.0002114248,0.001724535,0.20902072,0.0,0.0,0.0,0.0,0
152596000,0.97791183,0.00018960133,0.0016355775,0.20903313,0.0,0.0,0.0,0.0,0
152604000,0.9779102,0.00018463102,0.0015811119,0.20904106,0.0,0.0,0.0,0.0,0
152620000,0.9779072,0.00019692136,0.0014814554,0.20905593,0.0,0.0,0.0,0.0,0
152628000,0.97790575,0.00021324454,0.001436592,0.20906289,0.0,0.0,0.0,0.0,0
152640000,0.9779037,0.0002480523,0.0013681886,0.20907302,0.0,0.0,0.0,0.0,0
152656000,0.9779012,0.00031432003,0.0012750512,0.20908524,0.0,0.0,0.0,0.0,0
152668000,0.9778997,0.00036006566,0.0012069461,0.20909256,0.0,0.0,0.0,0.0,0
152680000,0.97789854,0.00039659836,0.001149474,0.20909812,0.0,0.0,0.0,0.0,0
152692000,0.9778977,0.00042426414,0.00110853,0.2091022,0.0,0.0,0.0,0.0,0
152700000,0.97789735,0.00043920698,0.001087063,0.20910414,0.0,0.0,0.0,0.0,0
152716000,0.97789663,0.00046807906,0.0010509912,0.2091076,0.0,0.0,0.0,0.0,0
152728000,0.977896,0.0004898202,0.0010413297,0.20911059,0.0,0.0,0.0,0.0,0
152736000,0.9778955,0.00050527195,0.0010457399,0.20911276,0.0,0.0,0.0,0.0,0
152752000,0.97789437,0.0005414468,0.0010730906,0.20911773,0.0,0.0,0.0,0.0,0
152764000,0.97789353,0.0005684343,0.0010981152,0.20912163,0.0,0.0,0.0,0.0,0
152776000,0.97789246,0.0005838359,0.0011287117,0.20912634,0.0,0.0,0.0,0.0,0
152788000,0.97789115,0.00058796647,0.0011683464,0.20913234,0.0,0.0,0.0,0.0,0
152800000,0.9778896,0.00058647874,0.0012202478,0.20913927,0.0,0.0,0.0,0.0,0
152808000,0.9778885,0.00058130507,0.0012591685,0.20914403,0.0,0.0,0.0,0.0,0
152824000,0.9778866,0.0005543233,0.0013337826,0.2091526,0.0,0.0,0.0,0.0,0
152836000,0.9778854,0.0005210949,0.0013761601,0.20915781,0.0,0.0,0.0,0.0,0
152848000,0.97788435,0.00048384542,0.001410387,0.20916276,0.0,0.0,0.0,0.0,0
152860000,0.9778833,0.0004414145,0.0014425396,0.20916769,0.0,0.0,0.0,0.0,0
152872000,0.9778822,0.00039850263,0.0014670467,0.20917262,0.0,0.0,0.0,0.0,0
152884000,0.97788113,0.00035431096,0.001481503,0.20917764,0.0,0.0,0.0,0.0,0
152892000,0.9778803,0.00032130387,0.0014887901,0.20918144,0.0,0.0,0.0,0.0,0
152908000,0.9778783,0.00024732188,0.0015085071,0.20919088,0.0,0.0,0.0,0.0,0
152920000,0.97787654,0.00019741149,0.0015309383,0.20919888,0.0,0.0,0.0,0.0,0
152936000,0.9778737,0.00015694406,0.0015690448,0.20921217,0.0,0.0,0.0,0.0,0
152948000,0.97787106,0.00014799889,0.0016030257,0.20922408,0.0,0.0,0.0,0.0,0
152960000,0.9778684,0.00014461222,0.0016310986,0.2092363,0.0,0.0,0.0,0.0,0
152968000,0.9778666,0.00013814935,0.0016491483,0.20924465,0.0,0.0,0.0,0.0,0
152984000,0.9778634,0.000105755484,0.001691153,0.20925933,0.0,0.0,0.0,0.0,0
152992000,0.97786206,8.572775e-05,0.0017191664,0.2092653,0.0,0.0,0.0,0.0,0
153008000,0.9778595,5.9398066e-05,0.0017754702,0.20927669,0.0,0.0,0.0,0.0,0
153016000,0.9778582,5.2721785e-05,0.0018035762,0.2092826,0.0,0.0,0.0,0.0,0
153032000,0.9778555,4.9424838e-05,0.0018507175,0.20929468,0.0,0.0,0.0,0.0,0
153044000,0.9778536,4.776444e-05,0.0018732838,0.2093034,0.0,0.0,0.0,0.0,0
153052000,0.97785246,4.4388722e-05,0.0018826153,0.20930877,0.0,0.0,0.0,0.0,0
153068000,0.97785044,3.619941e-05,0.0018889394,0.20931809,0.0,0.0,0.0,0.0,0
153080000,0.97784925,3.2482498e-05,0.0018825012,0.20932382,0.0,0.0,0.0,0.0,0
153092000,0.97784805,3.665567e-05,0.0018698102,0.20932937,0.0,0.0,0.0,0.0,0
153100000,0.97784716,4.2865653e-05,0.0018629219,0.2093335,0.0,0.0,0.0,0.0,0
153116000,0.97784525,5.546642e-05,0.0018594958,0.20934258,0.0,0.0,0.0,0.0,0
153128000,0.9778437,6.1631086e-05,0.0018650664,0.20934969,0.0,0.0,0.0,0.0,0
153140000,0.9778421,6.691349e-05,0.0018729767,0.20935719,0.0,0.0,0.0,0.0,0
153148000,0.97784096,6.764072e-05,0.001879903,0.20936246,0.0,0.0,0.0,0.0,0
153164000,0.9778387,5.5542365e-05,0.0018872255,0.20937292,0.0,0.0,0.0,0.0,0
153172000,0.97783756,4.3182306e-05,0.0018875338,0.20937811,0.0,0.0,0.0,0.0,0
153184000,0.977836,1.8076713e-05,0.0018894481,0.20938538,0.0,0.0,0.0,0.0,0
153196000,0.9778347,-9.443884e-06,0.0018915752,0.20939161,0.0,0.0,0.0,0.0,0
153212000,0.9778333,-4.537662e-05,0.0018930674,0.2093982,0.0,0.0,0.0,0.0,0
153224000,0.9778324,-5.9942035e-05,0.0018977589,0.20940244,0.0,0.0,0.0,0.0,0
153236000,0.9778315,-6.218152e-05,0.0019053563,0.20940632,0.0,0.0,0.0,0.0,0
153244000,0.9778311,-5.768224e-05,0.0019122587,0.2094082,0.0,0.0,0.0,0.0,0
153256000,0.97783077,-4.3046035e-05,0.0019243582,0.20940974,0.0,0.0,0.0,0.0,0
153272000,0.97783047,-2.1948488e-05,0.0019454195,0.20941089,0.0,0.0,0.0,0.0,0
153284000,0.9778303,-2.5248544e-06,0.0019587933,0.20941153,0.0,0.0,0.0,0.0,0
153296000,0.97783,1.3890227e-05,0.0019721705,0.20941281,0.0,0.0,0.0,0.0,0
153308000,0.9778293,3.1019077e-05,0.0019851993,0.20941588,0.0,0.0,0.0,0.0,0
153320000,0.97782826,5.681473e-05,0.0019882114,0.20942062,0.0,0.0,0.0,0.0,0
153332000,0.9778271,8.765929e-05,0.0019751796,0.20942648,0.0,0.0,0.0,0.0,0
153344000,0.9778257,0.000110861554,0.0019589555,0.20943303,0.0,0.0,0.0,0.0,0
153356000,0.97782433,0.00012471991,0.0019380894,0.20943964,0.0,0.0,0.0,0.0,0
153364000,0.9778233,0.00012638801,0.0019197591,0.20944443,0.0,0.0,0.0,0.0,0
153380000,0.97782123,0.00011013408,0.0018762993,0.20945458,0.0,0.0,0.0,0.0,0
153392000,0.97781974,7.7378194e-05,0.0018374136,0.20946185,0.0,0.0,0.0,0.0,0
153404000,0.9778185,3.5788587e-05,0.0018005372,0.20946805,0.0,0.0,0.0,0.0,0
153416000,0.9778176,-1.2488444e-05,0.0017600566,0.20947269,0.0,0.0,0.0,0.0,0
153428000,0.97781706,-6.152951e-05,0.0017199786,0.2094754,0.0,0.0,0.0,0.0,0
153440000,0.9778169,-0.00010510322,0.0016845231,0.20947641,0.0,0.0,0.0,0.0,0
153452000,0.97781706,-0.00014278568,0.0016542117,0.20947582,0.0,0.0,0.0,0.0,0
153464000,0.97781765,-0.00017199095,0.0016356313,0.20947322,0.0,0.0,0.0,0.0,0
153476000,0.97781855,-0.00020241462,0.0016359444,0.20946904,0.0,0.0,0.0,0.0,0
153488000,0.97781956,-0.00023747029,0.0016572665,0.20946416,0.0,0.0,0.0,0.0,0
153496000,0.9778202,-0.00026046654,0.0016805001,0.20946075,0.0,0.0,0.0,0.0,0
153508000,0.9778211,-0.00028891175,0.0017242538,0.2094562,0.0,0.0,0.0,0.0,0
153520000,0.97782177,-0.00032022013,0.0017711613,0.20945282,0.0,0.0,0.0,0.0,0
153536000,0.97782236,-0.00036481547,0.0018459294,0.20944935,0.0,0.0,0.0,0.0,0
153544000,0.9778224,-0.0003821507,0.0018853139,0.20944856,0.0,0.0,0.0,0.0,0
153560000,0.977822,-0.00040393657,0.0019621716,0.20944966,0.0,0.0,0.0,0.0,0
153568000,0.9778216,-0.00040691704,0.001996577,0.20945136,0.0,0.0,0.0,0.0,0
153584000,0.9778206,-0.00040538676,0.002047677,0.20945564,0.0,0.0,0.0,0.0,0
153596000,0.97781974,-0.000403449,0.0020772824,0.20945925,0.0,0.0,0.0,0.0,0
153608000,0.9778191,-0.0004045966,0.0021104096,0.20946197,0.0,0.0,0.0,0.0,0
153620000,0.9778187,-0.00041303746,0.0021515724,0.20946322,0.0,0.0,0.0,0.0,0
153628000,0.9778186,-0.00042035265,0.0021855356,0.20946349,0.0,0.0,0.0,0.0,0
153644000,0.97781825,-0.00043913157,0.0022679742,0.20946425,0.0,0.0,0.0,0.0,0
153656000,0.977818,-0.00046467577,0.0023333125,0.20946445,0.0,0.0,0.0,0.0,0
153668000,0.9778182,-0.00050381664,0.0023903793,0.20946296,0.0,0.0,0.0,0.0,0
153676000,0.9778184,-0.00053774065,0.0024238236,0.20946129,0.0,0.0,0.0,0.0,0
153692000,0.97781897,-0.0006253428,0.0024797912,0.20945801,0.0,0.0,0.0,0.0,0
153704000,0.9778192,-0.00069426297,0.0025180364,0.20945616,0.0,0.0,0.0,0.0,0
153716000,0.9778194,-0.000737549,0.0025595238,0.20945469,0.0,0.0,0.0,0.0,0
153724000,0.97781944,-0.000750054,0.002588968,0.20945407,0.0,0.0,0.0,0.0,0
153740000,0.97781944,-0.00074499386,0.0026457752,0.20945343,0.0,0.0,0.0,0.0,0
153752000,0.9778195,-0.0007284627,0.0026820956,0.20945251,0.0,0.0,0.0,0.0,0
153764000,0.9778197,-0.00070481445,0.0027069172,0.20945162,0.0,0.0,0.0,0.0,0
153772000,0.97781974,-0.00068616436,0.0027134283,0.20945117,0.0,0.0,0.0,0.0,0
153784000,0.97782004,-0.00065392227,0.0027169876,0.20944999,0.0,0.0,0.0,0.0,0
153800000,0.97782063,-0.0006097868,0.0027202682,0.20944726,0.0,0.0,0.0,0.0,0
153812000,0.97782123,-0.0005891703,0.0027234727,0.2094445,0.0,0.0,0.0,0.0,0
153824000,0.9778219,-0.0005726071,0.0027245586,0.2094413,0.0,0.0,0.0,0.0,0
153836000,0.97782236,-0.0005509265,0.0027221579,0.20943916,0.0,0.0,0.0,0.0,0
153848000,0.97782266,-0.0005369389,0.00271722,0.20943803,0.0,0.0,0.0,0.0,0
153860000,0.97782284,-0.0005338682,0.0027005766,0.20943749,0.0,0.0,0.0,0.0,0
153872000,0.97782284,-0.00053826225,0.002673485,0.20943785,0.0,0.0,0.0,0.0,0
153884000,0.9778225,-0.0005414265,0.002634521,0.20944001,0.0,0.0,0.0,0.0,0
153896000,0.97782165,-0.0005391688,0.0025850683,0.20944437,0.0,0.0,0.0,0.0,0
153908000,0.9778205,-0.00053104374,0.0025314826,0.20945047,0.0,0.0,0.0,0.0,0
153920000,0.9778194,-0.00051435473,0.0024856303,0.20945622,0.0,0.0,0.0,0.0,0
153932000,0.97781855,-0.00048570422,0.0024422337,0.2094607,0.0,0.0,0.0,0.0,0
153944000,0.9778181,-0.00045126348,0.002393131,0.20946354,0.0,0.0,0.0,0.0,0
153952000,0.9778179,-0.00042900952,0.0023576529,0.20946497,0.0,0.0,0.0,0.0,0
153964000,0.9778175,-0.00040728375,0.0023048646,0.20946752,0.0,0.0,0.0,0.0,0
153980000,0.9778169,-0.00041053488,0.002243474,0.20947096,0.0,0.0,0.0,0.0,0
153992000,0.9778166,-0.0004283479,0.002197682,0.20947273,0.0,0.0,0.0,0.0,0
154000000,0.97781646,-0.00044222592,0.0021642223,0.20947365,0.0,0.0,0.0,0.0,0
154012000,0.97781634,-0.00046400813,0.0021132466,0.2094747,0.0,0.0,0.0,0.0,0
154024000,0.9778163,-0.00048196342,0.0020674844,0.20947537,0.0,0.0,0.0,0.0,0
154040000,0.9778162,-0.00049077265,0.0020101336,0.20947604,0.0,0.0,0.0,0.0,0
154052000,0.9778162,-0.0004899373,0.0019635432,0.2094766,0.0,0.0,0.0,0.0,0
154060000,0.97781616,-0.00048500928,0.001929316,0.20947711,0.0,0.0,0.0,0.0,0
154076000,0.97781616,-0.00046307614,0.0018491909,0.20947792,0.0,0.0,0.0,0.0,0
154088000,0.97781646,-0.00044507592,0.0017821112,0.20947725,0.0,0.0,0.0,0.0,0
154096000,0.97781676,-0.00043468928,0.0017418731,0.20947628,0.0,0.0,0.0,0.0,0
154112000,0.97781724,-0.00041581775,0.0016862637,0.2094743,0.0,0.0,0.0,0.0,0
154124000,0.9778177,-0.0004049353,0.0016657367,0.20947252,0.0,0.0,0.0,0.0,0
154136000,0.9778184,-0.00038129964,0.0016718066,0.20946917,0.0,0.0,0.0,0.0,0
154148000,0.9778193,-0.00034614492,0.0017023793,0.20946477,0.0,0.0,0.0,0.0,0
154156000,0.9778199,-0.00031686074,0.0017303101,0.20946161,0.0,0.0,0.0,0.0,0
154168000,0.97782075,-0.00025674992,0.0017714002,0.20945759,0.0,0.0,0.0,0.0,0
154184000,0.97782123,-0.0001441523,0.0018115364,0.20945519,0.0,0.0,0.0,0.0,0
154192000,0.9778211,-8.7383e-05,0.0018235901,0.2094555,0.0,0.0,0.0,0.0,0
154208000,0.97782046,6.7980027e-06,0.001836074,0.20945854,0.0,0.0,0.0,0.0,0
154220000,0.9778196,6.18564e-05,0.0018380168,0.20946239,0.0,0.0,0.0,0.0,0
154232000,0.97781867,0.00010442609,0.0018411375,0.20946683,0.0,0.0,0.0,0.0,0
154244000,0.9778177,0.00013264993,0.001845668,0.20947118,0.0,0.0,0.0,0.0,0
154256000,0.9778169,0.00015092231,0.0018534778,0.2094749,0.0,0.0,0.0,0.0,0
154268000,0.9778163,0.00015380423,0.0018633425,0.20947787,0.0,0.0,0.0,0.0,0
154280000,0.97781587,0.00013931516,0.0018742707,0.20947966,0.0,0.0,0.0,0.0,0
154292000,0.9778157,0.00010869311,0.0018905913,0.20948021,0.0,0.0,0.0,0.0,0
154300000,0.9778156,8.213499e-05,0.0019077383,0.20948048,0.0,0.0,0.0,0.0,0
154316000,0.97781533,1.2071922e-05,0.0019434118,0.20948158,0.0,0.0,0.0,0.0,0
154328000,0.9778152,-5.0437036e-05,0.0019669747,0.20948195,0.0,0.0,0.0,0.0,0
154340000,0.97781533,-0.0001127135,0.0019874403,0.20948114,0.0,0.0,0.0,0.0,0
154352000,0.97781575,-0.00016840168,0.0020051717,0.2094789,0.0,0.0,0.0,0.0,0
154364000,0.97781664,-0.00022518626,0.0020142917,0.20947455,0.0,0.0,0.0,0.0,0
154376000,0.97781795,-0.00028112237,0.0020048015,0.20946848,0.0,0.0,0.0,0.0,0
154384000,0.9778191,-0.00031567356,0.001991084,0.20946343,0.0,0.0,0.0,0.0,0
154396000,0.977821,-0.00036299787,0.0019634822,0.20945466,0.0,0.0,0.0,0.0,0
154412000,0.9778237,-0.0004154169,0.0019172942,0.20944227,0.0,0.0,0.0,0.0,0
154424000,0.9778255,-0.00044512766,0.0018856868,0.20943408,0.0,0.0,0.0,0.0,0
154432000,0.97782654,-0.000465395,0.0018652334,0.20942946,0.0,0.0,0.0,0.0,0
154448000,0.97782826,-0.0004961816,0.0018249275,0.20942152,0.0,0.0,0.0,0.0,0
154460000,0.9778295,-0.00050879025,0.0018032629,0.20941602,0.0,0.0,0.0,0.0,0
154472000,0.9778307,-0.00052072154,0.0017942569,0.20941049,0.0,0.0,0.0,0.0,0
154480000,0.9778315,-0.0005294689,0.0017944578,0.20940678,0.0,0.0,0.0,0.0,0
154496000,0.97783315,-0.00054753263,0.0018119672,0.20939875,0.0,0.0,0.0,0.0,0
154508000,0.97783476,-0.0005592943,0.0018286874,0.209391,0.0,0.0,0.0,0.0,0
154520000,0.97783667,-0.00056811085,0.0018370593,0.20938203,0.0,0.0,0.0,0.0,0
154532000,0.9778386,-0.0005682683,0.0018397956,0.20937313,0.0,0.0,0.0,0.0,0
154540000,0.97783977,-0.00056369393,0.001843458,0.2093676,0.0,0.0,0.0,0.0,0
154556000,0.9778418,-0.00055511505,0.0018498986,0.20935811,0.0,0.0,0.0,0.0,0
154568000,0.9778429,-0.00055015995,0.001850126,0.20935287,0.0,0.0,0.0,0.0,0
154576000,0.9778434,-0.0005493851,0.0018450995,0.20935051,0.0,0.0,0.0,0.0,0
154588000,0.97784394,-0.00055504986,0.001839156,0.20934816,0.0,0.0,0.0,0.0,0
154604000,0.9778444,-0.0005645115,0.0018540311,0.20934574,0.0,0.0,0.0,0.0,0
154616000,0.97784466,-0.00057767157,0.0018845972,0.20934431,0.0,0.0,0.0,0.0,0
154628000,0.97784466,-0.00060184515,0.0019182195,0.20934387,0.0,0.0,0.0,0.0,0
154640000,0.9778444,-0.0006295066,0.0019475657,0.20934471,0.0,0.0,0.0,0.0,0
154652000,0.97784394,-0.0006507854,0.0019745575,0.2093466,0.0,0.0,0.0,0.0,0
154660000,0.9778436,-0.0006609296,0.0019906135,0.20934801,0.0,0.0,0.0,0.0,0
154676000,0.97784287,-0.0006748435,0.0020217504,0.20935106,0.0,0.0,0.0,0.0,0
154688000,0.97784245,-0.00068602164,0.0020471138,0.20935269,0.0,0.0,0.0,0.0,0
154696000,0.97784245,-0.000693919,0.0020623363,0.20935272,0.0,0.0,0.0,0.0,0
154712000,0.97784275,-0.00071040454,0.0020809025,0.20935088,0.0,0.0,0.0,0.0,0
154724000,0.97784334,-0.00072499015,0.0020823362,0.20934822,0.0,0.0,0.0,0.0,0
154736000,0.977844,-0.00074375514,0.002081868,0.20934488,0.0,0.0,0.0,0.0,0
154748000,0.9778449,-0.0007683171,0.0020795169,0.2093407,0.0,0.0,0.0,0.0,0
154760000,0.9778458,-0.00080460723,0.0020741303,0.20933639,0.0,0.0,0.0,0.0,0
154772000,0.97784656,-0.00085559045,0.0020683864,0.2093327,0.0,0.0,0.0,0.0,0
154780000,0.9778469,-0.0008977208,0.0020621156,0.20933104,0.0,0.0,0.0,0.0,0
154796000,0.9778471,-0.0009886463,0.0020352195,0.20932993,0.0,0.0,0.0,0.0,0
154804000,0.97784716,-0.0010307551,0.002014494,0.2093298,0.0,0.0,0.0,0.0,0
154820000,0.97784734,-0.0011058848,0.0019608464,0.2093289,0.0,0.0,0.0,0.0,0
154828000,0.9778474,-0.001139343,0.0019283727,0.20932882,0.0,0.0,0.0,0.0,0
154844000,0.9778471,-0.0012008785,0.0018584708,0.20933038,0.0,0.0,0.0,0.0,0
154852000,0.97784686,-0.0012263736,0.0018228883,0.20933166,0.0,0.0,0.0,0.0,0
154868000,0.9778463,-0.0012571345,0.001763312,0.20933472,0.0,0.0,0.0,0.0,0
154880000,0.9778458,-0.0012606261,0.001732007,0.20933741,0.0,0.0,0.0,0.0,0
154888000,0.9778454,-0.0012579497,0.0017178619,0.2093393,0.0,0.0,0.0,0.0,0
154904000,0.9778447,-0.0012486381,0.0016954098,0.20934275,0.0,0.0,0.0,0.0,0
154916000,0.9778444,-0.001240473,0.0016799103,0.2093443,0.0,0.0,0.0,0.0,0
154928000,0.9778442,-0.0012447506,0.0016678047,0.20934556,0.0,0.0,0.0,0.0,0
154940000,0.97784406,-0.0012668106,0.001660487,0.2093461,0.0,0.0,0.0,0.0,0
154952000,0.97784424,-0.0013025793,0.0016544559,0.20934492,0.0,0.0,0.0,0.0,0
154964000,0.9778447,-0.0013549244,0.0016483857,0.20934244,0.0,0.0,0.0,0.0,0
154976000,0.97784513,-0.001416425,0.0016412287,0.2093401,0.0,0.0,0.0,0.0,0
154988000,0.9778454,-0.0014760931,0.0016270499,0.20933862,0.0,0.0,0.0,0.0,0
155000000,0.97784555,-0.001525781,0.0016098701,0.20933758,0.0,0.0,0.0,0.0,0
155012000,0.9778455,-0.0015585225,0.0015943648,0.20933779,0.0,0.0,0.0,0.0,0
155024000,0.9778452,-0.0015719729,0.0015796733,0.20933928,0.0,0.0,0.0,0.0,0
155032000,0.9778449,-0.001576123,0.0015675804,0.20934057,0.0,0.0,0.0,0.0,0
155048000,0.9778446,-0.0015805089,0.0015287814,0.20934233,0.0,0.0,0.0,0.0,0
155056000,0.97784466,-0.0015715315,0.0015077392,0.20934238,0.0,0.0,0.0,0.0,0
155068000,0.9778449,-0.0015439196,0.0014767668,0.20934169,0.0,0.0,0.0,0.0,0
155084000,0.97784567,-0.0015042056,0.0014361292,0.20933841,0.0,0.0,0.0,0.0,0
155096000,0.97784686,-0.0014739934,0.0014147137,0.20933339,0.0,0.0,0.0,0.0,0
155104000,0.9778478,-0.0014539642,0.00140698,0.20932905,0.0,0.0,0.0,0.0,0
155120000,0.9778501,-0.0014075353,0.0014086739,0.20931867,0.0,0.0,0.0,0.0,0
155128000,0.97785133,-0.0013796778,0.0014136531,0.20931317,0.0,0.0,0.0,0.0,0
155144000,0.9778538,-0.0013248753,0.0014349371,0.20930198,0.0,0.0,0.0,0.0,0
155152000,0.9778549,-0.0013020211,0.0014524225,0.20929654,0.0,0.0,0.0,0.0,0
155164000,0.9778566,-0.001273923,0.0014847418,0.20928885,0.0,0.0,0.0,0.0,0
155180000,0.9778588,-0.0012456423,0.0015391678,0.20927837,0.0,0.0,0.0,0.0,0
155192000,0.97786057,-0.0012340682,0.0015816375,0.20926973,0.0,0.0,0.0,0.0,0
155204000,0.9778624,-0.0012344401,0.0016153308,0.20926064,0.0,0.0,0.0,0.0,0
155212000,0.9778637,-0.0012380317,0.001630821,0.20925446,0.0,0.0,0.0,0.0,0
155228000,0.9778662,-0.0012487741,0.0016513447,0.20924276,0.0,0.0,0.0,0.0,0
155240000,0.9778677,-0.0012478892,0.0016499446,0.20923576,0.0,0.0,0.0,0.0,0
155252000,0.977869,-0.0012422983,0.0016333598,0.20922984,0.0,0.0,0.0,0.0,0
155264000,0.97787017,-0.0012369194,0.0016005536,0.20922469,0.0,0.0,0.0,0.0,0
155276000,0.9778712,-0.0012395689,0.0015533372,0.20922035,0.0,0.0,0.0,0.0,0
155288000,0.9778719,-0.0012497086,0.0015021136,0.20921724,0.0,0.0,0.0,0.0,0
155300000,0.9778724,-0.0012607069,0.0014501936,0.20921536,0.0,0.0,0.0,0.0,0
155308000,0.97787255,-0.0012640187,0.0014129338,0.20921469,0.0,0.0,0.0,0.0,0
155324000,0.9778727,-0.0012727289,0.0013196002,0.20921431,0.0,0.0,0.0,0.0,0
155336000,0.9778728,-0.0012858761,0.0012353485,0.20921445,0.0,0.0,0.0,0.0,0
155348000,0.9778729,-0.0013103371,0.0011381749,0.2092145,0.0,0.0,0.0,0.0,0
155360000,0.97787297,-0.0013390738,0.0010355274,0.20921443,0.0,0.0,0.0,0.0,0
155368000,0.9778731,-0.0013578658,0.00096962537,0.20921421,0.0,0.0,0.0,0.0,0
155380000,0.9778733,-0.0013824143,0.00087800383,0.20921336,0.0,0.0,0.0,0.0,0
155396000,0.9778739,-0.0014111472,0.00077008136,0.20921068,0.0,0.0,0.0,0.0,0
155404000,0.97787434,-0.0014206672,0.0007256318,0.20920871,0.0,0.0,0.0,0.0,0
155416000,0.97787505,-0.0014354867,0.0006722404,0.20920557,0.0,0.0,0.0,0.0,0
155432000,0.97787553,-0.001448214,0.0006161021,0.20920329,0.0,0.0,0.0,0.0,0
155440000,0.9778756,-0.0014469607,0.00059491466,0.20920323,0.0,0.0,0.0,0.0,0
155452000,0.9778754,-0.0014361261,0.00057318865,0.20920426,0.0,0.0,0.0,0.0,0
155468000,0.9778748,-0.0014154412,0.00055851374,0.20920713,0.0,0.0,0.0,0.0,0
155480000,0.97787416,-0.001380699,0.0005550252,0.20921054,0.0,0.0,0.0,0.0,0
155492000,0.9778732,-0.0013369243,0.0005500048,0.20921516,0.0,0.0,0.0,0.0,0
155504000,0.97787213,-0.0012981241,0.0005453833,0.20922035,0.0,0.0,0.0,0.0,0
155516000,0.9778711,-0.0012722964,0.0005441748,0.20922543,0.0,0.0,0.0,0.0,0
155528000,0.9778702,-0.0012544455,0.0005419656,0.20922975,0.0,0.0,0.0,0.0,0
155540000,0.9778695,-0.0012411234,0.00054225296,0.20923297,0.0,0.0,0.0,0.0,0
155548000,0.97786915,-0.0012385596,0.0005446849,0.20923491,0.0,0.0,0.0,0.0,0
155564000,0.97786826,-0.0012391676,0.00055367505,0.20923904,0.0,0.0,0.0,0.0,0
155576000,0.9778675,-0.0012398454,0.000564001,0.20924246,0.0,0.0,0.0,0.0,0
155588000,0.9778666,-0.0012465032,0.0005815318,0.20924674,0.0,0.0,0.0,0.0,0
155600000,0.9778654,-0.0012548276,0.00060301827,0.209252,0.0,0.0,0.0,0.0,0
155612000,0.97786415,-0.0012658389,0.0006262947,0.20925784,0.0,0.0,0.0,0.0,0
155620000,0.97786325,-0.0012773738,0.00063691434,0.20926183,0.0,0.0,0.0,0.0,0
