timestamp,ref_timestamp,ref_lat,ref_lon,x,y,z,delta_xy[0],delta_xy[1],delta_z,vx,vy,vz,z_deriv,delta_vxy[0],delta_vxy[1],delta_vz,ax,ay,az,yaw,ref_alt,dist_bottom,dist_bottom_rate,eph,epv,evh,evv,vxy_max,vz_max,hagl_min,hagl_max,xy_valid,z_valid,v_xy_valid,v_z_valid,xy_reset_counter,z_reset_counter,vxy_reset_counter,vz_reset_counter,xy_global,z_global,dist_bottom_valid
146200000,1688000,47.3977508,8.5456074,0.022864707,-0.06609332,0.066287465,-0.022968095,-0.0035443609,0.0,-0.032961976,-0.03412522,0.013637623,-0.041066848,-0.059729103,-0.009160716,0.12626225,-0.031833723,0.02310158,-0.022419726,0.41035813,0.0,0.11880999,-0.013637623,0.4176178,0.23543268,0.17490101,0.105507396,inf,inf,inf,inf,1,1,1,1,2,0,2,2,1,1,1
146296000,1688000,47.3977508,8.5456074,0.023706082,-0.06713881,0.062903255,-0.022968095,-0.0035443609,0.0,-0.030721862,-0.033572104,0.010257589,-0.043315247,-0.059729103,-0.009160716,0.12626225,0.09188788,0.0132005215,-0.043658536,0.41034684,0.0,0.1221942,-0.010257589,0.42980018,0.23672979,0.17931245,0.10606464,inf,inf,inf,inf,1,1,1,1,2,0,2,2,1,1,1
146392000,1688000,47.3977508,8.5456074,0.024569437,-0.06781432,0.060006823,-0.022968095,-0.0035443609,0.0,-0.029306635,-0.03183667,0.009401807,-0.042498756,-0.059729103,-0.009160716,0.12626225,-0.04918272,0.04129781,-0.0035380942,0.4103338,0.0,0.12509063,-0.009401807,0.41621754,0.23496418,0.17412254,0.10512934,inf,inf,inf,inf,1,1,1,1,2,0,2,2,1,1,1
146496000,1688000,47.3977508,8.5456074,0.025181124,-0.068298094,0.05715242,-0.022968095,-0.0035443609,0.0,-0.030273827,-0.030770544,0.008645502,-0.041290194,-0.059729103,-0.009160716,0.12626225,0.049108043,-0.047222562,-0.07637496,0.4101538,0.0,0.12794504,-0.008645502,0.42935184,0.23524877,0.17890212,0.105440825,inf,inf,inf,inf,1,1,1,1,2,0,2,2,1,1,1
146592000,1688000,47.3977508,8.5456074,0.02572207,-0.06879053,0.05449992,-0.022968095,-0.0035443609,0.0,-0.027717158,-0.031538848,0.0060940413,-0.042090017,-0.059729103,-0.009160716,0.12626225,-0.013433239,-0.016305922,0.0474276,0.41015884,0.0,0.13059753,-0.0060940413,0.4158354,0.23511966,0.17375344,0.10496115,inf,inf,inf,inf,1,1,1,1,2,0,2,2,1,1,1
146696000,1688000,47.3977508,8.5456074,0.026263803,-0.06948722,0.052335247,-0.022968095,-0.0035443609,0.0,-0.027574262,-0.03168354,0.0050681923,-0.040574238,-0.059729103,-0.009160716,0.12626225,0.0155565785,-0.0068953517,-0.045472752,0.41006804,0.0,0.13276221,-0.0050681923,0.42893258,0.23538409,0.1785228,0.10527755,inf,inf,inf,inf,1,1,1,1,2,0,2,2,1,1,1
146792000,1688000,47.3977508,8.5456074,0.026486471,-0.069662124,0.04960176,-0.022968095,-0.0035443609,0.0,-0.02656463,-0.02947319,0.0015347535,-0.042666834,-0.059729103,-0.009160716,0.12626225,0.02272258,0.0074805864,-0.024193896,0.40994003,0.0,0.13549569,-0.0015347535,0.41547757,0.23524411,0.1734294,0.10480779,inf,inf,inf,inf,1,1,1,1,2,0,2,2,1,1,1
146896000,1688000,47.3977508,8.5456074,0.026474196,-0.06945378,0.04614224,-0.022968095,-0.0035443609,0.0,-0.025858978,-0.027317142,-0.0020935535,-0.04497824,-0.059729103,-0.009160716,0.12626225,-0.04399618,0.05985233,0.034361143,0.40977162,0.0,0.13895522,0.0020935535,0.4285416,0.23549148,0.17819853,0.105130345,inf,inf,inf,inf,1,1,1,1,2,0,2,2,1,1,1
146992000,1688000,47.3977508,8.5456074,0.026500408,-0.069101885,0.04262255,-0.022968095,-0.0035443609,0.0,-0.02749613,-0.024140233,-0.004329243,-0.046199247,-0.059729103,-0.009160716,0.12626225,0.03426679,0.014177166,-0.025007872,0.40971667,0.0,0.1424749,0.004329243,0.41514346,0.23534304,0.1731559,0.10467089,inf,inf,inf,inf,1,1,1,1,2,0,2,2,1,1,1
147096000,1688000,47.3977508,8.5456074,0.026409203,-0.06856777,0.038713854,-0.022968095,-0.0035443609,0.0,-0.026629917,-0.022296669,-0.01021094,-0.05075888,-0.059729103,-0.009160716,0.12626225,-0.023904292,-0.02011721,-0.07351208,0.40946814,0.0,0.1463836,0.01021094,0.4281783,0.23557618,0.1779308,0.10500043,inf,inf,inf,inf,1,1,1,1,2,0,2,2,1,1,1
147192000,1688000,47.3977508,8.5456074,0.026898043,-0.06779818,0.034959394,-0.022968095,-0.0035443609,0.0,-0.025728423,-0.020040922,-0.01329452,-0.052460995,-0.059729103,-0.009160716,0.12626225,0.083237804,0.03099628,-0.037426125,0.4093478,0.0,0.15013807,0.01329452,0.4148329,0.23542148,0.1729308,0.10455137,inf,inf,inf,inf,1,1,1,1,2,0,2,2,1,1,1
147296000,1688000,47.3977508,8.5456074,0.027716724,-0.06677786,0.030456364,-0.022968095,-0.0035443609,0.0,-0.024918724,-0.018027576,-0.018018624,-0.055956718,-0.059729103,-0.009160716,0.12626225,0.023613792,-0.0031052658,-0.033272427,0.40931538,0.0,0.15464109,0.018018624,0.42784214,0.2356521,0.17771581,0.10489247,inf,inf,inf,inf,1,1,1,1,2,0,2,2,1,1,1
147392000,1688000,47.3977508,8.5456074,0.028433612,-0.06591647,0.025289524,-0.022968095,-0.0035443609,0.0,-0.023712046,-0.017627371,-0.023091458,-0.0605225,-0.059729103,-0.009160716,0.12626225,-0.005135858,0.038714625,0.015984287,0.4093836,0.0,0.15980794,0.023091458,0.41454512,0.23549294,0.17274831,0.104453534,inf,inf,inf,inf,1,1,1,1,2,0,2,2,1,1,1
147496000,1688000,47.3977508,8.5456074,0.028906448,-0.06513124,0.019251203,-0.022968095,-0.0035443609,0.0,-0.026503732,-0.015846258,-0.027138157,-0.06405417,-0.059729103,-0.009160716,0.12626225,0.021998914,0.062390998,-0.0057602297,0.4091987,0.0,0.16584626,0.027138157,0.4275321,0.23571452,0.17753433,0.104802415,inf,inf,inf,inf,1,1,1,1,2,0,2,2,1,1,1
147592000,1688000,47.3977508,8.5456074,0.029086156,-0.06437909,0.014233716,-0.022968095,-0.0035443609,0.0,-0.026554104,-0.014310946,-0.02859303,-0.06421862,-0.059729103,-0.009160716,0.12626225,-0.04088667,-0.0034129515,-0.033299435,0.40909275,0.0,0.17086375,0.02859303,0.41427928,0.2355529,0.17260242,0.10437325,inf,inf,inf,inf,1,1,1,1,2,0,2,2,1,1,1
147696000,1688000,47.3977508,8.5456074,0.028994352,-0.063619606,0.00867698,-0.022968095,-0.0035443609,0.0,-0.02743605,-0.014205238,-0.032197744,-0.066440806,-0.059729103,-0.009160716,0.12626225,0.015301524,0.0110499235,-0.015771015,0.40924492,0.0,0.17642048,0.032197744,0.42724726,0.23576759,0.1773877,0.10472998,inf,inf,inf,inf,1,1,1,1,2,0,2,2,1,1,1
147792000,1688000,47.3977508,8.5456074,0.029056808,-0.06297178,0.003682368,-0.022968095,-0.0035443609,0.0,-0.02423893,-0.01275443,-0.03384902,-0.06655757,-0.059729103,-0.009160716,0.12626225,0.027890021,0.010628864,0.040279698,0.40930206,0.0,0.18141508,0.03384902,0.4140353,0.23560466,0.17247634,0.104309954,inf,inf,inf,inf,1,1,1,1,2,0,2,2,1,1,1
147896000,1688000,47.3977508,8.5456074,0.029254986,-0.062255904,-0.0011498677,-0.022968095,-0.0035443609,0.0,-0.023785235,-0.010078934,-0.037031583,-0.06751352,-0.059729103,-0.009160716,0.12626225,-0.06881225,0.04153821,-0.0051362435,0.409383,0.0,0.18624732,0.037031583,0.42698658,0.23581447,0.17726505,0.10467431,inf,inf,inf,inf,1,1,1,1,2,0,2,2,1,1,1
147992000,1688000,47.3977508,8.5456074,0.028592613,-0.06193571,-0.0057513104,-0.022968095,-0.0035443609,0.0,-0.02420274,-0.0080867335,-0.04104584,-0.06950848,-0.059729103,-0.009160716,0.12626225,-0.003542067,-0.025525633,-0.018011777,0.40944874,0.0,0.19084877,0.04104584,0.4394765,0.23536421,0.18173784,0.10482458,inf,inf,inf,inf,1,1,1,1,2,0,2,2,1,1,1
148096000,1688000,47.3977508,8.5456074,0.028247556,-0.06187439,-0.0109720025,-0.022968095,-0.0035443609,0.0,-0.024207758,-0.0075794035,-0.06303415,-0.08913607,-0.059729103,-0.009160716,0.12626225,-0.058171134,0.025306808,-0.7979962,0.40939853,0.0,0.19606946,0.06303415,0.42549455,0.23583749,0.17645314,0.10458911,inf,inf,inf,inf,1,1,1,1,2,0,2,2,1,1,1
148192000,1688000,47.3977508,8.5456074,0.028035128,-0.06185266,-0.023667468,-0.022968095,-0.0035443609,0.0,-0.021586495,-0.0032789644,-0.20726682,-0.2311393,-0.059729103,-0.009160716,0.12626225,0.040632494,0.11769421,-1.5293862,0.40933225,0.0,0.20876493,0.20726682,0.43788818,0.23539302,0.18092617,0.104750685,inf,inf,inf,inf,1,1,1,1,2,0,2,2,1,1,1
148296000,1688000,47.3977508,8.5456074,0.028782148,-0.06115221,-0.052379,-0.022968095,-0.0035443609,0.0,-0.014048896,0.004805224,-0.3470427,-0.36813962,-0.059729103,-0.009160716,0.12626225,-0.023758372,0.08951427,-1.2204386,0.4096279,0.0,0.23747645,0.3470427,0.42414203,0.23586634,0.1759972,0.104523584,inf,inf,inf,inf,1,1,1,1,2,0,2,2,1,1,1
148400000,1688000,47.3977508,8.5456074,0.029944453,-0.059716083,-0.09446469,-0.022968095,-0.0035443609,0.0,-0.009130765,0.010093071,-0.48172924,-0.49994236,-0.059729103,-0.009160716,0.12626225,0.032254115,0.060853124,-1.3613411,0.40993324,0.0,0.27956215,0.48172924,0.43752784,0.23606636,0.18148336,0.104886435,inf,inf,inf,inf,1,1,1,1,2,0,2,2,1,1,1
148496000,1688000,47.3977508,8.5456074,0.032001004,-0.05744119,-0.14517204,-0.022968095,-0.0035443609,0.0,-0.005252979,0.01244319,-0.6105102,-0.6254379,-0.059729103,-0.009160716,0.12626225,0.047346067,-0.031186506,-1.3494724,0.41013417,0.0,0.33026952,0.6105102,0.42293152,0.23427035,0.17645796,0.10404548,inf,inf,inf,inf,1,1,1,1,2,0,2,2,1,1,1
148592000,1688000,47.3977508,8.5456074,0.034150906,-0.0548768,-0.20764871,-0.022968095,-0.0035443609,0.0,-0.004059317,0.01295481,-0.7373518,-0.74901116,-0.059729103,-0.009160716,0.12626225,0.02239774,0.007101631,-1.4119846,0.41025317,0.0,0.39274615,0.7373518,0.43523875,0.23545596,0.18143919,0.10465107,inf,inf,inf,inf,1,1,1,1,2,0,2,2,1,1,1
148696000,1688000,47.3977508,8.5456074,0.036241435,-0.051425513,-0.2886057,-0.022968095,-0.0035443609,0.0,-0.0034641768,0.011699956,-0.8775564,-0.8853733,-0.059729103,-0.009160716,0.12626225,-0.001325232,-0.08271176,-1.3918457,0.4102865,0.0,0.47370315,0.8775564,0.42187247,0.2343074,0.17688268,0.104012124,inf,inf,inf,inf,1,1,1,1,2,0,2,2,1,1,1
148792000,1688000,47.3977508,8.5456074,0.03757575,-0.048199717,-0.37602556,-0.022968095,-0.0035443609,0.0,-0.006899092,0.009981763,-1.0047181,-1.0093544,-0.059729103,-0.009160716,0.12626225,-0.010775281,0.011832169,-1.2967819,0.41037443,0.0,0.561123,1.0047181,0.4341624,0.23549396,0.18189473,0.104623474,inf,inf,inf,inf,1,1,1,1,2,0,2,2,1,1,1
148896000,1688000,47.3977508,8.5456074,0.03968542,-0.044531457,-0.48396796,-0.022968095,-0.0035443609,0.0,-0.006034883,0.009439536,-1.1415597,-1.1427418,-0.059729103,-0.009160716,0.12626225,0.038677383,-0.045062296,-1.3566548,0.41043004,0.0,0.6690654,1.1415597,0.42094967,0.2343472,0.17735447,0.10399113,inf,inf,inf,inf,1,1,1,1,2,0,2,2,1,1,1
148992000,1688000,47.3977508,8.5456074,0.041876353,-0.04135568,-0.59597594,-0.022968095,-0.0035443609,0.0,-0.007918043,0.007674346,-1.2694188,-1.2673309,-0.059729103,-0.009160716,0.12626225,0.0012331838,-0.025587028,-1.3356767,0.4104213,0.0,0.7810734,1.2694188,0.43323094,0.2355356,0.18236965,0.104607806,inf,inf,inf,inf,1,1,1,1,2,0,2,2,1,1,1
149096000,1688000,47.3977508,8.5456074,0.04363184,-0.03806961,-0.7302809,-0.022968095,-0.0035443609,0.0,-0.0056609767,0.0055201408,-1.4067392,-1.4007233,-0.059729103,-0.009160716,0.12626225,0.12341956,-0.040852785,-1.3679265,0.41055995,0.0,0.91537833,1.4067392,0.42015028,0.23439945,0.17782582,0.10398499,inf,inf,inf,inf,1,1,1,1,2,0,2,2,1,1,1
149192000,1688000,47.3977508,8.5456074,0.044798873,-0.035254933,-0.86710936,-0.022968095,-0.0035443609,0.0,-0.007814278,0.004759151,-1.5352349,-1.5261605,-0.059729103,-0.009160716,0.12626225,-0.029598117,-0.022327036,-1.4529153,0.4103833,0.0,1.0522068,1.5352349,0.4324297,0.23559904,0.18285297,0.10461023,inf,inf,inf,inf,1,1,1,1,2,0,2,2,1,1,1
149296000,1688000,47.3977508,8.5456074,0.045747448,-0.03285156,-1.029832,-0.022968095,-0.0035443609,0.0,-0.009760665,0.0025617562,-1.6741477,-1.6625367,-0.059729103,-0.009160716,0.12626225,-0.07237312,-0.0747551,-1.3600373,0.4104079,0.0,1.2149295,1.6741477,0.41946214,0.2344725,0.17829609,0.10399522,inf,inf,inf,inf,1,1,1,1,2,0,2,2,1,1,1
149392000,1688000,47.3977508,8.5456074,0.04632091,-0.031233113,-1.1927148,-0.022968095,-0.0035443609,0.0,-0.008780063,-0.00030699398,-1.7989736,-1.7854282,-0.059729103,-0.009160716,0.12626225,-0.02871619,-0.09737082,-1.390715,0.41050714,0.0,1.3778123,1.7989736,0.43174574,0.23567474,0.1833464,0.104624406,inf,inf,inf,inf,1,1,1,1,2,0,2,2,1,1,1
149496000,1688000,47.3977508,8.5456074,0.046958115,-0.03007557,-1.3827785,-0.022968095,-0.0035443609,0.0,-0.0106879445,-0.0019789857,-1.9363843,-1.9208463,-0.059729103,-0.009160716,0.12626225,-0.1136146,0.016050093,-1.2973294,0.4103709,0.0,1.567876,1.9363843,0.41887408,0.23454873,0.17875946,0.10401245,inf,inf,inf,inf,1,1,1,1,2,0,2,2,1,1,1
149592000,1688000,47.3977508,8.5456074,0.047207292,-0.02942767,-1.5711243,-0.022968095,-0.0035443609,0.0,-0.012392204,-0.0045630904,-2.0627687,-2.0459516,-0.059729103,-0.009160716,0.12626225,-0.016576907,-0.0916349,-1.3903891,0.41016224,0.0,1.7562218,2.0627687,0.4311664,0.23575401,0.18379943,0.10464519,inf,inf,inf,inf,1,1,1,1,2,0,2,2,1,1,1
149696000,1688000,47.3977508,8.5456074,0.047398057,-0.029291077,-1.7881974,-0.022968095,-0.0035443609,0.0,-0.013926397,-0.0073526227,-2.1980848,-2.1792617,-0.059729103,-0.009160716,0.12626225,0.003614118,0.12652983,-1.3474923,0.41025546,0.0,1.9732949,2.1980848,0.4183758,0.23462886,0.17917909,0.10403569,inf,inf,inf,inf,1,1,1,1,2,0,2,2,1,1,0
149792000,1688000,47.3977508,8.5456074,0.04746716,-0.029460516,-2.0011928,-0.022968095,-0.0035443609,0.0,-0.012527536,-0.0077304184,-2.3224905,-2.302239,-0.059729103,-0.009160716,0.12626225,-0.08927239,-0.034868702,-1.3627809,0.41261953,0.0,2.1862903,2.3224905,0.4306411,0.23421478,0.18120621,0.10424488,inf,inf,inf,inf,1,1,1,1,2,0,2,2,1,1,0
149896000,1688000,47.3977508,8.5456074,0.04705996,-0.030203227,-2.2444277,-0.022968095,-0.0035443609,0.0,-0.013522646,-0.010846728,-2.4563818,-2.4337094,-0.059729103,-0.009160716,0.12626225,-0.049809482,-0.08180111,-1.0295565,0.41174072,0.0,2.4295251,2.4563818,0.41794464,0.23472188,0.17261598,0.10406738,inf,inf,inf,inf,1,1,1,1,2,0,2,2,1,1,0
149992000,1688000,47.3977508,8.5456074,0.046172462,-0.03105629,-2.4752343,-0.022968095,-0.0035443609,0.0,-0.013120837,-0.010873013,-2.4025195,-2.3780153,-0.059729103,-0.009160716,0.12626225,0.027073827,-0.05448586,1.8875002,0.4108273,0.0,2.6603317,2.4025195,0.42984092,0.23430951,0.17396519,0.10427899,inf,inf,inf,inf,1,1,1,1,2,0,2,2,1,1,0
150096000,1688000,47.3977508,8.5456074,0.045497335,-0.03173145,-2.7094917,-0.022968095,-0.0035443609,0.0,-0.0130582815,-0.009883538,-2.1982348,-2.1725535,-0.059729103,-0.009160716,0.12626225,0.047908213,-0.022909025,1.4585358,0.41031176,0.0,2.8945892,2.1982348,0.4172569,0.23481901,0.16699958,0.10410333,inf,inf,inf,inf,1,1,1,1,2,0,2,2,1,1,0
150192000,1688000,47.3977508,8.5456074,0.044819664,-0.032272484,-2.9102411,-0.022968095,-0.0035443609,0.0,-0.015357942,-0.011791968,-2.0865936,-2.059576,-0.059729103,-0.009160716,0.12626225,-0.03553769,-0.033272747,1.040372,0.4097085,0.0,3.0953386,2.0865936,0.4287965,0.2344084,0.16883881,0.104317024,inf,inf,inf,inf,1,1,1,1,2,0,2,2,1,1,0
150296000,1688000,47.3977508,8.5456074,0.04446618,-0.032916885,-3.1183753,-0.022968095,-0.0035443609,0.0,-0.014474928,-0.013530117,-1.9761609,-1.949541,-0.059729103,-0.009160716,0.12626225,0.008573955,-0.018943068,1.0828022,0.40915722,0.0,3.3034728,1.9761609,0.41634667,0.2349203,0.16274813,0.104142725,inf,inf,inf,inf,1,1,1,1,2,0,2,2,1,1,0
150392000,1688000,47.3977508,8.5456074,0.0441706,-0.033490706,-3.300067,-0.022968095,-0.0035443609,0.0,-0.01707567,-0.0125200115,-1.8689219,-1.8427224,-0.059729103,-0.009160716,0.12626225,-0.04954852,0.020044545,1.0408022,0.40861928,0.0,3.4851644,1.8689219,0.42756382,0.23451139,0.16522045,0.10435811,inf,inf,inf,inf,1,1,1,1,2,0,2,2,1,1,0
150496000,1688000,47.3977508,8.5456074,0.043317888,-0.033756524,-3.4855855,-0.022968095,-0.0035443609,0.0,-0.016348585,-0.010512177,-1.7653482,-1.7392241,-0.059729103,-0.009160716,0.12626225,0.04964926,-0.07609313,0.90173256,0.40828055,0.0,3.670683,1.7653482,0.41526446,0.23341936,0.16025877,0.10376537,inf,inf,inf,inf,1,1,1,1,2,0,2,2,1,1,0
150592000,1688000,47.3977508,8.5456074,0.042300195,-0.03381641,-3.647753,-0.022968095,-0.0035443609,0.0,-0.01624103,-0.008971305,-1.6798941,-1.6537125,-0.059729103,-0.009160716,0.12626225,-0.013863623,0.08740199,0.84076166,0.40835816,0.0,3.8328505,1.6798941,0.4262048,0.23462702,0.1632914,0.104405254,inf,inf,inf,inf,1,1,1,1,2,0,2,2,1,1,0
150696000,1688000,47.3977508,8.5456074,0.04151588,-0.033691265,-3.8143578,-0.022968095,-0.0035443609,0.0,-0.013351082,-0.0051874784,-1.5929424,-1.5665071,-0.059729103,-0.009160716,0.12626225,-0.039191645,0.016155113,0.821297,0.4089292,0.0,3.9994552,1.5929424,0.4140678,0.23353462,0.15922666,0.10381209,inf,inf,inf,inf,1,1,1,1,2,0,2,2,1,1,0
150792000,1688000,47.3977508,8.5456074,0.04087891,-0.033756487,-3.960047,-0.022968095,-0.0035443609,0.0,-0.014811477,-0.007153008,-1.515753,-1.4888759,-0.059729103,-0.009160716,0.12626225,0.018774506,0.0019042926,0.79458857,0.40944546,0.0,4.1451445,1.515753,0.42478356,0.23475479,0.16284654,0.104457304,inf,inf,inf,inf,1,1,1,1,2,0,2,2,1,1,0
150896000,1688000,47.3977508,8.5456074,0.039804112,-0.033739407,-4.108865,-0.022968095,-0.0035443609,0.0,-0.017409408,-0.008012627,-1.4388782,-1.4105572,-0.059729103,-0.009160716,0.12626225,-0.0757219,-0.04214363,0.7443316,0.4100228,0.0,4.2939625,1.4388782,0.41281587,0.23366988,0.15952064,0.103866756,inf,inf,inf,inf,1,1,1,1,2,0,2,2,1,1,0
150992000,1688000,47.3977508,8.5456074,0.038499486,-0.033763587,-4.23911,-0.022968095,-0.0035443609,0.0,-0.018118987,-0.008860739,-1.379773,-1.3496888,-0.059729103,-0.009160716,0.12626225,0.01620486,0.025794832,0.53429693,0.410242,0.0,4.4242077,1.379773,0.4233645,0.23489323,0.16364697,0.10451273,inf,inf,inf,inf,1,1,1,1,2,0,2,2,1,1,0
151096000,1688000,47.3977508,8.5456074,0.037124358,-0.033976015,-4.3738055,-0.022968095,-0.0035443609,0.0,-0.014703656,-0.0082744695,-1.3173932,-1.285462,-0.059729103,-0.009160716,0.12626225,0.049604308,0.003975052,0.64638716,0.40995935,0.0,4.5589027,1.3173932,0.41156816,0.23381492,0.16089681,0.103924334,inf,inf,inf,inf,1,1,1,1,2,0,2,2,1,1,0
151192000,1688000,47.3977508,8.5456074,0.036002085,-0.034316104,-4.492731,-0.022968095,-0.0035443609,0.0,-0.013244465,-0.00910055,-1.2644447,-1.2311903,-0.059729103,-0.009160716,0.12626225,-0.011178391,0.06399498,0.5047638,0.4094732,0.0,4.677829,1.2644447,0.4220101,0.23504142,0.16550703,0.10457107,inf,inf,inf,inf,1,1,1,1,2,0,2,2,1,1,0
151296000,1688000,47.3977508,8.5456074,0.034640018,-0.034830794,-4.6155467,-0.022968095,-0.0035443609,0.0,-0.013486257,-0.01044743,-1.2076867,-1.172859,-0.059729103,-0.009160716,0.12626225,0.005658732,0.0033016547,0.44106504,0.40934446,0.0,4.800644,1.2076867,0.41038185,0.23396067,0.16315956,0.103980616,inf,inf,inf,inf,1,1,1,1,2,0,2,2,1,1,0
151392000,1688000,47.3977508,8.5456074,0.033231676,-0.035459947,-4.7240696,-0.022968095,-0.0035443609,0.0,-0.012694081,-0.010204296,-1.1593423,-1.123387,-0.059729103,-0.009160716,0.12626225,-0.027681649,-0.03594271,0.48473194,0.4091967,0.0,4.9091673,1.1593423,0.42077807,0.23519015,0.16814454,0.10462775,inf,inf,inf,inf,1,1,1,1,2,0,2,2,1,1,0
151496000,1688000,47.3977508,8.5456074,0.031670213,-0.03612948,-4.8363,-0.022968095,-0.0035443609,0.0,-0.0117545435,-0.010611055,-1.1121598,-1.0748223,-0.059729103,-0.009160716,0.12626225,-0.022616807,-0.086144984,0.377818,0.40957457,0.0,5.0213976,1.1121598,0.4093086,0.23410645,0.16602087,0.1040351,inf,inf,inf,inf,1,1,1,1,2,0,2,2,1,1,0
151592000,1688000,47.3977508,8.5456074,0.030389182,-0.036938593,-4.935489,-0.022968095,-0.0035443609,0.0,-0.008776788,-0.010343831,-1.0709374,-1.0322554,-0.059729103,-0.009160716,0.12626225,0.023262763,0.059219945,0.36941653,0.40982157,0.0,5.1205864,1.0709374,0.41971758,0.23533875,0.17131297,0.10468253,inf,inf,inf,inf,1,1,1,1,2,0,2,2,1,1,0
151696000,1688000,47.3977508,8.5456074,0.02909217,-0.037451643,-5.0386653,-0.022968095,-0.0035443609,0.0,-0.007762359,-0.009219069,-1.0279444,-0.98787236,-0.059729103,-0.009160716,0.12626225,0.035053305,-0.0069235535,0.42647213,0.40986925,0.0,5.2237625,1.0279444,0.40839174,0.23425232,0.16927302,0.1040876,inf,inf,inf,inf,1,1,1,1,2,0,2,2,1,1,0
151792000,1688000,47.3977508,8.5456074,0.02803165,-0.03785696,-5.129498,-0.022968095,-0.0035443609,0.0,-0.0065592034,-0.009508793,-0.98936844,-0.9478402,-0.059729103,-0.009160716,0.12626225,0.053577457,-0.023170955,0.394077,0.410015,0.0,5.314595,0.98936844,0.41886806,0.23387173,0.17482679,0.104310535,inf,inf,inf,inf,1,1,1,1,2,0,2,2,1,1,0
151896000,1688000,47.3977508,8.5456074,0.026989717,-0.038444992,-5.2237678,-0.022968095,-0.0035443609,0.0,-0.005425492,-0.0106506515,-0.9530883,-0.9099387,-0.059729103,-0.009160716,0.12626225,0.050878447,0.0678552,0.2538869,0.41007453,0.0,5.408865,0.9530883,0.4076648,0.23440664,0.17270465,0.104141764,inf,inf,inf,inf,1,1,1,1,2,0,2,2,1,1,0
151992000,1688000,47.3977508,8.5456074,0.026139494,-0.039055765,-5.3078766,-0.022968095,-0.0035443609,0.0,-0.004223926,-0.00959208,-0.9219779,-0.87774456,-0.059729103,-0.009160716,0.12626225,-0.066285565,0.01976762,0.26939157,0.4102424,0.0,5.4929743,0.9219779,0.4182562,0.23402543,0.17842953,0.104363754,inf,inf,inf,inf,1,1,1,1,2,0,2,2,1,1,0
152096000,1688000,47.3977508,8.5456074,0.025063274,-0.039467234,-5.3951035,-0.022968095,-0.0035443609,0.0,-0.0013129672,-0.00979404,-0.8864249,-0.8406479,-0.059729103,-0.009160716,0.12626225,0.056485716,0.020429635,0.3800746,0.41024375,0.0,5.580201,0.8864249,0.40714929,0.23456025,0.17616399,0.10419339,inf,inf,inf,inf,1,1,1,1,2,0,2,2,1,1,0
152192000,1688000,47.3977508,8.5456074,0.024125338,-0.03989889,-5.472666,-0.022968095,-0.0035443609,0.0,-8.6701235e-05,-0.010380834,-0.85950583,-0.8125774,-0.059729103,-0.009160716,0.12626225,-0.07024048,0.03254906,0.24526379,0.41045716,0.0,5.6577635,0.85950583,0.4178961,0.23417825,0.18202518,0.10441432,inf,inf,inf,inf,1,1,1,1,2,0,2,2,1,1,0
152296000,1688000,47.3977508,8.5456074,0.023231069,-0.040860377,-5.553036,-0.022968095,-0.0035443609,0.0,3.5866247e-05,-0.010101509,-0.8262007,-0.7776011,-0.059729103,-0.009160716,0.12626225,0.03184343,0.009256261,0.2621738,0.4104383,0.0,5.7381334,0.8262007,0.40685543,0.23471285,0.17948507,0.1042425,inf,inf,inf,inf,1,1,1,1,2,0,2,2,1,1,0
152392000,1688000,47.3977508,8.5456074,0.022547225,-0.042061657,-5.624162,-0.022968095,-0.0035443609,0.0,0.0017125602,-0.012340033,-0.80249894,-0.75233084,-0.059729103,-0.009160716,0.12626225,-0.03449939,-0.0064042937,0.22781266,0.41032383,0.0,5.8092594,0.80249894,0.41778827,0.2343299,0.18542205,0.104462385,inf,inf,inf,inf,1,1,1,1,2,0,2,2,1,1,0
152496000,1688000,47.3977508,8.5456074,0.020889824,-0.043415487,-5.6984115,-0.022968095,-0.0035443609,0.0,-0.000489997,-0.010296747,-0.77189755,-0.720029,-0.059729103,-0.009160716,0.12626225,-0.02966132,0.060306475,0.22782478,0.41021416,0.0,5.8835087,0.77189755,0.4067809,0.23326124,0.18255773,0.103869915,inf,inf,inf,inf,1,1,1,1,2,0,2,2,1,1,0
152592000,1688000,47.3977508,8.5456074,0.018718136,-0.044666886,-5.7643156,-0.022968095,-0.0035443609,0.0,-0.0015651862,-0.011763069,-0.74797326,-0.6948153,-0.059729103,-0.009160716,0.12626225,0.062005293,-0.024412714,0.17042643,0.4102226,0.0,5.9494133,0.74797326,0.41792077,0.23448882,0.18854299,0.104511864,inf,inf,inf,inf,1,1,1,1,2,0,2,2,1,1,0
152696000,1688000,47.3977508,8.5456074,0.016846176,-0.045734264,-5.833119,-0.022968095,-0.0035443609,0.0,0.0022850959,-0.011572633,-0.7230538,-0.66847986,-0.059729103,-0.009160716,0.12626225,0.06386454,0.02546585,0.26785114,0.4103585,0.0,6.018216,0.7230538,0.40691346,0.23341648,0.18531553,0.10391688,inf,inf,inf,inf,1,1,1,1,2,0,2,2,1,1,0
152792000,1688000,47.3977508,8.5456074,0.015747072,-0.04640308,-5.8946385,-0.022968095,-0.0035443609,0.0,0.0041684615,-0.008808173,-0.70181054,-0.64647645,-0.059729103,-0.009160716,0.12626225,0.019298058,0.06118783,0.12433435,0.41032222,0.0,6.0797358,0.70181054,0.418272,0.23464596,0.19129185,0.104558766,inf,inf,inf,inf,1,1,1,1,2,0,2,2,1,1,0
152896000,1688000,47.3977508,8.5456074,0.01453696,-0.047000136,-5.959189,-0.022968095,-0.0035443609,0.0,0.0065869833,-0.007184126,-0.67871517,-0.6226138,-0.059729103,-0.009160716,0.12626225,0.036110006,0.06262536,0.27808917,0.41026998,0.0,6.144286,0.67871517,0.4072322,0.23357002,0.18769738,0.10396144,inf,inf,inf,inf,1,1,1,1,2,0,2,2,1,1,0
152996000,1688000,47.3977508,8.5456074,0.013598018,-0.04747163,-6.0160084,-0.022968095,-0.0035443609,0.0,0.0071796286,-0.00561621,-0.6577988,-0.6005817,-0.059729103,-0.009160716,0.12626225,-0.004352794,0.023457311,0.18145795,0.41016817,0.0,6.201106,0.6577988,0.4188125,0.23480125,0.193647,0.10460327,inf,inf,inf,inf,1,1,1,1,2,0,2,2,1,1,0
153092000,1688000,47.3977508,8.5456074,0.01307502,-0.04796441,-6.071581,-0.022968095,-0.0035443609,0.0,0.008806403,-0.0053483443,-0.6381321,-0.58048844,-0.059729103,-0.009160716,0.12626225,0.011763927,-0.061245035,0.15356298,0.4102469,0.0,6.2566786,0.6381321,0.43106836,0.23603532,0.19964358,0.10522967,inf,inf,inf,inf,1,1,1,1,2,0,2,2,1,1,0
153196000,1688000,47.3977508,8.5456074,0.0124580385,-0.048262756,-6.130211,-0.022968095,-0.0035443609,0.0,0.009248295,-0.0049700206,-0.6180843,-0.5605225,-0.059729103,-0.009160716,0.12626225,-0.01230689,0.033832233,0.085642554,0.41024238,0.0,6.3153086,0.6180843,0.41829106,0.2349336,0.19465886,0.10459981,inf,inf,inf,inf,1,1,1,1,2,0,2,2,1,1,0
153292000,1688000,47.3977508,8.5456074,0.011917104,-0.048545457,-6.1824183,-0.022968095,-0.0035443609,0.0,0.009893156,-0.0052356697,-0.59558153,-0.5381206,-0.059729103,-0.009160716,0.12626225,-0.030464284,0.046969555,0.17120501,0.4101532,0.0,6.3675156,0.59558153,0.43066818,0.23455508,0.20057973,0.1048026,inf,inf,inf,inf,1,1,1,1,2,0,2,2,1,1,0
153396000,1688000,47.3977508,8.5456074,0.011313037,-0.04867924,-6.236654,-0.022968095,-0.0035443609,0.0,0.008134679,-0.0031712067,-0.577653,-0.52008927,-0.059729103,-0.009160716,0.12626225,0.024983978,0.0021955855,0.17283669,0.4101849,0.0,6.421751,0.577653,0.4179411,0.23508638,0.19535272,0.104606144,inf,inf,inf,inf,1,1,1,1,2,0,2,2,1,1,0
153492000,1688000,47.3977508,8.5456074,0.010993947,-0.048663724,-6.2853713,-0.022968095,-0.0035443609,0.0,0.010437347,-0.0012931261,-0.55976784,-0.50240546,-0.059729103,-0.009160716,0.12626225,0.013821938,-0.0047469507,0.19106734,0.4102707,0.0,6.4704685,0.55976784,0.430434,0.23470384,0.20116518,0.1048075,inf,inf,inf,inf,1,1,1,1,2,0,2,2,1,1,0
153596000,1688000,47.3977508,8.5456074,0.010312706,-0.048505425,-6.336364,-0.022968095,-0.0035443609,0.0,0.013607503,3.5877776e-05,-0.53961784,-0.4826535,-0.059729103,-0.009160716,0.12626225,-0.00016760167,0.040114485,0.19448622,0.41032338,0.0,6.5214615,0.53961784,0.4177332,0.23362231,0.19572832,0.10418713,inf,inf,inf,inf,1,1,1,1,2,0,2,2,1,1,0
153692000,1688000,47.3977508,8.5456074,0.009684757,-0.048196375,-6.3816695,-0.022968095,-0.0035443609,0.0,0.015056568,-0.0009069776,-0.5217148,-0.46521336,-0.059729103,-0.009160716,0.12626225,0.016813328,-0.029990727,0.08991639,0.41044325,0.0,6.5667667,0.5217148,0.4303332,0.23485516,0.20145053,0.104814656,inf,inf,inf,inf,1,1,1,1,2,0,2,2,1,1,0
153796000,1688000,47.3977508,8.5456074,0.008687395,-0.048799332,-6.4290257,-0.022968095,-0.0035443609,0.0,0.01530993,-0.0025078156,-0.5062472,-0.45005283,-0.059729103,-0.009160716,0.12626225,0.027256312,-0.031119168,0.1676306,0.41057143,0.0,6.6141233,0.5062472,0.41763982,0.23376833,0.19580041,0.10419316,inf,inf,inf,inf,1,1,1,1,2,0,2,2,1,1,0
153892000,1688000,47.3977508,8.5456074,0.0076373564,-0.049821798,-6.471822,-0.022968095,-0.0035443609,0.0,0.013736032,-0.0030429913,-0.4906431,-0.43537185,-0.059729103,-0.009160716,0.12626225,-0.06491589,0.013306845,0.04666764,0.41041815,0.0,6.6569195,0.4906431,0.4303339,0.23500058,0.20142588,0.10482085,inf,inf,inf,inf,1,1,1,1,2,0,2,2,1,1,0
153996000,1688000,47.3977508,8.5456074,0.006022757,-0.050514173,-6.5168624,-0.022968095,-0.0035443609,0.0,0.012598108,-0.0024760666,-0.4745839,-0.42040014,-0.059729103,-0.009160716,0.12626225,0.06149917,0.10682643,0.16983318,0.41051176,0.0,6.7019596,0.4745839,0.41763392,0.23390906,0.195629,0.10419865,inf,inf,inf,inf,1,1,1,1,2,0,2,2,1,1,0
154092000,1688000,47.3977508,8.5456074,0.0045657204,-0.05101344,-6.5565066,-0.022968095,-0.0035443609,0.0,0.014643519,-0.0033023902,-0.45806932,-0.40441802,-0.059729103,-0.009160716,0.12626225,0.06705127,0.09240007,0.13228412,0.41055804,0.0,6.741604,0.45806932,0.43040895,0.23514082,0.20114797,0.10482657,inf,inf,inf,inf,1,1,1,1,2,0,2,2,1,1,0
154196000,1688000,47.3977508,8.5456074,0.002929081,-0.051473312,-6.597897,-0.022968095,-0.0035443609,0.0,0.016416304,-0.00446047,-0.44155338,-0.38855475,-0.059729103,-0.009160716,0.12626225,0.025146266,0.014697172,0.09880028,0.41051227,0.0,6.7829943,0.44155338,0.41769242,0.23404464,0.19522007,0.10420376,inf,inf,inf,inf,1,1,1,1,2,0,2,2,1,1,0
154300000,1688000,47.3977508,8.5456074,0.0016725218,-0.05163336,-6.637513,-0.022968095,-0.0035443609,0.0,0.018388994,-0.0019071561,-0.42952374,-0.3769159,-0.059729103,-0.009160716,0.12626225,-0.03562772,0.048617627,0.049213875,0.4106228,0.0,6.822611,0.42952374,0.4316333,0.23429793,0.20107141,0.10459817,inf,inf,inf,inf,1,1,1,1,2,0,2,2,1,1,0
154396000,1688000,47.3977508,8.5456074,0.00044967985,-0.05146014,-6.672508,-0.022968095,-0.0035443609,0.0,0.017936224,-0.0013860052,-0.41774127,-0.36496428,-0.059729103,-0.009160716,0.12626225,0.0023222764,0.05185396,0.08174683,0.41065842,0.0,6.857605,0.41774127,0.41779387,0.23418428,0.1945872,0.104213096,inf,inf,inf,inf,1,1,1,1,2,0,2,2,1,1,0
154492000,1688000,47.3977508,8.5456074,-0.0003808102,-0.051220205,-6.7067633,-0.022968095,-0.0035443609,0.0,0.019907031,-0.001064469,-0.40726876,-0.3546568,-0.059729103,-0.009160716,0.12626225,0.008201426,-0.024407173,0.117028125,0.41067564,0.0,6.891861,0.40726876,0.43068382,0.23541562,0.19990401,0.10484232,inf,inf,inf,inf,1,1,1,1,2,0,2,2,1,1,0
154596000,1688000,47.3977508,8.5456074,-0.0014158714,-0.050490968,-6.743132,-0.022968095,-0.0035443609,0.0,0.021254698,0.00079227233,-0.3930605,-0.3411586,-0.059729103,-0.009160716,0.12626225,0.09075438,-0.0326633,0.10384246,0.41041285,0.0,6.9282293,0.3930605,0.4179199,0.23431958,0.19381814,0.10422299,inf,inf,inf,inf,1,1,1,1,2,0,2,2,1,1,0
154692000,1688000,47.3977508,8.5456074,-0.002145591,-0.049645748,-6.775193,-0.022968095,-0.0035443609,0.0,0.02233839,0.00013209548,-0.38141403,-0.32979363,-0.059729103,-0.009160716,0.12626225,-0.023248026,0.0033270696,0.059543174,0.41052362,0.0,6.960291,0.38141403,0.43084502,0.23555104,0.19901943,0.10485311,inf,inf,inf,inf,1,1,1,1,2,0,2,2,1,1,0
154796000,1688000,47.3977508,8.5456074,-0.003506022,-0.04905449,-6.8092017,-0.022968095,-0.0035443609,0.0,0.021708624,0.0009142739,-0.37072414,-0.319751,-0.059729103,-0.009160716,0.12626225,0.10586978,-0.026721422,0.04142802,0.4105078,0.0,6.994299,0.37072414,0.41805592,0.23445073,0.19288152,0.10423361,inf,inf,inf,inf,1,1,1,1,2,0,2,2,1,1,0
154892000,1688000,47.3977508,8.5456074,-0.0047358004,-0.048829585,-6.8396535,-0.022968095,-0.0035443609,0.0,0.022380624,0.0019002528,-0.3605589,-0.31018895,-0.059729103,-0.009160716,0.12626225,-0.017632976,0.01932738,0.049293038,0.41050264,0.0,7.0247507,0.3605589,0.43100053,0.23568243,0.19798467,0.10486477,inf,inf,inf,inf,1,1,1,1,2,0,2,2,1,1,0
154996000,1688000,47.3977508,8.5456074,-0.0065016947,-0.048914135,-6.87194,-0.022968095,-0.0035443609,0.0,0.022526504,0.00059574866,-0.34830403,-0.29901245,-0.059729103,-0.009160716,0.12626225,0.003946681,-0.03238588,0.055313107,0.41047293,0.0,7.0570374,0.34830403,0.41818833,0.23457846,0.19183594,0.104245394,inf,inf,inf,inf,1,1,1,1,2,0,2,2,1,1,0
155092000,1688000,47.3977508,8.5456074,-0.007987884,-0.04936855,-6.901086,-0.022968095,-0.0035443609,0.0,0.02469412,-0.0013106549,-0.3384286,-0.2903409,-0.059729103,-0.009160716,0.12626225,0.082682244,0.013010197,0.19278842,0.410682,0.0,7.0861835,0.3384286,0.43113908,0.23418836,0.19684249,0.104449786,inf,inf,inf,inf,1,1,1,1,2,0,2,2,1,1,0
155196000,1688000,47.3977508,8.5456074,-0.009898426,-0.05031287,-6.9310246,-0.022968095,-0.0035443609,0.0,0.026713852,-0.0012240518,-0.32535136,-0.2779753,-0.059729103,-0.009160716,0.12626225,0.004416875,-0.008881921,0.15946849,0.4105992,0.0,7.1161222,0.32535136,0.41830745,0.23471189,0.19069223,0.10426218,inf,inf,inf,inf,1,1,1,1,2,0,2,2,1,1,0
155292000,1688000,47.3977508,8.5456074,-0.011694178,-0.051297173,-6.957483,-0.022968095,-0.0035443609,0.0,0.02342796,0.00067474524,-0.31834346,-0.27143127,-0.059729103,-0.009160716,0.12626225,-0.052774876,-0.0004197063,0.024572944,0.41036388,0.0,7.14258,0.31834346,0.43125114,0.23431975,0.19560617,0.1044671,inf,inf,inf,inf,1,1,1,1,2,0,2,2,1,1,0
155396000,1688000,47.3977508,8.5456074,-0.013723394,-0.052516907,-6.9854555,-0.022968095,-0.0035443609,0.0,0.023444537,0.0016805127,-0.30837682,-0.26193988,-0.059729103,-0.009160716,0.12626225,-0.013494499,-0.026700057,0.08082948,0.4103848,0.0,7.170553,0.30837682,0.418405,0.23484254,0.18947582,0.10428019,inf,inf,inf,inf,1,1,1,1,2,0,2,2,1,1,0
155492000,1688000,47.3977508,8.5456074,-0.015110746,-0.053714156,-7.010355,-0.022968095,-0.0035443609,0.0,0.024908828,0.0018249372,-0.300979,-0.2549841,-0.059729103,-0.009160716,0.12626225,0.035728823,0.016581448,0.028437002,0.410269,0.0,7.1954527,0.300979,0.43133014,0.2344485,0.19432312,0.10448564,inf,inf,inf,inf,1,1,1,1,2,0,2,2,1,1,0
155596000,1688000,47.3977508,8.5456074,-0.017078811,-0.054521427,-7.0366507,-0.022968095,-0.0035443609,0.0,0.027502857,0.0043195146,-0.29291332,-0.24731536,-0.059729103,-0.009160716,0.12626225,0.052920382,0.04787767,0.113225535,0.41027942,0.0,7.2217484,0.29291332,0.4184751,0.23497075,0.18823501,0.10429944,inf,inf,inf,inf,1,1,1,1,2,0,2,2,1,1,0
155692000,1688000,47.3977508,8.5456074,-0.018755082,-0.054929502,-7.0600924,-0.022968095,-0.0035443609,0.0,0.02855024,0.005140342,-0.28322002,-0.23808332,-0.059729103,-0.009160716,0.12626225,0.036947567,0.037777387,0.059305687,0.41036284,0.0,7.2451897,0.28322002,0.43137234,0.23457505,0.19300902,0.10450544,inf,inf,inf,inf,1,1,1,1,2,0,2,2,1,1,0
155796000,1688000,47.3977508,8.5456074,-0.020686774,-0.055416323,-7.085006,-0.022968095,-0.0035443609,0.0,0.028136348,0.0070274128,-0.2766011,-0.2322832,-0.059729103,-0.009160716,0.12626225,0.0022547792,0.033200063,0.009708106,0.41058853,0.0,7.2701035,0.2766011,0.41851437,0.23348922,0.18697631,0.103898816,inf,inf,inf,inf,1,1,1,1,2,0,2,2,1,1,0
155892000,1688000,47.3977508,8.5456074,-0.022245456,-0.055892855,-7.107983,-0.022968095,-0.0035443609,0.0,0.027511194,0.0066328044,-0.2676534,-0.22457273,-0.059729103,-0.009160716,0.12626225,-0.0129890535,-0.03269669,0.16225128,0.41015837,0.0,7.2930803,0.2676534,0.4313749,0.23470843,0.19166753,0.10453049,inf,inf,inf,inf,1,1,1,1,2,0,2,2,1,1,0
155996000,1688000,47.3977508,8.5456074,-0.023588713,-0.05673293,-7.132516,-0.022968095,-0.0035443609,0.0,0.028574375,0.0073167854,-0.25954163,-0.21823736,-0.059729103,-0.009160716,0.12626225,0.06556527,0.01996995,0.14157033,0.41038835,0.0,7.3176136,0.25954163,0.41852042,0.2336195,0.18571638,0.103923656,inf,inf,inf,inf,1,1,1,1,2,0,2,2,1,1,0
156092000,1688000,47.3977508,8.5456074,-0.024346238,-0.057555147,-7.154698,-0.022968095,-0.0035443609,0.0,0.028296351,0.0072649177,-0.24991743,-0.21047589,-0.059729103,-0.009160716,0.12626225,0.041850176,0.035876807,0.11081993,0.41044363,0.0,7.339795,0.24991743,0.4313373,0.23484,0.19033985,0.10455655,inf,inf,inf,inf,1,1,1,1,2,0,2,2,1,1,0
156196000,1688000,47.3977508,8.5456074,-0.025185857,-0.05937747,-7.1774235,-0.022968095,-0.0035443609,0.0,0.03064305,0.0049913465,-0.24072407,-0.20273528,-0.059729103,-0.009160716,0.12626225,0.0462124,-0.003376779,0.002581626,0.4101587,0.0,7.362521,0.24072407,0.4184923,0.23374836,0.18444768,0.103949524,inf,inf,inf,inf,1,1,1,1,2,0,2,2,1,1,0
156292000,1688000,47.3977508,8.5456074,-0.025562257,-0.06133211,-7.197661,-0.022968095,-0.0035443609,0.0,0.031561136,0.005689129,-0.23365022,-0.1968459,-0.059729103,-0.009160716,0.12626225,0.14652877,0.09143099,0.11800229,0.41014153,0.0,7.382758,0.23365022,0.43125877,0.23497026,0.18901749,0.10458363,inf,inf,inf,inf,1,1,1,1,2,0,2,2,1,1,0
156396000,1688000,47.3977508,8.5456074,-0.025761034,-0.06381791,-7.2185855,-0.022968095,-0.0035443609,0.0,0.03359848,0.0059201894,-0.22481705,-0.18901911,-0.059729103,-0.009160716,0.12626225,-0.014046151,0.006484304,0.09106658,0.41009614,0.0,7.4036827,0.22481705,0.41842952,0.23386733,0.18321478,0.10397267,inf,inf,inf,inf,1,1,1,1,2,0,2,2,1,1,0
156492000,1688000,47.3977508,8.5456074,-0.025563596,-0.0659215,-7.237505,-0.022968095,-0.0035443609,0.0,0.034140076,0.00923153,-0.21971211,-0.18498792,-0.059729103,-0.009160716,0.12626225,-0.0023121173,0.085592456,0.013954005,0.40981078,0.0,7.4226027,0.21971211,0.43114147,0.23509097,0.187736,0.10460817,inf,inf,inf,inf,1,1,1,1,2,0,2,2,1,1,0
156596000,1688000,47.3977508,8.5456074,-0.025802383,-0.06746748,-7.2573442,-0.022968095,-0.0035443609,0.0,0.032262016,0.012139106,-0.2121799,-0.17843992,-0.059729103,-0.009160716,0.12626225,-0.043756265,0.015737329,0.05066022,0.40993762,0.0,7.442442,0.2121799,0.41833308,0.2339859,0.18202879,0.10399727,inf,inf,inf,inf,1,1,1,1,2,0,2,2,1,1,0
156692000,1688000,47.3977508,8.5456074,-0.025915582,-0.068472534,-7.2750316,-0.022968095,-0.0035443609,0.0,0.034442447,0.011939275,-0.2056886,-0.17287058,-0.059729103,-0.009160716,0.12626225,-0.020851055,0.023803018,0.028282402,0.4099508,0.0,7.460129,0.2056886,0.43098748,0.23520277,0.18651868,0.10463044,inf,inf,inf,inf,1,1,1,1,2,0,2,2,1,1,0
156796000,1688000,47.3977508,8.5456074,-0.02611456,-0.06966885,-7.2933083,-0.022968095,-0.0035443609,0.0,0.035528116,0.01343086,-0.19979939,-0.16765179,-0.059729103,-0.009160716,0.12626225,0.01300036,0.075838745,-0.018074175,0.41027552,0.0,7.478406,0.19979939,0.41820517,0.23410493,0.18090026,0.104023665,inf,inf,inf,inf,1,1,1,1,2,0,2,2,1,1,0
156892000,1688000,47.3977508,8.5456074,-0.026019728,-0.070600145,-7.3092766,-0.022968095,-0.0035443609,0.0,0.037821315,0.015702667,-0.194558,-0.16260585,-0.059729103,-0.009160716,0.12626225,-0.011913147,0.07745641,0.06267148,0.41026932,0.0,7.4943743,0.194558,0.43079993,0.23532407,0.18535091,0.10465836,inf,inf,inf,inf,1,1,1,1,2,0,2,2,1,1,0
156996000,1688000,47.3977508,8.5456074,-0.026455289,-0.07122302,-7.3268566,-0.022968095,-0.0035443609,0.0,0.03739128,0.016507477,-0.1897542,-0.15879418,-0.059729103,-0.009160716,0.12626225,-0.077866636,-0.10842378,0.025373882,0.41039592,0.0,7.5119543,0.1897542,0.41804805,0.23422447,0.17983581,0.104051694,inf,inf,inf,inf,1,1,1,1,2,0,2,2,1,1,0
157092000,1688000,47.3977508,8.5456074,-0.02707896,-0.071432225,-7.343797,-0.022968095,-0.0035443609,0.0,0.03627539,0.017881226,-0.18328993,-0.15430279,-0.059729103,-0.009160716,0.12626225,0.07687334,0.075727984,0.07909256,0.41032556,0.0,7.5288944,0.18328993,0.43058246,0.23544589,0.18426459,0.10468793,inf,inf,inf,inf,1,1,1,1,2,0,2,2,1,1,0
157196000,1688000,47.3977508,8.5456074,-0.0278489,-0.072109126,-7.3622093,-0.022968095,-0.0035443609,0.0,0.035579424,0.018369561,-0.1756148,-0.14933623,-0.059729103,-0.009160716,0.12626225,0.043934107,-0.05497422,0.09039044,0.4105033,0.0,7.547307,0.1756148,0.41786492,0.23435262,0.17884555,0.10408463,inf,inf,inf,inf,1,1,1,1,2,0,2,2,1,1,0
157292000,1688000,47.3977508,8.5456074,-0.028235953,-0.07279291,-7.3791056,-0.022968095,-0.0035443609,0.0,0.035875693,0.01790422,-0.1703957,-0.14682917,-0.059729103,-0.009160716,0.12626225,-0.014554068,-0.052829213,0.14667025,0.41049704,0.0,7.5642033,0.1703957,0.4303388,0.23557608,0.18324038,0.104721874,inf,inf,inf,inf,1,1,1,1,2,0,2,2,1,1,0
157396000,1688000,47.3977508,8.5456074,-0.028713504,-0.07397684,-7.3962793,-0.022968095,-0.0035443609,0.0,0.03604801,0.017978521,-0.16106433,-0.13975967,-0.059729103,-0.009160716,0.12626225,0.048875406,0.04107429,0.0673579,0.41037574,0.0,7.581377,0.16106433,0.41765887,0.23447195,0.17790692,0.1041143,inf,inf,inf,inf,1,1,1,1,2,0,2,2,1,1,0
157492000,1688000,47.3977508,8.5456074,-0.028802173,-0.07519968,-7.411352,-0.022968095,-0.0035443609,0.0,0.03705876,0.016400758,-0.15644257,-0.13694166,-0.059729103,-0.009160716,0.12626225,-0.006254933,-0.06784151,0.044314187,0.41040716,0.0,7.59645,0.15644257,0.43007213,0.23407783,0.1822792,0.104326546,inf,inf,inf,inf,1,1,1,1,2,0,2,2,1,1,0
157596000,1688000,47.3977508,8.5456074,-0.028952358,-0.07715375,-7.426455,-0.022968095,-0.0035443609,0.0,0.038683094,0.016114075,-0.14979313,-0.13125397,-0.059729103,-0.009160716,0.12626225,0.054061152,0.00047531645,0.076531425,0.41016376,0.0,7.6115522,0.14979313,0.41743264,0.23460044,0.17703709,0.104148634,inf,inf,inf,inf,1,1,1,1,2,0,2,2,1,1,0
157692000,1688000,47.3977508,8.5456074,-0.02887095,-0.07897838,-7.4394426,-0.022968095,-0.0035443609,0.0,0.03686198,0.016064545,-0.14357588,-0.1255904,-0.059729103,-0.009160716,0.12626225,-0.01723045,-0.03786791,0.013805925,0.40995586,0.0,7.6245403,0.14357588,0.42978653,0.23420608,0.18141355,0.10436129,inf,inf,inf,inf,1,1,1,1,2,0,2,2,1,1,0
157796000,1688000,47.3977508,8.5456074,-0.02906733,-0.08075133,-7.453631,-0.022968095,-0.0035443609,0.0,0.03625821,0.015760478,-0.1401786,-0.123326674,-0.059729103,-0.009160716,0.12626225,-0.026686184,0.029195243,0.021388752,0.40994358,0.0,7.638728,0.1401786,0.4171896,0.23472923,0.17626823,0.10418353,inf,inf,inf,inf,1,1,1,1,2,0,2,2,1,1,0
157892000,1688000,47.3977508,8.5456074,-0.029254645,-0.08214165,-7.4653544,-0.022968095,-0.0035443609,0.0,0.035074107,0.015681801,-0.13515884,-0.1182662,-0.059729103,-0.009160716,0.12626225,0.023686916,0.0016743724,0.042523254,0.41009456,0.0,7.6504517,0.13515884,0.4294868,0.2343345,0.18062782,0.10439647,inf,inf,inf,inf,1,1,1,1,2,0,2,2,1,1,0
157996000,1688000,47.3977508,8.5456074,-0.028219005,-0.08267867,-7.4770947,-0.022968095,-0.0035443609,0.0,0.036623098,0.017587084,-0.13413948,-0.116605245,-0.059729103,-0.009160716,0.12626225,0.034117516,0.083634615,0.06337277,0.41000384,0.0,7.6621923,0.13413948,0.44339487,0.23619927,0.18542886,0.105212234,inf,inf,inf,inf,1,1,1,1,2,0,2,2,1,1,0
158092000,1688000,47.3977508,8.5456074,-0.027814852,-0.08307878,-7.48758,-0.022968095,-0.0035443609,0.0,0.036721937,0.018804561,-0.12844762,-0.11045928,-0.059729103,-0.009160716,0.12626225,0.0020022343,0.07494028,-0.041320916,0.4100015,0.0,7.672677,0.12844762,0.42777374,0.23442222,0.17914702,0.10437435,inf,inf,inf,inf,1,1,1,1,2,0,2,2,1,1,0
158196000,1688000,47.3977508,8.5456074,-0.02771611,-0.083398916,-7.49948,-0.022968095,-0.0035443609,0.0,0.0360304,0.019228246,-0.12874916,-0.111036174,-0.059729103,-0.009160716,0.12626225,-5.3598338e-05,-0.059134856,0.046678815,0.40998465,0.0,7.684577,0.12874916,0.44151902,0.2346555,0.18392798,0.10475961,inf,inf,inf,inf,1,1,1,1,2,0,2,2,1,1,0
158292000,1688000,47.3977508,8.5456074,-0.028163264,-0.08464673,-7.510434,-0.022968095,-0.0035443609,0.0,0.03423564,0.019975241,-0.12350113,-0.10620543,-0.059729103,-0.009160716,0.12626225,0.038155857,0.037806224,0.10811723,0.41005567,0.0,7.695532,0.12350113,0.42619887,0.23451786,0.17788091,0.10435874,inf,inf,inf,inf,1,1,1,1,2,0,2,2,1,1,0
158396000,1688000,47.3977508,8.5456074,-0.028865162,-0.086546786,-7.5221057,-0.022968095,-0.0035443609,0.0,0.033507206,0.019907646,-0.120848574,-0.104234196,-0.059729103,-0.009160716,0.12626225,-0.015619206,0.0056913774,0.004144385,0.40982923,0.0,7.707203,0.120848574,0.43980014,0.23475003,0.18266147,0.10474477,inf,inf,inf,inf,1,1,1,1,2,0,2,2,1,1,0
158492000,1688000,47.3977508,8.5456074,-0.029954089,-0.08805877,-7.53389,-0.022968095,-0.0035443609,0.0,0.033371057,0.02037493,-0.119544946,-0.10469946,-0.059729103,-0.009160716,0.12626225,-0.057967074,0.06475043,0.060169954,0.40999737,0.0,7.7189875,0.119544946,0.42475095,0.23461281,0.17680417,0.10434566,inf,inf,inf,inf,1,1,1,1,2,0,2,2,1,1,0
158596000,1688000,47.3977508,8.5456074,-0.031219233,-0.08928612,-7.5480566,-0.022968095,-0.0035443609,0.0,0.032810804,0.022647077,-0.11373729,-0.10229326,-0.059729103,-0.009160716,0.12626225,-0.04675516,0.032278985,0.037269663,0.4098819,0.0,7.7331543,0.11373729,0.43822455,0.23484404,0.18157293,0.104732625,inf,inf,inf,inf,1,1,1,1,2,0,2,2,1,1,0
158692000,1688000,47.3977508,8.5456074,-0.032104082,-0.08998086,-7.559703,-0.022968095,-0.0035443609,0.0,0.035261914,0.022400137,-0.10461133,-0.09522827,-0.059729103,-0.009160716,0.12626225,0.07180071,-0.016288536,0.09789969,0.40995577,0.0,7.7448006,0.10461133,0.42341965,0.23470736,0.17590034,0.10433534,inf,inf,inf,inf,1,1,1,1,2,0,2,2,1,1,0
158796000,1688000,47.3977508,8.5456074,-0.03245806,-0.09019835,-7.57117,-0.022968095,-0.0035443609,0.0,0.03678828,0.025356747,-0.09915288,-0.09138171,-0.059729103,-0.009160716,0.12626225,-0.033503965,0.059478935,0.030149704,0.410126,0.0,7.7562675,0.09915288,0.43678117,0.23492047,0.180648,0.10471583,inf,inf,inf,inf,1,1,1,1,2,0,2,2,1,1,0
158892000,1688000,47.3977508,8.5456074,-0.032426648,-0.090274066,-7.5810833,-0.022968095,-0.0035443609,0.0,0.03808737,0.027066821,-0.09752232,-0.09069527,-0.059729103,-0.009160716,0.12626225,-0.0023847641,0.072220325,0.07027666,0.41003463,0.0,7.766181,0.09752232,0.4221973,0.23476814,0.17511031,0.104313575,inf,inf,inf,inf,1,1,1,1,2,0,2,2,1,1,0
158996000,1688000,47.3977508,8.5456074,-0.03199595,-0.09019432,-7.5912943,-0.022968095,-0.0035443609,0.0,0.03855476,0.028004125,-0.09142238,-0.08539488,-0.059729103,-0.009160716,0.12626225,0.106459185,0.020688035,0.0188807,0.41009083,0.0,7.776392,0.09142238,0.4354597,0.23498231,0.17987864,0.10469643,inf,inf,inf,inf,1,1,1,1,2,0,2,2,1,1,0
159092000,1688000,47.3977508,8.5456074,-0.03182299,-0.090201214,-7.6002045,-0.022968095,-0.0035443609,0.0,0.03638902,0.026078565,-0.09039153,-0.08491302,-0.059729103,-0.009160716,0.12626225,0.019324582,-0.03565691,0.009058042,0.4100443,0.0,7.785302,0.09039153,0.4210749,0.23483247,0.17450088,0.10429723,inf,inf,inf,inf,1,1,1,1,2,0,2,2,1,1,0
159196000,1688000,47.3977508,8.5456074,-0.031701803,-0.09034502,-7.6101637,-0.022968095,-0.0035443609,0.0,0.037143134,0.025440581,-0.08548564,-0.080985546,-0.059729103,-0.009160716,0.12626225,0.023399206,0.010209616,0.10524224,0.4100002,0.0,7.7952614,0.08548564,0.43425283,0.23504774,0.17926928,0.10468236,inf,inf,inf,inf,1,1,1,1,2,0,2,2,1,1,0
159292000,1688000,47.3977508,8.5456074,-0.03160287,-0.090555675,-7.6185284,-0.022968095,-0.0035443609,0.0,0.037134383,0.026237113,-0.084251836,-0.0802125,-0.059729103,-0.009160716,0.12626225,0.047233388,0.040093254,0.017850658,0.40973377,0.0,7.803626,0.084251836,0.42004767,0.23490036,0.17402482,0.104286015,inf,inf,inf,inf,1,1,1,1,2,0,2,2,1,1,0
159396000,1688000,47.3977508,8.5456074,-0.03143305,-0.09071404,-7.627105,-0.022968095,-0.0035443609,0.0,0.037517983,0.026583329,-0.08091711,-0.077137165,-0.059729103,-0.009160716,0.12626225,-0.012659267,0.042716693,-0.0081863245,0.40955314,0.0,7.8122025,0.08091711,0.4331539,0.23512563,0.17880157,0.10467731,inf,inf,inf,inf,1,1,1,1,2,0,2,2,1,1,0
159492000,1688000,47.3977508,8.5456074,-0.031358954,-0.09093544,-7.636022,-0.022968095,-0.0035443609,0.0,0.03704551,0.026391469,-0.07906228,-0.076593116,-0.059729103,-0.009160716,0.12626225,-0.0017405472,0.06748306,0.03513973,0.4096873,0.0,7.8211193,0.07906228,0.41911045,0.23498037,0.17364945,0.10428358,inf,inf,inf,inf,1,1,1,1,2,0,2,2,1,1,0
159596000,1688000,47.3977508,8.5456074,-0.03145574,-0.09099379,-7.645282,-0.022968095,-0.0035443609,0.0,0.033665236,0.027565343,-0.07553617,-0.07424799,-0.059729103,-0.009160716,0.12626225,0.0028832036,-0.04589545,0.07709022,0.40973556,0.0,7.8303795,0.07553617,0.4321564,0.23520677,0.1784679,0.104676925,inf,inf,inf,inf,1,1,1,1,2,0,2,2,1,1,0
159692000,1688000,47.3977508,8.5456074,-0.031583063,-0.09120904,-7.6529503,-0.022968095,-0.0035443609,0.0,0.033616845,0.026657183,-0.06971282,-0.06902201,-0.059729103,-0.009160716,0.12626225,-0.0072309845,-0.024971645,0.04399195,0.40989766,0.0,7.838048,0.06971282,0.41825834,0.23506387,0.1733963,0.104285605,inf,inf,inf,inf,1,1,1,1,2,0,2,2,1,1,0
159796000,1688000,47.3977508,8.5456074,-0.031455524,-0.091563575,-7.661514,-0.022968095,-0.0035443609,0.0,0.034660965,0.025344308,-0.06914845,-0.0695576,-0.059729103,-0.009160716,0.12626225,0.0013343669,0.06935028,0.030389054,0.41002735,0.0,7.846611,0.06914845,0.43125463,0.23529136,0.17821626,0.10468087,inf,inf,inf,inf,1,1,1,1,2,0,2,2,1,1,0
159892000,1688000,47.3977508,8.5456074,-0.031121578,-0.09230464,-7.668923,-0.022968095,-0.0035443609,0.0,0.037166618,0.026036879,-0.065421596,-0.066565156,-0.059729103,-0.009160716,0.12626225,0.13977492,0.03995149,0.01170393,0.40990883,0.0,7.85402,0.065421596,0.41748682,0.23515037,0.17321569,0.104291655,inf,inf,inf,inf,1,1,1,1,2,0,2,2,1,1,0
159996000,1688000,47.3977508,8.5456074,-0.030337295,-0.09316503,-7.676113,-0.022968095,-0.0035443609,0.0,0.038537666,0.027179645,-0.06363874,-0.06479433,-0.059729103,-0.009160716,0.12626225,0.03732966,-0.0055430643,0.12354552,0.40993986,0.0,7.861211,0.06363874,0.4304428,0.23537889,0.17806278,0.10468868,inf,inf,inf,inf,1,1,1,1,2,0,2,2,1,1,0
160092000,1688000,47.3977508,8.5456074,-0.029676728,-0.09370179,-7.682694,-0.022968095,-0.0035443609,0.0,0.037895273,0.028749578,-0.060526066,-0.061945308,-0.059729103,-0.009160716,0.12626225,-0.029205583,0.023049403,0.026805324,0.41013262,0.0,7.867791,0.060526066,0.416791,0.23362917,0.17313743,0.10387993,inf,inf,inf,inf,1,1,1,1,2,0,2,2,1,1,0
160196000,1688000,47.3977508,8.5456074,-0.028899776,-0.093953654,-7.690675,-0.022968095,-0.0035443609,0.0,0.037096564,0.0297109,-0.057956807,-0.06081741,-0.059729103,-0.009160716,0.12626225,0.075235724,0.03831791,0.023062339,0.41001424,0.0,7.8757725,0.057956807,0.42971608,0.23547813,0.17799857,0.104704015,inf,inf,inf,inf,1,1,1,1,2,0,2,2,1,1,0
160292000,1688000,47.3977508,8.5456074,-0.027787602,-0.09436472,-7.6979136,-0.022968095,-0.0035443609,0.0,0.036822334,0.029072229,-0.056930635,-0.060957715,-0.059729103,-0.009160716,0.12626225,0.024312941,-0.0068450533,0.021060927,0.41007787,0.0,7.883011,0.056930635,0.41616726,0.23372789,0.17311269,0.103896305,inf,inf,inf,inf,1,1,1,1,2,0,2,2,1,1,0
160396000,1688000,47.3977508,8.5456074,-0.026313942,-0.0949118,-7.7050667,-0.022968095,-0.0035443609,0.0,0.034980472,0.02905113,-0.051792156,-0.05661489,-0.059729103,-0.009160716,0.12626225,0.040118724,0.13685407,0.039016824,0.4101453,0.0,7.8901644,0.051792156,0.42906925,0.23557986,0.17800438,0.104722366,inf,inf,inf,inf,1,1,1,1,2,0,2,2,1,1,0
160492000,1688000,47.3977508,8.5456074,-0.02488785,-0.0956469,-7.7112927,-0.022968095,-0.0035443609,0.0,0.038274266,0.03024755,-0.04949371,-0.055000026,-0.059729103,-0.009160716,0.12626225,-0.030303093,-0.0033962422,0.030754132,0.4102148,0.0,7.89639,0.04949371,0.41561142,0.23382871,0.17315473,0.10391537,inf,inf,inf,inf,1,1,1,1,2,0,2,2,1,1,0
160596000,1688000,47.3977508,8.5456074,-0.023062168,-0.096741065,-7.719084,-0.022968095,-0.0035443609,0.0,0.038111255,0.027289238,-0.047208164,-0.05447181,-0.059729103,-0.009160716,0.12626225,0.00995782,0.04373412,0.11954363,0.41004673,0.0,7.9041815,0.047208164,0.42849755,0.23568375,0.1780495,0.10474328,inf,inf,inf,inf,1,1,1,1,2,0,2,2,1,1,0
160692000,1688000,47.3977508,8.5456074,-0.022181492,-0.09724646,-7.7259307,-0.022968095,-0.0035443609,0.0,0.03684191,0.031255435,-0.044957124,-0.053724658,-0.059729103,-0.009160716,0.12626225,-0.01786044,0.047668003,-0.0049592922,0.40996692,0.0,7.911028,0.044957124,0.41511962,0.23393176,0.17324616,0.103936896,inf,inf,inf,inf,1,1,1,1,2,0,2,2,1,1,0
160796000,1688000,47.3977508,8.5456074,-0.021910595,-0.09703751,-7.733319,-0.022968095,-0.0035443609,0.0,0.033018894,0.033388734,-0.041443095,-0.05175927,-0.059729103,-0.009160716,0.12626225,0.05552595,-0.01999791,0.09724683,0.40996018,0.0,7.918416,0.041443095,0.42799672,0.23416807,0.17815664,0.10433986,inf,inf,inf,inf,1,1,1,1,2,0,2,2,1,1,0
160892000,1688000,47.3977508,8.5456074,-0.021757415,-0.09698892,-7.7395296,-0.022968095,-0.0035443609,0.0,0.033797946,0.033648677,-0.03714241,-0.048566554,-0.059729103,-0.009160716,0.12626225,-0.0039799158,0.059769463,0.07437076,0.4101425,0.0,7.9246273,0.03714241,0.4146881,0.23404549,0.17336889,0.10396445,inf,inf,inf,inf,1,1,1,1,2,0,2,2,1,1,0
160996000,1688000,47.3977508,8.5456074,-0.021378571,-0.09686098,-7.7449927,-0.022968095,-0.0035443609,0.0,0.03361964,0.033825994,-0.034143627,-0.04572247,-0.059729103,-0.009160716,0.12626225,-0.022597047,0.0033324102,0.05062576,0.41016942,0.0,7.93009,0.034143627,0.42756164,0.23428257,0.17829818,0.10436835,inf,inf,inf,inf,1,1,1,1,2,0,2,2,1,1,0
161100000,1688000,47.3977508,8.5456074,-0.020953003,-0.096908085,-7.751045,-0.022968095,-0.0035443609,0.0,0.0350004,0.03366575,-0.03496474,-0.04747119,-0.059729103,-0.009160716,0.12626225,0.037037343,0.040688522,-0.031396743,0.4098908,0.0,7.936143,0.03496474,0.41528162,0.23479983,0.17389745,0.10418785,inf,inf,inf,inf,1,1,1,1,2,0,2,2,1,1,0
161196000,1688000,47.3977508,8.5456074,-0.020344336,-0.096686356,-7.75563,-0.022968095,-0.0035443609,0.0,0.035282936,0.03612934,-0.030584957,-0.042971577,-0.059729103,-0.009160716,0.12626225,0.0247095,-0.053337395,0.034011897,0.4099561,0.0,7.940727,0.030584957,0.42718774,0.23439871,0.1784748,0.10439824,inf,inf,inf,inf,1,1,1,1,2,0,2,2,1,1,0
161300000,1688000,47.3977508,8.5456074,-0.019278256,-0.09693083,-7.7599916,-0.022968095,-0.0035443609,0.0,0.035333075,0.03408297,-0.03033542,-0.04236058,-0.059729103,-0.009160716,0.12626225,-0.073846355,-0.025709521,-0.039553266,0.4098589,0.0,7.9450893,0.03033542,0.41495898,0.23491709,0.1740957,0.10421827,inf,inf,inf,inf,1,1,1,1,2,0,2,2,1,1,0
161396000,1688000,47.3977508,8.5456074,-0.018045422,-0.09723995,-7.763635,-0.022968095,-0.0035443609,0.0,0.035652366,0.033435244,-0.029158652,-0.040425822,-0.059729103,-0.009160716,0.12626225,0.00776568,0.012083102,0.008480622,0.4098931,0.0,7.9487324,0.029158652,0.4268712,0.23451625,0.17867889,0.10442929,inf,inf,inf,inf,1,1,1,1,2,0,2,2,1,1,0
161500000,1688000,47.3977508,8.5456074,-0.016895358,-0.098147735,-7.766577,-0.022968095,-0.0035443609,0.0,0.03611336,0.033943348,-0.02749809,-0.03729642,-0.059729103,-0.009160716,0.12626225,0.014426073,0.03829473,0.05124602,0.40986353,0.0,7.9516745,0.02749809,0.4146859,0.23342928,0.174314,0.10382958,inf,inf,inf,inf,1,1,1,1,2,0,2,2,1,1,0
161596000,1688000,47.3977508,8.5456074,-0.015620199,-0.09879953,-7.768812,-0.022968095,-0.0035443609,0.0,0.03696508,0.03735689,-0.026182668,-0.034527402,-0.059729103,-0.009160716,0.12626225,-0.033662837,0.08303544,-0.03872439,0.4097643,0.0,7.95391,0.026182668,0.42660835,0.23464376,0.1789255,0.10446506,inf,inf,inf,inf,1,1,1,1,2,0,2,2,1,1,0
161692000,1688000,47.3977508,8.5456074,-0.014764177,-0.099290885,-7.770713,-0.022968095,-0.0035443609,0.0,0.03517114,0.037350655,-0.030390704,-0.036908444,-0.059729103,-0.009160716,0.12626225,0.06336514,0.10253545,-0.032002103,0.40998656,0.0,7.9558105,0.030390704,0.4134884,0.2345241,0.17415935,0.104091264,inf,inf,inf,inf,1,1,1,1,2,0,2,2,1,1,0
161796000,1688000,47.3977508,8.5456074,-0.0140727665,-0.09952859,-7.772681,-0.022968095,-0.0035443609,0.0,0.033288598,0.036436938,-0.030527346,-0.035045393,-0.059729103,-0.009160716,0.12626225,0.034786016,0.0035892515,0.03368966,0.41000065,0.0,7.957779,0.030527346,0.42639446,0.23477209,0.17918679,0.104501404,inf,inf,inf,inf,1,1,1,1,2,0,2,2,1,1,0
161892000,1688000,47.3977508,8.5456074,-0.013825159,-0.09997627,-7.7744193,-0.022968095,-0.0035443609,0.0,0.031855673,0.035933852,-0.032073703,-0.034925785,-0.059729103,-0.009160716,0.12626225,-0.01797407,0.05460237,-0.07193442,0.41003528,0.0,7.9595165,0.032073703,0.4133024,0.23465303,0.1744275,0.104127705,inf,inf,inf,inf,1,1,1,1,2,0,2,2,1,1,0
161996000,1688000,47.3977508,8.5456074,-0.013693898,-0.10033757,-7.7769094,-0.022968095,-0.0035443609,0.0,0.03098176,0.035298225,-0.03497216,-0.036462046,-0.059729103,-0.009160716,0.12626225,0.008585629,-0.04906482,-0.0048279758,0.41001198,0.0,7.9620066,0.03497216,0.42622665,0.23490128,0.17945883,0.104538016,inf,inf,inf,inf,1,1,1,1,2,0,2,2,1,1,0
162100000,1688000,47.3977508,8.5456074,-0.0136329355,-0.101001576,-7.77924,-0.022968095,-0.0035443609,0.0,0.029538674,0.035546776,-0.033461783,-0.033666797,-0.059729103,-0.009160716,0.12626225,-0.069384746,0.11826935,-0.05967356,0.41025132,0.0,7.9643373,0.033461783,0.4141295,0.23380879,0.175075,0.103936166,inf,inf,inf,inf,1,1,1,1,2,0,2,2,1,1,0
162196000,1688000,47.3977508,8.5456074,-0.013435571,-0.10138025,-7.7817807,-0.022968095,-0.0035443609,0.0,0.029576434,0.03620004,-0.034679268,-0.034117583,-0.059729103,-0.009160716,0.12626225,0.07675969,0.11802044,0.12263189,0.4102325,0.0,7.966878,0.034679268,0.4261005,0.23503086,0.17974012,0.10457468,inf,inf,inf,inf,1,1,1,1,2,0,2,2,1,1,0
162292000,1688000,47.3977508,8.5456074,-0.013300262,-0.101807065,-7.784512,-0.022968095,-0.0035443609,0.0,0.02846789,0.03709102,-0.032888647,-0.031836625,-0.059729103,-0.009160716,0.12626225,0.045895133,0.034935813,0.052388754,0.41010958,0.0,7.9696093,0.032888647,0.41304564,0.23330829,0.17493376,0.10378148,inf,inf,inf,inf,1,1,1,1,2,0,2,2,1,1,0
162396000,1688000,47.3977508,8.5456074,-0.012994297,-0.101917095,-7.7870736,-0.022968095,-0.0035443609,0.0,0.0272954,0.039376978,-0.03180363,-0.030141633,-0.059729103,-0.009160716,0.12626225,-0.04041785,-0.033848763,-0.0063600014,0.4100283,0.0,7.972171,0.03180363,0.42601097,0.2351694,0.17999959,0.10461509,inf,inf,inf,inf,1,1,1,1,2,0,2,2,1,1,0
162492000,1688000,47.3977508,8.5456074,-0.01258446,-0.10258543,-7.7897506,-0.022968095,-0.0035443609,0.0,0.027932882,0.037870973,-0.033528488,-0.03157759,-0.059729103,-0.009160716,0.12626225,-0.030213762,0.002949171,-0.006734393,0.41004187,0.0,7.974848,0.033528488,0.41296664,0.23344396,0.17516166,0.103820644,inf,inf,inf,inf,1,1,1,1,2,0,2,2,1,1,0
162596000,1688000,47.3977508,8.5456074,-0.011683845,-0.103458025,-7.792487,-0.022968095,-0.0035443609,0.0,0.030389609,0.03999799,-0.03235364,-0.029963976,-0.059729103,-0.009160716,0.12626225,0.04309083,0.035162415,0.09956583,0.41007206,0.0,7.977585,0.03235364,0.4259531,0.2353078,0.18023251,0.10465503,inf,inf,inf,inf,1,1,1,1,2,0,2,2,1,1,0
162692000,1688000,47.3977508,8.5456074,-0.010969561,-0.10424753,-7.7944875,-0.022968095,-0.0035443609,0.0,0.032345183,0.040091436,-0.03194515,-0.028726682,-0.059729103,-0.009160716,0.12626225,0.046413314,0.08365159,0.027380882,0.41017526,0.0,7.9795847,0.03194515,0.41291478,0.23357914,0.17538531,0.103859216,inf,inf,inf,inf,1,1,1,1,2,0,2,2,1,1,0
162796000,1688000,47.3977508,8.5456074,-0.010131052,-0.10494721,-7.795959,-0.022968095,-0.0035443609,0.0,0.033912048,0.03991055,-0.031219456,-0.026641792,-0.059729103,-0.009160716,0.12626225,-0.0074940175,-0.02135019,-0.011241063,0.41033122,0.0,7.981056,0.031219456,0.4259238,0.23544566,0.18046106,0.10469433,inf,inf,inf,inf,1,1,1,1,2,0,2,2,1,1,0
162892000,1688000,47.3977508,8.5456074,-0.009383549,-0.1057916,-7.796858,-0.022968095,-0.0035443609,0.0,0.03342206,0.040683836,-0.03221772,-0.025969725,-0.059729103,-0.009160716,0.12626225,-0.043877807,0.012379969,-0.01940876,0.4101173,0.0,7.9819555,0.03221772,0.41288766,0.23371397,0.1755887,0.10389721,inf,inf,inf,inf,1,1,1,1,2,0,2,2,1,1,0
162996000,1688000,47.3977508,8.5456074,-0.008799599,-0.1067708,-7.7970867,-0.022968095,-0.0035443609,0.0,0.030430708,0.039195232,-0.03221195,-0.023761624,-0.059729103,-0.009160716,0.12626225,-0.06531129,0.09515359,-0.040040348,0.4101985,0.0,7.9821844,0.03221195,0.42591897,0.23396552,0.18067712,0.10430752,inf,inf,inf,inf,1,1,1,1,2,0,2,2,1,1,0
163092000,1688000,47.3977508,8.5456074,-0.0075872107,-0.1063053,-7.797984,-0.022968095,-0.0035443609,0.0,0.029403247,0.03877225,-0.034660216,-0.024933834,-0.059729103,-0.009160716,0.12626225,0.01599028,0.013981588,-0.13992189,0.41020107,0.0,7.983082,0.034660216,0.43851614,0.2351833,0.18543583,0.10492832,inf,inf,inf,inf,1,1,1,1,2,0,2,2,1,1,0
163196000,1688000,47.3977508,8.5456074,-0.007413616,-0.10698004,-7.79915,-0.022968095,-0.0035443609,0.0,0.027675457,0.03846753,-0.035828125,-0.024745105,-0.059729103,-0.009160716,0.12626225,-0.0026138567,0.0014305405,0.0041667367,0.41016388,0.0,7.984247,0.035828125,0.4246632,0.23407054,0.18012464,0.104295395,inf,inf,inf,inf,1,1,1,1,2,0,2,2,1,1,0
163292000,1688000,47.3977508,8.5456074,-0.007674051,-0.10772931,-7.80017,-0.022968095,-0.0035443609,0.0,0.026952442,0.039834354,-0.037773598,-0.025565024,-0.059729103,-0.009160716,0.12626225,-0.020040892,-0.03479218,-0.13340636,0.41014355,0.0,7.9852676,0.037773598,0.4371944,0.23528887,0.18489754,0.104917,inf,inf,inf,inf,1,1,1,1,2,0,2,2,1,1,0
163396000,1688000,47.3977508,8.5456074,-0.008975021,-0.10889175,-7.801709,-0.022968095,-0.0035443609,0.0,0.026302204,0.04064042,-0.039433785,-0.02627309,-0.059729103,-0.009160716,0.12626225,-0.010387196,0.01531613,0.025508923,0.4101871,0.0,7.986807,0.039433785,0.4235366,0.23417413,0.1796652,0.10428481,inf,inf,inf,inf,1,1,1,1,2,0,2,2,1,1,0
