timestamp,roll,pitch,yaw,thrust_body[0],thrust_body[1],thrust_body[2]
146200000,0.042694073,0.0046137697,-1.1472278,0.0,0.0,0.0
146216000,0.042663634,0.004931151,-1.1472486,0.0,0.0,0.0
146236000,0.042996436,0.004744319,-1.147224,0.0,0.0,0.0
146252000,0.043286894,0.0048941737,-1.147212,0.0,0.0,0.0
146276000,0.04303829,0.00452606,-1.1472793,0.0,0.0,0.0
146300000,0.04350649,0.0048835967,-1.1472076,0.0,0.0,0.0
146320000,0.0433166,0.0049476265,-1.147079,0.0,0.0,0.0
146332000,0.043150447,0.004775105,-1.1471294,0.0,0.0,0.0
146356000,0.04269351,0.0044960687,-1.1471528,0.0,0.0,0.0
146380000,0.042595528,0.0046260604,-1.1470656,0.0,0.0,0.0
146396000,0.042682488,0.004559654,-1.1471721,0.0,0.0,0.0
146420000,0.04250843,0.004439233,-1.1471967,0.0,0.0,0.0
146436000,0.043107852,0.0044886605,-1.1472018,0.0,0.0,0.0
146456000,0.043104634,0.0046954406,-1.147015,0.0,0.0,0.0
146480000,0.043397523,0.0051503708,-1.146873,0.0,0.0,0.0
146500000,0.04351879,0.0054176366,-1.1466393,0.0,0.0,0.0
146520000,0.043623347,0.005935435,-1.146528,0.0,0.0,0.0
146540000,0.04389622,0.0061813924,-1.1465076,0.0,0.0,0.0
146556000,0.043558482,0.0061183213,-1.1466503,0.0,0.0,0.0
146576000,0.04382303,0.006265478,-1.1468226,0.0,0.0,0.0
146596000,0.04411793,0.006275418,-1.1466813,0.0,0.0,0.0
146620000,0.043581195,0.0060725687,-1.1465323,0.0,0.0,0.0
146640000,0.043722026,0.006063002,-1.1464131,0.0,0.0,0.0
146660000,0.043882083,0.006057351,-1.1462196,0.0,0.0,0.0
146680000,0.043433823,0.00561023,-1.1463672,0.0,0.0,0.0
146700000,0.043328777,0.0059302365,-1.1464288,0.0,0.0,0.0
146720000,0.04305219,0.0060706493,-1.1463841,0.0,0.0,0.0
146736000,0.04320323,0.00599745,-1.1463633,0.0,0.0,0.0
146760000,0.04244315,0.006002684,-1.1463714,0.0,0.0,0.0
146776000,0.04247075,0.0061419066,-1.1461918,0.0,0.0,0.0
146800000,0.042452432,0.0065339548,-1.1460705,0.0,0.0,0.0
146816000,0.042621233,0.0069068894,-1.1460111,0.0,0.0,0.0
146836000,0.042462457,0.006770294,-1.1459283,0.0,0.0,0.0
146860000,0.04214158,0.0065690503,-1.1459062,0.0,0.0,0.0
146876000,0.042238638,0.0066298693,-1.1458886,0.0,0.0,0.0
146900000,0.042039473,0.0066410643,-1.1456016,0.0,0.0,0.0
146916000,0.041898027,0.0067415414,-1.1455989,0.0,0.0,0.0
146936000,0.042315777,0.0069634295,-1.1455958,0.0,0.0,0.0
146956000,0.042251907,0.007310946,-1.1455803,0.0,0.0,0.0
146980000,0.042098127,0.007802627,-1.1454059,0.0,0.0,0.0
147000000,0.04231635,0.007447529,-1.1453761,0.0,0.0,0.0
147020000,0.042199302,0.007047289,-1.1453665,0.0,0.0,0.0
147036000,0.04232049,0.0069556674,-1.1451515,0.0,0.0,0.0
147056000,0.042345393,0.007141074,-1.1450014,0.0,0.0,0.0
147080000,0.041983753,0.0072337277,-1.1447842,0.0,0.0,0.0
147100000,0.04178447,0.0070573892,-1.1447551,0.0,0.0,0.0
147120000,0.04137661,0.007088893,-1.144526,0.0,0.0,0.0
147140000,0.041484747,0.007547254,-1.1446655,0.0,0.0,0.0
147160000,0.041404758,0.0077541475,-1.1446404,0.0,0.0,0.0
147176000,0.041281283,0.00772169,-1.1446396,0.0,0.0,0.0
147196000,0.041331176,0.008036819,-1.1443541,0.0,0.0,0.0
147216000,0.04099205,0.0078319535,-1.144297,0.0,0.0,0.0
147240000,0.48828453,-0.08746662,0.004469812,0.0,0.0,-0.12034717
147256000,0.32566532,-0.100328565,0.004140079,0.0,0.0,-0.12015258
147280000,0.2411128,-0.15426755,0.0039889812,0.0,0.0,-0.12010818
147300000,0.1670988,-0.19121857,0.0035381913,0.0,0.0,-0.120089725
147316000,0.14182532,-0.24581906,0.0032767653,0.0,0.0,-0.12012087
147336000,0.14625038,-0.2796181,0.0033826232,0.0,0.0,-0.120152384
147360000,0.122371584,-0.29796004,0.0032418966,0.0,0.0,-0.12016313
147380000,0.13440873,-0.27151337,0.0032022,0.0,0.0,-0.12014145
147400000,0.11132815,-0.2508705,0.0030730963,0.0,0.0,-0.12644821
147420000,0.06774832,-0.20870128,0.0027480125,0.0,0.0,-0.14847308
147440000,0.06797273,-0.20878033,0.002864778,0.0,0.0,-0.14847308
147460000,0.07641455,-0.20518161,0.0027712584,0.0,0.0,-0.16983803
147472000,0.07656669,-0.20453127,0.0029901266,0.0,0.0,-0.16983803
147492000,0.063268185,-0.17969495,0.0030509233,0.0,0.0,-0.1819223
147516000,0.046010666,-0.17707759,0.0031564236,0.0,0.0,-0.2028795
147532000,0.050640106,-0.15407744,0.0032091737,0.0,0.0,-0.21552789
147556000,0.04348481,-0.14808396,0.0032465458,0.0,0.0,-0.22812523
147580000,0.04389253,-0.1356965,0.0033169985,0.0,0.0,-0.2376941
147600000,0.040066242,-0.12357092,0.0033091307,0.0,0.0,-0.25022706
147616000,0.03858226,-0.119945675,0.003200233,0.0,0.0,-0.26232645
147640000,0.029516954,-0.120752536,0.0032315254,0.0,0.0,-0.27160797
147660000,0.03668074,-0.11051212,0.0032894611,0.0,0.0,-0.28506443
147680000,0.03916341,-0.106845215,0.003168404,0.0,0.0,-0.29918638
147700000,0.042486716,-0.09982039,0.0029438138,0.0,0.0,-0.32506725
147716000,0.04229904,-0.09968801,0.002773583,0.0,0.0,-0.32506725
147732000,0.044709463,-0.09554969,0.002613902,0.0,0.0,-0.33934134
147756000,0.033679225,-0.07110539,0.002602458,0.0,0.0,-0.36556268
147780000,0.03298504,-0.06782505,0.002552569,0.0,0.0,-0.3805754
147800000,0.043834478,-0.059926495,0.0028252602,0.0,0.0,-0.3925048
147816000,0.037039824,-0.05749602,0.002706349,0.0,0.0,-0.40710014
147840000,0.03513073,-0.061821096,0.0025860071,0.0,0.0,-0.4224368
147856000,0.030760316,-0.054116383,0.002625525,0.0,0.0,-0.4342
147880000,0.039447673,-0.048219435,0.0025788546,0.0,0.0,-0.4492135
147900000,0.034245245,-0.04716429,0.0026337504,0.0,0.0,-0.46429276
147916000,0.027780734,-0.051279344,0.0025538206,0.0,0.0,-0.47657385
147940000,0.02559593,-0.050096206,0.0024270415,0.0,0.0,-0.4912248
147960000,0.024293028,-0.045309715,0.0025441647,0.0,0.0,-0.50644404
147980000,0.03271226,-0.044508204,0.0024379492,0.0,0.0,-0.5188588
147996000,0.028698478,-0.042778987,0.0024628043,0.0,0.0,-0.53420705
148020000,0.03055761,-0.04724863,0.0025078654,0.0,0.0,-0.5620956
148040000,0.027841743,-0.043878216,0.0026307106,0.0,0.0,-0.5777914
148052000,0.02769702,-0.043732304,0.002512157,0.0,0.0,-0.5777914
148080000,0.026747793,-0.040920485,0.0024020076,0.0,0.0,-0.6032765
148100000,0.026669834,-0.030359594,0.0026228428,0.0,0.0,-0.61431205
148116000,0.021524576,-0.023075487,0.0027313828,0.0,0.0,-0.6218312
148136000,0.012353795,-0.010677606,0.0030841827,0.0,0.0,-0.6161042
148160000,0.003707109,-0.0006328459,0.0030804276,0.0,0.0,-0.61705583
148180000,-0.0033747735,0.011454213,0.002985835,0.0,0.0,-0.6166245
148200000,-0.007442182,0.026993584,0.002859056,0.0,0.0,-0.60663706
148220000,-0.011346586,0.03282069,0.0025783181,0.0,0.0,-0.6081119
148240000,-0.010420587,0.04239261,0.002450645,0.0,0.0,-0.6095379
148260000,-0.020321127,0.057936132,0.0024268627,0.0,0.0,-0.6062662
148276000,-0.020426458,0.058787886,0.0021108985,0.0,0.0,-0.6062662
148300000,-0.029536437,0.06482852,0.0021611452,0.0,0.0,-0.60656226
148320000,-0.031196889,0.06248692,0.001965344,0.0,0.0,-0.6104806
148336000,-0.030831473,0.060041305,0.0017761588,0.0,0.0,-0.6104806
148360000,-0.031429127,0.06255054,0.0015698075,0.0,0.0,-0.609347
148376000,-0.029693961,0.05966869,0.001460731,0.0,0.0,-0.61329573
148400000,-0.024713472,0.05836671,0.0013791919,0.0,0.0,-0.6163605
148420000,-0.021184273,0.06258686,0.0012706518,0.0,0.0,-0.6105237
148432000,-0.019250743,0.05972456,0.0011086464,0.0,0.0,-0.613458
148456000,-0.0177237,0.05474606,0.0009704232,0.0,0.0,-0.6161561
148476000,-0.021307103,0.05559047,0.0008960366,0.0,0.0,-0.6107257
148500000,-0.021220678,0.053711668,0.0007481575,0.0,0.0,-0.6144532
148520000,-0.017484825,0.051448647,0.0006605387,0.0,0.0,-0.61805445
148536000,-0.02011237,0.0483542,0.0006310344,0.0,0.0,-0.61276555
148552000,-0.023855193,0.04714632,0.0005117655,0.0,0.0,-0.61654264
148580000,-0.014074514,0.04301486,0.00058186054,0.0,0.0,-0.61417824
148596000,-0.016064167,0.04528762,0.00040608644,0.0,0.0,-0.61731505
148616000,-0.010881285,0.04617191,0.00036871433,0.0,0.0,-0.6202908
148636000,-0.012816219,0.04183879,0.00027823448,0.0,0.0,-0.61410826
148652000,-0.014349818,0.040623408,0.00021404028,0.0,0.0,-0.6173045
148680000,-0.014122828,0.035480555,0.00032418966,0.0,0.0,-0.6207912
148700000,-0.014841497,0.03717402,0.0003002286,0.0,0.0,-0.6152888
148716000,-0.012199947,0.032626744,0.00024944544,0.0,0.0,-0.6185932
148740000,-0.011351313,0.025868524,0.00045597553,0.0,0.0,-0.62178934
148760000,-0.012968158,0.02428247,0.00022530556,0.0,0.0,-0.61690295
148780000,-0.017381042,0.02557813,0.00019097328,0.0,0.0,-0.6202407
148800000,-0.016325092,0.024615576,-3.7550926e-06,0.0,0.0,-0.6233326
148816000,-0.019776523,0.0223635,-3.9696693e-05,0.0,0.0,-0.61819935
148840000,-0.020652909,0.02002663,-0.00022137165,0.0,0.0,-0.62521905
148856000,-0.018610828,0.020050421,-9.638071e-05,0.0,0.0,-0.62521905
148880000,-0.0129448995,0.03305863,-0.00011640787,0.0,0.0,-0.62371445
148900000,-0.010819767,0.03568063,-9.047985e-05,0.0,0.0,-0.62648696
148916000,-0.009477913,0.038871128,-5.2034855e-05,0.0,0.0,-0.62064254
148940000,-0.013384113,0.035456583,1.4841557e-05,0.0,0.0,-0.62364376
148960000,-0.015782136,0.027605547,0.00015771389,0.0,0.0,-0.62689555
148980000,-0.011195337,0.022846315,-4.184246e-05,0.0,0.0,-0.62141556
148992000,-0.010802786,0.024193374,-9.924173e-05,0.0,0.0,-0.62506825
149016000,-0.009210792,0.024839485,-0.000100672245,0.0,0.0,-0.6285517
149040000,-0.006950572,0.023179505,7.2062016e-05,0.0,0.0,-0.6230397
149056000,-0.003539441,0.028597036,5.221367e-05,0.0,0.0,-0.6265229
149080000,-0.004212668,0.027465288,-0.00024032593,0.0,0.0,-0.629511
149100000,-0.0068237786,0.033102497,-0.00045740604,0.0,0.0,-0.6279822
149116000,-0.006820895,0.031675443,-0.000474751,0.0,0.0,-0.6279822
149140000,-0.012266396,0.029290408,-0.00024926662,0.0,0.0,-0.6288044
149152000,-0.012538884,0.027702663,1.7523766e-05,0.0,0.0,-0.6288044
149180000,-0.011919823,0.021247558,5.2392483e-05,0.0,0.0,-0.6264355
149200000,-0.013871461,0.016611956,9.834766e-06,0.0,0.0,-0.62916374
149220000,-0.010058616,0.016194817,-0.00012212992,0.0,0.0,-0.63195103
149236000,-0.012953335,0.016473966,-1.0728836e-05,0.0,0.0,-0.6255626
149256000,-0.009260854,0.016997118,0.00017184019,0.0,0.0,-0.628523
149276000,-0.009694979,0.01312096,4.416704e-05,0.0,0.0,-0.63173366
149296000,-0.01137338,0.01372566,-2.95043e-05,0.0,0.0,-0.6269476
149316000,-0.011288709,0.011515985,-1.8417835e-05,0.0,0.0,-0.63056856
149336000,-0.012102018,0.015119577,-0.00013643503,0.0,0.0,-0.6337827
149356000,-0.0035820603,0.019133955,-0.000225842,0.0,0.0,-0.62869877
149376000,-0.0015319999,0.020068519,-0.00023066998,0.0,0.0,-0.6318581
149400000,-0.0008156339,0.019894306,-0.0003527999,0.0,0.0,-0.6354904
149416000,-0.00016446656,0.016435977,-0.0004724264,0.0,0.0,-0.629539
149440000,-0.002080643,0.013209086,-0.00030899048,0.0,0.0,-0.6355463
149456000,-0.0025453493,0.012767047,-0.00035601854,0.0,0.0,-0.6355463
149480000,-0.0031802896,0.01381385,-0.00014287233,0.0,0.0,-0.63381857
149500000,-0.0051326277,0.014085224,1.1622906e-05,0.0,0.0,-0.63730055
149520000,-0.007947406,0.009002671,0.00035262108,0.0,0.0,-0.6315909
149540000,-0.0071426984,0.0088272,0.00059455633,0.0,0.0,-0.63554925
149552000,-0.006280726,0.01044796,0.0005566478,0.0,0.0,-0.63864297
149580000,-0.0066532018,0.007931942,0.0006067157,0.0,0.0,-0.6329131
149596000,-0.0053499276,0.008434153,0.00057560205,0.0,0.0,-0.63564265
149620000,-0.0033146502,0.00988714,0.00057041645,0.0,0.0,-0.6383637
149636000,-0.00024996878,0.0075953747,0.00056415796,0.0,0.0,-0.6327492
149660000,-0.00089741964,0.005617216,0.0005196333,0.0,0.0,-0.6356579
149680000,-0.00015624147,0.0065786997,0.0003016591,0.0,0.0,-0.63937956
149700000,0.00028603943,0.0048518963,0.0003014803,0.0,0.0,-0.6349009
149720000,-0.0018044697,0.009255676,0.0003284812,0.0,0.0,-0.64189714
149740000,-0.00710434,0.016353112,-0.0068898797,0.0,0.0,-0.6366104
149760000,-0.006100859,0.016316496,-0.006662786,0.0,0.0,-0.63961715
149780000,-0.0014443182,0.013187317,-0.006412983,0.0,0.0,-0.6429469
149800000,0.00049023674,0.013343646,-0.0063287616,0.0,0.0,-0.6375851
149820000,0.00585963,0.0108918445,-0.006214142,0.0,0.0,-0.6410222
149840000,0.009429345,0.008128799,-0.0056848526,0.0,0.0,-0.6443593
149856000,0.006867176,0.007647457,-0.0049957037,0.0,0.0,-0.6357008
149876000,0.0025341152,0.010777408,-0.0043029785,0.0,0.0,-0.6127264
149896000,-0.0013299038,0.010198992,-0.0039446354,0.0,0.0,-0.58927774
149920000,-0.0060575833,0.005956008,-0.003020525,0.0,0.0,-0.5494253
149940000,-0.014528312,0.0027451403,-0.002407372,0.0,0.0,-0.53286487
149960000,-0.019475866,0.0071374406,-0.0019245744,0.0,0.0,-0.521668
149980000,-0.01809851,0.008967818,-0.0015821457,0.0,0.0,-0.5076819
150000000,-0.011567134,0.011723368,-0.0012581348,0.0,0.0,-0.5088063
150016000,-0.004065954,0.012649011,-0.0012774467,0.0,0.0,-0.514244
150036000,-0.0076943985,0.0061141066,-0.0009990335,0.0,0.0,-0.5282879
150060000,-0.0032135316,0.004411191,-0.0005688071,0.0,0.0,-0.53825635
150080000,-0.0055000074,0.00875978,-0.00013804436,0.0,0.0,-0.5441393
150100000,-0.005166815,0.010184866,0.00016361475,0.0,0.0,-0.55050224
150120000,-0.0033844819,0.008714716,0.0006058216,0.0,0.0,-0.5552313
150136000,-0.0026127736,0.00038741366,0.0010094047,0.0,0.0,-0.5530387
150156000,-0.0015891476,0.00070585124,0.0012112856,0.0,0.0,-0.5544716
150176000,8.192813e-05,0.0045116385,0.0014696717,0.0,0.0,-0.55576175
150196000,0.0027306594,-0.0009994281,0.0018138885,0.0,0.0,-0.5500067
150220000,0.0009459541,-0.0006151374,0.0022925735,0.0,0.0,-0.55084825
150240000,0.006244719,-0.00070339325,0.0023562312,0.0,0.0,-0.5514939
150260000,0.0049333367,0.0029594456,0.0027837753,0.0,0.0,-0.5474932
150276000,0.0047303755,0.0032989276,0.0031161904,0.0,0.0,-0.5474932
150300000,0.0028062628,0.0041959025,0.003373146,0.0,0.0,-0.5451776
150320000,0.00021113333,0.005597154,0.0038183928,0.0,0.0,-0.54692733
150336000,-0.0015676271,0.0019713894,0.003907621,0.0,0.0,-0.54952115
150356000,-0.0071622664,0.0017003026,0.004264176,0.0,0.0,-0.5474589
150376000,-0.005078907,0.0016473932,0.004514158,0.0,0.0,-0.5501377
150396000,-0.0076690363,-0.001425541,0.0048623085,0.0,0.0,-0.55277485
150420000,-0.010868821,-0.0016494007,0.0051024556,0.0,0.0,-0.54985523
150440000,-0.004919679,0.00036466168,0.0054668784,0.0,0.0,-0.55186903
150460000,-0.0034374981,0.0014385183,0.005403757,0.0,0.0,-0.55385697
150476000,-0.013405843,0.0036280775,0.005567372,0.0,0.0,-0.5513183
150500000,-0.015560111,0.0038447028,0.0058293343,0.0,0.0,-0.5533284
150520000,-0.008208483,0.0086353095,0.005770862,0.0,0.0,-0.5550539
150536000,-0.009203061,0.009005037,0.005896926,0.0,0.0,-0.55143154
150556000,-0.010345464,0.006295481,0.005908191,0.0,0.0,-0.5532964
150576000,-0.008483499,0.002939606,0.005664468,0.0,0.0,-0.55511045
150596000,-0.010130214,0.008041941,0.00562799,0.0,0.0,-0.5530538
150616000,-0.016065426,0.007134051,0.0052515864,0.0,0.0,-0.55512756
150636000,-0.016689772,0.017388888,0.0050870776,0.0,0.0,-0.55132717
150660000,-0.019272003,0.01959258,0.004888773,0.0,0.0,-0.5527246
150676000,-0.01348675,0.015690181,0.004516661,0.0,0.0,-0.55509305
150696000,-0.0066816914,0.018314721,0.0040732026,0.0,0.0,-0.5519171
150720000,-0.0067276605,0.0104494365,0.003861308,0.0,0.0,-0.55401057
150740000,-0.0050167693,0.005497591,0.0035224557,0.0,0.0,-0.556161
150760000,0.0010911922,0.007234575,0.003305912,0.0,0.0,-0.55322
150776000,0.004319372,0.0045794314,0.0030632615,0.0,0.0,-0.5551742
150800000,0.0006551326,0.00014282204,0.002452612,0.0,0.0,-0.55730045
150820000,0.0016149224,-0.006739335,0.0018610954,0.0,0.0,-0.55501074
150840000,-0.0007842069,-0.009209965,0.0016584992,0.0,0.0,-0.5591201
150856000,-0.00084079395,-0.008591844,0.0013355613,0.0,0.0,-0.5591201
150876000,-0.0010199801,-0.01048954,0.0009498596,0.0,0.0,-0.55839306
150900000,-0.0014672466,-0.0072904862,0.0009056926,0.0,0.0,-0.5607363
150920000,-0.0035965587,-0.012871452,0.0007672906,0.0,0.0,-0.55817664
150936000,-0.0024939813,-0.0073739877,0.0007773042,0.0,0.0,-0.55952173
150956000,-0.000592314,-0.002951435,0.00060135126,0.0,0.0,-0.5609005
150976000,-0.0028428198,-0.005881127,0.00032436848,0.0,0.0,-0.5576943
151000000,0.002510921,-0.00602068,0.00030344725,0.0,0.0,-0.5590038
151020000,0.0005851721,-0.0018873636,0.00033009052,0.0,0.0,-0.56036067
151036000,0.0036641553,0.0053524217,0.0003592372,0.0,0.0,-0.5573229
151060000,0.0010066158,0.006263974,0.00048154593,0.0,0.0,-0.55882597
151076000,-0.0018709725,0.01026948,0.000688076,0.0,0.0,-0.56046414
151096000,5.0052186e-05,0.0099952165,0.0011283159,0.0,0.0,-0.5575576
151120000,-0.0004453615,0.0118071195,0.001459837,0.0,0.0,-0.5610926
151140000,0.0030068967,0.01061153,0.0016756654,0.0,0.0,-0.5579853
151160000,0.0049021514,0.007683754,0.0020483136,0.0,0.0,-0.55944437
151180000,0.002382396,0.0073449016,0.0022773743,0.0,0.0,-0.5611087
151196000,0.0015747831,0.0033191463,0.0024892688,0.0,0.0,-0.5577603
151216000,0.0015914318,0.00073113665,0.0024257898,0.0,0.0,-0.5594935
151236000,0.0034805657,0.003168622,0.0024452806,0.0,0.0,-0.56137246
151260000,0.0030934578,0.0016996711,0.002586186,0.0,0.0,-0.5590706
151280000,0.0008252855,-0.0006415481,0.0027641058,0.0,0.0,-0.5604663
151300000,0.0015740816,-0.0060736346,0.0028134584,0.0,0.0,-0.5624582
151320000,-0.0014758846,-0.0049159164,0.002624452,0.0,0.0,-0.55970883
151336000,-0.00016980583,-0.006553384,0.002685964,0.0,0.0,-0.56100404
151360000,0.0021670463,-0.00090898457,0.0028486848,0.0,0.0,-0.56238496
151380000,-0.00013825932,-0.0015614193,0.0030893683,0.0,0.0,-0.5603382
151400000,-0.003545098,-0.0015910082,0.0032265186,0.0,0.0,-0.5632418
151420000,-0.008188026,-0.00085962634,0.0031769872,0.0,0.0,-0.5607063
151440000,-0.007250827,0.00012328033,0.0028962493,0.0,0.0,-0.562235
151460000,-0.0020327389,0.0021793032,0.002801299,0.0,0.0,-0.56375104
151476000,0.0015065772,0.0039575845,0.002607286,0.0,0.0,-0.5607432
151500000,0.00045995327,0.0011387479,0.0021963716,0.0,0.0,-0.5618282
151520000,0.004857286,-0.0011428774,0.0019812584,0.0,0.0,-0.5631112
151540000,0.008217527,0.0027976327,0.001924932,0.0,0.0,-0.5604309
151556000,0.0049192235,0.0065149195,0.0020384789,0.0,0.0,-0.5619915
151580000,0.0065696035,0.0036707239,0.0017713308,0.0,0.0,-0.5632649
151600000,0.0037033232,0.0068919957,0.0014986396,0.0,0.0,-0.56072265
151620000,-0.003312232,0.0063789953,0.0014702082,0.0,0.0,-0.5610849
151640000,-0.0031793823,0.0045148823,0.0014340878,0.0,0.0,-0.56225085
151660000,-0.0083809085,0.0005168987,0.0013294816,0.0,0.0,-0.55940336
151680000,-0.0074792826,0.0018112322,0.0013328791,0.0,0.0,-0.5603179
151700000,-0.0020571314,0.0053449455,0.0013867021,0.0,0.0,-0.5611329
151720000,-0.0024295752,0.001754062,0.0013055205,0.0,0.0,-0.5627394
151736000,-0.0014853337,0.0020219134,0.0009881258,0.0,0.0,-0.5627394
151760000,-0.00092055195,0.0042164065,0.0010047555,0.0,0.0,-0.56212264
151776000,-0.00014340223,0.0037171135,0.0010011792,0.0,0.0,-0.56361127
151800000,0.0023755739,0.0024445883,0.0010054708,0.0,0.0,-0.5650793
151816000,0.0030356934,0.0025681704,0.0010458827,0.0,0.0,-0.5629403
151840000,0.0072869863,0.004723357,0.0010988116,0.0,0.0,-0.56430465
151856000,-0.00079199066,-0.0024072533,0.0012844205,0.0,0.0,-0.5656533
151876000,-0.0008291433,-0.00092065637,0.0011161566,0.0,0.0,-0.563554
151896000,0.0030439321,0.0010978393,0.00090014935,0.0,0.0,-0.5643566
151920000,0.0040755905,0.00047045108,0.0006778836,0.0,0.0,-0.5652641
151936000,0.00085447694,0.0045079114,0.00062280893,0.0,0.0,-0.5624858
151956000,-0.002905106,0.001779156,0.0004992485,0.0,0.0,-0.56355953
151980000,-0.0012983027,0.0052740416,0.00037747622,0.0,0.0,-0.5620131
152000000,-0.00018936867,0.0033514523,0.00033062696,0.0,0.0,-0.5629996
152012000,1.8717139e-05,0.0032590558,0.00056397915,0.0,0.0,-0.5629996
152040000,0.0032198774,0.010832545,0.00044721365,0.0,0.0,-0.5619211
152060000,0.0036657415,0.011219333,0.00038552284,0.0,0.0,-0.563222
152076000,0.0032678246,0.0053718826,0.0003322363,0.0,0.0,-0.5648977
152100000,0.0047260323,0.0027347084,0.00032776594,0.0,0.0,-0.5633405
152116000,0.005179416,0.005975544,0.0002526641,0.0,0.0,-0.56485736
152140000,0.006982849,0.004268125,0.0001333952,0.0,0.0,-0.565644
152160000,0.010208541,0.0060291253,5.3822994e-05,0.0,0.0,-0.56341016
152180000,0.0048678727,0.0035045296,-0.000119268894,0.0,0.0,-0.56351405
152196000,0.0048865285,0.0029678734,-0.00027000904,0.0,0.0,-0.5645204
152212000,0.0008725001,-0.0020907687,-0.00022083521,0.0,0.0,-0.5620518
152232000,0.0033460315,-0.0012145203,-0.00030755997,0.0,0.0,-0.56309813
152260000,0.0033086753,-0.004622451,-0.00022441149,0.0,0.0,-0.56294
152276000,-0.00047064276,-0.0044784164,-0.00032776594,0.0,0.0,-0.5639702
152296000,-0.005443841,-0.0036835643,-0.00024354458,0.0,0.0,-0.5657483
152320000,0.0008440679,-0.0039570304,-0.00016880035,0.0,0.0,-0.5644391
152340000,0.0032254772,-0.0057950905,4.6491623e-05,0.0,0.0,-0.5651568
152356000,0.00511458,-0.0028671096,8.3863735e-05,0.0,0.0,-0.56632113
152376000,0.0037298612,-0.00073989574,3.4332275e-05,0.0,0.0,-0.5633124
152400000,0.0069278763,0.0031900504,8.1181526e-05,0.0,0.0,-0.5634081
152416000,0.007096038,0.0018379174,3.3080578e-05,0.0,0.0,-0.5641664
152436000,-0.0012916138,0.003205256,0.00011730194,0.0,0.0,-0.5617536
152456000,-0.0035156524,0.0022166236,-2.3961067e-05,0.0,0.0,-0.56316936
152476000,-0.0048512677,-0.0025320752,0.0003156066,0.0,0.0,-0.5647258
152500000,-0.0071318382,-0.0072556743,0.00037890673,0.0,0.0,-0.56379837
152516000,-0.005961848,-0.010117105,0.0004878044,0.0,0.0,-0.56525016
152536000,-0.0069009177,-0.012023443,0.00041788816,0.0,0.0,-0.56626475
152556000,-0.0064135706,-0.013516989,0.0004620552,0.0,0.0,-0.5656441
152580000,-0.0012085737,-0.011219096,0.0004005432,0.0,0.0,-0.5664448
152596000,0.007641239,-0.012258895,0.0002927184,0.0,0.0,-0.5644322
152616000,0.0049751773,-0.012170012,0.00037926435,0.0,0.0,-0.5645391
152636000,0.003878574,-0.0051701185,0.00019347668,0.0,0.0,-0.5653474
152660000,0.0029061069,-5.9050508e-05,-4.416704e-05,0.0,0.0,-0.5638827
152676000,0.0060784263,0.0032732624,-0.00013196468,0.0,0.0,-0.56488067
152700000,0.003001051,0.0030978383,5.90086e-06,0.0,0.0,-0.56587046
152720000,0.0072577335,0.008694385,6.0081482e-05,0.0,0.0,-0.5647175
152736000,0.0049276715,0.009718842,5.1498413e-05,0.0,0.0,-0.56590044
152756000,-0.0007052277,0.008805593,0.00020456314,0.0,0.0,-0.5669089
152780000,-0.0030112064,0.009843969,0.00019097328,0.0,0.0,-0.56499445
152800000,-0.0026326673,0.0061281393,7.0273876e-05,0.0,0.0,-0.565484
152816000,-0.00292833,0.0048344163,-3.5762787e-06,0.0,0.0,-0.565484
152836000,-0.0053454377,0.008129154,9.673834e-05,0.0,0.0,-0.56308186
152860000,-0.0062462986,0.0075980593,9.9778175e-05,0.0,0.0,-0.5643951
152880000,-0.00021640415,0.0013841819,0.00029736757,0.0,0.0,-0.56256825
152900000,-0.001543927,0.0051017925,0.00026017427,0.0,0.0,-0.56349957
152920000,-0.001316555,0.0047845496,0.00057685375,0.0,0.0,-0.56516844
152936000,-0.005329898,0.0040659886,0.0006197691,0.0,0.0,-0.5639985
152960000,-0.0021095762,0.009274427,0.00039929152,0.0,0.0,-0.56679446
152980000,0.0016925888,0.0055185594,0.0004194975,0.0,0.0,-0.56533307
153000000,-0.00090965565,0.00030894927,0.0004529357,0.0,0.0,-0.56575096
153016000,-0.003941194,-0.00030124,0.00048834085,0.0,0.0,-0.5664581
153036000,-0.0012615423,-0.0019441922,0.00032901764,0.0,0.0,-0.564362
153056000,0.0025862113,-0.0016610138,0.00023388863,0.0,0.0,-0.5648991
153080000,-0.0030610857,0.0020614334,0.00042378902,0.0,0.0,-0.5647143
153100000,-0.00076180627,0.0036770143,0.0003004074,0.0,0.0,-0.56506395
153116000,-0.0005882814,0.0028220355,0.00035637617,0.0,0.0,-0.5660969
153140000,-0.0036185437,4.797592e-05,0.0003964305,0.0,0.0,-0.5640582
153156000,-0.0019467729,0.0014708843,0.00040858984,0.0,0.0,-0.564265
153176000,-0.00087410095,0.0031562834,0.0003016591,0.0,0.0,-0.56514734
153200000,0.0038710418,0.002974023,0.00033080578,0.0,0.0,-0.5646032
153220000,0.0013833022,-0.0036463137,0.00019937754,0.0,0.0,-0.56244993
153240000,0.001628516,-0.0034036876,0.0001899004,0.0,0.0,-0.56244993
153260000,0.0050043897,-0.00051197014,0.00022512674,0.0,0.0,-0.5647539
153280000,0.0049285386,0.0020294022,0.00048083067,0.0,0.0,-0.5648144
153300000,-0.0011556238,0.0013349913,0.00063335896,0.0,0.0,-0.5654156
153320000,-0.0046111527,-0.0010884327,0.0006712675,0.0,0.0,-0.5663553
153336000,-0.008334911,-0.0035087296,0.0007365346,0.0,0.0,-0.56450146
153360000,-0.010828744,-0.004788177,0.0007118583,0.0,0.0,-0.5645737
153384000,-0.008292084,-0.0044966913,0.00062406063,0.0,0.0,-0.56537104
153400000,-0.008597919,-0.0023037584,0.0004452467,0.0,0.0,-0.56357116
153420000,-0.007163709,0.0004285653,0.00036871433,0.0,0.0,-0.563799
153436000,-0.004106006,0.0040478767,0.00018203259,0.0,0.0,-0.56466424
153464000,-0.0037670864,0.008844058,0.00018721819,0.0,0.0,-0.56354517
153480000,-0.00309525,0.008826332,0.00011962652,0.0,0.0,-0.56354517
153500000,-0.002855316,0.007758919,0.00029808283,0.0,0.0,-0.56461036
153524000,-0.00013810696,0.008315699,0.00042968988,0.0,0.0,-0.5637708
153540000,0.00020511486,0.007260984,0.0005350113,0.0,0.0,-0.5637708
153560000,0.0011712213,0.0078954995,0.000505507,0.0,0.0,-0.56381416
153584000,-5.9456856e-05,0.012593895,0.00026285648,0.0,0.0,-0.5645047
153600000,-0.004236266,0.011250009,0.00012052059,0.0,0.0,-0.56504357
153616000,-0.0072447704,0.011562037,0.00018596649,0.0,0.0,-0.5644059
153644000,-0.009060982,0.006243931,-0.00016450882,0.0,0.0,-0.5653681
153660000,-0.004289314,0.0066582933,-0.00018256903,0.0,0.0,-0.5663593
153680000,0.0009116949,0.0040759165,-0.00024354458,0.0,0.0,-0.5652141
153704000,0.0052764146,0.005088129,-0.00013464689,0.0,0.0,-0.5655039
153720000,0.0069990465,0.001757426,-0.00027018785,0.0,0.0,-0.5659963
153740000,0.006363411,-0.0011146702,-0.00028038025,0.0,0.0,-0.56411564
153764000,0.004175013,0.0023490465,-0.00043720007,0.0,0.0,-0.5639161
153780000,0.0054181614,-0.0012421841,-0.00043827295,0.0,0.0,-0.5648191
153804000,0.005005348,-0.0044539897,-0.000618875,0.0,0.0,-0.5640387
153824000,0.0016010338,-0.0075685307,-0.0005375147,0.0,0.0,-0.56538075
153844000,0.0006456654,-0.008497163,-0.00043720007,0.0,0.0,-0.5642687
153860000,0.0029935092,-0.0061528385,-0.00021189451,0.0,0.0,-0.56438607
153884000,0.00039233448,-0.0057432447,3.916025e-05,0.0,0.0,-0.56472784
153904000,0.00065536867,-0.0107701905,-0.0002233386,0.0,0.0,-0.56323856
153920000,-0.0014180788,-0.011014562,-0.00039303303,0.0,0.0,-0.56362784
153940000,-0.0048750625,-0.008388118,-0.0002220869,0.0,0.0,-0.5639534
153960000,-0.004632433,-0.006364431,-0.00040644407,0.0,0.0,-0.5627858
153984000,-0.0017391258,-0.007995299,-0.00045901537,0.0,0.0,-0.5630454
154000000,-0.0006454235,-0.008998064,-0.0004631281,0.0,0.0,-0.5634233
154016000,-0.001486517,-0.005745264,-0.00041788816,0.0,0.0,-0.5626842
154044000,0.0034660385,-0.012064545,-0.0003991127,0.0,0.0,-0.56405604
154060000,0.0034719778,-0.011611122,-0.0005519986,0.0,0.0,-0.56405604
154080000,0.0038040602,0.0007057646,-0.0005825758,0.0,0.0,-0.5640968
154104000,0.003620079,0.003999449,-0.0007120371,0.0,0.0,-0.5649855
154120000,0.0097635165,0.00047879736,-0.0007828474,0.0,0.0,-0.56356686
154140000,0.009591721,-0.0014670349,-0.00081539154,0.0,0.0,-0.5642364
154160000,0.006875235,-3.5590958e-05,-0.0005620122,0.0,0.0,-0.5653746
154180000,0.008925836,-0.00015031965,-0.00048959255,0.0,0.0,-0.5644915
154204000,0.0038957228,0.0040729158,-0.00048565865,0.0,0.0,-0.5651703
154220000,0.001960787,0.004094698,-0.0004953146,0.0,0.0,-0.56631666
154244000,-0.00620478,0.0087827295,-0.0006365776,0.0,0.0,-0.56553257
154260000,-0.0060979947,0.006284248,-0.00079375505,0.0,0.0,-0.56520057
154280000,-0.0046781683,0.007097182,-0.0006970167,0.0,0.0,-0.56410986
154304000,-0.0077738604,0.004747304,-0.0007535219,0.0,0.0,-0.56484276
154324000,-0.0060151108,0.0033975863,-0.00079393387,0.0,0.0,-0.5650245
154344000,-0.009656509,-0.0048660096,-0.0010864735,0.0,0.0,-0.564456
154364000,-0.005776057,-0.0038902871,-0.0011390448,0.0,0.0,-0.5651382
154384000,-0.003155406,-0.003260575,-0.0011163354,0.0,0.0,-0.56389815
154400000,-0.003169843,-0.0012724379,-0.00084757805,0.0,0.0,-0.5642945
154424000,-0.002099307,-0.00028857635,-0.00070649385,0.0,0.0,-0.5650265
154444000,-0.003855775,0.0029095074,-0.0007211566,0.0,0.0,-0.5637629
154460000,0.0006800185,0.0010067231,-0.0007009506,0.0,0.0,-0.5640334
154480000,0.0013917449,0.00044299406,-0.00085008144,0.0,0.0,-0.56429076
154504000,-0.00078190025,0.0056617614,-0.00073724985,0.0,0.0,-0.5632463
154524000,-0.003192281,0.0009673897,-0.0005809665,0.0,0.0,-0.56400347
154544000,-0.0045294412,0.002307044,-0.00043737888,0.0,0.0,-0.5647515
154560000,-0.00052033295,0.0064868107,-0.00028324127,0.0,0.0,-0.563646
154580000,-8.345582e-06,0.0058816606,-0.00026375055,0.0,0.0,-0.5644112
154604000,-0.0052670958,0.0056183757,-9.012222e-05,0.0,0.0,-0.56508046
154624000,-0.0059906915,0.007687851,1.680851e-05,0.0,0.0,-0.5638348
154640000,-0.0031027326,0.005640871,-6.920099e-05,0.0,0.0,-0.5646533
154664000,0.00012961232,-3.743777e-05,-0.00020670891,0.0,0.0,-0.56448525
154684000,-0.0039145797,0.0010958123,-0.00034171343,0.0,0.0,-0.5648383
154700000,-0.00341577,0.0024575356,-0.00044685602,0.0,0.0,-0.5654882
154720000,-0.011074111,0.000346723,-0.00053036213,0.0,0.0,-0.56399393
154740000,-0.0114427125,0.00059191184,-0.0004672408,0.0,0.0,-0.5643507
154760000,-0.007694564,-0.004511399,-0.00036209822,0.0,0.0,-0.564922
154780000,-0.010741128,-0.0043816958,-0.00036996603,0.0,0.0,-0.5642005
154804000,-0.005731413,-0.004590432,-0.0004069805,0.0,0.0,-0.56436914
154820000,-0.00023469861,-0.0013237176,-0.0002937913,0.0,0.0,-0.5646813
154844000,-0.002589813,-0.005338059,-0.00022906065,0.0,0.0,-0.56375366
154864000,-0.00017829234,-0.004877811,-0.0002798438,0.0,0.0,-0.56401587
154880000,-0.0010311888,-0.001832057,-0.00029933453,0.0,0.0,-0.5644643
154904000,-0.0068087094,0.0011109975,-0.0003876686,0.0,0.0,-0.56383884
154920000,-0.0071246233,0.0014031858,-0.0006571412,0.0,0.0,-0.56383884
154944000,-0.003720332,0.0029064934,-0.0007520914,0.0,0.0,-0.5637888
154964000,-0.005012854,-0.003492014,-0.00062942505,0.0,0.0,-0.564482
154976000,-0.0041182153,-0.00359745,-0.00053340197,0.0,0.0,-0.564482
155004000,0.0020137033,-0.0027101522,-0.00031614304,0.0,0.0,-0.5639505
155024000,0.005126481,-0.0045047663,-0.00046008825,0.0,0.0,-0.5640999
155044000,0.00083449215,-0.0028287924,-0.0004942417,0.0,0.0,-0.5643896
155064000,0.0069002137,-0.00268504,-0.00080502033,0.0,0.0,-0.563094
155084000,0.010149146,-0.0007894377,-0.00084382296,0.0,0.0,-0.5631845
155104000,0.007428875,0.0008808968,-0.0008431077,0.0,0.0,-0.56389916
155120000,0.0050600134,0.007909039,-0.0008084178,0.0,0.0,-0.5634248
155144000,0.00408845,0.0058870995,-0.00071132183,0.0,0.0,-0.56387264
155164000,0.0016859339,0.0045860615,-0.0007547736,0.0,0.0,-0.5646058
155180000,-0.004148005,0.003291614,-0.0007084608,0.0,0.0,-0.564559
155204000,-0.0028735031,-0.000624032,-0.0006260276,0.0,0.0,-0.5650014
155224000,-0.0028907922,-0.0069170664,-0.0004981756,0.0,0.0,-0.5650698
155244000,-0.005387812,-0.006256691,-0.00042128563,0.0,0.0,-0.5654911
155264000,-0.006723499,-0.0072606476,-0.00022101402,0.0,0.0,-0.566068
155284000,-0.0062256753,-0.012698373,-0.00017523766,0.0,0.0,-0.5648111
155300000,-0.009036658,-0.015553148,-7.992983e-05,0.0,0.0,-0.56427556
155324000,-0.010895618,-0.016127218,-0.00016504526,0.0,0.0,-0.56444895
155344000,-0.0077434494,-0.010587262,-0.00013071299,0.0,0.0,-0.5634118
155364000,-0.0074217995,-0.0069162394,-0.00022280216,0.0,0.0,-0.5635035
155380000,-0.0031670197,-0.0038935784,-0.0002040267,0.0,0.0,-0.56423944
155404000,-0.0037831657,-0.003059125,-4.130602e-05,0.0,0.0,-0.5642031
155424000,0.0009020566,-0.0068121003,7.1525574e-05,0.0,0.0,-0.56498224
155440000,0.002923371,-0.00096550933,0.00014805794,0.0,0.0,-0.5656881
155464000,-0.00044790568,-0.0017725232,0.0003247261,0.0,0.0,-0.5644609
155480000,-0.00089911104,-0.0016860534,0.0002898574,0.0,0.0,-0.5644609
155504000,0.0009917347,0.00040585315,0.00018382072,0.0,0.0,-0.56365275
155520000,0.0024739988,0.0031603435,0.00010639429,0.0,0.0,-0.5634362
155544000,-0.0026558852,0.003588635,0.00014913082,0.0,0.0,-0.5636886
155564000,-0.007654463,0.0066186776,0.00026589632,0.0,0.0,-0.56292266
155584000,-0.0096924845,0.0011514053,0.00020688772,0.0,0.0,-0.56335646
155604000,-0.004302913,0.003629786,0.00020742416,0.0,0.0,-0.5638508
155620000,-0.003251304,0.0036219775,0.00028288364,0.0,0.0,-0.5640034
155640000,-0.002549189,-0.0028328067,0.0002937913,0.0,0.0,-0.56437397
155664000,-0.0013860934,-0.0027833101,0.00022423267,0.0,0.0,-0.5647309
155684000,-0.0006914536,0.0009840997,3.093481e-05,0.0,0.0,-0.5644445
155704000,-0.0028913256,-0.00048620487,-2.7000904e-05,0.0,0.0,-0.5647127
155720000,-0.004230252,-0.0010315734,-0.00030755997,0.0,0.0,-0.5656203
155740000,-0.009798421,0.0009641717,-0.00038731098,0.0,0.0,-0.56479263
155764000,-0.0142210405,-0.0011083712,-0.0006392598,0.0,0.0,-0.56490153
155784000,-0.004791354,-0.00029396033,-0.0007740855,0.0,0.0,-0.56385744
155804000,-0.0070103738,-0.0045253714,-0.0006877184,0.0,0.0,-0.5636423
155824000,-0.004303491,-0.005189738,-0.00044631958,0.0,0.0,-0.5634855
155844000,-0.0033875918,-0.0112520475,-0.00015306473,0.0,0.0,-0.56296057
155864000,-0.0042088153,-0.011994716,0.00018650293,0.0,0.0,-0.56311685
155884000,-0.0037885874,-0.0066184457,0.0004618764,0.0,0.0,-0.5635265
155900000,-0.0015312508,-0.008368693,0.0005096197,0.0,0.0,-0.56372344
155920000,-0.001378389,-0.007877417,-7.081032e-05,0.0,0.0,-0.56397736
155944000,-0.0019213854,-0.002094502,-0.0003222227,0.0,0.0,-0.5640558
155964000,0.0028931512,0.0031566694,-0.0005913377,0.0,0.0,-0.5632093
155980000,-0.0019846712,-0.00045262836,-0.0005657673,0.0,0.0,-0.5631812
156004000,-0.004020401,-0.003192713,-0.00057291985,0.0,0.0,-0.5634892
156024000,0.001078636,-0.0032392954,-0.00057184696,0.0,0.0,-0.56307656
156044000,-0.0026798965,-0.004182412,-0.0007029176,0.0,0.0,-0.5638913
156060000,-0.0023488938,-0.0043224106,-0.0006979108,0.0,0.0,-0.5638913
156080000,0.00027798687,-0.0039509805,-0.0007622838,0.0,0.0,-0.56329244
156100000,0.0023691365,-0.0044819657,-0.00076782703,0.0,0.0,-0.5636784
156124000,0.008030485,-0.0012247239,-0.0005713105,0.0,0.0,-0.563609
156140000,0.0072720945,-0.00093687046,-0.00049316883,0.0,0.0,-0.5638095
156160000,0.0072684763,-0.0009556913,-0.00046885014,0.0,0.0,-0.56433535
156184000,0.0066669323,-0.0015107731,-0.00013822317,0.0,0.0,-0.56416893
156204000,0.008102257,-0.0006364456,0.00010174513,0.0,0.0,-0.56427175
156220000,0.007181611,0.0022908726,0.00028127432,0.0,0.0,-0.56473553
156244000,0.006970332,0.0074152085,0.0002578497,0.0,0.0,-0.5637818
156264000,0.0057639787,0.0010276493,0.00032776594,0.0,0.0,-0.5638471
156284000,0.004142572,-0.00591119,3.629923e-05,0.0,0.0,-0.5643159
156304000,0.004169631,-0.0091070505,3.7908554e-05,0.0,0.0,-0.5636084
156324000,0.0050980193,-0.00024815043,0.00029110909,0.0,0.0,-0.5650773
156340000,0.0044874563,0.0003020342,0.00015074015,0.0,0.0,-0.5650773
156360000,0.007963064,0.0027375135,0.00022155046,0.0,0.0,-0.56489336
156380000,0.0076823453,0.0023671717,4.130602e-05,0.0,0.0,-0.56513226
156400000,0.0033610223,0.00093632704,0.00021064281,0.0,0.0,-0.5647945
156424000,0.0027765655,-0.0030153429,0.00043737888,0.0,0.0,-0.5647161
156444000,-0.00220804,0.002092547,0.0006608963,0.0,0.0,-0.56494087
156460000,-0.0013719111,0.0014076841,0.0007805228,0.0,0.0,-0.5641804
156480000,-0.0031294683,0.0013125809,0.0010242462,0.0,0.0,-0.5643183
156504000,-0.0058987485,0.004859295,0.0009212494,0.0,0.0,-0.56466585
156524000,-0.007530317,0.0027297093,0.0008740425,0.0,0.0,-0.5636738
156540000,-0.009053946,0.0015865448,0.0007955432,0.0,0.0,-0.56367135
156564000,-0.010334474,0.0013722265,0.0009881258,0.0,0.0,-0.56409365
156584000,-0.014636499,-0.0010739202,0.00084257126,0.0,0.0,-0.5635324
156600000,-0.0075092325,-0.0035920576,0.00063174963,0.0,0.0,-0.56410784
156624000,-0.0011716626,-0.0014058407,0.0005350113,0.0,0.0,-0.5641084
156640000,-0.0013651239,-0.002388496,0.00043022633,0.0,0.0,-0.56430435
156660000,0.0012328344,-0.001756221,0.00035601854,0.0,0.0,-0.5649042
156680000,0.0049295123,-0.0021510883,0.0005643368,0.0,0.0,-0.56461346
156696000,0.0052168015,0.0018558826,0.0005797148,0.0,0.0,-0.5646471
156724000,-0.00015118893,0.0019106087,0.0003540516,0.0,0.0,-0.5648912
156740000,3.1447853e-05,0.004816767,0.00024193525,0.0,0.0,-0.5645103
156764000,0.00015678315,0.008772481,8.314848e-05,0.0,0.0,-0.5647071
156776000,0.0021351187,0.0069958395,0.00012534857,0.0,0.0,-0.56476575
156804000,0.0051435623,0.003105025,-0.0002462268,0.0,0.0,-0.56471395
156820000,0.0018690671,0.0010812075,-0.0002079606,0.0,0.0,-0.5645806
156840000,0.0013615316,-2.4136389e-05,-0.00032562017,0.0,0.0,-0.5650875
156864000,0.0016799918,0.0037389107,-0.0002555251,0.0,0.0,-0.5648994
156880000,0.0015685356,0.0032556988,-0.0003270507,0.0,0.0,-0.5648994
156900000,0.00031507894,0.009689896,-0.00021207333,0.0,0.0,-0.565284
156920000,0.0009944441,0.009927099,-0.00036263466,0.0,0.0,-0.564527
156940000,-0.0021662873,0.009510869,-0.00030773878,0.0,0.0,-0.5650171
156964000,-0.004507127,0.003810854,-0.0007202625,0.0,0.0,-0.5643055
156984000,-0.0039866883,0.0025184287,-0.0006787777,0.0,0.0,-0.5642321
157004000,-0.0028029333,-0.0012056376,-0.00057309866,0.0,0.0,-0.5644887
157024000,-0.003141598,-0.008848071,-0.0005326867,0.0,0.0,-0.5634625
157040000,-0.009981209,-0.0057458086,-0.00042253733,0.0,0.0,-0.56364155
157064000,-0.0073005566,-0.008991493,-0.00040751696,0.0,0.0,-0.5636621
157084000,-0.0033868274,-0.008490425,-0.00049495697,0.0,0.0,-0.5631856
157104000,-0.0027952986,-0.007547869,-0.00051891804,0.0,0.0,-0.56354946
157124000,-0.0047099497,-0.003992468,-0.00057935715,0.0,0.0,-0.56434345
157140000,-0.002176721,-0.0073667024,-0.0007683635,0.0,0.0,-0.56322086
157164000,-0.0010892092,-0.0048388503,-0.0008867383,0.0,0.0,-0.5635114
157176000,0.00014837069,-0.0007952736,-0.0009056926,0.0,0.0,-0.56376827
157200000,-0.0020888136,-0.0032860134,-0.0009262562,0.0,0.0,-0.5637043
157220000,0.0015846005,-0.002526993,-0.00079482794,0.0,0.0,-0.56378776
157244000,0.00012976618,-0.004480897,-0.0008304119,0.0,0.0,-0.5623575
157264000,0.0004970196,-0.0040429216,-0.0010126233,0.0,0.0,-0.56237686
157284000,-0.0002592788,-0.0020728572,-0.0011742711,0.0,0.0,-0.56292164
157300000,0.0028157807,-0.002877587,-0.0008994341,0.0,0.0,-0.56212485
157324000,-0.0007383748,-0.0032209195,-0.00088584423,0.0,0.0,-0.5625348
157344000,0.0010000581,0.00023637805,-0.0010024309,0.0,0.0,-0.56313163
157356000,-0.0007536096,0.0030174307,-0.0008806586,0.0,0.0,-0.5627706
157376000,0.00042083178,0.0022952305,-0.00080055,0.0,0.0,-0.56307167
157404000,0.0013101456,-0.002444462,-0.0005798936,0.0,0.0,-0.56350166
157420000,0.0038527963,-0.0028182976,-0.00046634674,0.0,0.0,-0.5635809
157444000,0.010779426,-0.0014207151,-0.00053822994,0.0,0.0,-0.56416494
157464000,0.008458466,-0.004479466,-0.0006324649,0.0,0.0,-0.5636156
157480000,0.010495719,-0.0031739187,-0.0006233454,0.0,0.0,-0.563117
157500000,0.007868318,-0.0044464506,-0.0006569624,0.0,0.0,-0.5630284
157520000,0.00747213,-0.0019221806,-0.00045615435,0.0,0.0,-0.5619616
157536000,0.0064484635,-0.0015641449,-0.00033295155,0.0,0.0,-0.5619616
157564000,0.009486852,0.0011317099,-0.00020939112,0.0,0.0,-0.5628086
157580000,0.008710975,-0.0019015758,-6.0260296e-05,0.0,0.0,-0.56279874
157604000,0.0040937765,-0.0002377436,0.00014609098,0.0,0.0,-0.5632888
157620000,0.006776293,0.002182804,0.00026857853,0.0,0.0,-0.5639134
157644000,0.00858875,-0.005563453,0.0002900362,0.0,0.0,-0.5636337
157660000,0.0041780067,-0.008072659,0.00023406744,0.0,0.0,-0.56417775
157680000,0.00068108726,-0.0088181775,0.00035709143,0.0,0.0,-0.56478417
157704000,-2.515444e-05,-0.004658091,0.00060492754,0.0,0.0,-0.56462336
157724000,-0.00027412106,-0.0041527096,0.00081288815,0.0,0.0,-0.56462336
157740000,0.001598629,0.00068564527,0.00068825483,0.0,0.0,-0.5649047
157764000,0.00028067466,-0.0010620549,0.00065767765,0.0,0.0,-0.56410027
157784000,0.0026401202,-0.0058849882,0.00046795607,0.0,0.0,-0.56380045
157804000,0.0043058684,-0.010168755,0.00059080124,0.0,0.0,-0.5634598
157820000,0.0020480147,-0.013033845,0.0004336238,0.0,0.0,-0.5636905
157844000,0.0017774496,-0.01301758,0.00017219782,0.0,0.0,-0.5637733
157856000,0.003513421,-0.0114663495,0.00014787912,0.0,0.0,-0.5636566
157880000,0.0048496965,-0.0075221,0.00022387505,0.0,0.0,-0.5645624
157900000,0.0008785401,-0.007501445,0.00016611814,0.0,0.0,-0.56495345
157924000,0.0028775653,-0.0070099854,0.00031775236,0.0,0.0,-0.56445915
157944000,0.0024051536,-0.0035188766,0.00019437075,0.0,0.0,-0.564599
157960000,-0.0011326731,0.0012479955,0.0003118515,0.0,0.0,-0.56492597
157984000,0.0004615757,0.00538455,0.00046741962,0.0,0.0,-0.5636019
158000000,0.00071616203,0.00576632,0.0004876256,0.0,0.0,-0.5636019
158016000,-0.0014371328,0.008260254,0.00070381165,0.0,0.0,-0.5641526
158040000,-0.0059781703,0.011272679,0.0007195473,0.0,0.0,-0.5653631
158064000,-0.0048726504,0.012397396,0.000754416,0.0,0.0,-0.5662055
158080000,0.0012460799,0.0028841647,0.00058043003,0.0,0.0,-0.5655754
158100000,-0.00026205042,0.0008691433,0.00057935715,0.0,0.0,-0.56591976
158124000,-0.00032140862,0.00028110738,0.0006887913,0.0,0.0,-0.5657604
158140000,-0.0018148595,2.3525208e-06,0.00086402893,0.0,0.0,-0.5648838
158164000,-0.0016387235,0.0031639952,0.000562191,0.0,0.0,-0.5643866
158180000,-0.005072318,-0.0037389484,0.00044631958,0.0,0.0,-0.564027
158204000,-0.0020341629,-0.004768965,0.00055772066,0.0,0.0,-0.5634963
158220000,0.0014317457,-0.0042872718,0.00058829784,0.0,0.0,-0.5636732
158244000,0.00020437804,-0.0028628306,0.0005121231,0.0,0.0,-0.56403756
158264000,-0.003586381,-0.004489988,0.00024551153,0.0,0.0,-0.5635048
158280000,-0.0046078563,-0.007263785,0.00024336576,0.0,0.0,-0.56382936
158300000,0.0001923528,-0.010717584,0.00020295382,0.0,0.0,-0.56448776
158324000,0.0053439625,-0.010829329,0.0002744794,0.0,0.0,-0.5649142
158340000,0.005805722,-0.008983638,0.00026375055,0.0,0.0,-0.5647974
158360000,0.0025106545,-0.0087503465,0.00046420097,0.0,0.0,-0.56431794
158384000,0.00010623294,-0.006393603,0.00072330236,0.0,0.0,-0.56416625
158404000,-0.0013706518,-0.0041660937,0.00092446804,0.0,0.0,-0.5645104
158420000,-0.003270669,-0.0055712815,0.0008068085,0.0,0.0,-0.5638881
158444000,-0.0025121807,-0.0050716256,0.00076264143,0.0,0.0,-0.56388354
158464000,0.0008940686,-0.000120867044,0.0006043911,0.0,0.0,-0.5635417
158480000,0.0026996536,-0.0011243764,0.0005655885,0.0,0.0,-0.56262934
158500000,0.0035734554,-0.0041777603,0.00042647123,0.0,0.0,-0.5621743
158520000,0.0029016193,-0.006329249,0.00027877092,0.0,0.0,-0.5621602
158544000,-0.0018754966,-0.0049582254,0.00042825937,0.0,0.0,-0.5619738
158564000,-0.0021262967,-0.00461601,0.00036263466,0.0,0.0,-0.5619738
158580000,-0.0088255,-0.0015731498,0.00053858757,0.0,0.0,-0.56193495
158604000,-0.0062562204,-0.0049256296,0.0007352829,0.0,0.0,-0.56120867
158624000,-0.0017343562,-0.0037411095,0.00063979626,0.0,0.0,-0.56183654
158640000,0.0015048223,0.002079958,0.00065910816,0.0,0.0,-0.5620517
158664000,0.0043051727,-0.0028587843,0.00073724985,0.0,0.0,-0.5624661
158676000,0.004082835,-0.003925575,0.0006517768,0.0,0.0,-0.5630071
158700000,0.003926911,0.0035669343,0.00063461065,0.0,0.0,-0.56338584
158720000,0.005288512,0.005461001,0.00067824125,0.0,0.0,-0.5635024
158744000,0.0031951135,0.006207186,0.0006060004,0.0,0.0,-0.5640929
158764000,-0.003608617,0.004046417,0.00044560432,0.0,0.0,-0.5642105
158780000,-0.006582293,0.0021460452,0.00032025576,0.0,0.0,-0.56402814
158804000,-0.0031031459,0.00503788,0.00013929605,0.0,0.0,-0.56446403
158824000,-0.0045658527,0.005954558,-8.08239e-05,0.0,0.0,-0.5636546
158844000,-0.0043950668,0.0056874272,4.8279762e-05,0.0,0.0,-0.5636546
158864000,-0.0059621204,0.006152753,0.00019186735,0.0,0.0,-0.5627421
158884000,-0.0024979939,0.0058208667,0.00040143728,0.0,0.0,-0.56284
158900000,-0.005123703,0.0051950393,0.0004414916,0.0,0.0,-0.5631154
158920000,-0.0012992488,0.0028638323,0.0005825758,0.0,0.0,-0.56274045
158944000,0.0034703454,-0.0009643254,0.0007157922,0.0,0.0,-0.56313944
158964000,-0.0017987149,-0.0034573555,0.0004904866,0.0,0.0,-0.56387997
158984000,-0.0054622954,-0.00370125,0.00022244453,0.0,0.0,-0.56400484
159004000,-0.0062870504,0.0020877644,0.00018239021,0.0,0.0,-0.56441313
159024000,-0.0028582555,0.004385198,0.00016361475,0.0,0.0,-0.56475747
159044000,-0.0030243,0.004473944,0.000103354454,0.0,0.0,-0.5644013
159064000,-0.0055762846,-0.0009638141,0.00023049116,0.0,0.0,-0.5645358
159080000,-0.0006664385,-0.006840358,0.00024265051,0.0,0.0,-0.5642303
159104000,0.004589066,-0.01014197,0.0003014803,0.0,0.0,-0.5628702
159124000,0.0004357549,-0.0072064796,0.00046491623,0.0,0.0,-0.56300604
159144000,0.0029315483,-0.008676283,0.00026285648,0.0,0.0,-0.5622937
159164000,0.004897576,-0.006277199,0.0003413558,0.0,0.0,-0.563078
159176000,0.0043197577,-0.005604456,0.00046223402,0.0,0.0,-0.563078
159204000,0.005392019,-0.0005522354,0.0005123019,0.0,0.0,-0.56379074
159216000,0.0015012547,0.0026265637,0.00054484606,0.0,0.0,-0.5644797
159244000,0.0010054949,0.0054753013,0.0007326007,0.0,0.0,-0.5645241
159260000,-0.0009987509,0.005824605,0.0009686351,0.0,0.0,-0.56379616
159284000,0.00065010635,0.0013207253,0.0010489225,0.0,0.0,-0.5637223
159304000,-0.0010563451,-0.0012347256,0.0013048053,0.0,0.0,-0.5634667
159324000,-0.0018908023,-0.0013936975,0.0013745427,0.0,0.0,-0.56346005
159340000,-0.0021958211,-0.004995562,0.0015664101,0.0,0.0,-0.5641125
159360000,-0.0016463518,-0.005222724,0.0016985536,0.0,0.0,-0.5645022
159384000,0.0034942455,4.8510963e-05,0.0017112494,0.0,0.0,-0.56406313
159404000,-0.00080294546,0.0014286151,0.0016790628,0.0,0.0,-0.56366104
159416000,-0.0008689533,0.0018790264,0.0015862584,0.0,0.0,-0.56366104
159444000,-0.00040833768,0.005464279,0.0015045404,0.0,0.0,-0.5627823
159464000,0.0028224434,0.0005201893,0.0013014078,0.0,0.0,-0.5626709
159484000,-0.00069182063,-0.00523992,0.0012652874,0.0,0.0,-0.5620439
159504000,-0.0021895831,-0.0026906196,0.0013076663,0.0,0.0,-0.56233275
159524000,-0.005380677,-0.0070066424,0.0011944771,0.0,0.0,-0.5623624
159540000,-0.0093720015,-0.0097830985,0.0011501312,0.0,0.0,-0.5624953
159560000,-0.008798031,-0.012351313,0.00096559525,0.0,0.0,-0.5620952
159580000,-0.008896695,-0.011544831,0.0010491014,0.0,0.0,-0.5619954
159604000,-0.00912793,-0.0076848236,0.0011547804,0.0,0.0,-0.561848
159620000,-0.006177726,-0.006679751,0.0011492372,0.0,0.0,-0.5624574
159644000,-0.0037763275,-0.0027465443,0.0009933114,0.0,0.0,-0.5630406
159660000,-0.00062117656,-0.004310036,0.0008826256,0.0,0.0,-0.5633247
159684000,0.0021751486,-0.0029163903,0.00082808733,0.0,0.0,-0.5640478
159700000,0.002252193,-0.0020201602,0.000669837,0.0,0.0,-0.5640478
159724000,0.005684482,0.00047333026,0.0006249547,0.0,0.0,-0.56397223
159740000,0.0020076265,0.00020190678,0.0005097985,0.0,0.0,-0.56373966
159764000,0.0060110204,-0.004232625,0.00033420324,0.0,0.0,-0.5624484
159780000,0.010256346,-0.005014408,0.0005720258,0.0,0.0,-0.5623424
159800000,0.0071716,-0.00037726527,0.00039732456,0.0,0.0,-0.56245315
159820000,0.0054320227,0.004717403,0.00045633316,0.0,0.0,-0.5626566
159844000,0.0021313787,0.003986443,0.0006378293,0.0,0.0,-0.56297785
159856000,-0.0019306436,0.0029699206,0.0007916093,0.0,0.0,-0.5636123
159880000,0.0014755576,0.0062105255,0.0007633567,0.0,0.0,-0.5633328
159904000,0.0040523056,0.0041195126,0.000603497,0.0,0.0,-0.5630889
159916000,0.0046816464,0.0094750635,0.0004886985,0.0,0.0,-0.562794
159944000,0.0034468863,0.005089552,0.00049477816,0.0,0.0,-0.56182855
159960000,-0.00080450904,0.00583496,0.0005199909,0.0,0.0,-0.5620032
159980000,0.0036421488,0.0057110474,0.0005752444,0.0,0.0,-0.56272084
160000000,0.0008750983,0.0075498177,0.00067806244,0.0,0.0,-0.5626339
160024000,-0.0024011992,0.00073076994,0.00055503845,0.0,0.0,-0.5628391
160040000,-0.0071478914,0.008363846,0.0004531145,0.0,0.0,-0.56277347
160060000,-0.0052877474,0.0014346326,0.0002553463,0.0,0.0,-0.5628925
160080000,-0.004849817,0.00097569125,0.00013661385,0.0,0.0,-0.56337404
160100000,-0.0026581767,0.0016236787,9.3877316e-05,0.0,0.0,-0.56310284
160124000,0.001363897,0.0029578884,0.00021100044,0.0,0.0,-0.5636517
160140000,-0.0007677886,0.0004704385,0.00022995472,0.0,0.0,-0.563633
160164000,-0.0047579855,-0.0013485965,0.00023907423,0.0,0.0,-0.5633474
160180000,-0.0012300991,9.5127616e-05,0.00039625168,0.0,0.0,-0.5631495
160200000,-0.0029761093,-0.003910957,0.00041735172,0.0,0.0,-0.56261295
160220000,-0.0015869199,0.0020580743,0.00040340424,0.0,0.0,-0.5624259
160240000,-0.003534291,0.0043117222,0.0004105568,0.0,0.0,-0.56180936
160256000,-0.0036580837,0.0033762865,0.0002644658,0.0,0.0,-0.56196964
160284000,0.0028205765,-0.0055194427,0.00011605024,0.0,0.0,-0.5618077
160300000,0.003075385,-0.0062413663,0.00019705296,0.0,0.0,-0.5618077
160324000,0.0008996244,-0.006354202,9.4771385e-05,0.0,0.0,-0.5618046
160344000,0.0034832284,-0.008550745,2.8431416e-05,0.0,0.0,-0.5619394
160360000,0.0022074226,-0.0036278456,0.00015717745,0.0,0.0,-0.5623158
160380000,0.0029857925,-0.0058096913,5.4895878e-05,0.0,0.0,-0.5621806
160404000,0.004039444,-0.0050815577,-5.2928925e-05,0.0,0.0,-0.5627458
160420000,-0.001776763,0.0005317675,2.4855137e-05,0.0,0.0,-0.5629254
160440000,-0.005046063,0.0072106454,7.134676e-05,0.0,0.0,-0.5631173
160464000,-0.00021321257,0.01270052,-8.958578e-05,0.0,0.0,-0.56346786
160480000,0.003958448,0.015761916,1.5199184e-05,0.0,0.0,-0.5633765
160500000,0.0056624734,0.01703046,-8.440018e-05,0.0,0.0,-0.5628372
160520000,0.009532972,0.0104265455,1.859665e-05,0.0,0.0,-0.5627609
160540000,0.0128559815,0.00375849,0.00019544363,0.0,0.0,-0.5619574
160560000,0.01644003,0.0013539176,0.00019133091,0.0,0.0,-0.56134695
160580000,0.016151952,0.0024693352,0.0005233884,0.0,0.0,-0.5614653
160604000,0.008910922,-0.0016298639,0.00033420324,0.0,0.0,-0.56174034
160620000,0.0034794528,-0.0022857534,0.00037515163,0.0,0.0,-0.5621198
160644000,-0.004831085,0.0025894507,0.00025248528,0.0,0.0,-0.56223
160656000,-0.0074281115,0.009430604,0.00040858984,0.0,0.0,-0.5625702
160684000,-0.008685301,0.0085378345,0.00058972836,0.0,0.0,-0.5625657
160704000,-0.010908371,-0.0007229964,0.0005030036,0.0,0.0,-0.5611506
160720000,-0.013726845,-0.0020229681,0.00045347214,0.0,0.0,-0.5613295
160740000,-0.013142319,-0.0043917694,0.00033205748,0.0,0.0,-0.56102777
160760000,-0.01581043,-0.009922936,0.00018024445,0.0,0.0,-0.5604955
160784000,-0.012666997,-0.005723996,0.00038409233,0.0,0.0,-0.5603672
160804000,-0.012480516,-0.009132214,0.0005682707,0.0,0.0,-0.5608017
160820000,-0.0047414186,-0.0059073362,0.00050514936,0.0,0.0,-0.5611895
160840000,-0.003054699,-0.005654059,0.0004248619,0.0,0.0,-0.56137305
160860000,-0.00354,-0.0005622022,0.00033795834,0.0,0.0,-0.5619947
160880000,0.0011834088,0.001899342,2.4497509e-05,0.0,0.0,-0.56191677
160904000,-0.0012812619,0.003171117,1.50203705e-05,0.0,0.0,-0.56215507
160924000,0.002116529,0.00025787205,-5.0246716e-05,0.0,0.0,-0.56207263
160944000,0.00041167578,-0.000518464,-0.00013947487,0.0,0.0,-0.5616044
160960000,0.00058953976,0.0011453689,-3.4332275e-05,0.0,0.0,-0.56213486
160980000,0.002485673,0.0014375257,8.046627e-06,0.0,0.0,-0.5624573
161004000,-0.0021712729,0.0027762973,-2.1457672e-06,0.0,0.0,-0.562642
161024000,-0.0006674478,0.0055586477,0.00026357174,0.0,0.0,-0.563118
161044000,-0.0028077725,0.00823221,0.0003812313,0.0,0.0,-0.5625164
161060000,-0.0013776262,0.0060916794,0.0006322861,0.0,0.0,-0.5621727
161084000,0.0026233532,0.0050937594,0.00070005655,0.0,0.0,-0.56207585
161100000,0.002473148,0.0006636414,0.00078481436,0.0,0.0,-0.5610912
161124000,0.0018737682,0.0018410278,0.000826478,0.0,0.0,-0.5607181
161144000,-0.00555748,0.00034201518,0.0007647872,0.0,0.0,-0.56110865
161164000,-0.008036641,0.0016674036,0.0007674694,0.0,0.0,-0.5615604
161184000,-0.0072361585,0.0037432434,0.0006417632,0.0,0.0,-0.56195056
161200000,-0.0061531933,0.007819986,0.00063836575,0.0,0.0,-0.56241953
161224000,-0.0012851564,0.0063480707,0.0007004142,0.0,0.0,-0.56267625
161236000,0.0026471748,0.007627553,0.0007041693,0.0,0.0,-0.56320816
161264000,0.006219928,0.010986443,0.0008497238,0.0,0.0,-0.56296635
161284000,0.0060287556,0.0062055225,0.0009468198,0.0,0.0,-0.5626387
161304000,0.003377979,0.0027754717,0.00088495016,0.0,0.0,-0.56244725
161324000,0.001709289,-0.0073953434,0.0010828972,0.0,0.0,-0.56178087
161340000,-1.9724714e-05,-0.0076319897,0.0010099411,0.0,0.0,-0.56143486
161364000,0.008627655,-0.0077457936,0.00080895424,0.0,0.0,-0.56129825
161384000,0.006017318,4.4660177e-05,0.0007554889,0.0,0.0,-0.56179845
161404000,0.0053113936,0.0029795738,0.00080287457,0.0,0.0,-0.5624931
161424000,0.00204977,-1.2866221e-05,0.00076013803,0.0,0.0,-0.5623619
161440000,0.0014705164,0.0003346852,0.0007007718,0.0,0.0,-0.5623619
161460000,0.0035541023,0.0016034958,0.00074368715,0.0,0.0,-0.5623844
161476000,-0.0007519751,0.0045448355,0.0007483363,0.0,0.0,-0.56291354
161504000,0.0026370059,0.0072068595,0.000890851,0.0,0.0,-0.5632872
161524000,0.002129637,0.0041796453,0.0010462403,0.0,0.0,-0.5638249
161544000,-0.0009230488,0.0065294174,0.001211822,0.0,0.0,-0.5636023
161560000,-0.002017852,0.011009509,0.0012139678,0.0,0.0,-0.5643453
161580000,-0.00268755,0.012923999,0.0013055205,0.0,0.0,-0.56491303
161604000,-0.00587564,0.012879031,0.0011608601,0.0,0.0,-0.5648689
161624000,-0.0066488255,0.009626262,0.0008599162,0.0,0.0,-0.5642213
161640000,-0.007504962,0.0037587667,0.00065499544,0.0,0.0,-0.5635612
161664000,-0.0011187152,0.0009496836,0.00060403347,0.0,0.0,-0.56288695
161684000,0.0020094323,-0.0023102453,0.0004928112,0.0,0.0,-0.5631246
161704000,-0.003171571,0.0017215004,0.00063979626,0.0,0.0,-0.56269854
161724000,-0.0027566957,0.002851923,0.0007506609,0.0,0.0,-0.5624554
161740000,-0.0024639834,-0.000735614,0.0006632209,0.0,0.0,-0.56282705
161764000,-0.001943205,-0.007615431,0.00052821636,0.0,0.0,-0.56279194
161784000,0.0007789334,-0.009096827,0.0004915595,0.0,0.0,-0.56344134
161800000,0.0013835311,-0.009129511,0.00042915344,0.0,0.0,-0.5634527
161820000,0.0019784775,-0.009171492,0.0004944205,0.0,0.0,-0.5634893
161844000,0.005066812,-0.006907444,0.0004348755,0.0,0.0,-0.5639299
161860000,0.006905618,-0.0020087168,0.00051015615,0.0,0.0,-0.5641635
161884000,0.0049256217,-0.005120903,0.00038820505,0.0,0.0,-0.56354594
161900000,0.0015949735,-0.004953868,0.00032293797,0.0,0.0,-0.5632754
161924000,-0.00023848872,-0.004844765,0.0003527999,0.0,0.0,-0.56312406
161936000,-0.0033045243,-0.0055795787,0.0002501607,0.0,0.0,-0.56209177
161960000,0.0015785631,-0.0051132767,0.00019276142,0.0,0.0,-0.5620499
161984000,0.0022378964,-0.0042942055,0.00036799908,0.0,0.0,-0.5613854
161996000,0.0022092736,-0.0036936142,0.0004246831,0.0,0.0,-0.5613854
162020000,-0.0011538517,-0.006264805,0.00049191713,0.0,0.0,-0.5618208
162044000,-7.63436e-05,-0.0012107003,0.0003143549,0.0,0.0,-0.56230074
162060000,-0.00038804422,-0.0017287452,0.00029575825,0.0,0.0,-0.56268567
162084000,0.00460496,-0.003530804,-4.7028065e-05,0.0,0.0,-0.56317663
162100000,0.0050877444,-0.0037671884,-0.00023424625,0.0,0.0,-0.56314826
162120000,-0.004511753,-0.0057889586,-0.00028914213,0.0,0.0,-0.56230503
162140000,-0.0045671747,-0.0040294435,-0.0002644658,0.0,0.0,-0.56236964
162164000,-3.3481163e-05,-0.002538634,-0.00021779537,0.0,0.0,-0.56235963
162180000,-0.0020334977,-0.0010612607,-0.00012767315,0.0,0.0,-0.5613976
162200000,-0.00020577101,-2.508983e-06,-0.000102460384,0.0,0.0,-0.5611122
162224000,-0.0026301118,-0.0020264885,2.1636486e-05,0.0,0.0,-0.5613865
162240000,-0.005273293,0.0013817232,9.298325e-06,0.0,0.0,-0.5613683
162264000,-0.0055246693,-0.0017578513,-1.4305115e-05,0.0,0.0,-0.56176656
162280000,-0.0030767522,-0.0011788169,9.727478e-05,0.0,0.0,-0.56206
162300000,-0.0018631273,0.0007488574,0.0001655817,0.0,0.0,-0.5625849
162324000,-0.0024393583,0.0018763016,0.00019741058,0.0,0.0,-0.56262594
162344000,-0.006290321,0.005143383,0.00039160252,0.0,0.0,-0.56301224
162356000,-0.007135058,0.003284006,0.0005173087,0.0,0.0,-0.56349
162384000,-0.005021828,-0.001063785,0.00050103664,0.0,0.0,-0.56353
162400000,-0.008654775,0.0012044893,0.00040322542,0.0,0.0,-0.5632176
162424000,-0.0030626296,-0.004197351,0.00017541647,0.0,0.0,-0.56284535
162444000,0.0004451311,-0.003916419,0.0002462268,0.0,0.0,-0.5627
162464000,0.003477702,-0.0013937331,0.00031542778,0.0,0.0,-0.5618836
162476000,0.0039003335,-0.0003345944,0.0005158782,0.0,0.0,-0.5618836
162504000,0.0057755187,0.0028431946,0.00033080578,0.0,0.0,-0.56167936
162520000,0.0069599506,0.0051822904,0.0002680421,0.0,0.0,-0.561981
162544000,0.005949947,0.00434214,0.0003463626,0.0,0.0,-0.5619662
162560000,0.001609762,0.0073520774,0.00042951107,0.0,0.0,-0.56212705
162580000,0.003317277,0.009408809,0.0003554821,0.0,0.0,-0.5620281
162604000,-0.00047020442,0.009763746,0.0003476143,0.0,0.0,-0.5618993
162624000,0.00065544585,0.0077432957,0.0002657175,0.0,0.0,-0.562
162644000,-0.00041032134,0.0118211685,0.00031399727,0.0,0.0,-0.56191754
162664000,4.9746093e-05,0.0116422195,0.00012856722,0.0,0.0,-0.5620119
162684000,0.0032203533,0.011803165,3.5762787e-05,0.0,0.0,-0.56195855
162704000,0.0033981493,0.0075006858,4.827976e-06,0.0,0.0,-0.56228566
162724000,0.0038946294,0.008064518,-6.598234e-05,0.0,0.0,-0.5625038
162740000,0.0050971215,0.0025645383,-0.00024586916,0.0,0.0,-0.5625272
162760000,0.0076461155,0.0014434182,-0.0003438592,0.0,0.0,-0.5628046
162784000,0.0022829305,0.011198277,-0.0002875328,0.0,0.0,-0.56327873
162804000,0.0057237525,0.005113658,-0.00041162968,0.0,0.0,-0.5633482
162824000,0.004726463,0.005137738,-0.00041985512,0.0,0.0,-0.5632581
162844000,-0.0042352863,0.0071098907,-0.00020813942,0.0,0.0,-0.56266236
162864000,-0.00092535734,0.006139163,-5.632639e-05,0.0,0.0,-0.5626173
162884000,0.0023156998,0.0053890804,0.00010854006,0.0,0.0,-0.562958
162904000,0.0014090858,-0.002415494,3.772974e-05,0.0,0.0,-0.5633531
162920000,-0.0029193545,-0.006829914,0.00026464462,0.0,0.0,-0.56376344
162944000,0.0040569147,-0.011915063,0.00021457672,0.0,0.0,-0.5646176
162964000,0.0073209684,-0.016767299,-2.5749207e-05,0.0,0.0,-0.56491613
162980000,0.006416047,-0.011032768,-0.00011497736,0.0,0.0,-0.56473434
163004000,0.004716602,-0.00934991,-0.0001410842,0.0,0.0,-0.5648997
163020000,-0.000291378,-0.007706643,-0.00022906065,0.0,0.0,-0.56446964
163040000,-0.00015633489,-0.006865652,-0.00022011995,0.0,0.0,-0.5642264
163064000,0.005089269,-0.0049802233,-0.00017863512,0.0,0.0,-0.56431735
163080000,0.0017323387,-0.0010329382,-0.00018364191,0.0,0.0,-0.5641508
163100000,0.0021164601,-0.0006152156,-4.1127205e-05,0.0,0.0,-0.56374913
163120000,0.0014695928,-0.00082473946,-3.6656857e-05,0.0,0.0,-0.56265515
163136000,-0.0019612967,-0.001589308,9.602308e-05,0.0,0.0,-0.56273854
163160000,0.0009771005,-0.0041780784,1.6987324e-05,0.0,0.0,-0.5627617
163180000,-0.0012876338,-0.0001636846,3.9696693e-05,0.0,0.0,-0.5630491
163200000,0.00070206437,-0.0037445335,0.0,0.0,0.0,-0.5632434
163224000,-0.00016957376,-0.0046558687,-6.741285e-05,0.0,0.0,-0.56369466
163244000,-0.009192932,-0.006317436,-0.00024479628,0.0,0.0,-0.56357557
163264000,-0.0010152196,-0.004760717,-0.000115156174,0.0,0.0,-0.5637986
163280000,-0.0002976599,-0.0032559754,-8.6188316e-05,0.0,0.0,-0.56401825
163304000,-0.003726847,-0.00027352246,8.171797e-05,0.0,0.0,-0.56317043
163324000,0.0010665422,0.00015608291,0.00019526482,0.0,0.0,-0.56277174
163344000,-0.0043932535,0.001831969,0.00015699863,0.0,0.0,-0.56244314
163364000,0.00047637324,0.0016093387,0.00013554096,0.0,0.0,-0.5622032
163380000,0.0011373267,0.0015836006,0.00014090538,0.0,0.0,-0.5622032
163404000,-0.0031815155,-0.002875363,-0.00015449524,0.0,0.0,-0.5618349
163416000,-0.004968793,-0.008720927,-0.00016075373,0.0,0.0,-0.5621833
163444000,-0.00301152,-0.011105165,-5.1498413e-05,0.0,0.0,-0.5630176
163460000,-0.010463285,-0.007977629,-0.00013768673,0.0,0.0,-0.56351507
163484000,-0.0031396998,-0.0073027555,-0.00012356043,0.0,0.0,-0.56443375
163500000,-0.004439317,-0.0067436113,-0.00014430285,0.0,0.0,-0.56461924
163524000,-0.0022429726,-0.00787631,-0.00011694431,0.0,0.0,-0.56448156
163540000,0.0021648835,-0.005875432,-1.7166138e-05,0.0,0.0,-0.5641662
163564000,0.0016784339,-0.0012529632,-0.000103354454,0.0,0.0,-0.5634967
163580000,-0.0008184785,-0.0020550555,0.000118374825,0.0,0.0,-0.56266403
163604000,-0.0022283033,-0.010437864,0.0002603531,0.0,0.0,-0.5624396
163620000,-0.002210095,-0.010342852,0.000218153,0.0,0.0,-0.5624396
163640000,-0.00022102415,-0.0017443718,2.8431416e-05,0.0,0.0,-0.56237996
163664000,0.0016275407,-0.0065609347,0.0002887845,0.0,0.0,-0.56234956
163680000,0.0043033375,-0.0049846284,0.00039732456,0.0,0.0,-0.56234217
163700000,0.0014087608,-0.010055202,0.0003694296,0.0,0.0,-0.56305623
