timestamp,ref_timestamp,ref_lat,ref_lon,x,y,z,delta_xy[0],delta_xy[1],delta_z,vx,vy,vz,z_deriv,delta_vxy[0],delta_vxy[1],delta_vz,ax,ay,az,yaw,ref_alt,dist_bottom,dist_bottom_rate,eph,epv,evh,evv,vxy_max,vz_max,hagl_min,hagl_max,xy_valid,z_valid,v_xy_valid,v_z_valid,xy_reset_counter,z_reset_counter,vxy_reset_counter,vz_reset_counter,xy_global,z_global,dist_bottom_valid
146200000,0,47.3977508,8.5456074,0.055597465,-0.04516103,0.72598267,0.0,0.0,0.0,0.0,0.0,0.0,0.0,0.0,0.0,0.0,0.0,0.0,0.0,0.41548097,488.83002,0.0,0.0,0.0,0.0,0.0,0.0,inf,inf,inf,inf,1,1,1,1,0,0,0,0,1,1,0
146300000,0,47.3977508,8.5456074,0.055597465,-0.04516103,0.72598267,0.0,0.0,0.0,0.0,0.0,0.0,0.0,0.0,0.0,0.0,0.0,0.0,0.0,0.41548097,488.83002,0.0,0.0,0.0,0.0,0.0,0.0,inf,inf,inf,inf,1,1,1,1,0,0,0,0,1,1,0
146396000,0,47.3977508,8.5456074,0.055597465,-0.04516103,0.72598267,0.0,0.0,0.0,0.0,0.0,0.0,0.0,0.0,0.0,0.0,0.0,0.0,0.0,0.41548097,488.83002,0.0,0.0,0.0,0.0,0.0,0.0,inf,inf,inf,inf,1,1,1,1,0,0,0,0,1,1,0
146500000,0,47.3977508,8.5456074,0.055597465,-0.04516103,0.72598267,0.0,0.0,0.0,0.0,0.0,0.0,0.0,0.0,0.0,0.0,0.0,0.0,0.0,0.41548097,488.83002,0.0,0.0,0.0,0.0,0.0,0.0,inf,inf,inf,inf,1,1,1,1,0,0,0,0,1,1,0
146600000,0,47.3977508,8.5456074,0.055597465,-0.04516103,0.72598267,0.0,0.0,0.0,0.0,0.0,0.0,0.0,0.0,0.0,0.0,0.0,0.0,0.0,0.41548097,488.83002,0.0,0.0,0.0,0.0,0.0,0.0,inf,inf,inf,inf,1,1,1,1,0,0,0,0,1,1,0
146696000,0,47.3977508,8.5456074,0.055597465,-0.04516103,0.72598267,0.0,0.0,0.0,0.0,0.0,0.0,0.0,0.0,0.0,0.0,0.0,0.0,0.0,0.41548097,488.83002,0.0,0.0,0.0,0.0,0.0,0.0,inf,inf,inf,inf,1,1,1,1,0,0,0,0,1,1,0
146796000,0,47.3977508,8.5456074,0.055597465,-0.04516103,0.72598267,0.0,0.0,0.0,0.0,0.0,0.0,0.0,0.0,0.0,0.0,0.0,0.0,0.0,0.41548097,488.83002,0.0,0.0,0.0,0.0,0.0,0.0,inf,inf,inf,inf,1,1,1,1,0,0,0,0,1,1,0
146900000,0,47.3977508,8.5456074,0.055597465,-0.04516103,0.72598267,0.0,0.0,0.0,0.0,0.0,0.0,0.0,0.0,0.0,0.0,0.0,0.0,0.0,0.41548097,488.83002,0.0,0.0,0.0,0.0,0.0,0.0,inf,inf,inf,inf,1,1,1,1,0,0,0,0,1,1,0
147000000,0,47.3977508,8.5456074,0.055597465,-0.04516103,0.72598267,0.0,0.0,0.0,0.0,0.0,0.0,0.0,0.0,0.0,0.0,0.0,0.0,0.0,0.41548097,488.83002,0.0,0.0,0.0,0.0,0.0,0.0,inf,inf,inf,inf,1,1,1,1,0,0,0,0,1,1,0
147100000,0,47.3977508,8.5456074,0.055597465,-0.04516103,0.72598267,0.0,0.0,0.0,0.0,0.0,0.0,0.0,0.0,0.0,0.0,0.0,0.0,0.0,0.41548097,488.83002,0.0,0.0,0.0,0.0,0.0,0.0,inf,inf,inf,inf,1,1,1,1,0,0,0,0,1,1,0
147200000,0,47.3977508,8.5456074,0.055597465,-0.04516103,0.72598267,0.0,0.0,0.0,0.0,0.0,0.0,0.0,0.0,0.0,0.0,0.0,0.0,0.0,0.41548097,488.83002,0.0,0.0,0.0,0.0,0.0,0.0,inf,inf,inf,inf,1,1,1,1,0,0,0,0,1,1,0
147300000,0,47.3977508,8.5456074,0.055597465,-0.04516103,0.72598267,0.0,0.0,0.0,0.0,0.0,0.0,0.0,0.0,0.0,0.0,0.0,0.0,0.0,0.41548094,488.83002,0.0,0.0,0.0,0.0,0.0,0.0,inf,inf,inf,inf,1,1,1,1,0,0,0,0,1,1,0
147400000,0,47.3977508,8.5456074,0.055597465,-0.04516103,0.72598267,0.0,0.0,0.0,0.0,0.0,0.0,0.0,0.0,0.0,0.0,0.0,0.0,0.0,0.41548094,488.83002,0.0,0.0,0.0,0.0,0.0,0.0,inf,inf,inf,inf,1,1,1,1,0,0,0,0,1,1,0
147496000,0,47.3977508,8.5456074,0.055597465,-0.04516103,0.72598267,0.0,0.0,0.0,0.0,0.0,0.0,0.0,0.0,0.0,0.0,0.0,0.0,0.0,0.41548094,488.83002,0.0,0.0,0.0,0.0,0.0,0.0,inf,inf,inf,inf,1,1,1,1,0,0,0,0,1,1,0
147600000,0,47.3977508,8.5456074,0.055597465,-0.04516103,0.72598267,0.0,0.0,0.0,0.0,0.0,0.0,0.0,0.0,0.0,0.0,0.0,0.0,0.0,0.41548094,488.83002,0.0,0.0,0.0,0.0,0.0,0.0,inf,inf,inf,inf,1,1,1,1,0,0,0,0,1,1,0
147700000,0,47.3977508,8.5456074,0.055597465,-0.04516103,0.72598267,0.0,0.0,0.0,0.0,0.0,0.0,0.0,0.0,0.0,0.0,0.0,0.0,0.0,0.41548094,488.83002,0.0,0.0,0.0,0.0,0.0,0.0,inf,inf,inf,inf,1,1,1,1,0,0,0,0,1,1,0
147800000,0,47.3977508,8.5456074,0.055597465,-0.04516103,0.72598267,0.0,0.0,0.0,0.0,0.0,0.0,0.0,0.0,0.0,0.0,0.0,0.0,0.0,0.41548094,488.83002,0.0,0.0,0.0,0.0,0.0,0.0,inf,inf,inf,inf,1,1,1,1,0,0,0,0,1,1,0
147896000,0,47.3977508,8.5456074,0.055597465,-0.04516103,0.72598267,0.0,0.0,0.0,0.0,0.0,0.0,0.0,0.0,0.0,0.0,0.0,0.0,0.0,0.41548094,488.83002,0.0,0.0,0.0,0.0,0.0,0.0,inf,inf,inf,inf,1,1,1,1,0,0,0,0,1,1,0
148000000,0,47.3977508,8.5456074,0.055597465,-0.04516103,0.72598267,0.0,0.0,0.0,0.0,0.0,0.0,0.0,0.0,0.0,0.0,0.0,0.0,0.0,0.4154809,488.83002,0.0,0.0,0.0,0.0,0.0,0.0,inf,inf,inf,inf,1,1,1,1,0,0,0,0,1,1,0
148100000,0,47.3977508,8.5456074,0.055597465,-0.04516103,0.72598267,0.0,0.0,0.0,0.0,0.0,-0.02,0.0,0.0,0.0,0.0,0.0,0.0,0.0,0.41539633,488.83002,0.0,0.0,0.0,0.0,0.0,0.0,inf,inf,inf,inf,1,1,1,1,0,0,0,0,1,1,0
148196000,0,47.3977508,8.5456074,0.055597465,-0.04516103,0.7160034,0.0,0.0,0.0,0.0,0.0,-0.17,0.0,0.0,0.0,0.0,0.0,0.0,0.0,0.41538575,488.83002,0.0,0.0,0.0,0.0,0.0,0.0,inf,inf,inf,inf,1,1,1,1,0,0,0,0,1,1,0
148300000,0,47.3977508,8.5456074,0.055597465,-0.04516103,0.69000244,0.0,0.0,0.0,0.01,0.01,-0.31,0.0,0.0,0.0,0.0,0.0,0.0,0.0,0.41565353,488.83002,0.0,0.0,0.0,0.0,0.0,0.0,inf,inf,inf,inf,1,1,1,1,0,0,0,0,1,1,0
148400000,0,47.3977508,8.5456074,0.055597465,-0.037634194,0.65200806,0.0,0.0,0.0,0.01,0.02,-0.42999998,0.0,0.0,0.0,0.0,0.0,0.0,0.0,0.415891,488.83002,0.0,0.0,0.0,0.0,0.0,0.0,inf,inf,inf,inf,1,1,1,1,0,0,0,0,1,1,0
148500000,0,47.3977508,8.5456074,0.055597465,-0.037634194,0.60098267,0.0,0.0,0.0,0.01,0.02,-0.57,0.0,0.0,0.0,0.0,0.0,0.0,0.0,0.41604766,488.83002,0.0,0.0,0.0,0.0,0.0,0.0,inf,inf,inf,inf,1,1,1,1,0,0,0,0,1,1,0
148596000,0,47.3977508,8.5456074,0.055597465,-0.037634194,0.54000854,0.0,0.0,0.0,0.01,0.02,-0.69,0.0,0.0,0.0,0.0,0.0,0.0,0.0,0.41612318,488.83002,0.0,0.0,0.0,0.0,0.0,0.0,inf,inf,inf,inf,1,1,1,1,0,0,0,0,1,1,0
148700000,0,47.3977508,8.5456074,0.066716954,-0.030107355,0.46298218,0.0,0.0,0.0,0.01,0.02,-0.83,0.0,0.0,0.0,0.0,0.0,0.0,0.0,0.41617554,488.83002,0.0,0.0,0.0,0.0,0.0,0.0,inf,inf,inf,inf,1,1,1,1,0,0,0,0,1,1,0
148800000,0,47.3977508,8.5456074,0.066716954,-0.030107355,0.36898804,0.0,0.0,0.0,0.01,0.02,-0.96,0.0,0.0,0.0,0.0,0.0,0.0,0.0,0.41626656,488.83002,0.0,0.0,0.0,0.0,0.0,0.0,inf,inf,inf,inf,1,1,1,1,0,0,0,0,1,1,0
148900000,0,47.3977508,8.5456074,0.066716954,-0.030107355,0.2659912,0.0,0.0,0.0,0.0,0.02,-1.1,0.0,0.0,0.0,0.0,0.0,0.0,0.0,0.4163148,488.83002,0.0,0.0,0.0,0.0,0.0,0.0,inf,inf,inf,inf,1,1,1,1,0,0,0,0,1,1,0
149000000,0,47.3977508,8.5456074,0.066716954,-0.022580516,0.14797974,0.0,0.0,0.0,0.0,0.02,-1.23,0.0,0.0,0.0,0.0,0.0,0.0,0.0,0.41639394,488.83002,0.0,0.0,0.0,0.0,0.0,0.0,inf,inf,inf,inf,1,1,1,1,0,0,0,0,1,1,0
149100000,0,47.3977508,8.5456074,0.066716954,-0.022580516,0.018005371,0.0,0.0,0.0,0.0,0.01,-1.36,0.0,0.0,0.0,0.0,0.0,0.0,0.0,0.41645265,488.83002,0.0,0.0,0.0,0.0,0.0,0.0,inf,inf,inf,inf,1,1,1,1,0,0,0,0,1,1,0
149200000,0,47.3977508,8.5456074,0.066716954,-0.022580516,-0.11999512,0.0,0.0,0.0,0.0,0.01,-1.5,0.0,0.0,0.0,0.0,0.0,0.0,0.0,0.41641256,488.83002,0.0,0.0,0.0,0.0,0.0,0.0,inf,inf,inf,inf,1,1,1,1,0,0,0,0,1,1,0
149296000,0,47.3977508,8.5456074,0.066716954,-0.022580516,-0.27600098,0.0,0.0,0.0,0.0,0.01,-1.62,0.0,0.0,0.0,0.0,0.0,0.0,0.0,0.41645804,488.83002,0.0,0.0,0.0,0.0,0.0,0.0,inf,inf,inf,inf,1,1,1,1,0,0,0,0,1,1,0
149396000,0,47.3977508,8.5456074,0.066716954,-0.022580516,-0.4460144,0.0,0.0,0.0,0.0,0.0,-1.75,0.0,0.0,0.0,0.0,0.0,0.0,0.0,0.41649085,488.83002,0.0,0.0,0.0,0.0,0.0,0.0,inf,inf,inf,inf,1,1,1,1,0,0,0,0,1,1,0
149500000,0,47.3977508,8.5456074,0.066716954,-0.015053677,-0.63601685,0.0,0.0,0.0,0.0,0.0,-1.89,0.0,0.0,0.0,0.0,0.0,0.0,0.0,0.4164081,488.83002,0.0,0.0,0.0,0.0,0.0,0.0,inf,inf,inf,inf,1,1,1,1,0,0,0,0,1,1,0
149600000,0,47.3977508,8.5456074,0.066716954,-0.015053677,-0.83200073,0.0,0.0,0.0,-0.01,0.0,-2.02,0.0,0.0,0.0,0.0,0.0,0.0,0.0,0.4165163,488.83002,0.0,0.0,0.0,0.0,0.0,0.0,inf,inf,inf,inf,1,1,1,1,0,0,0,0,1,1,0
149700000,0,47.3977508,8.5456074,0.066716954,-0.015053677,-1.0410156,0.0,0.0,0.0,-0.01,0.0,-2.1399999,0.0,0.0,0.0,0.0,0.0,0.0,0.0,0.41673154,488.83002,0.0,0.0,0.0,0.0,0.0,0.0,inf,inf,inf,inf,1,1,1,1,0,0,0,0,1,1,0
149800000,0,47.3977508,8.5456074,0.055597465,-0.015053677,-1.2619934,0.0,0.0,0.0,-0.01,0.0,-2.27,0.0,0.0,0.0,0.0,0.0,0.0,0.0,0.41681838,488.83002,0.0,0.0,0.0,0.0,0.0,0.0,inf,inf,inf,inf,1,1,1,1,0,0,0,0,1,1,0
149896000,0,47.3977508,8.5456074,0.055597465,-0.015053677,-1.4869995,0.0,0.0,0.0,-0.01,0.0,-2.3899999,0.0,0.0,0.0,0.0,0.0,0.0,0.0,0.4165508,488.83002,0.0,0.0,0.0,0.0,0.0,0.0,inf,inf,inf,inf,1,1,1,1,0,0,0,0,1,1,0
150000000,0,47.3977508,8.5456074,0.055597465,-0.015053677,-1.7260132,0.0,0.0,0.0,-0.01,0.0,-2.31,0.0,0.0,0.0,0.0,0.0,0.0,0.0,0.41619796,488.83002,0.0,0.0,0.0,0.0,0.0,0.0,inf,inf,inf,inf,1,1,1,1,0,0,0,0,1,1,0
150100000,0,47.3977508,8.5456074,0.055597465,-0.015053677,-1.9559937,0.0,0.0,0.0,-0.01,0.0,-2.12,0.0,0.0,0.0,0.0,0.0,0.0,0.0,0.41601866,488.83002,0.0,0.0,0.0,0.0,0.0,0.0,inf,inf,inf,inf,1,1,1,1,0,0,0,0,1,1,0
150196000,0,47.3977508,8.5456074,0.055597465,-0.022580516,-2.1539917,0.0,0.0,0.0,-0.01,0.0,-2.01,0.0,0.0,0.0,0.0,0.0,0.0,0.0,0.41604483,488.83002,0.0,0.0,0.0,0.0,0.0,0.0,inf,inf,inf,inf,1,1,1,1,0,0,0,0,1,1,0
150300000,0,47.3977508,8.5456074,0.055597465,-0.022580516,-2.3569946,0.0,0.0,0.0,-0.01,0.0,-1.89,0.0,0.0,0.0,0.0,0.0,0.0,0.0,0.41616476,488.83002,0.0,0.0,0.0,0.0,0.0,0.0,inf,inf,inf,inf,1,1,1,1,0,0,0,0,1,1,0
150396000,0,47.3977508,8.5456074,0.04447797,-0.022580516,-2.5339966,0.0,0.0,0.0,-0.01,0.0,-1.79,0.0,0.0,0.0,0.0,0.0,0.0,0.0,0.41634345,488.83002,0.0,0.0,0.0,0.0,0.0,0.0,inf,inf,inf,inf,1,1,1,1,0,0,0,0,1,1,0
150500000,0,47.3977508,8.5456074,0.04447797,-0.022580516,-2.7140198,0.0,0.0,0.0,-0.01,0.0,-1.68,0.0,0.0,0.0,0.0,0.0,0.0,0.0,0.41668987,488.83002,0.0,0.0,0.0,0.0,0.0,0.0,inf,inf,inf,inf,1,1,1,1,0,0,0,0,1,1,0
150596000,0,47.3977508,8.5456074,0.04447797,-0.022580516,-2.8650208,0.0,0.0,0.0,-0.01,0.0,-1.5899999,0.0,0.0,0.0,0.0,0.0,0.0,0.0,0.41716903,488.83002,0.0,0.0,0.0,0.0,0.0,0.0,inf,inf,inf,inf,1,1,1,1,0,0,0,0,1,1,0
150700000,0,47.3977508,8.5456074,0.04447797,-0.022580516,-3.03302,0.0,0.0,0.0,-0.01,0.0,-1.5,0.0,0.0,0.0,0.0,0.0,0.0,0.0,0.41781297,488.83002,0.0,0.0,0.0,0.0,0.0,0.0,inf,inf,inf,inf,1,1,1,1,0,0,0,0,1,1,0
150800000,0,47.3977508,8.5456074,0.04447797,-0.022580516,-3.1740112,0.0,0.0,0.0,-0.01,0.0,-1.42,0.0,0.0,0.0,0.0,0.0,0.0,0.0,0.41838607,488.83002,0.0,0.0,0.0,0.0,0.0,0.0,inf,inf,inf,inf,1,1,1,1,0,0,0,0,1,1,0
150900000,0,47.3977508,8.5456074,0.04447797,-0.022580516,-3.3190002,0.0,0.0,0.0,-0.01,0.0,-1.35,0.0,0.0,0.0,0.0,0.0,0.0,0.0,0.41871482,488.83002,0.0,0.0,0.0,0.0,0.0,0.0,inf,inf,inf,inf,1,1,1,1,0,0,0,0,1,1,0
151000000,0,47.3977508,8.5456074,0.03335848,-0.022580516,-3.4460144,0.0,0.0,0.0,-0.01,-0.01,-1.29,0.0,0.0,0.0,0.0,0.0,0.0,0.0,0.41882405,488.83002,0.0,0.0,0.0,0.0,0.0,0.0,inf,inf,inf,inf,1,1,1,1,0,0,0,0,1,1,0
151100000,0,47.3977508,8.5456074,0.03335848,-0.022580516,-3.5769958,0.0,0.0,0.0,-0.01,-0.01,-1.23,0.0,0.0,0.0,0.0,0.0,0.0,0.0,0.4187762,488.83002,0.0,0.0,0.0,0.0,0.0,0.0,inf,inf,inf,inf,1,1,1,1,0,0,0,0,1,1,0
151200000,0,47.3977508,8.5456074,0.03335848,-0.022580516,-3.6970215,0.0,0.0,0.0,-0.01,-0.01,-1.17,0.0,0.0,0.0,0.0,0.0,0.0,0.0,0.41885495,488.83002,0.0,0.0,0.0,0.0,0.0,0.0,inf,inf,inf,inf,1,1,1,1,0,0,0,0,1,1,0
151300000,0,47.3977508,8.5456074,0.03335848,-0.030107355,-3.8110046,0.0,0.0,0.0,-0.01,-0.01,-1.11,0.0,0.0,0.0,0.0,0.0,0.0,0.0,0.41906065,488.83002,0.0,0.0,0.0,0.0,0.0,0.0,inf,inf,inf,inf,1,1,1,1,0,0,0,0,1,1,0
151400000,0,47.3977508,8.5456074,0.03335848,-0.030107355,-3.9210205,0.0,0.0,0.0,-0.01,-0.01,-1.0699999,0.0,0.0,0.0,0.0,0.0,0.0,0.0,0.4193201,488.83002,0.0,0.0,0.0,0.0,0.0,0.0,inf,inf,inf,inf,1,1,1,1,0,0,0,0,1,1,0
151500000,0,47.3977508,8.5456074,0.03335848,-0.030107355,-4.026001,0.0,0.0,0.0,-0.01,-0.01,-1.02,0.0,0.0,0.0,0.0,0.0,0.0,0.0,0.41971028,488.83002,0.0,0.0,0.0,0.0,0.0,0.0,inf,inf,inf,inf,1,1,1,1,0,0,0,0,1,1,0
151600000,0,47.3977508,8.5456074,0.022238987,-0.030107355,-4.126007,0.0,0.0,0.0,-0.01,-0.01,-0.97999996,0.0,0.0,0.0,0.0,0.0,0.0,0.0,0.4200105,488.83002,0.0,0.0,0.0,0.0,0.0,0.0,inf,inf,inf,inf,1,1,1,1,0,0,0,0,1,1,0
151700000,0,47.3977508,8.5456074,0.022238987,-0.030107355,-4.2220154,0.0,0.0,0.0,-0.01,-0.01,-0.94,0.0,0.0,0.0,0.0,0.0,0.0,0.0,0.42023396,488.83002,0.0,0.0,0.0,0.0,0.0,0.0,inf,inf,inf,inf,1,1,1,1,0,0,0,0,1,1,0
151800000,0,47.3977508,8.5456074,0.022238987,-0.030107355,-4.3139954,0.0,0.0,0.0,-0.01,-0.01,-0.9,0.0,0.0,0.0,0.0,0.0,0.0,0.0,0.42042017,488.83002,0.0,0.0,0.0,0.0,0.0,0.0,inf,inf,inf,inf,1,1,1,1,0,0,0,0,1,1,0
151896000,0,47.3977508,8.5456074,0.022238987,-0.030107355,-4.3990173,0.0,0.0,0.0,-0.01,-0.01,-0.87,0.0,0.0,0.0,0.0,0.0,0.0,0.0,0.4205711,488.83002,0.0,0.0,0.0,0.0,0.0,0.0,inf,inf,inf,inf,1,1,1,1,0,0,0,0,1,1,0
152000000,0,47.3977508,8.5456074,0.022238987,-0.037634194,-4.4880066,0.0,0.0,0.0,-0.01,0.0,-0.84,0.0,0.0,0.0,0.0,0.0,0.0,0.0,0.42066947,488.83002,0.0,0.0,0.0,0.0,0.0,0.0,inf,inf,inf,inf,1,1,1,1,0,0,0,0,1,1,0
152100000,0,47.3977508,8.5456074,0.022238987,-0.037634194,-4.5710144,0.0,0.0,0.0,-0.01,0.0,-0.79999995,0.0,0.0,0.0,0.0,0.0,0.0,0.0,0.4207253,488.83002,0.0,0.0,0.0,0.0,0.0,0.0,inf,inf,inf,inf,1,1,1,1,0,0,0,0,1,1,0
152200000,0,47.3977508,8.5456074,0.022238987,-0.037634194,-4.649994,0.0,0.0,0.0,-0.01,0.0,-0.78,0.0,0.0,0.0,0.0,0.0,0.0,0.0,0.42082056,488.83002,0.0,0.0,0.0,0.0,0.0,0.0,inf,inf,inf,inf,1,1,1,1,0,0,0,0,1,1,0
152296000,0,47.3977508,8.5456074,0.011119493,-0.037634194,-4.723999,0.0,0.0,0.0,-0.01,0.0,-0.75,0.0,0.0,0.0,0.0,0.0,0.0,0.0,0.42082366,488.83002,0.0,0.0,0.0,0.0,0.0,0.0,inf,inf,inf,inf,1,1,1,1,0,0,0,0,1,1,0
152400000,0,47.3977508,8.5456074,0.011119493,-0.037634194,-4.796997,0.0,0.0,0.0,-0.02,0.0,-0.71999997,0.0,0.0,0.0,0.0,0.0,0.0,0.0,0.42087412,488.83002,0.0,0.0,0.0,0.0,0.0,0.0,inf,inf,inf,inf,1,1,1,1,0,0,0,0,1,1,0
152500000,0,47.3977508,8.5456074,0.011119493,-0.037634194,-4.8720093,0.0,0.0,0.0,-0.02,0.0,-0.7,0.0,0.0,0.0,0.0,0.0,0.0,0.0,0.4209768,488.83002,0.0,0.0,0.0,0.0,0.0,0.0,inf,inf,inf,inf,1,1,1,1,0,0,0,0,1,1,0
152600000,0,47.3977508,8.5456074,0.011119493,-0.037634194,-4.9410095,0.0,0.0,0.0,-0.02,0.0,-0.66999996,0.0,0.0,0.0,0.0,0.0,0.0,0.0,0.42118067,488.83002,0.0,0.0,0.0,0.0,0.0,0.0,inf,inf,inf,inf,1,1,1,1,0,0,0,0,1,1,0
152700000,0,47.3977508,8.5456074,0.011119493,-0.037634194,-5.007019,0.0,0.0,0.0,-0.02,0.0,-0.65,0.0,0.0,0.0,0.0,0.0,0.0,0.0,0.42131713,488.83002,0.0,0.0,0.0,0.0,0.0,0.0,inf,inf,inf,inf,1,1,1,1,0,0,0,0,1,1,0
152800000,0,47.3977508,8.5456074,0.0,-0.037634194,-5.0700073,0.0,0.0,0.0,-0.02,0.0,-0.63,0.0,0.0,0.0,0.0,0.0,0.0,0.0,0.42138958,488.83002,0.0,0.0,0.0,0.0,0.0,0.0,inf,inf,inf,inf,1,1,1,1,0,0,0,0,1,1,0
152900000,0,47.3977508,8.5456074,0.0,-0.037634194,-5.13501,0.0,0.0,0.0,-0.02,0.0,-0.61,0.0,0.0,0.0,0.0,0.0,0.0,0.0,0.421485,488.83002,0.0,0.0,0.0,0.0,0.0,0.0,inf,inf,inf,inf,1,1,1,1,0,0,0,0,1,1,0
153000000,0,47.3977508,8.5456074,0.0,-0.04516103,-5.1960144,0.0,0.0,0.0,-0.02,0.0,-0.59,0.0,0.0,0.0,0.0,0.0,0.0,0.0,0.42165905,488.83002,0.0,0.0,0.0,0.0,0.0,0.0,inf,inf,inf,inf,1,1,1,1,0,0,0,0,1,1,0
153100000,0,47.3977508,8.5456074,0.0,-0.04516103,-5.255005,0.0,0.0,0.0,-0.02,0.0,-0.58,0.0,0.0,0.0,0.0,0.0,0.0,0.0,0.42178696,488.83002,0.0,0.0,0.0,0.0,0.0,0.0,inf,inf,inf,inf,1,1,1,1,0,0,0,0,1,1,0
153196000,0,47.3977508,8.5456074,0.0,-0.04516103,-5.3099976,0.0,0.0,0.0,-0.02,0.0,-0.56,0.0,0.0,0.0,0.0,0.0,0.0,0.0,0.4219057,488.83002,0.0,0.0,0.0,0.0,0.0,0.0,inf,inf,inf,inf,1,1,1,1,0,0,0,0,1,1,0
153296000,0,47.3977508,8.5456074,-0.011119492,-0.04516103,-5.3630066,0.0,0.0,0.0,-0.02,0.0,-0.53999996,0.0,0.0,0.0,0.0,0.0,0.0,0.0,0.42194936,488.83002,0.0,0.0,0.0,0.0,0.0,0.0,inf,inf,inf,inf,1,1,1,1,0,0,0,0,1,1,0
153400000,0,47.3977508,8.5456074,-0.011119492,-0.04516103,-5.4210205,0.0,0.0,0.0,-0.02,0.0,-0.53,0.0,0.0,0.0,0.0,0.0,0.0,0.0,0.42205814,488.83002,0.0,0.0,0.0,0.0,0.0,0.0,inf,inf,inf,inf,1,1,1,1,0,0,0,0,1,1,0
153496000,0,47.3977508,8.5456074,-0.011119492,-0.04516103,-5.4720154,0.0,0.0,0.0,-0.02,0.0,-0.51,0.0,0.0,0.0,0.0,0.0,0.0,0.0,0.4220459,488.83002,0.0,0.0,0.0,0.0,0.0,0.0,inf,inf,inf,inf,1,1,1,1,0,0,0,0,1,1,0
153600000,0,47.3977508,8.5456074,-0.011119492,-0.04516103,-5.5240173,0.0,0.0,0.0,-0.02,0.0,-0.48999998,0.0,0.0,0.0,0.0,0.0,0.0,0.0,0.42204517,488.83002,0.0,0.0,0.0,0.0,0.0,0.0,inf,inf,inf,inf,1,1,1,1,0,0,0,0,1,1,0
153700000,0,47.3977508,8.5456074,-0.011119492,-0.04516103,-5.5710144,0.0,0.0,0.0,-0.02,0.0,-0.48,0.0,0.0,0.0,0.0,0.0,0.0,0.0,0.42203742,488.83002,0.0,0.0,0.0,0.0,0.0,0.0,inf,inf,inf,inf,1,1,1,1,0,0,0,0,1,1,0
153800000,0,47.3977508,8.5456074,-0.022238987,-0.04516103,-5.619995,0.0,0.0,0.0,-0.02,0.0,-0.45999998,0.0,0.0,0.0,0.0,0.0,0.0,0.0,0.4220189,488.83002,0.0,0.0,0.0,0.0,0.0,0.0,inf,inf,inf,inf,1,1,1,1,0,0,0,0,1,1,0
153896000,0,47.3977508,8.5456074,-0.022238987,-0.04516103,-5.6640015,0.0,0.0,0.0,-0.02,0.0,-0.45,0.0,0.0,0.0,0.0,0.0,0.0,0.0,0.422013,488.83002,0.0,0.0,0.0,0.0,0.0,0.0,inf,inf,inf,inf,1,1,1,1,0,0,0,0,1,1,0
153996000,0,47.3977508,8.5456074,-0.022238987,-0.04516103,-5.709015,0.0,0.0,0.0,-0.02,0.0,-0.42999998,0.0,0.0,0.0,0.0,0.0,0.0,0.0,0.42207164,488.83002,0.0,0.0,0.0,0.0,0.0,0.0,inf,inf,inf,inf,1,1,1,1,0,0,0,0,1,1,0
154096000,0,47.3977508,8.5456074,-0.022238987,-0.04516103,-5.75,0.0,0.0,0.0,-0.02,0.0,-0.42,0.0,0.0,0.0,0.0,0.0,0.0,0.0,0.42207715,488.83002,0.0,0.0,0.0,0.0,0.0,0.0,inf,inf,inf,inf,1,1,1,1,0,0,0,0,1,1,0
154196000,0,47.3977508,8.5456074,-0.033358477,-0.04516103,-5.7929993,0.0,0.0,0.0,-0.02,0.0,-0.39999998,0.0,0.0,0.0,0.0,0.0,0.0,0.0,0.42203712,488.83002,0.0,0.0,0.0,0.0,0.0,0.0,inf,inf,inf,inf,1,1,1,1,0,0,0,0,1,1,0
154300000,0,47.3977508,8.5456074,-0.033358477,-0.052687872,-5.8349915,0.0,0.0,0.0,-0.02,0.0,-0.39,0.0,0.0,0.0,0.0,0.0,0.0,0.0,0.42208785,488.83002,0.0,0.0,0.0,0.0,0.0,0.0,inf,inf,inf,inf,1,1,1,1,0,0,0,0,1,1,0
154396000,0,47.3977508,8.5456074,-0.033358477,-0.052687872,-5.8730164,0.0,0.0,0.0,-0.02,0.0,-0.38,0.0,0.0,0.0,0.0,0.0,0.0,0.0,0.42203358,488.83002,0.0,0.0,0.0,0.0,0.0,0.0,inf,inf,inf,inf,1,1,1,1,0,0,0,0,1,1,0
154500000,0,47.3977508,8.5456074,-0.033358477,-0.052687872,-5.9129944,0.0,0.0,0.0,-0.02,0.0,-0.37,0.0,0.0,0.0,0.0,0.0,0.0,0.0,0.42191342,488.83002,0.0,0.0,0.0,0.0,0.0,0.0,inf,inf,inf,inf,1,1,1,1,0,0,0,0,1,1,0
154600000,0,47.3977508,8.5456074,-0.04447797,-0.052687872,-5.950012,0.0,0.0,0.0,-0.02,0.0,-0.35999998,0.0,0.0,0.0,0.0,0.0,0.0,0.0,0.421811,488.83002,0.0,0.0,0.0,0.0,0.0,0.0,inf,inf,inf,inf,1,1,1,1,0,0,0,0,1,1,0
154696000,0,47.3977508,8.5456074,-0.04447797,-0.052687872,-5.984009,0.0,0.0,0.0,-0.02,-0.01,-0.35,0.0,0.0,0.0,0.0,0.0,0.0,0.0,0.4218239,488.83002,0.0,0.0,0.0,0.0,0.0,0.0,inf,inf,inf,inf,1,1,1,1,0,0,0,0,1,1,0
154800000,0,47.3977508,8.5456074,-0.04447797,-0.052687872,-6.020996,0.0,0.0,0.0,-0.02,-0.01,-0.34,0.0,0.0,0.0,0.0,0.0,0.0,0.0,0.42177594,488.83002,0.0,0.0,0.0,0.0,0.0,0.0,inf,inf,inf,inf,1,1,1,1,0,0,0,0,1,1,0
154900000,0,47.3977508,8.5456074,-0.04447797,-0.052687872,-6.0549927,0.0,0.0,0.0,-0.02,-0.01,-0.32999998,0.0,0.0,0.0,0.0,0.0,0.0,0.0,0.42179972,488.83002,0.0,0.0,0.0,0.0,0.0,0.0,inf,inf,inf,inf,1,1,1,1,0,0,0,0,1,1,0
155000000,0,47.3977508,8.5456074,-0.04447797,-0.06021471,-6.0859985,0.0,0.0,0.0,-0.02,-0.01,-0.32,0.0,0.0,0.0,0.0,0.0,0.0,0.0,0.42178968,488.83002,0.0,0.0,0.0,0.0,0.0,0.0,inf,inf,inf,inf,1,1,1,1,0,0,0,0,1,1,0
155100000,0,47.3977508,8.5456074,-0.05559746,-0.06021471,-6.119995,0.0,0.0,0.0,-0.02,-0.01,-0.31,0.0,0.0,0.0,0.0,0.0,0.0,0.0,0.42177722,488.83002,0.0,0.0,0.0,0.0,0.0,0.0,inf,inf,inf,inf,1,1,1,1,0,0,0,0,1,1,0
155200000,0,47.3977508,8.5456074,-0.05559746,-0.06021471,-6.149994,0.0,0.0,0.0,-0.02,-0.01,-0.29999998,0.0,0.0,0.0,0.0,0.0,0.0,0.0,0.42163956,488.83002,0.0,0.0,0.0,0.0,0.0,0.0,inf,inf,inf,inf,1,1,1,1,0,0,0,0,1,1,0
155300000,0,47.3977508,8.5456074,-0.05559746,-0.06021471,-6.1809998,0.0,0.0,0.0,-0.02,-0.01,-0.29,0.0,0.0,0.0,0.0,0.0,0.0,0.0,0.42154068,488.83002,0.0,0.0,0.0,0.0,0.0,0.0,inf,inf,inf,inf,1,1,1,1,0,0,0,0,1,1,0
155396000,0,47.3977508,8.5456074,-0.05559746,-0.06021471,-6.209015,0.0,0.0,0.0,-0.02,-0.01,-0.29,0.0,0.0,0.0,0.0,0.0,0.0,0.0,0.42153147,488.83002,0.0,0.0,0.0,0.0,0.0,0.0,inf,inf,inf,inf,1,1,1,1,0,0,0,0,1,1,0
155496000,0,47.3977508,8.5456074,-0.05559746,-0.06774155,-6.2380066,0.0,0.0,0.0,-0.01,-0.01,-0.28,0.0,0.0,0.0,0.0,0.0,0.0,0.0,0.42154467,488.83002,0.0,0.0,0.0,0.0,0.0,0.0,inf,inf,inf,inf,1,1,1,1,0,0,0,0,1,1,0
155600000,0,47.3977508,8.5456074,-0.066716954,-0.06774155,-6.2669983,0.0,0.0,0.0,-0.01,-0.01,-0.26999998,0.0,0.0,0.0,0.0,0.0,0.0,0.0,0.42161652,488.83002,0.0,0.0,0.0,0.0,0.0,0.0,inf,inf,inf,inf,1,1,1,1,0,0,0,0,1,1,0
155700000,0,47.3977508,8.5456074,-0.066716954,-0.06774155,-6.2940063,0.0,0.0,0.0,-0.01,-0.01,-0.26,0.0,0.0,0.0,0.0,0.0,0.0,0.0,0.4217296,488.83002,0.0,0.0,0.0,0.0,0.0,0.0,inf,inf,inf,inf,1,1,1,1,0,0,0,0,1,1,0
155796000,0,47.3977508,8.5456074,-0.066716954,-0.06774155,-6.3190002,0.0,0.0,0.0,-0.01,-0.01,-0.26,0.0,0.0,0.0,0.0,0.0,0.0,0.0,0.42168656,488.83002,0.0,0.0,0.0,0.0,0.0,0.0,inf,inf,inf,inf,1,1,1,1,0,0,0,0,1,1,0
155900000,0,47.3977508,8.5456074,-0.066716954,-0.07526839,-6.345001,0.0,0.0,0.0,-0.01,-0.01,-0.25,0.0,0.0,0.0,0.0,0.0,0.0,0.0,0.42155048,488.83002,0.0,0.0,0.0,0.0,0.0,0.0,inf,inf,inf,inf,1,1,1,1,0,0,0,0,1,1,0
156000000,0,47.3977508,8.5456074,-0.066716954,-0.07526839,-6.369995,0.0,0.0,0.0,-0.01,-0.02,-0.24,0.0,0.0,0.0,0.0,0.0,0.0,0.0,0.4215934,488.83002,0.0,0.0,0.0,0.0,0.0,0.0,inf,inf,inf,inf,1,1,1,1,0,0,0,0,1,1,0
156100000,0,47.3977508,8.5456074,-0.066716954,-0.07526839,-6.3950195,0.0,0.0,0.0,0.0,-0.02,-0.22999999,0.0,0.0,0.0,0.0,0.0,0.0,0.0,0.4214407,488.83002,0.0,0.0,0.0,0.0,0.0,0.0,inf,inf,inf,inf,1,1,1,1,0,0,0,0,1,1,0
156200000,0,47.3977508,8.5456074,-0.066716954,-0.07526839,-6.4179993,0.0,0.0,0.0,0.0,-0.02,-0.22,0.0,0.0,0.0,0.0,0.0,0.0,0.0,0.42126784,488.83002,0.0,0.0,0.0,0.0,0.0,0.0,inf,inf,inf,inf,1,1,1,1,0,0,0,0,1,1,0
156300000,0,47.3977508,8.5456074,-0.066716954,-0.082795225,-6.4410095,0.0,0.0,0.0,0.0,-0.02,-0.22,0.0,0.0,0.0,0.0,0.0,0.0,0.0,0.42126802,488.83002,0.0,0.0,0.0,0.0,0.0,0.0,inf,inf,inf,inf,1,1,1,1,0,0,0,0,1,1,0
156400000,0,47.3977508,8.5456074,-0.066716954,-0.082795225,-6.4630127,0.0,0.0,0.0,0.0,-0.01,-0.21,0.0,0.0,0.0,0.0,0.0,0.0,0.0,0.42125967,488.83002,0.0,0.0,0.0,0.0,0.0,0.0,inf,inf,inf,inf,1,1,1,1,0,0,0,0,1,1,0
156500000,0,47.3977508,8.5456074,-0.066716954,-0.082795225,-6.484009,0.0,0.0,0.0,0.0,-0.01,-0.21,0.0,0.0,0.0,0.0,0.0,0.0,0.0,0.42128375,488.83002,0.0,0.0,0.0,0.0,0.0,0.0,inf,inf,inf,inf,1,1,1,1,0,0,0,0,1,1,0
156600000,0,47.3977508,8.5456074,-0.066716954,-0.09032206,-6.505005,0.0,0.0,0.0,0.0,-0.01,-0.19999999,0.0,0.0,0.0,0.0,0.0,0.0,0.0,0.42144242,488.83002,0.0,0.0,0.0,0.0,0.0,0.0,inf,inf,inf,inf,1,1,1,1,0,0,0,0,1,1,0
156700000,0,47.3977508,8.5456074,-0.066716954,-0.09032206,-6.526001,0.0,0.0,0.0,0.0,-0.01,-0.19999999,0.0,0.0,0.0,0.0,0.0,0.0,0.0,0.42153007,488.83002,0.0,0.0,0.0,0.0,0.0,0.0,inf,inf,inf,inf,1,1,1,1,0,0,0,0,1,1,0
156800000,0,47.3977508,8.5456074,-0.066716954,-0.09032206,-6.5460205,0.0,0.0,0.0,0.0,-0.01,-0.19999999,0.0,0.0,0.0,0.0,0.0,0.0,0.0,0.4216072,488.83002,0.0,0.0,0.0,0.0,0.0,0.0,inf,inf,inf,inf,1,1,1,1,0,0,0,0,1,1,0
156900000,0,47.3977508,8.5456074,-0.066716954,-0.09032206,-6.5660095,0.0,0.0,0.0,0.0,-0.01,-0.19,0.0,0.0,0.0,0.0,0.0,0.0,0.0,0.42156917,488.83002,0.0,0.0,0.0,0.0,0.0,0.0,inf,inf,inf,inf,1,1,1,1,0,0,0,0,1,1,0
157000000,0,47.3977508,8.5456074,-0.066716954,-0.09032206,-6.5859985,0.0,0.0,0.0,0.0,-0.01,-0.19,0.0,0.0,0.0,0.0,0.0,0.0,0.0,0.42149574,488.83002,0.0,0.0,0.0,0.0,0.0,0.0,inf,inf,inf,inf,1,1,1,1,0,0,0,0,1,1,0
157100000,0,47.3977508,8.5456074,-0.066716954,-0.09784891,-6.605011,0.0,0.0,0.0,0.0,-0.01,-0.17999999,0.0,0.0,0.0,0.0,0.0,0.0,0.0,0.42142197,488.83002,0.0,0.0,0.0,0.0,0.0,0.0,inf,inf,inf,inf,1,1,1,1,0,0,0,0,1,1,0
157200000,0,47.3977508,8.5456074,-0.066716954,-0.09784891,-6.623993,0.0,0.0,0.0,0.0,-0.01,-0.17999999,0.0,0.0,0.0,0.0,0.0,0.0,0.0,0.4213279,488.83002,0.0,0.0,0.0,0.0,0.0,0.0,inf,inf,inf,inf,1,1,1,1,0,0,0,0,1,1,0
157300000,0,47.3977508,8.5456074,-0.07783645,-0.09784891,-6.6419983,0.0,0.0,0.0,0.0,-0.02,-0.17,0.0,0.0,0.0,0.0,0.0,0.0,0.0,0.42115876,488.83002,0.0,0.0,0.0,0.0,0.0,0.0,inf,inf,inf,inf,1,1,1,1,0,0,0,0,1,1,0
157400000,0,47.3977508,8.5456074,-0.07783645,-0.105375744,-6.6589966,0.0,0.0,0.0,0.0,-0.02,-0.16,0.0,0.0,0.0,0.0,0.0,0.0,0.0,0.42095244,488.83002,0.0,0.0,0.0,0.0,0.0,0.0,inf,inf,inf,inf,1,1,1,1,0,0,0,0,1,1,0
157496000,0,47.3977508,8.5456074,-0.07783645,-0.105375744,-6.6750183,0.0,0.0,0.0,0.0,-0.02,-0.16,0.0,0.0,0.0,0.0,0.0,0.0,0.0,0.4208199,488.83002,0.0,0.0,0.0,0.0,0.0,0.0,inf,inf,inf,inf,1,1,1,1,0,0,0,0,1,1,0
157596000,0,47.3977508,8.5456074,-0.07783645,-0.105375744,-6.6910095,0.0,0.0,0.0,0.0,-0.01,-0.14999999,0.0,0.0,0.0,0.0,0.0,0.0,0.0,0.42066428,488.83002,0.0,0.0,0.0,0.0,0.0,0.0,inf,inf,inf,inf,1,1,1,1,0,0,0,0,1,1,0
157700000,0,47.3977508,8.5456074,-0.07783645,-0.105375744,-6.7070007,0.0,0.0,0.0,0.0,-0.01,-0.14999999,0.0,0.0,0.0,0.0,0.0,0.0,0.0,0.42065135,488.83002,0.0,0.0,0.0,0.0,0.0,0.0,inf,inf,inf,inf,1,1,1,1,0,0,0,0,1,1,0
157796000,0,47.3977508,8.5456074,-0.07783645,-0.11290258,-6.7220154,0.0,0.0,0.0,0.0,-0.01,-0.14,0.0,0.0,0.0,0.0,0.0,0.0,0.0,0.42073584,488.83002,0.0,0.0,0.0,0.0,0.0,0.0,inf,inf,inf,inf,1,1,1,1,0,0,0,0,1,1,0
157896000,0,47.3977508,8.5456074,-0.07783645,-0.11290258,-6.7359924,0.0,0.0,0.0,0.0,-0.01,-0.14,0.0,0.0,0.0,0.0,0.0,0.0,0.0,0.4207309,488.83002,0.0,0.0,0.0,0.0,0.0,0.0,inf,inf,inf,inf,1,1,1,1,0,0,0,0,1,1,0
158000000,0,47.3977508,8.5456074,-0.07783645,-0.11290258,-6.752014,0.0,0.0,0.0,0.0,-0.01,-0.14,0.0,0.0,0.0,0.0,0.0,0.0,0.0,0.42062286,488.83002,0.0,0.0,0.0,0.0,0.0,0.0,inf,inf,inf,inf,1,1,1,1,0,0,0,0,1,1,0
158096000,0,47.3977508,8.5456074,-0.066716954,-0.11290258,-6.7650146,0.0,0.0,0.0,0.0,-0.01,-0.14,0.0,0.0,0.0,0.0,0.0,0.0,0.0,0.42060137,488.83002,0.0,0.0,0.0,0.0,0.0,0.0,inf,inf,inf,inf,1,1,1,1,0,0,0,0,1,1,0
158200000,0,47.3977508,8.5456074,-0.066716954,-0.11290258,-6.779999,0.0,0.0,0.0,0.0,0.0,-0.14,0.0,0.0,0.0,0.0,0.0,0.0,0.0,0.42065033,488.83002,0.0,0.0,0.0,0.0,0.0,0.0,inf,inf,inf,inf,1,1,1,1,0,0,0,0,1,1,0
158296000,0,47.3977508,8.5456074,-0.066716954,-0.11290258,-6.7940063,0.0,0.0,0.0,0.0,0.0,-0.14,0.0,0.0,0.0,0.0,0.0,0.0,0.0,0.42066553,488.83002,0.0,0.0,0.0,0.0,0.0,0.0,inf,inf,inf,inf,1,1,1,1,0,0,0,0,1,1,0
158396000,0,47.3977508,8.5456074,-0.066716954,-0.11290258,-6.808014,0.0,0.0,0.0,0.0,0.0,-0.13,0.0,0.0,0.0,0.0,0.0,0.0,0.0,0.420643,488.83002,0.0,0.0,0.0,0.0,0.0,0.0,inf,inf,inf,inf,1,1,1,1,0,0,0,0,1,1,0
158500000,0,47.3977508,8.5456074,-0.066716954,-0.12042942,-6.8220215,0.0,0.0,0.0,0.0,0.0,-0.13,0.0,0.0,0.0,0.0,0.0,0.0,0.0,0.42076993,488.83002,0.0,0.0,0.0,0.0,0.0,0.0,inf,inf,inf,inf,1,1,1,1,0,0,0,0,1,1,0
158600000,0,47.3977508,8.5456074,-0.066716954,-0.12042942,-6.8349915,0.0,0.0,0.0,0.0,0.0,-0.12,0.0,0.0,0.0,0.0,0.0,0.0,0.0,0.42079988,488.83002,0.0,0.0,0.0,0.0,0.0,0.0,inf,inf,inf,inf,1,1,1,1,0,0,0,0,1,1,0
158700000,0,47.3977508,8.5456074,-0.066716954,-0.12042942,-6.8470154,0.0,0.0,0.0,0.0,0.0,-0.11,0.0,0.0,0.0,0.0,0.0,0.0,0.0,0.4209024,488.83002,0.0,0.0,0.0,0.0,0.0,0.0,inf,inf,inf,inf,1,1,1,1,0,0,0,0,1,1,0
158800000,0,47.3977508,8.5456074,-0.066716954,-0.12042942,-6.859009,0.0,0.0,0.0,0.01,0.0,-0.11,0.0,0.0,0.0,0.0,0.0,0.0,0.0,0.4209921,488.83002,0.0,0.0,0.0,0.0,0.0,0.0,inf,inf,inf,inf,1,1,1,1,0,0,0,0,1,1,0
158896000,0,47.3977508,8.5456074,-0.066716954,-0.12042942,-6.869995,0.0,0.0,0.0,0.01,0.0,-0.11,0.0,0.0,0.0,0.0,0.0,0.0,0.0,0.42091325,488.83002,0.0,0.0,0.0,0.0,0.0,0.0,inf,inf,inf,inf,1,1,1,1,0,0,0,0,1,1,0
159000000,0,47.3977508,8.5456074,-0.066716954,-0.12042942,-6.882019,0.0,0.0,0.0,0.01,0.0,-0.099999994,0.0,0.0,0.0,0.0,0.0,0.0,0.0,0.42089927,488.83002,0.0,0.0,0.0,0.0,0.0,0.0,inf,inf,inf,inf,1,1,1,1,0,0,0,0,1,1,0
159100000,0,47.3977508,8.5456074,-0.066716954,-0.12042942,-6.8930054,0.0,0.0,0.0,0.01,0.0,-0.099999994,0.0,0.0,0.0,0.0,0.0,0.0,0.0,0.42077833,488.83002,0.0,0.0,0.0,0.0,0.0,0.0,inf,inf,inf,inf,1,1,1,1,0,0,0,0,1,1,0
159200000,0,47.3977508,8.5456074,-0.066716954,-0.12042942,-6.903015,0.0,0.0,0.0,0.01,0.0,-0.099999994,0.0,0.0,0.0,0.0,0.0,0.0,0.0,0.42065057,488.83002,0.0,0.0,0.0,0.0,0.0,0.0,inf,inf,inf,inf,1,1,1,1,0,0,0,0,1,1,0
159300000,0,47.3977508,8.5456074,-0.066716954,-0.12042942,-6.9140015,0.0,0.0,0.0,0.01,0.0,-0.099999994,0.0,0.0,0.0,0.0,0.0,0.0,0.0,0.4205658,488.83002,0.0,0.0,0.0,0.0,0.0,0.0,inf,inf,inf,inf,1,1,1,1,0,0,0,0,1,1,0
159400000,0,47.3977508,8.5456074,-0.066716954,-0.12042942,-6.924011,0.0,0.0,0.0,0.01,0.0,-0.099999994,0.0,0.0,0.0,0.0,0.0,0.0,0.0,0.42070028,488.83002,0.0,0.0,0.0,0.0,0.0,0.0,inf,inf,inf,inf,1,1,1,1,0,0,0,0,1,1,0
159500000,0,47.3977508,8.5456074,-0.05559746,-0.12042942,-6.934021,0.0,0.0,0.0,0.01,0.0,-0.089999996,0.0,0.0,0.0,0.0,0.0,0.0,0.0,0.4208904,488.83002,0.0,0.0,0.0,0.0,0.0,0.0,inf,inf,inf,inf,1,1,1,1,0,0,0,0,1,1,0
159600000,0,47.3977508,8.5456074,-0.05559746,-0.12042942,-6.942993,0.0,0.0,0.0,0.01,0.0,-0.089999996,0.0,0.0,0.0,0.0,0.0,0.0,0.0,0.4210094,488.83002,0.0,0.0,0.0,0.0,0.0,0.0,inf,inf,inf,inf,1,1,1,1,0,0,0,0,1,1,0
159700000,0,47.3977508,8.5456074,-0.05559746,-0.12795626,-6.951996,0.0,0.0,0.0,0.01,0.0,-0.08,0.0,0.0,0.0,0.0,0.0,0.0,0.0,0.42106926,488.83002,0.0,0.0,0.0,0.0,0.0,0.0,inf,inf,inf,inf,1,1,1,1,0,0,0,0,1,1,0
159796000,0,47.3977508,8.5456074,-0.05559746,-0.12795626,-6.9599915,0.0,0.0,0.0,0.01,0.0,-0.08,0.0,0.0,0.0,0.0,0.0,0.0,0.0,0.42102367,488.83002,0.0,0.0,0.0,0.0,0.0,0.0,inf,inf,inf,inf,1,1,1,1,0,0,0,0,1,1,0
159900000,0,47.3977508,8.5456074,-0.05559746,-0.12795626,-6.968994,0.0,0.0,0.0,0.01,0.0,-0.08,0.0,0.0,0.0,0.0,0.0,0.0,0.0,0.4209488,488.83002,0.0,0.0,0.0,0.0,0.0,0.0,inf,inf,inf,inf,1,1,1,1,0,0,0,0,1,1,0
160000000,0,47.3977508,8.5456074,-0.05559746,-0.12795626,-6.9770203,0.0,0.0,0.0,0.01,0.0,-0.07,0.0,0.0,0.0,0.0,0.0,0.0,0.0,0.42092687,488.83002,0.0,0.0,0.0,0.0,0.0,0.0,inf,inf,inf,inf,1,1,1,1,0,0,0,0,1,1,0
160100000,0,47.3977508,8.5456074,-0.05559746,-0.12795626,-6.984009,0.0,0.0,0.0,0.01,0.0,-0.07,0.0,0.0,0.0,0.0,0.0,0.0,0.0,0.42091507,488.83002,0.0,0.0,0.0,0.0,0.0,0.0,inf,inf,inf,inf,1,1,1,1,0,0,0,0,1,1,0
160200000,0,47.3977508,8.5456074,-0.05559746,-0.12795626,-6.9909973,0.0,0.0,0.0,0.01,0.0,-0.06,0.0,0.0,0.0,0.0,0.0,0.0,0.0,0.42083156,488.83002,0.0,0.0,0.0,0.0,0.0,0.0,inf,inf,inf,inf,1,1,1,1,0,0,0,0,1,1,0
160296000,0,47.3977508,8.5456074,-0.04447797,-0.12795626,-6.9980164,0.0,0.0,0.0,0.01,0.0,-0.06,0.0,0.0,0.0,0.0,0.0,0.0,0.0,0.42083335,488.83002,0.0,0.0,0.0,0.0,0.0,0.0,inf,inf,inf,inf,1,1,1,1,0,0,0,0,1,1,0
160400000,0,47.3977508,8.5456074,-0.04447797,-0.12795626,-7.003998,0.0,0.0,0.0,0.01,0.0,-0.049999997,0.0,0.0,0.0,0.0,0.0,0.0,0.0,0.42078048,488.83002,0.0,0.0,0.0,0.0,0.0,0.0,inf,inf,inf,inf,1,1,1,1,0,0,0,0,1,1,0
160500000,0,47.3977508,8.5456074,-0.04447797,-0.12795626,-7.01001,0.0,0.0,0.0,0.01,0.0,-0.049999997,0.0,0.0,0.0,0.0,0.0,0.0,0.0,0.42068645,488.83002,0.0,0.0,0.0,0.0,0.0,0.0,inf,inf,inf,inf,1,1,1,1,0,0,0,0,1,1,0
160600000,0,47.3977508,8.5456074,-0.04447797,-0.12795626,-7.0150146,0.0,0.0,0.0,0.0,0.0,-0.049999997,0.0,0.0,0.0,0.0,0.0,0.0,0.0,0.42060152,488.83002,0.0,0.0,0.0,0.0,0.0,0.0,inf,inf,inf,inf,1,1,1,1,0,0,0,0,1,1,0
160700000,0,47.3977508,8.5456074,-0.04447797,-0.1354831,-7.0200195,0.0,0.0,0.0,0.0,0.0,-0.04,0.0,0.0,0.0,0.0,0.0,0.0,0.0,0.4206152,488.83002,0.0,0.0,0.0,0.0,0.0,0.0,inf,inf,inf,inf,1,1,1,1,0,0,0,0,1,1,0
160800000,0,47.3977508,8.5456074,-0.04447797,-0.1354831,-7.0240173,0.0,0.0,0.0,0.0,0.0,-0.03,0.0,0.0,0.0,0.0,0.0,0.0,0.0,0.42064282,488.83002,0.0,0.0,0.0,0.0,0.0,0.0,inf,inf,inf,inf,1,1,1,1,0,0,0,0,1,1,0
160896000,0,47.3977508,8.5456074,-0.04447797,-0.1354831,-7.028015,0.0,0.0,0.0,0.0,0.0,-0.03,0.0,0.0,0.0,0.0,0.0,0.0,0.0,0.4206934,488.83002,0.0,0.0,0.0,0.0,0.0,0.0,inf,inf,inf,inf,1,1,1,1,0,0,0,0,1,1,0
160996000,0,47.3977508,8.5456074,-0.04447797,-0.1354831,-7.031006,0.0,0.0,0.0,0.0,0.0,-0.02,0.0,0.0,0.0,0.0,0.0,0.0,0.0,0.42059463,488.83002,0.0,0.0,0.0,0.0,0.0,0.0,inf,inf,inf,inf,1,1,1,1,0,0,0,0,1,1,0
161100000,0,47.3977508,8.5456074,-0.04447797,-0.1354831,-7.03302,0.0,0.0,0.0,0.0,0.0,-0.02,0.0,0.0,0.0,0.0,0.0,0.0,0.0,0.42053458,488.83002,0.0,0.0,0.0,0.0,0.0,0.0,inf,inf,inf,inf,1,1,1,1,0,0,0,0,1,1,0
161200000,0,47.3977508,8.5456074,-0.04447797,-0.1354831,-7.0360107,0.0,0.0,0.0,0.0,-0.01,-0.01,0.0,0.0,0.0,0.0,0.0,0.0,0.0,0.42062274,488.83002,0.0,0.0,0.0,0.0,0.0,0.0,inf,inf,inf,inf,1,1,1,1,0,0,0,0,1,1,0
161300000,0,47.3977508,8.5456074,-0.04447797,-0.1354831,-7.037018,0.0,0.0,0.0,0.0,-0.01,-0.01,0.0,0.0,0.0,0.0,0.0,0.0,0.0,0.42065603,488.83002,0.0,0.0,0.0,0.0,0.0,0.0,inf,inf,inf,inf,1,1,1,1,0,0,0,0,1,1,0
161396000,0,47.3977508,8.5456074,-0.04447797,-0.1354831,-7.0379944,0.0,0.0,0.0,0.0,-0.01,-0.01,0.0,0.0,0.0,0.0,0.0,0.0,0.0,0.420725,488.83002,0.0,0.0,0.0,0.0,0.0,0.0,inf,inf,inf,inf,1,1,1,1,0,0,0,0,1,1,0
161500000,0,47.3977508,8.5456074,-0.04447797,-0.14300993,-7.0390015,0.0,0.0,0.0,0.0,-0.01,0.0,0.0,0.0,0.0,0.0,0.0,0.0,0.0,0.4207182,488.83002,0.0,0.0,0.0,0.0,0.0,0.0,inf,inf,inf,inf,1,1,1,1,0,0,0,0,1,1,0
161600000,0,47.3977508,8.5456074,-0.04447797,-0.14300993,-7.0400085,0.0,0.0,0.0,0.0,-0.01,0.0,0.0,0.0,0.0,0.0,0.0,0.0,0.0,0.42077395,488.83002,0.0,0.0,0.0,0.0,0.0,0.0,inf,inf,inf,inf,1,1,1,1,0,0,0,0,1,1,0
161700000,0,47.3977508,8.5456074,-0.04447797,-0.14300993,-7.0410156,0.0,0.0,0.0,0.0,-0.01,-0.01,0.0,0.0,0.0,0.0,0.0,0.0,0.0,0.42081517,488.83002,0.0,0.0,0.0,0.0,0.0,0.0,inf,inf,inf,inf,1,1,1,1,0,0,0,0,1,1,0
161800000,0,47.3977508,8.5456074,-0.04447797,-0.14300993,-7.041992,0.0,0.0,0.0,0.0,-0.01,0.0,0.0,0.0,0.0,0.0,0.0,0.0,0.0,0.42081103,488.83002,0.0,0.0,0.0,0.0,0.0,0.0,inf,inf,inf,inf,1,1,1,1,0,0,0,0,1,1,0
161900000,0,47.3977508,8.5456074,-0.04447797,-0.14300993,-7.0429993,0.0,0.0,0.0,0.0,-0.01,0.0,0.0,0.0,0.0,0.0,0.0,0.0,0.0,0.42082202,488.83002,0.0,0.0,0.0,0.0,0.0,0.0,inf,inf,inf,inf,1,1,1,1,0,0,0,0,1,1,0
161996000,0,47.3977508,8.5456074,-0.04447797,-0.14300993,-7.0440063,0.0,0.0,0.0,0.0,-0.01,0.0,0.0,0.0,0.0,0.0,0.0,0.0,0.0,0.42081827,488.83002,0.0,0.0,0.0,0.0,0.0,0.0,inf,inf,inf,inf,1,1,1,1,0,0,0,0,1,1,0
162100000,0,47.3977508,8.5456074,-0.04447797,-0.15053678,-7.0450134,0.0,0.0,0.0,0.0,-0.01,0.0,0.0,0.0,0.0,0.0,0.0,0.0,0.0,0.42081934,488.83002,0.0,0.0,0.0,0.0,0.0,0.0,inf,inf,inf,inf,1,1,1,1,0,0,0,0,1,1,0
162200000,0,47.3977508,8.5456074,-0.04447797,-0.15053678,-7.0450134,0.0,0.0,0.0,0.0,-0.01,0.0,0.0,0.0,0.0,0.0,0.0,0.0,0.0,0.42066813,488.83002,0.0,0.0,0.0,0.0,0.0,0.0,inf,inf,inf,inf,1,1,1,1,0,0,0,0,1,1,0
162296000,0,47.3977508,8.5456074,-0.04447797,-0.15053678,-7.0450134,0.0,0.0,0.0,0.0,-0.01,0.0,0.0,0.0,0.0,0.0,0.0,0.0,0.0,0.42054287,488.83002,0.0,0.0,0.0,0.0,0.0,0.0,inf,inf,inf,inf,1,1,1,1,0,0,0,0,1,1,0
162400000,0,47.3977508,8.5456074,-0.04447797,-0.15053678,-7.0440063,0.0,0.0,0.0,0.0,-0.01,0.0,0.0,0.0,0.0,0.0,0.0,0.0,0.0,0.420517,488.83002,0.0,0.0,0.0,0.0,0.0,0.0,inf,inf,inf,inf,1,1,1,1,0,0,0,0,1,1,0
162500000,0,47.3977508,8.5456074,-0.04447797,-0.15053678,-7.0440063,0.0,0.0,0.0,0.0,-0.01,0.0,0.0,0.0,0.0,0.0,0.0,0.0,0.0,0.42055625,488.83002,0.0,0.0,0.0,0.0,0.0,0.0,inf,inf,inf,inf,1,1,1,1,0,0,0,0,1,1,0
162600000,0,47.3977508,8.5456074,-0.04447797,-0.15806362,-7.0429993,0.0,0.0,0.0,0.0,-0.01,0.01,0.0,0.0,0.0,0.0,0.0,0.0,0.0,0.4206003,488.83002,0.0,0.0,0.0,0.0,0.0,0.0,inf,inf,inf,inf,1,1,1,1,0,0,0,0,1,1,0
162700000,0,47.3977508,8.5456074,-0.04447797,-0.15806362,-7.0410156,0.0,0.0,0.0,0.0,-0.01,0.01,0.0,0.0,0.0,0.0,0.0,0.0,0.0,0.42062005,488.83002,0.0,0.0,0.0,0.0,0.0,0.0,inf,inf,inf,inf,1,1,1,1,0,0,0,0,1,1,0
162800000,0,47.3977508,8.5456074,-0.04447797,-0.15806362,-7.0400085,0.0,0.0,0.0,0.0,-0.01,0.01,0.0,0.0,0.0,0.0,0.0,0.0,0.0,0.4205201,488.83002,0.0,0.0,0.0,0.0,0.0,0.0,inf,inf,inf,inf,1,1,1,1,0,0,0,0,1,1,0
162896000,0,47.3977508,8.5456074,-0.04447797,-0.15806362,-7.0379944,0.0,0.0,0.0,0.0,-0.01,0.01,0.0,0.0,0.0,0.0,0.0,0.0,0.0,0.42037448,488.83002,0.0,0.0,0.0,0.0,0.0,0.0,inf,inf,inf,inf,1,1,1,1,0,0,0,0,1,1,0
163000000,0,47.3977508,8.5456074,-0.04447797,-0.15806362,-7.0360107,0.0,0.0,0.0,0.0,-0.01,0.01,0.0,0.0,0.0,0.0,0.0,0.0,0.0,0.4203489,488.83002,0.0,0.0,0.0,0.0,0.0,0.0,inf,inf,inf,inf,1,1,1,1,0,0,0,0,1,1,0
163100000,0,47.3977508,8.5456074,-0.044477966,-0.16559045,-7.0339966,0.0,0.0,0.0,0.0,-0.01,0.01,0.0,0.0,0.0,0.0,0.0,0.0,0.0,0.4202614,488.83002,0.0,0.0,0.0,0.0,0.0,0.0,inf,inf,inf,inf,1,1,1,1,0,0,0,0,1,1,0
163200000,0,47.3977508,8.5456074,-0.044477966,-0.16559045,-7.03302,0.0,0.0,0.0,0.0,-0.01,0.01,0.0,0.0,0.0,0.0,0.0,0.0,0.0,0.42021787,488.83002,0.0,0.0,0.0,0.0,0.0,0.0,inf,inf,inf,inf,1,1,1,1,0,0,0,0,1,1,0
163300000,0,47.3977508,8.5456074,-0.044477966,-0.16559045,-7.031006,0.0,0.0,0.0,0.0,-0.01,0.01,0.0,0.0,0.0,0.0,0.0,0.0,0.0,0.42015368,488.83002,0.0,0.0,0.0,0.0,0.0,0.0,inf,inf,inf,inf,1,1,1,1,0,0,0,0,1,1,0
163396000,0,47.3977508,8.5456074,-0.044477966,-0.16559045,-7.0289917,0.0,0.0,0.0,0.0,-0.01,0.01,0.0,0.0,0.0,0.0,0.0,0.0,0.0,0.42010677,488.83002,0.0,0.0,0.0,0.0,0.0,0.0,inf,inf,inf,inf,1,1,1,1,0,0,0,0,1,1,0
163496000,0,47.3977508,8.5456074,-0.044477966,-0.16559045,-7.028015,0.0,0.0,0.0,0.0,-0.01,0.02,0.0,0.0,0.0,0.0,0.0,0.0,0.0,0.42003137,488.83002,0.0,0.0,0.0,0.0,0.0,0.0,inf,inf,inf,inf,1,1,1,1,0,0,0,0,1,1,0
163600000,0,47.3977508,8.5456074,-0.044477966,-0.16559045,-7.026001,0.0,0.0,0.0,0.0,0.0,0.01,0.0,0.0,0.0,0.0,0.0,0.0,0.0,0.41991156,488.83002,0.0,0.0,0.0,0.0,0.0,0.0,inf,inf,inf,inf,1,1,1,1,0,0,0,0,1,1,0
163700000,0,47.3977508,8.5456074,-0.044477966,-0.16559045,-7.0240173,0.0,0.0,0.0,0.0,0.0,0.02,0.0,0.0,0.0,0.0,0.0,0.0,0.0,0.4198507,488.83002,0.0,0.0,0.0,0.0,0.0,0.0,inf,inf,inf,inf,1,1,1,1,0,0,0,0,1,1,0
163800000,0,47.3977508,8.5456074,-0.044477966,-0.1731173,-7.020996,0.0,0.0,0.0,0.0,0.0,0.02,0.0,0.0,0.0,0.0,0.0,0.0,0.0,0.41985592,488.83002,0.0,0.0,0.0,0.0,0.0,0.0,inf,inf,inf,inf,1,1,1,1,0,0,0,0,1,1,0
163900000,0,47.3977508,8.5456074,-0.044477966,-0.1731173,-7.0190125,0.0,0.0,0.0,0.0,0.0,0.02,0.0,0.0,0.0,0.0,0.0,0.0,0.0,0.41981012,488.83002,0.0,0.0,0.0,0.0,0.0,0.0,inf,inf,inf,inf,1,1,1,1,0,0,0,0,1,1,0
164000000,0,47.3977508,8.5456074,-0.044477966,-0.1731173,-7.0169983,0.0,0.0,0.0,0.0,0.0,0.02,0.0,0.0,0.0,0.0,0.0,0.0,0.0,0.41970652,488.83002,0.0,0.0,0.0,0.0,0.0,0.0,inf,inf,inf,inf,1,1,1,1,0,0,0,0,1,1,0
164096000,0,47.3977508,8.5456074,-0.044477966,-0.1731173,-7.0140076,0.0,0.0,0.0,0.0,0.0,0.02,0.0,0.0,0.0,0.0,0.0,0.0,0.0,0.41960904,488.83002,0.0,0.0,0.0,0.0,0.0,0.0,inf,inf,inf,inf,1,1,1,1,0,0,0,0,1,1,0
164200000,0,47.3977508,8.5456074,-0.044477966,-0.1731173,-7.0119934,0.0,0.0,0.0,0.0,0.0,0.01,0.0,0.0,0.0,0.0,0.0,0.0,0.0,0.419469,488.83002,0.0,0.0,0.0,0.0,0.0,0.0,inf,inf,inf,inf,1,1,1,1,0,0,0,0,1,1,0
164300000,0,47.3977508,8.5456074,-0.044477966,-0.1731173,-7.01001,0.0,0.0,0.0,0.0,0.0,0.01,0.0,0.0,0.0,0.0,0.0,0.0,0.0,0.41943237,488.83002,0.0,0.0,0.0,0.0,0.0,0.0,inf,inf,inf,inf,1,1,1,1,0,0,0,0,1,1,0
164400000,0,47.3977508,8.5456074,-0.044477966,-0.1731173,-7.0079956,0.0,0.0,0.0,0.0,0.0,0.01,0.0,0.0,0.0,0.0,0.0,0.0,0.0,0.4194358,488.83002,0.0,0.0,0.0,0.0,0.0,0.0,inf,inf,inf,inf,1,1,1,1,0,0,0,0,1,1,0
164500000,0,47.3977508,8.5456074,-0.044477966,-0.1731173,-7.007019,0.0,0.0,0.0,0.0,0.0,0.01,0.0,0.0,0.0,0.0,0.0,0.0,0.0,0.41936934,488.83002,0.0,0.0,0.0,0.0,0.0,0.0,inf,inf,inf,inf,1,1,1,1,0,0,0,0,1,1,0
164596000,0,47.3977508,8.5456074,-0.044477966,-0.1731173,-7.006012,0.0,0.0,0.0,0.01,0.0,0.01,0.0,0.0,0.0,0.0,0.0,0.0,0.0,0.41936958,488.83002,0.0,0.0,0.0,0.0,0.0,0.0,inf,inf,inf,inf,1,1,1,1,0,0,0,0,1,1,0
164700000,0,47.3977508,8.5456074,-0.033358473,-0.1731173,-7.005005,0.0,0.0,0.0,0.01,0.0,0.0,0.0,0.0,0.0,0.0,0.0,0.0,0.0,0.41942367,488.83002,0.0,0.0,0.0,0.0,0.0,0.0,inf,inf,inf,inf,1,1,1,1,0,0,0,0,1,1,0
164796000,0,47.3977508,8.5456074,-0.033358473,-0.1731173,-7.003998,0.0,0.0,0.0,0.01,0.0,0.0,0.0,0.0,0.0,0.0,0.0,0.0,0.0,0.41946578,488.83002,0.0,0.0,0.0,0.0,0.0,0.0,inf,inf,inf,inf,1,1,1,1,0,0,0,0,1,1,0
164900000,0,47.3977508,8.5456074,-0.033358473,-0.1731173,-7.0030212,0.0,0.0,0.0,0.01,0.0,0.0,0.0,0.0,0.0,0.0,0.0,0.0,0.0,0.41954872,488.83002,0.0,0.0,0.0,0.0,0.0,0.0,inf,inf,inf,inf,1,1,1,1,0,0,0,0,1,1,0
164996000,0,47.3977508,8.5456074,-0.033358473,-0.16559045,-7.0030212,0.0,0.0,0.0,0.01,0.0,0.0,0.0,0.0,0.0,0.0,0.0,0.0,0.0,0.4195976,488.83002,0.0,0.0,0.0,0.0,0.0,0.0,inf,inf,inf,inf,1,1,1,1,0,0,0,0,1,1,0
165100000,0,47.3977508,8.5456074,-0.033358473,-0.16559045,-7.002014,0.0,0.0,0.0,0.01,0.0,0.0,0.0,0.0,0.0,0.0,0.0,0.0,0.0,0.41953784,488.83002,0.0,0.0,0.0,0.0,0.0,0.0,inf,inf,inf,inf,1,1,1,1,0,0,0,0,1,1,0
165196000,0,47.3977508,8.5456074,-0.033358473,-0.16559045,-7.002014,0.0,0.0,0.0,0.01,0.0,0.0,0.0,0.0,0.0,0.0,0.0,0.0,0.0,0.41941318,488.83002,0.0,0.0,0.0,0.0,0.0,0.0,inf,inf,inf,inf,1,1,1,1,0,0,0,0,1,1,0
165300000,0,47.3977508,8.5456074,-0.033358473,-0.16559045,-7.001007,0.0,0.0,0.0,0.0,0.0,0.0,0.0,0.0,0.0,0.0,0.0,0.0,0.0,0.41941527,488.83002,0.0,0.0,0.0,0.0,0.0,0.0,inf,inf,inf,inf,1,1,1,1,0,0,0,0,1,1,0
165396000,0,47.3977508,8.5456074,-0.033358473,-0.16559045,-7.001007,0.0,0.0,0.0,0.0,0.01,0.0,0.0,0.0,0.0,0.0,0.0,0.0,0.0,0.41940314,488.83002,0.0,0.0,0.0,0.0,0.0,0.0,inf,inf,inf,inf,1,1,1,1,0,0,0,0,1,1,0
165500000,0,47.3977508,8.5456074,-0.033358473,-0.16559045,-7.0,0.0,0.0,0.0,0.0,0.01,0.0,0.0,0.0,0.0,0.0,0.0,0.0,0.0,0.4194879,488.83002,0.0,0.0,0.0,0.0,0.0,0.0,inf,inf,inf,inf,1,1,1,1,0,0,0,0,1,1,0
165600000,0,47.3977508,8.5456074,-0.033358473,-0.16559045,-7.0,0.0,0.0,0.0,0.0,0.01,0.0,0.0,0.0,0.0,0.0,0.0,0.0,0.0,0.4196259,488.83002,0.0,0.0,0.0,0.0,0.0,0.0,inf,inf,inf,inf,1,1,1,1,0,0,0,0,1,1,0
165696000,0,47.3977508,8.5456074,-0.033358473,-0.16559045,-7.0,0.0,0.0,0.0,0.01,0.01,0.0,0.0,0.0,0.0,0.0,0.0,0.0,0.0,0.41985643,488.83002,0.0,0.0,0.0,0.0,0.0,0.0,inf,inf,inf,inf,1,1,1,1,0,0,0,0,1,1,0
165800000,0,47.3977508,8.5456074,-0.022238985,-0.15806362,-7.0,0.0,0.0,0.0,0.01,0.01,0.0,0.0,0.0,0.0,0.0,0.0,0.0,0.0,0.41998804,488.83002,0.0,0.0,0.0,0.0,0.0,0.0,inf,inf,inf,inf,1,1,1,1,0,0,0,0,1,1,0
165900000,0,47.3977508,8.5456074,-0.022238985,-0.15806362,-6.998993,0.0,0.0,0.0,0.01,0.01,0.0,0.0,0.0,0.0,0.0,0.0,0.0,0.0,0.42000654,488.83002,0.0,0.0,0.0,0.0,0.0,0.0,inf,inf,inf,inf,1,1,1,1,0,0,0,0,1,1,0
166000000,0,47.3977508,8.5456074,-0.022238985,-0.15806362,-6.998993,0.0,0.0,0.0,0.01,0.01,0.0,0.0,0.0,0.0,0.0,0.0,0.0,0.0,0.4200108,488.83002,0.0,0.0,0.0,0.0,0.0,0.0,inf,inf,inf,inf,1,1,1,1,0,0,0,0,1,1,0
166100000,0,47.3977508,8.5456074,-0.022238985,-0.15806362,-6.9980164,0.0,0.0,0.0,0.01,0.01,0.0,0.0,0.0,0.0,0.0,0.0,0.0,0.0,0.4200404,488.83002,0.0,0.0,0.0,0.0,0.0,0.0,inf,inf,inf,inf,1,1,1,1,0,0,0,0,1,1,0
166200000,0,47.3977508,8.5456074,-0.022238985,-0.15806362,-6.9980164,0.0,0.0,0.0,0.01,0.01,0.0,0.0,0.0,0.0,0.0,0.0,0.0,0.0,0.42005473,488.83002,0.0,0.0,0.0,0.0,0.0,0.0,inf,inf,inf,inf,1,1,1,1,0,0,0,0,1,1,0
166300000,0,47.3977508,8.5456074,-0.022238985,-0.15806362,-6.9980164,0.0,0.0,0.0,0.01,0.01,0.0,0.0,0.0,0.0,0.0,0.0,0.0,0.0,0.42010927,488.83002,0.0,0.0,0.0,0.0,0.0,0.0,inf,inf,inf,inf,1,1,1,1,0,0,0,0,1,1,0
166400000,0,47.3977508,8.5456074,-0.022238985,-0.15806362,-6.9980164,0.0,0.0,0.0,0.01,0.01,0.0,0.0,0.0,0.0,0.0,0.0,0.0,0.0,0.42019245,488.83002,0.0,0.0,0.0,0.0,0.0,0.0,inf,inf,inf,inf,1,1,1,1,0,0,0,0,1,1,0
166500000,0,47.3977508,8.5456074,-0.0111194905,-0.15053678,-6.998993,0.0,0.0,0.0,0.01,0.01,0.0,0.0,0.0,0.0,0.0,0.0,0.0,0.0,0.42016307,488.83002,0.0,0.0,0.0,0.0,0.0,0.0,inf,inf,inf,inf,1,1,1,1,0,0,0,0,1,1,0
166600000,0,47.3977508,8.5456074,-0.0111194905,-0.15053678,-7.0,0.0,0.0,0.0,0.01,0.01,-0.01,0.0,0.0,0.0,0.0,0.0,0.0,0.0,0.42017773,488.83002,0.0,0.0,0.0,0.0,0.0,0.0,inf,inf,inf,inf,1,1,1,1,0,0,0,0,1,1,0
166696000,0,47.3977508,8.5456074,-0.0111194905,-0.15053678,-7.001007,0.0,0.0,0.0,0.01,0.01,-0.01,0.0,0.0,0.0,0.0,0.0,0.0,0.0,0.42023844,488.83002,0.0,0.0,0.0,0.0,0.0,0.0,inf,inf,inf,inf,1,1,1,1,0,0,0,0,1,1,0
166800000,0,47.3977508,8.5456074,-0.0111194905,-0.15053678,-7.002014,0.0,0.0,0.0,0.01,0.01,-0.01,0.0,0.0,0.0,0.0,0.0,0.0,0.0,0.42036074,488.83002,0.0,0.0,0.0,0.0,0.0,0.0,inf,inf,inf,inf,1,1,1,1,0,0,0,0,1,1,0
166900000,0,47.3977508,8.5456074,-0.0111194905,-0.15053678,-7.003998,0.0,0.0,0.0,0.01,0.01,-0.02,0.0,0.0,0.0,0.0,0.0,0.0,0.0,0.4204746,488.83002,0.0,0.0,0.0,0.0,0.0,0.0,inf,inf,inf,inf,1,1,1,1,0,0,0,0,1,1,0
167000000,0,47.3977508,8.5456074,-0.0111194905,-0.14300993,-7.006012,0.0,0.0,0.0,0.01,0.01,-0.02,0.0,0.0,0.0,0.0,0.0,0.0,0.0,0.4205866,488.83002,0.0,0.0,0.0,0.0,0.0,0.0,inf,inf,inf,inf,1,1,1,1,0,0,0,0,1,1,0
167100000,0,47.3977508,8.5456074,-0.0111194905,-0.14300993,-7.0079956,0.0,0.0,0.0,0.01,0.01,-0.01,0.0,0.0,0.0,0.0,0.0,0.0,0.0,0.4206851,488.83002,0.0,0.0,0.0,0.0,0.0,0.0,inf,inf,inf,inf,1,1,1,1,0,0,0,0,1,1,0
167196000,0,47.3977508,8.5456074,1.7683077e-09,-0.14300993,-7.01001,0.0,0.0,0.0,0.01,0.01,-0.02,0.0,0.0,0.0,0.0,0.0,0.0,0.0,0.4207254,488.83002,0.0,0.0,0.0,0.0,0.0,0.0,inf,inf,inf,inf,1,1,1,1,0,0,0,0,1,1,0
167296000,0,47.3977508,8.5456074,1.7683077e-09,-0.14300993,-7.0130005,0.0,0.0,0.0,0.01,0.01,-0.02,0.0,0.0,0.0,0.0,0.0,0.0,0.0,0.4208479,488.83002,0.0,0.0,0.0,0.0,0.0,0.0,inf,inf,inf,inf,1,1,1,1,0,0,0,0,1,1,0
167400000,0,47.3977508,8.5456074,1.4146462e-09,-0.1354831,-7.0150146,0.0,0.0,0.0,0.01,0.02,-0.02,0.0,0.0,0.0,0.0,0.0,0.0,0.0,0.42098278,488.83002,0.0,0.0,0.0,0.0,0.0,0.0,inf,inf,inf,inf,1,1,1,1,0,0,0,0,1,1,0
167500000,0,47.3977508,8.5456074,1.4146462e-09,-0.1354831,-7.0169983,0.0,0.0,0.0,0.01,0.02,-0.02,0.0,0.0,0.0,0.0,0.0,0.0,0.0,0.42106032,488.83002,0.0,0.0,0.0,0.0,0.0,0.0,inf,inf,inf,inf,1,1,1,1,0,0,0,0,1,1,0
167600000,0,47.3977508,8.5456074,1.4146462e-09,-0.1354831,-7.0190125,0.0,0.0,0.0,0.01,0.02,-0.02,0.0,0.0,0.0,0.0,0.0,0.0,0.0,0.4212003,488.83002,0.0,0.0,0.0,0.0,0.0,0.0,inf,inf,inf,inf,1,1,1,1,0,0,0,0,1,1,0
167700000,0,47.3977508,8.5456074,1.4146462e-09,-0.1354831,-7.022003,0.0,0.0,0.0,0.01,0.02,-0.02,0.0,0.0,0.0,0.0,0.0,0.0,0.0,0.4212828,488.83002,0.0,0.0,0.0,0.0,0.0,0.0,inf,inf,inf,inf,1,1,1,1,0,0,0,0,1,1,0
167800000,0,47.3977508,8.5456074,1.4146462e-09,-0.12795626,-7.0240173,0.0,0.0,0.0,0.01,0.02,-0.02,0.0,0.0,0.0,0.0,0.0,0.0,0.0,0.42128697,488.83002,0.0,0.0,0.0,0.0,0.0,0.0,inf,inf,inf,inf,1,1,1,1,0,0,0,0,1,1,0
167900000,0,47.3977508,8.5456074,0.011119494,-0.12795626,-7.027008,0.0,0.0,0.0,0.01,0.02,-0.02,0.0,0.0,0.0,0.0,0.0,0.0,0.0,0.4213253,488.83002,0.0,0.0,0.0,0.0,0.0,0.0,inf,inf,inf,inf,1,1,1,1,0,0,0,0,1,1,0
168000000,0,47.3977508,8.5456074,0.011119494,-0.12795626,-7.0289917,0.0,0.0,0.0,0.01,0.02,-0.02,0.0,0.0,0.0,0.0,0.0,0.0,0.0,0.4214095,488.83002,0.0,0.0,0.0,0.0,0.0,0.0,inf,inf,inf,inf,1,1,1,1,0,0,0,0,1,1,0
168100000,0,47.3977508,8.5456074,0.011119494,-0.12042942,-7.032013,0.0,0.0,0.0,0.01,0.02,-0.02,0.0,0.0,0.0,0.0,0.0,0.0,0.0,0.4214974,488.83002,0.0,0.0,0.0,0.0,0.0,0.0,inf,inf,inf,inf,1,1,1,1,0,0,0,0,1,1,0
168200000,0,47.3977508,8.5456074,0.011119494,-0.12042942,-7.0350037,0.0,0.0,0.0,0.01,0.02,-0.03,0.0,0.0,0.0,0.0,0.0,0.0,0.0,0.42150715,488.83002,0.0,0.0,0.0,0.0,0.0,0.0,inf,inf,inf,inf,1,1,1,1,0,0,0,0,1,1,0
168300000,0,47.3977508,8.5456074,0.011119494,-0.12042942,-7.0390015,0.0,0.0,0.0,0.01,0.03,-0.08,0.0,0.0,0.0,0.0,0.0,0.0,0.0,0.44355232,488.83002,0.0,0.0,0.0,0.0,0.0,0.0,inf,inf,inf,inf,1,1,1,1,0,0,0,0,1,1,0
168400000,0,47.3977508,8.5456074,0.011119494,-0.11290258,-7.053009,0.0,0.0,0.0,0.04,0.13,-0.099999994,0.0,0.0,0.0,0.0,0.0,0.0,0.0,0.584054,488.83002,0.0,0.0,0.0,0.0,0.0,0.0,inf,inf,inf,inf,1,1,1,1,0,0,0,0,1,1,0
168500000,0,47.3977508,8.5456074,0.022238987,-0.09032206,-7.053009,0.0,0.0,0.0,0.06,0.22,0.07,0.0,0.0,0.0,0.0,0.0,0.0,0.0,0.766103,488.83002,0.0,0.0,0.0,0.0,0.0,0.0,inf,inf,inf,inf,1,1,1,1,0,0,0,0,1,1,0
168596000,0,47.3977508,8.5456074,0.022238987,-0.06774155,-7.0460205,0.0,0.0,0.0,0.08,0.29999998,0.04,0.0,0.0,0.0,0.0,0.0,0.0,0.0,0.91943157,488.83002,0.0,0.0,0.0,0.0,0.0,0.0,inf,inf,inf,inf,1,1,1,1,0,0,0,0,1,1,0
168700000,0,47.3977508,8.5456074,0.03335848,-0.030107355,-7.0429993,0.0,0.0,0.0,0.089999996,0.32999998,0.02,0.0,0.0,0.0,0.0,0.0,0.0,0.0,1.0471581,488.83002,0.0,0.0,0.0,0.0,0.0,0.0,inf,inf,inf,inf,1,1,1,1,0,0,0,0,1,1,0
168796000,0,47.3977508,8.5456074,0.04447797,0.0,-7.0400085,0.0,0.0,0.0,0.099999994,0.34,0.03,0.0,0.0,0.0,0.0,0.0,0.0,0.0,1.1352136,488.83002,0.0,0.0,0.0,0.0,0.0,0.0,inf,inf,inf,inf,1,1,1,1,0,0,0,0,1,1,0
168896000,0,47.3977508,8.5456074,0.055597465,0.037634194,-7.037018,0.0,0.0,0.0,0.11,0.35999998,0.02,0.0,0.0,0.0,0.0,0.0,0.0,0.0,1.2033832,488.83002,0.0,0.0,0.0,0.0,0.0,0.0,inf,inf,inf,inf,1,1,1,1,0,0,0,0,1,1,0
168996000,0,47.3977508,8.5456074,0.066716954,0.07526839,-7.0339966,0.0,0.0,0.0,0.11,0.37,0.02,0.0,0.0,0.0,0.0,0.0,0.0,0.0,1.2532928,488.83002,0.0,0.0,0.0,0.0,0.0,0.0,inf,inf,inf,inf,1,1,1,1,0,0,0,0,1,1,0
169100000,0,47.3977508,8.5456074,0.077836454,0.11290258,-7.032013,0.0,0.0,0.0,0.12,0.39999998,0.02,0.0,0.0,0.0,0.0,0.0,0.0,0.0,1.2909491,488.83002,0.0,0.0,0.0,0.0,0.0,0.0,inf,inf,inf,inf,1,1,1,1,0,0,0,0,1,1,0
169196000,0,47.3977508,8.5456074,0.088955946,0.15053678,-7.029999,0.0,0.0,0.0,0.12,0.42,0.02,0.0,0.0,0.0,0.0,0.0,0.0,0.0,1.3161318,488.83002,0.0,0.0,0.0,0.0,0.0,0.0,inf,inf,inf,inf,1,1,1,1,0,0,0,0,1,1,0
169300000,0,47.3977508,8.5456074,0.11119493,0.1956978,-7.027008,0.0,0.0,0.0,0.13,0.44,0.02,0.0,0.0,0.0,0.0,0.0,0.0,0.0,1.335892,488.83002,0.0,0.0,0.0,0.0,0.0,0.0,inf,inf,inf,inf,1,1,1,1,0,0,0,0,1,1,0
169400000,0,47.3977508,8.5456074,0.12231442,0.24085884,-7.026001,0.0,0.0,0.0,0.13,0.45999998,0.01,0.0,0.0,0.0,0.0,0.0,0.0,0.0,1.3494817,488.83002,0.0,0.0,0.0,0.0,0.0,0.0,inf,inf,inf,inf,1,1,1,1,0,0,0,0,1,1,0
169500000,0,47.3977508,8.5456074,0.13343392,0.2935467,-7.0240173,0.0,0.0,0.0,0.14,0.48,0.01,0.0,0.0,0.0,0.0,0.0,0.0,0.0,1.3592714,488.83002,0.0,0.0,0.0,0.0,0.0,0.0,inf,inf,inf,inf,1,1,1,1,0,0,0,0,1,1,0
169600000,0,47.3977508,8.5456074,0.14455341,0.34623456,-7.0230103,0.0,0.0,0.0,0.14,0.51,0.01,0.0,0.0,0.0,0.0,0.0,0.0,0.0,1.3661422,488.83002,0.0,0.0,0.0,0.0,0.0,0.0,inf,inf,inf,inf,1,1,1,1,0,0,0,0,1,1,0
169700000,0,47.3977508,8.5456074,0.16679241,0.3913956,-7.020996,0.0,0.0,0.0,0.14999999,0.53,0.01,0.0,0.0,0.0,0.0,0.0,0.0,0.0,1.370954,488.83002,0.0,0.0,0.0,0.0,0.0,0.0,inf,inf,inf,inf,1,1,1,1,0,0,0,0,1,1,0
169796000,0,47.3977508,8.5456074,0.17791189,0.44408348,-7.0200195,0.0,0.0,0.0,0.14999999,0.55,0.01,0.0,0.0,0.0,0.0,0.0,0.0,0.0,1.3742001,488.83002,0.0,0.0,0.0,0.0,0.0,0.0,inf,inf,inf,inf,1,1,1,1,0,0,0,0,1,1,0
169900000,0,47.3977508,8.5456074,0.18903139,0.50429815,-7.0190125,0.0,0.0,0.0,0.16,0.57,0.0,0.0,0.0,0.0,0.0,0.0,0.0,0.0,1.3766276,488.83002,0.0,0.0,0.0,0.0,0.0,0.0,inf,inf,inf,inf,1,1,1,1,0,0,0,0,1,1,0
170000000,0,47.3977508,8.5456074,0.21127039,0.5645129,-7.0190125,0.0,0.0,0.0,0.16,0.59999996,0.0,0.0,0.0,0.0,0.0,0.0,0.0,0.0,1.3780777,488.83002,0.0,0.0,0.0,0.0,0.0,0.0,inf,inf,inf,inf,1,1,1,1,0,0,0,0,1,1,0
170096000,0,47.3977508,8.5456074,0.22238989,0.6247276,-7.0180054,0.0,0.0,0.0,0.17,0.62,0.0,0.0,0.0,0.0,0.0,0.0,0.0,0.0,1.3789357,488.83002,0.0,0.0,0.0,0.0,0.0,0.0,inf,inf,inf,inf,1,1,1,1,0,0,0,0,1,1,0
170200000,0,47.3977508,8.5456074,0.24462888,0.6924691,-7.0190125,0.0,0.0,0.0,0.17,0.65,0.0,0.0,0.0,0.0,0.0,0.0,0.0,0.0,1.3794894,488.83002,0.0,0.0,0.0,0.0,0.0,0.0,inf,inf,inf,inf,1,1,1,1,0,0,0,0,1,1,0
170300000,0,47.3977508,8.5456074,0.26686788,0.7602107,-7.0190125,0.0,0.0,0.0,0.17999999,0.68,0.0,0.0,0.0,0.0,0.0,0.0,0.0,0.0,1.3796033,488.83002,0.0,0.0,0.0,0.0,0.0,0.0,inf,inf,inf,inf,1,1,1,1,0,0,0,0,1,1,0
170400000,0,47.3977508,8.5456074,0.27798736,0.8279522,-7.0200195,0.0,0.0,0.0,0.17999999,0.7,0.0,0.0,0.0,0.0,0.0,0.0,0.0,0.0,1.379566,488.83002,0.0,0.0,0.0,0.0,0.0,0.0,inf,inf,inf,inf,1,1,1,1,0,0,0,0,1,1,0
170500000,0,47.3977508,8.5456074,0.30022636,0.9032206,-7.0200195,0.0,0.0,0.0,0.19,0.72999996,0.0,0.0,0.0,0.0,0.0,0.0,0.0,0.0,1.379559,488.83002,0.0,0.0,0.0,0.0,0.0,0.0,inf,inf,inf,inf,1,1,1,1,0,0,0,0,1,1,0
170600000,0,47.3977508,8.5456074,0.32246536,0.9709621,-7.0200195,0.0,0.0,0.0,0.19999999,0.76,0.0,0.0,0.0,0.0,0.0,0.0,0.0,0.0,1.3794119,488.83002,0.0,0.0,0.0,0.0,0.0,0.0,inf,inf,inf,inf,1,1,1,1,0,0,0,0,1,1,0
170696000,0,47.3977508,8.5456074,0.34470436,1.0537573,-7.020996,0.0,0.0,0.0,0.19999999,0.78,0.0,0.0,0.0,0.0,0.0,0.0,0.0,0.0,1.3792138,488.83002,0.0,0.0,0.0,0.0,0.0,0.0,inf,inf,inf,inf,1,1,1,1,0,0,0,0,1,1,0
170800000,0,47.3977508,8.5456074,0.36694336,1.1365526,-7.020996,0.0,0.0,0.0,0.21,0.81,0.0,0.0,0.0,0.0,0.0,0.0,0.0,0.0,1.3788966,488.83002,0.0,0.0,0.0,0.0,0.0,0.0,inf,inf,inf,inf,1,1,1,1,0,0,0,0,1,1,0
170900000,0,47.3977508,8.5456074,0.38918236,1.2193478,-7.022003,0.0,0.0,0.0,0.22,0.84999996,0.0,0.0,0.0,0.0,0.0,0.0,0.0,0.0,1.3785045,488.83002,0.0,0.0,0.0,0.0,0.0,0.0,inf,inf,inf,inf,1,1,1,1,0,0,0,0,1,1,0
170996000,0,47.3977508,8.5456074,0.40030187,1.302143,-7.022003,0.0,0.0,0.0,0.22,0.88,0.0,0.0,0.0,0.0,0.0,0.0,0.0,0.0,1.3780892,488.83002,0.0,0.0,0.0,0.0,0.0,0.0,inf,inf,inf,inf,1,1,1,1,0,0,0,0,1,1,0
171100000,0,47.3977508,8.5456074,0.4336604,1.392465,-7.0230103,0.0,0.0,0.0,0.22999999,0.90999997,0.0,0.0,0.0,0.0,0.0,0.0,0.0,0.0,1.3776389,488.83002,0.0,0.0,0.0,0.0,0.0,0.0,inf,inf,inf,inf,1,1,1,1,0,0,0,0,1,1,0
171200000,0,47.3977508,8.5456074,0.4558994,1.4903139,-7.0230103,0.0,0.0,0.0,0.24,0.94,0.0,0.0,0.0,0.0,0.0,0.0,0.0,0.0,1.3772575,488.83002,0.0,0.0,0.0,0.0,0.0,0.0,inf,inf,inf,inf,1,1,1,1,0,0,0,0,1,1,0
171300000,0,47.3977508,8.5456074,0.4781384,1.5881628,-7.0230103,0.0,0.0,0.0,0.25,0.97999996,0.0,0.0,0.0,0.0,0.0,0.0,0.0,0.0,1.3768013,488.83002,0.0,0.0,0.0,0.0,0.0,0.0,inf,inf,inf,inf,1,1,1,1,0,0,0,0,1,1,0
171400000,0,47.3977508,8.5456074,0.5003774,1.6860117,-7.0230103,0.0,0.0,0.0,0.25,1.01,0.0,0.0,0.0,0.0,0.0,0.0,0.0,0.0,1.3763791,488.83002,0.0,0.0,0.0,0.0,0.0,0.0,inf,inf,inf,inf,1,1,1,1,0,0,0,0,1,1,0
171500000,0,47.3977508,8.5456074,0.53373593,1.7913874,-7.022003,0.0,0.0,0.0,0.26,1.05,0.0,0.0,0.0,0.0,0.0,0.0,0.0,0.0,1.3759965,488.83002,0.0,0.0,0.0,0.0,0.0,0.0,inf,inf,inf,inf,1,1,1,1,0,0,0,0,1,1,0
171600000,0,47.3977508,8.5456074,0.55597496,1.8967632,-7.022003,0.0,0.0,0.0,0.26999998,1.09,0.0,0.0,0.0,0.0,0.0,0.0,0.0,0.0,1.3755838,488.83002,0.0,0.0,0.0,0.0,0.0,0.0,inf,inf,inf,inf,1,1,1,1,0,0,0,0,1,1,0
171700000,0,47.3977508,8.5456074,0.5893335,2.0096657,-7.020996,0.0,0.0,0.0,0.28,1.12,0.0,0.0,0.0,0.0,0.0,0.0,0.0,0.0,1.3751075,488.83002,0.0,0.0,0.0,0.0,0.0,0.0,inf,inf,inf,inf,1,1,1,1,0,0,0,0,1,1,0
171800000,0,47.3977508,8.5456074,0.6115725,2.1225684,-7.020996,0.0,0.0,0.0,0.29,1.16,0.0,0.0,0.0,0.0,0.0,0.0,0.0,0.0,1.3747959,488.83002,0.0,0.0,0.0,0.0,0.0,0.0,inf,inf,inf,inf,1,1,1,1,0,0,0,0,1,1,0
171896000,0,47.3977508,8.5456074,0.644931,2.2354708,-7.0200195,0.0,0.0,0.0,0.29,1.1999999,0.0,0.0,0.0,0.0,0.0,0.0,0.0,0.0,1.3744998,488.83002,0.0,0.0,0.0,0.0,0.0,0.0,inf,inf,inf,inf,1,1,1,1,0,0,0,0,1,1,0
171996000,0,47.3977508,8.5456074,0.66717005,2.3634272,-7.0200195,0.0,0.0,0.0,0.29999998,1.25,0.0,0.0,0.0,0.0,0.0,0.0,0.0,0.0,1.3742639,488.83002,0.0,0.0,0.0,0.0,0.0,0.0,inf,inf,inf,inf,1,1,1,1,0,0,0,0,1,1,0
172100000,0,47.3977508,8.5456074,0.70052856,2.4913833,-7.0200195,0.0,0.0,0.0,0.31,1.29,0.0,0.0,0.0,0.0,0.0,0.0,0.0,0.0,1.3738691,488.83002,0.0,0.0,0.0,0.0,0.0,0.0,inf,inf,inf,inf,1,1,1,1,0,0,0,0,1,1,0
172200000,0,47.3977508,8.5456074,0.7338871,2.6268663,-7.0190125,0.0,0.0,0.0,0.32,1.3399999,0.0,0.0,0.0,0.0,0.0,0.0,0.0,0.0,1.3733662,488.83002,0.0,0.0,0.0,0.0,0.0,0.0,inf,inf,inf,inf,1,1,1,1,0,0,0,0,1,1,0
172300000,0,47.3977508,8.5456074,0.76724565,2.7623494,-7.0180054,0.0,0.0,0.0,0.32999998,1.39,0.0,0.0,0.0,0.0,0.0,0.0,0.0,0.0,1.3728532,488.83002,0.0,0.0,0.0,0.0,0.0,0.0,inf,inf,inf,inf,1,1,1,1,0,0,0,0,1,1,0
172400000,0,47.3977508,8.5456074,0.80060416,2.9053593,-7.0180054,0.0,0.0,0.0,0.32999998,1.43,0.0,0.0,0.0,0.0,0.0,0.0,0.0,0.0,1.3725356,488.83002,0.0,0.0,0.0,0.0,0.0,0.0,inf,inf,inf,inf,1,1,1,1,0,0,0,0,1,1,0
172496000,0,47.3977508,8.5456074,0.83396274,3.0483692,-7.0169983,0.0,0.0,0.0,0.34,1.48,0.0,0.0,0.0,0.0,0.0,0.0,0.0,0.0,1.3722843,488.83002,0.0,0.0,0.0,0.0,0.0,0.0,inf,inf,inf,inf,1,1,1,1,0,0,0,0,1,1,0
172596000,0,47.3977508,8.5456074,0.8673213,3.198906,-7.015991,0.0,0.0,0.0,0.35,1.54,0.0,0.0,0.0,0.0,0.0,0.0,0.0,0.0,1.3720096,488.83002,0.0,0.0,0.0,0.0,0.0,0.0,inf,inf,inf,inf,1,1,1,1,0,0,0,0,1,1,0
172696000,0,47.3977508,8.5456074,0.9117994,3.3569696,-7.015991,0.0,0.0,0.0,0.35999998,1.5899999,0.0,0.0,0.0,0.0,0.0,0.0,0.0,0.0,1.3717685,488.83002,0.0,0.0,0.0,0.0,0.0,0.0,inf,inf,inf,inf,1,1,1,1,0,0,0,0,1,1,0
172796000,0,47.3977508,8.5456074,0.94515795,3.52256,-7.0150146,0.0,0.0,0.0,0.37,1.65,0.0,0.0,0.0,0.0,0.0,0.0,0.0,0.0,1.3714842,488.83002,0.0,0.0,0.0,0.0,0.0,0.0,inf,inf,inf,inf,1,1,1,1,0,0,0,0,1,1,0
172896000,0,47.3977508,8.5456074,0.9785165,3.6881504,-7.0140076,0.0,0.0,0.0,0.38,1.7099999,0.0,0.0,0.0,0.0,0.0,0.0,0.0,0.0,1.3711349,488.83002,0.0,0.0,0.0,0.0,0.0,0.0,inf,inf,inf,inf,1,1,1,1,0,0,0,0,1,1,0
173000000,0,47.3977508,8.5456074,1.0229946,3.8687944,-7.0140076,0.0,0.0,0.0,0.39,1.77,0.0,0.0,0.0,0.0,0.0,0.0,0.0,0.0,1.3709241,488.83002,0.0,0.0,0.0,0.0,0.0,0.0,inf,inf,inf,inf,1,1,1,1,0,0,0,0,1,1,0
173100000,0,47.3977508,8.5456074,1.0674727,4.0494385,-7.0130005,0.0,0.0,0.0,0.39999998,1.8299999,0.0,0.0,0.0,0.0,0.0,0.0,0.0,0.0,1.3707128,488.83002,0.0,0.0,0.0,0.0,0.0,0.0,inf,inf,inf,inf,1,1,1,1,0,0,0,0,1,1,0
173196000,0,47.3977508,8.5456074,1.1008313,4.2300825,-7.0130005,0.0,0.0,0.0,0.42,1.89,0.0,0.0,0.0,0.0,0.0,0.0,0.0,0.0,1.3706102,488.83002,0.0,0.0,0.0,0.0,0.0,0.0,inf,inf,inf,inf,1,1,1,1,0,0,0,0,1,1,0
173300000,0,47.3977508,8.5456074,1.1453094,4.433307,-7.0130005,0.0,0.0,0.0,0.42999998,1.9699999,0.0,0.0,0.0,0.0,0.0,0.0,0.0,0.0,1.3705819,488.83002,0.0,0.0,0.0,0.0,0.0,0.0,inf,inf,inf,inf,1,1,1,1,0,0,0,0,1,1,0
173400000,0,47.3977508,8.5456074,1.1897875,4.636532,-7.0119934,0.0,0.0,0.0,0.44,2.04,0.0,0.0,0.0,0.0,0.0,0.0,0.0,0.0,1.3704355,488.83002,0.0,0.0,0.0,0.0,0.0,0.0,inf,inf,inf,inf,1,1,1,1,0,0,0,0,1,1,0
173500000,0,47.3977508,8.5456074,1.2342657,4.8397565,-7.0119934,0.0,0.0,0.0,0.45,2.11,0.0,0.0,0.0,0.0,0.0,0.0,0.0,0.0,1.3702321,488.83002,0.0,0.0,0.0,0.0,0.0,0.0,inf,inf,inf,inf,1,1,1,1,0,0,0,0,1,1,0
173600000,0,47.3977508,8.5456074,1.2787439,5.0505075,-7.0119934,0.0,0.0,0.0,0.47,2.18,0.0,0.0,0.0,0.0,0.0,0.0,0.0,0.0,1.3700025,488.83002,0.0,0.0,0.0,0.0,0.0,0.0,inf,inf,inf,inf,1,1,1,1,0,0,0,0,1,1,0
173700000,0,47.3977508,8.5456074,1.3343415,5.2838397,-7.0130005,0.0,0.0,0.0,0.48,2.26,0.0,0.0,0.0,0.0,0.0,0.0,0.0,0.0,1.369705,488.83002,0.0,0.0,0.0,0.0,0.0,0.0,inf,inf,inf,inf,1,1,1,1,0,0,0,0,1,1,0
173800000,0,47.3977508,8.5456074,1.3788197,5.5171714,-7.0130005,0.0,0.0,0.0,0.48999998,2.34,0.0,0.0,0.0,0.0,0.0,0.0,0.0,0.0,1.3692548,488.83002,0.0,0.0,0.0,0.0,0.0,0.0,inf,inf,inf,inf,1,1,1,1,0,0,0,0,1,1,0
173900000,0,47.3977508,8.5456074,1.4344174,5.7505035,-7.0130005,0.0,0.0,0.0,0.51,2.4299998,0.0,0.0,0.0,0.0,0.0,0.0,0.0,0.0,1.3689127,488.83002,0.0,0.0,0.0,0.0,0.0,0.0,inf,inf,inf,inf,1,1,1,1,0,0,0,0,1,1,0
174000000,0,47.3977508,8.5456074,1.490015,5.998889,-7.0130005,0.0,0.0,0.0,0.52,2.51,0.0,0.0,0.0,0.0,0.0,0.0,0.0,0.0,1.3687233,488.83002,0.0,0.0,0.0,0.0,0.0,0.0,inf,inf,inf,inf,1,1,1,1,0,0,0,0,1,1,0
174100000,0,47.3977508,8.5456074,1.5344933,6.262328,-7.0140076,0.0,0.0,0.0,0.53999996,2.6,0.0,0.0,0.0,0.0,0.0,0.0,0.0,0.0,1.3684738,488.83002,0.0,0.0,0.0,0.0,0.0,0.0,inf,inf,inf,inf,1,1,1,1,0,0,0,0,1,1,0
174200000,0,47.3977508,8.5456074,1.5900911,6.5257673,-7.0150146,0.0,0.0,0.0,0.56,2.69,0.0,0.0,0.0,0.0,0.0,0.0,0.0,0.0,1.3682806,488.83002,0.0,0.0,0.0,0.0,0.0,0.0,inf,inf,inf,inf,1,1,1,1,0,0,0,0,1,1,0
174300000,0,47.3977508,8.5456074,1.6456889,6.8042603,-7.0150146,0.0,0.0,0.0,0.57,2.79,0.0,0.0,0.0,0.0,0.0,0.0,0.0,0.0,1.3681215,488.83002,0.0,0.0,0.0,0.0,0.0,0.0,inf,inf,inf,inf,1,1,1,1,0,0,0,0,1,1,0
174400000,0,47.3977508,8.5456074,1.7124062,7.09028,-7.015991,0.0,0.0,0.0,0.59,2.8899999,0.0,0.0,0.0,0.0,0.0,0.0,0.0,0.0,1.3679998,488.83002,0.0,0.0,0.0,0.0,0.0,0.0,inf,inf,inf,inf,1,1,1,1,0,0,0,0,1,1,0
174496000,0,47.3977508,8.5456074,1.768004,7.368773,-7.0169983,0.0,0.0,0.0,0.61,2.99,0.0,0.0,0.0,0.0,0.0,0.0,0.0,0.0,1.3678325,488.83002,0.0,0.0,0.0,0.0,0.0,0.0,inf,inf,inf,inf,1,1,1,1,0,0,0,0,1,1,0
174600000,0,47.3977508,8.5456074,1.8347213,7.6924267,-7.0169983,0.0,0.0,0.0,0.63,3.11,0.0,0.0,0.0,0.0,0.0,0.0,0.0,0.0,1.367716,488.83002,0.0,0.0,0.0,0.0,0.0,0.0,inf,inf,inf,inf,1,1,1,1,0,0,0,0,1,1,0
174700000,0,47.3977508,8.5456074,1.8903192,7.9935,-7.0180054,0.0,0.0,0.0,0.65,3.22,0.0,0.0,0.0,0.0,0.0,0.0,0.0,0.0,1.3675182,488.83002,0.0,0.0,0.0,0.0,0.0,0.0,inf,inf,inf,inf,1,1,1,1,0,0,0,0,1,1,0
174800000,0,47.3977508,8.5456074,1.9681561,8.339734,-7.0190125,0.0,0.0,0.0,0.66999996,3.34,0.0,0.0,0.0,0.0,0.0,0.0,0.0,0.0,1.3673121,488.83002,0.0,0.0,0.0,0.0,0.0,0.0,inf,inf,inf,inf,1,1,1,1,0,0,0,0,1,1,0
174900000,0,47.3977508,8.5456074,2.0348735,8.678442,-7.0190125,0.0,0.0,0.0,0.69,3.46,0.0,0.0,0.0,0.0,0.0,0.0,0.0,0.0,1.367289,488.83002,0.0,0.0,0.0,0.0,0.0,0.0,inf,inf,inf,inf,1,1,1,1,0,0,0,0,1,1,0
175000000,0,47.3977508,8.5456074,2.101591,9.032203,-7.0200195,0.0,0.0,0.0,0.71,3.59,0.0,0.0,0.0,0.0,0.0,0.0,0.0,0.0,1.3671821,488.83002,0.0,0.0,0.0,0.0,0.0,0.0,inf,inf,inf,inf,1,1,1,1,0,0,0,0,1,1,0
