timestamp,roll_body,pitch_body,yaw_body,yaw_sp_move_rate,q_d[0],q_d[1],q_d[2],q_d[3],thrust_body[0],thrust_body[1],thrust_body[2],q_d_valid,roll_reset_integral,pitch_reset_integral,yaw_reset_integral,fw_control_yaw,apply_flaps
147216000,0.110438,-0.026028607,0.40930426,0.0,0.9774106,0.056675375,-0.0015076204,0.20360288,0.0,0.0,-0.12077644,1,0,0,0,0,0
147308000,0.016619524,-0.041674715,0.41035742,0.0,0.978743,0.012378595,-0.01870544,0.20386037,0.0,0.0,-0.12012087,1,0,0,0,0,0
147400000,0.009481487,-0.037414465,0.41035742,0.0,0.9788242,0.008451661,-0.01734785,0.20379104,0.0,0.0,-0.13601783,1,0,0,0,0,0
147512000,0.00042866886,-0.030543316,0.41035742,0.0,0.9789098,0.0033211731,-0.014907082,0.20372158,0.0,0.0,-0.2028795,1,0,0,0,0,0
147608000,-0.00079013215,-0.02121485,0.41035742,0.0,0.9789703,0.0017743813,-0.010465222,0.20372656,0.0,0.0,-0.26232645,1,0,0,0,0,0
147700000,-0.00013457098,-0.018026838,0.41035742,0.0,0.97898495,0.0017705167,-0.008837948,0.20373327,0.0,0.0,-0.32506725,1,0,0,0,0,0
147812000,-0.00094295316,-0.010917612,0.41035742,0.0,0.9790104,0.00065060274,-0.005440336,0.20373654,0.0,0.0,-0.40710014,1,0,0,0,0,0
147904000,-0.0024846666,-0.009824386,0.41035742,0.0,0.97901326,-0.00021544413,-0.0050622467,0.20373353,0.0,0.0,-0.47657385,1,0,0,0,0,0
148016000,-0.0019851911,-0.008984467,0.41035742,0.0,0.9790152,-5.6511748e-05,-0.0046002218,0.20373562,0.0,0.0,-0.5620956,1,0,0,0,0,0
148112000,-0.00238905,-0.007565154,0.41035742,0.0,0.9790178,-0.00039879282,-0.0039465977,0.2037361,0.0,0.0,-0.6218312,1,0,0,0,0,0
148204000,-0.0038749846,-0.005217429,0.41035742,0.0,0.9790205,-0.0013653415,-0.0029487347,0.20373611,0.0,0.0,-0.6081119,1,0,0,0,0,0
148316000,-0.0066537545,-0.00088141137,0.41035742,0.0,0.97901934,-0.0031672984,-0.0011092828,0.20373957,0.0,0.0,-0.6104806,1,0,0,0,0,0
148408000,-0.006330239,0.0017469535,0.41035742,0.0,0.97901875,-0.0032766864,0.00021028388,0.20374374,0.0,0.0,-0.6105237,1,0,0,0,0,0
148504000,-0.006554228,0.0026685407,0.41035742,0.0,0.97901756,-0.0034802123,0.00063859165,0.20374513,0.0,0.0,-0.61805445,1,0,0,0,0,0
148596000,-0.0067368858,0.0033650429,0.41035742,0.0,0.9790165,-0.0036405756,0.0009609282,0.20374621,0.0,0.0,-0.61731505,1,0,0,0,0,0
148708000,-0.0066971807,0.003320283,0.41035742,0.0,0.97901666,-0.00361658,0.00094306277,0.20374617,0.0,0.0,-0.6185932,1,0,0,0,0,0
148800000,-0.008238176,0.0022881501,0.41035742,0.0,0.9790147,-0.0042657685,0.00028083907,0.20374489,0.0,0.0,-0.61819935,1,0,0,0,0,0
148912000,-0.0075728325,0.0049834885,0.41035742,0.0,0.9790126,-0.004214643,0.0016680106,0.20374927,0.0,0.0,-0.62064254,1,0,0,0,0,0
149008000,-0.007837496,0.004105429,0.41035742,0.0,0.9790134,-0.0042547532,0.001211231,0.20374802,0.0,0.0,-0.6285517,1,0,0,0,0,0
149100000,-0.007651893,0.00584004,0.41035742,0.0,0.979011,-0.004340596,0.0020792452,0.2037507,0.0,0.0,-0.6279822,1,0,0,0,0,0
149216000,-0.008208281,0.0046714693,0.41035742,0.0,0.9790117,-0.0044939155,0.0014505388,0.20374924,0.0,0.0,-0.63195103,1,0,0,0,0,0
149308000,-0.008950813,0.0039722254,0.41035742,0.0,0.97901106,-0.0047861603,0.0010326084,0.2037484,0.0,0.0,-0.63056856,1,0,0,0,0,0
149400000,-0.007455581,0.004812168,0.41035742,0.0,0.97901314,-0.004139796,0.0015960927,0.20374891,0.0,0.0,-0.629539,1,0,0,0,0,0
149512000,-0.008401973,0.0037180616,0.41035742,0.0,0.97901267,-0.004491609,0.00096410594,0.20374763,0.0,0.0,-0.6315909,1,0,0,0,0,0
149608000,-0.0075501916,0.003761244,0.41035742,0.0,0.97901446,-0.004079055,0.0010720182,0.20374726,0.0,0.0,-0.6383637,1,0,0,0,0,0
149700000,-0.007043232,0.002797906,0.41035742,0.0,0.97901654,-0.003732762,0.00065210107,0.20374551,0.0,0.0,-0.6381272,1,0,0,0,0,0
149812000,-0.005762446,0.0034183797,0.41035742,0.0,0.97901815,-0.0031690127,0.0010863062,0.20374584,0.0,0.0,-0.6410222,1,0,0,0,0,0
149904000,-0.0071269367,0.0027219895,0.41035742,0.0,0.9790164,-0.0037660026,0.00060641224,0.20374538,0.0,0.0,-0.5494253,1,0,0,0,0,0
150000000,-0.007013563,0.0037608314,0.41035742,0.0,0.9790155,-0.0038163292,0.0011264845,0.20374697,0.0,0.0,-0.514244,1,0,0,0,0,0
150112000,-0.007564196,0.0031641205,0.41035742,0.0,0.9790151,-0.0040250835,0.0007782942,0.20374627,0.0,0.0,-0.5552313,1,0,0,0,0,0
150204000,-0.006814546,0.0014168981,0.41035742,0.0,0.97901815,-0.0034801369,-6.185118e-07,0.20374326,0.0,0.0,-0.55084825,1,0,0,0,0,0
150316000,-0.006446956,0.0019876861,0.41035742,0.0,0.9790184,-0.0033583438,0.00031623474,0.20374411,0.0,0.0,-0.54692733,1,0,0,0,0,0
150408000,-0.007960303,0.0005272762,0.41035742,0.0,0.97901654,-0.003950369,-0.0005528161,0.20374155,0.0,0.0,-0.54985523,1,0,0,0,0,0
150504000,-0.007906122,0.0017758056,0.41035742,0.0,0.9790158,-0.004051034,6.386915e-05,0.20374388,0.0,0.0,-0.5550539,1,0,0,0,0,0
150616000,-0.009944139,0.0016296038,0.41035742,0.0,0.97901136,-0.005033764,-0.0002153143,0.20374349,0.0,0.0,-0.55512756,1,0,0,0,0,0
150708000,-0.009609155,0.002755693,0.41035742,0.0,0.97901106,-0.004984499,0.00037003946,0.20374608,0.0,0.0,-0.55401057,1,0,0,0,0,0
150800000,-0.008808992,0.0007231026,0.41035742,0.0,0.9790147,-0.0043857587,-0.0005434142,0.20374171,0.0,0.0,-0.55501074,1,0,0,0,0,0
150912000,-0.009616375,-0.0009549936,0.41035742,0.0,0.9790136,-0.0046100295,-0.001447102,0.2037375,0.0,0.0,-0.55817664,1,0,0,0,0,0
151008000,-0.008935423,-0.00042327135,0.41035742,0.0,0.979015,-0.0043308656,-0.0011174523,0.20373918,0.0,0.0,-0.56036067,1,0,0,0,0,0
151100000,-0.008913101,0.0012990261,0.41035742,0.0,0.9790141,-0.0044953884,-0.00027210085,0.2037429,0.0,0.0,-0.55944914,1,0,0,0,0,0
151212000,-0.008310543,0.000488961,0.41035742,0.0,0.97901595,-0.004117911,-0.00060725096,0.20374136,0.0,0.0,-0.5594935,1,0,0,0,0,0
151304000,-0.00834539,-0.0003845302,0.41035742,0.0,0.9790162,-0.0040459866,-0.0010383818,0.20373958,0.0,0.0,-0.55970883,1,0,0,0,0,0
151400000,-0.00852855,-0.00017902463,0.41035742,0.0,0.97901577,-0.00415658,-0.0009564437,0.20373988,0.0,0.0,-0.5632418,1,0,0,0,0,0
151512000,-0.007468618,-0.0005067272,0.41035742,0.0,0.9790179,-0.0036043513,-0.0010088817,0.20373978,0.0,0.0,-0.5631112,1,0,0,0,0,0
151604000,-0.008269224,0.00076672714,0.41035742,0.0,0.9790158,-0.0041259816,-0.00046707309,0.20374191,0.0,0.0,-0.5610849,1,0,0,0,0,0
151716000,-0.008241805,0.0003646394,0.41035742,0.0,0.9790161,-0.004071599,-0.00066110503,0.2037411,0.0,0.0,-0.5627394,1,0,0,0,0,0
151808000,-0.0075190905,0.0004491351,0.41035742,0.0,0.9790175,-0.0037264316,-0.0005461203,0.20374149,0.0,0.0,-0.5629403,1,0,0,0,0,0
151904000,-0.006922512,0.00027208895,0.41035742,0.0,0.9790186,-0.0034163652,-0.00057201204,0.20374134,0.0,0.0,-0.5652641,1,0,0,0,0,0
152016000,-0.007774326,0.0019721566,0.41035742,0.0,0.97901595,-0.0040065213,0.00017341103,0.20374425,0.0,0.0,-0.5640698,1,0,0,0,0,0
152108000,-0.0065569556,0.0016836536,0.41035742,0.0,0.97901845,-0.0033812183,0.00015620195,0.20374367,0.0,0.0,-0.56485736,1,0,0,0,0,0
152200000,-0.006676672,0.00079904596,0.41035742,0.0,0.9790188,-0.003349706,-0.0002890177,0.2037423,0.0,0.0,-0.5620518,1,0,0,0,0,0
152312000,-0.006314142,0.0004699683,0.41035742,0.0,0.9790196,-0.0031387208,-0.0004131731,0.20374183,0.0,0.0,-0.5644391,1,0,0,0,0,0
152408000,-0.0050584693,0.0008806333,0.41035742,0.0,0.9790212,-0.0025658906,-8.42316e-05,0.20374256,0.0,0.0,-0.5641664,1,0,0,0,0,0
152500000,-0.0070247375,-0.00092554267,0.41035742,0.0,0.9790188,-0.0033444022,-0.0011686775,0.20373926,0.0,0.0,-0.56525016,1,0,0,0,0,0
152612000,-0.0058243303,-0.0023253874,0.41035742,0.0,0.9790204,-0.0026141866,-0.0017316302,0.20373783,0.0,0.0,-0.5645391,1,0,0,0,0,0
152704000,-0.005068622,0.00023662196,0.41035742,0.0,0.9790214,-0.0025052547,-0.00040051635,0.20374177,0.0,0.0,-0.5647175,1,0,0,0,0,0
152800000,-0.0064380793,0.00016690487,0.41035742,0.0,0.97901946,-0.0031685156,-0.0005741512,0.20374133,0.0,0.0,-0.565484,1,0,0,0,0,0
152912000,-0.006611419,0.0008272126,0.41035742,0.0,0.9790189,-0.0033206332,-0.00026858246,0.20374234,0.0,0.0,-0.56516844,1,0,0,0,0,0
153004000,-0.0072972337,0.0005110876,0.41035742,0.0,0.97901785,-0.0036241421,-0.0004931932,0.20374168,0.0,0.0,-0.5664581,1,0,0,0,0,0
153096000,-0.0068072164,0.0012982815,0.41035742,0.0,0.9790183,-0.0034644655,-5.793582e-05,0.20374307,0.0,0.0,-0.56506395,1,0,0,0,0,0
153204000,-0.006873686,0.0008470694,0.41035742,0.0,0.9790184,-0.0034510384,-0.00028557985,0.20374236,0.0,0.0,-0.5644472,1,0,0,0,0,0
153316000,-0.007381673,0.00072770624,0.41035742,0.0,0.9790176,-0.0036875426,-0.00039575834,0.20374203,0.0,0.0,-0.5663553,1,0,0,0,0,0
153408000,-0.008135875,0.00065120286,0.41035742,0.0,0.9790162,-0.004048938,-0.00051003875,0.20374174,0.0,0.0,-0.563799,1,0,0,0,0,0
153500000,-0.007864975,0.002191034,0.41035742,0.0,0.9790156,-0.004073191,0.00027131854,0.20374465,0.0,0.0,-0.5633274,1,0,0,0,0,0
153612000,-0.008937395,0.0034073824,0.41035742,0.0,0.97901183,-0.004722054,0.00075748056,0.20374727,0.0,0.0,-0.5644059,1,0,0,0,0,0
153708000,-0.0070131854,0.0026333686,0.41035742,0.0,0.97901684,-0.0037012927,0.0005746194,0.20374522,0.0,0.0,-0.5659963,1,0,0,0,0,0
153800000,-0.006856089,0.0019229853,0.41035742,0.0,0.97901773,-0.0035520268,0.00024288392,0.20374407,0.0,0.0,-0.5640387,1,0,0,0,0,0
153912000,-0.007626916,0.0003480311,0.41035742,0.0,0.9790173,-0.0037689144,-0.00060659595,0.2037413,0.0,0.0,-0.56362784,1,0,0,0,0,0
154004000,-0.0076627955,0.00027179098,0.41035742,0.0,0.9790173,-0.0037787103,-0.00064757105,0.20374115,0.0,0.0,-0.5626842,1,0,0,0,0,0
154100000,-0.006789429,0.001214456,0.41035742,0.0,0.97901833,-0.0034472188,-9.715717e-05,0.20374294,0.0,0.0,-0.5649855,1,0,0,0,0,0
154212000,-0.0063120974,0.0012515053,0.41035742,0.0,0.9790191,-0.0032173349,-3.0394685e-05,0.20374301,0.0,0.0,-0.56631666,1,0,0,0,0,0
154308000,-0.0075460165,0.0015644449,0.41035742,0.0,0.9790168,-0.0038532286,-2.9092334e-06,0.20374352,0.0,0.0,-0.5650245,1,0,0,0,0,0
154400000,-0.0077651427,0.0010002025,0.41035742,0.0,0.9790167,-0.0039030134,-0.00030143344,0.20374247,0.0,0.0,-0.5642945,1,0,0,0,0,0
154512000,-0.0081886295,0.0012771317,0.41035742,0.0,0.9790157,-0.004138524,-0.00020901544,0.20374294,0.0,0.0,-0.56400347,1,0,0,0,0,0
154604000,-0.00866447,0.0026532963,0.41035742,0.0,0.9790134,-0.0045116385,0.00041615343,0.20374566,0.0,0.0,-0.5638348,1,0,0,0,0,0
154700000,-0.008494311,0.002253049,0.41035742,0.0,0.97901416,-0.0043875724,0.00023756383,0.20374483,0.0,0.0,-0.5654882,1,0,0,0,0,0
154812000,-0.008606358,0.0017480173,0.41035742,0.0,0.9790144,-0.0043909736,-2.106783e-05,0.20374385,0.0,0.0,-0.5646813,1,0,0,0,0,0
154904000,-0.010129384,0.0017501571,0.41035742,0.0,0.97901076,-0.0051367227,-0.00017517402,0.20374376,0.0,0.0,-0.56383884,1,0,0,0,0,0
155016000,-0.008478467,0.00088696944,0.41035742,0.0,0.97901535,-0.0042406563,-0.00042952923,0.2037421,0.0,0.0,-0.5640999,1,0,0,0,0,0
155108000,-0.0082184905,0.0024682698,0.41035742,0.0,0.9790146,-0.0042744805,0.0003710145,0.20374522,0.0,0.0,-0.5634248,1,0,0,0,0,0
155204000,-0.0077674347,0.0014147029,0.41035742,0.0,0.9790164,-0.00394636,-9.876542e-05,0.20374325,0.0,0.0,-0.5659214,1,0,0,0,0,0
155316000,-0.0105743585,-0.0013451471,0.41035742,0.0,0.9790114,-0.0050392235,-0.0017356726,0.20373578,0.0,0.0,-0.56444895,1,0,0,0,0,0
155408000,-0.009425579,-0.0010640407,0.41035742,0.0,0.9790141,-0.0045055253,-0.0014810453,0.2037374,0.0,0.0,-0.56498224,1,0,0,0,0,0
155500000,-0.009350489,-0.00019061421,0.41035742,0.0,0.97901404,-0.0045577446,-0.0010458477,0.2037395,0.0,0.0,-0.56365275,1,0,0,0,0,0
155612000,-0.010083887,0.00060871063,0.41035742,0.0,0.97901183,-0.004998175,-0.00072928425,0.20374104,0.0,0.0,-0.5640034,1,0,0,0,0,0
155708000,-0.010577162,5.046817e-05,0.41035742,0.0,0.9790109,-0.0051827678,-0.0010527971,0.2037394,0.0,0.0,-0.5656203,1,0,0,0,0,0
155800000,-0.011492029,-0.0005862956,0.41035742,0.0,0.97900873,-0.0055657327,-0.0014576928,0.20373711,0.0,0.0,-0.5636423,1,0,0,0,0,0
155912000,-0.011275853,-0.001754553,0.4101699,0.0,0.97902876,-0.00534109,-0.0020070374,0.20364214,0.0,0.0,-0.56397736,1,0,0,0,0,0
156004000,-0.010953196,-0.0013879596,0.4101699,0.0,0.97902954,-0.0052204733,-0.0017947315,0.20364352,0.0,0.0,-0.56307656,1,0,0,0,0,0
156100000,-0.011417071,-0.0018692049,0.4101699,0.0,0.97902846,-0.0053985436,-0.0020775397,0.20364168,0.0,0.0,-0.564133,1,0,0,0,0,0
156212000,-0.009543042,-0.0009767927,0.4101699,0.0,0.97903293,-0.0045720474,-0.0014498737,0.20364569,0.0,0.0,-0.56473553,1,0,0,0,0,0
156304000,-0.009485216,-0.0011669032,0.4101699,0.0,0.97903305,-0.004524383,-0.001537048,0.20364529,0.0,0.0,-0.5639936,1,0,0,0,0,0
156416000,-0.008803385,-0.0016564517,0.4101699,0.0,0.9790346,-0.004140767,-0.0017072642,0.20364471,0.0,0.0,-0.5647161,1,0,0,0,0,0
156508000,-0.0102947,-0.00060769165,0.4101699,0.0,0.979031,-0.0049775806,-0.0013457292,0.20364612,0.0,0.0,-0.5636738,1,0,0,0,0,0
156604000,-0.010739921,-0.0016368233,0.4101699,0.0,0.97903013,-0.0050907307,-0.0018948376,0.20364302,0.0,0.0,-0.5648423,1,0,0,0,0,0
156716000,-0.010315947,-0.00040407723,0.4101699,0.0,0.97903085,-0.0050087147,-0.0012482203,0.20364663,0.0,0.0,-0.5648912,1,0,0,0,0,0
156808000,-0.009681953,-0.0003601074,0.4101699,0.0,0.9790324,-0.004702842,-0.0011621411,0.20364708,0.0,0.0,-0.5645806,1,0,0,0,0,0
156900000,-0.010307799,0.0015748077,0.4101699,0.0,0.9790296,-0.005206221,-0.00027869575,0.20365153,0.0,0.0,-0.56467456,1,0,0,0,0,0
157012000,-0.0106611485,-0.00075213704,0.4101699,0.0,0.97903013,-0.0051422548,-0.0014537503,0.20364548,0.0,0.0,-0.5634625,1,0,0,0,0,0
157108000,-0.01127835,-0.0001737381,0.4101699,0.0,0.9790283,-0.0055032787,-0.0012334611,0.20364662,0.0,0.0,-0.56434345,1,0,0,0,0,0
157200000,-0.011252367,-0.00061138597,0.4101699,0.0,0.9790285,-0.0054459963,-0.0014450499,0.20364542,0.0,0.0,-0.5637043,1,0,0,0,0,0
157312000,-0.01110904,-0.00084195466,0.4101699,0.0,0.97902894,-0.0053523583,-0.0015433228,0.20364487,0.0,0.0,-0.5625348,1,0,0,0,0,0
157404000,-0.010295444,-0.000776123,0.4101699,0.0,0.9790311,-0.004960794,-0.0014282545,0.20364568,0.0,0.0,-0.5635809,1,0,0,0,0,0
157500000,-0.009317967,-0.0011126718,0.4101699,0.0,0.9790334,-0.004448034,-0.001493471,0.20364559,0.0,0.0,-0.5630284,1,0,0,0,0,0
157612000,-0.008348103,-0.00020233224,0.4101699,0.0,0.97903526,-0.004065964,-0.0009490895,0.20364815,0.0,0.0,-0.5639134,1,0,0,0,0,0
157704000,-0.008928293,-0.0015188346,0.4101699,0.0,0.97903436,-0.0042159245,-0.0016526169,0.20364495,0.0,0.0,-0.56462336,1,0,0,0,0,0
157816000,-0.008492288,-0.0032765605,0.4101699,0.0,0.97903496,-0.0038235094,-0.0024686577,0.20364141,0.0,0.0,-0.5636905,1,0,0,0,0,0
157908000,-0.008058314,-0.0032029678,0.4101699,0.0,0.9790358,-0.0036185652,-0.002388445,0.2036421,0.0,0.0,-0.56445915,1,0,0,0,0,0
158004000,-0.008614176,-0.0010823576,0.4101699,0.0,0.9790349,-0.0041066036,-0.00140697,0.20364612,0.0,0.0,-0.5641526,1,0,0,0,0,0
158116000,-0.008680524,-0.001359313,0.4101699,0.0,0.9790349,-0.004110881,-0.0015493,0.20364547,0.0,0.0,-0.5657604,1,0,0,0,0,0
158208000,-0.008490189,-0.0019507881,0.4101699,0.0,0.97903526,-0.003957481,-0.0018194565,0.20364435,0.0,0.0,-0.5636732,1,0,0,0,0,0
158300000,-0.009251631,-0.003055314,0.4101699,0.0,0.9790335,-0.004217749,-0.0024376705,0.203641,0.0,0.0,-0.56475306,1,0,0,0,0,0
158412000,-0.009379881,-0.0033730427,0.4101699,0.0,0.9790332,-0.0042481767,-0.002606262,0.20364007,0.0,0.0,-0.5638881,1,0,0,0,0,0
158508000,-0.008515125,-0.003983438,0.4101699,0.0,0.9790346,-0.0037627085,-0.0028170105,0.20363978,0.0,0.0,-0.5621602,1,0,0,0,0,0
158600000,-0.00971939,-0.004014065,0.4101699,0.0,0.97903216,-0.004349098,-0.0029546204,0.20363797,0.0,0.0,-0.56120867,1,0,0,0,0,0
158712000,-0.008432353,-0.0022661074,0.4101699,0.0,0.9790354,-0.0038970613,-0.0019679214,0.2036437,0.0,0.0,-0.5635024,1,0,0,0,0,0
158804000,-0.010368321,-0.0016607456,0.4101699,0.0,0.9790311,-0.004906391,-0.0018687107,0.20364329,0.0,0.0,-0.5640246,1,0,0,0,0,0
158900000,-0.010443606,-0.0015250926,0.4101699,0.0,0.97903085,-0.0049570585,-0.0018099728,0.20364362,0.0,0.0,-0.5631154,1,0,0,0,0,0
159012000,-0.01032216,-0.0012019977,0.4101699,0.0,0.97903115,-0.0049305074,-0.001639447,0.20364454,0.0,0.0,-0.56475747,1,0,0,0,0,0
159104000,-0.009431963,-0.0033534456,0.4101699,0.0,0.97903305,-0.0042756665,-0.0026019716,0.20364001,0.0,0.0,-0.5628702,1,0,0,0,0,0
159216000,-0.009770559,-0.0019215193,0.4101699,0.0,0.9790325,-0.004587224,-0.0019354986,0.20364322,0.0,0.0,-0.5644797,1,0,0,0,0,0
159308000,-0.010114973,-0.002482536,0.4101699,0.0,0.9790317,-0.0046986938,-0.002245193,0.20364141,0.0,0.0,-0.56346005,1,0,0,0,0,0
159404000,-0.010032891,-0.001972493,0.4101699,0.0,0.9790319,-0.0047104484,-0.0019871618,0.20364283,0.0,0.0,-0.56366104,1,0,0,0,0,0
159516000,-0.010534417,-0.003237175,0.4101699,0.0,0.97903055,-0.0048271758,-0.0026573075,0.20363891,0.0,0.0,-0.5623624,1,0,0,0,0,0
159608000,-0.011245659,-0.00375708,0.4101699,0.0,0.97902864,-0.0051223976,-0.0029842255,0.20363642,0.0,0.0,-0.5624574,1,0,0,0,0,0
159700000,-0.00997798,-0.0034256454,0.4101699,0.0,0.97903186,-0.004535599,-0.0026929101,0.20363916,0.0,0.0,-0.56384903,1,0,0,0,0,0
159812000,-0.009456539,-0.0026467447,0.4101699,0.0,0.9790332,-0.0043596583,-0.0022585336,0.20364177,0.0,0.0,-0.5626566,1,0,0,0,0,0
159908000,-0.009126567,-0.0016604715,0.4101699,0.0,0.97903395,-0.004298561,-0.0017421391,0.20364444,0.0,0.0,-0.562794,1,0,0,0,0,0
160000000,-0.009501701,-0.0013842761,0.4101699,0.0,0.97903305,-0.004510319,-0.001645134,0.20364478,0.0,0.0,-0.5626339,1,0,0,0,0,0
160112000,-0.009555941,-0.0012905522,0.4101699,0.0,0.97903293,-0.004546414,-0.0016047775,0.20364496,0.0,0.0,-0.5636517,1,0,0,0,0,0
160204000,-0.010214481,-0.0013502722,0.4101699,0.0,0.9790314,-0.0048626983,-0.0017010655,0.20364425,0.0,0.0,-0.5624259,1,0,0,0,0,0
160300000,-0.009488467,-0.0020804144,0.4101699,0.0,0.9790332,-0.0044329567,-0.0019845574,0.20364308,0.0,0.0,-0.561549,1,0,0,0,0,0
160412000,-0.010336667,-0.0019030893,0.4101699,0.0,0.97903115,-0.0048662196,-0.0019841187,0.20364271,0.0,0.0,-0.5629254,1,0,0,0,0,0
160504000,-0.008485091,-0.00017866671,0.4101699,0.0,0.97903496,-0.0041354317,-0.0009514535,0.20364814,0.0,0.0,-0.5627609,1,0,0,0,0,0
160616000,-0.008278463,-0.0010930961,0.4101699,0.0,0.9790357,-0.003941172,-0.001378043,0.20364633,0.0,0.0,-0.5621198,1,0,0,0,0,0
160712000,-0.010792613,-0.0008930324,0.4101699,0.0,0.97902983,-0.005192261,-0.0015361065,0.20364499,0.0,0.0,-0.5613295,1,0,0,0,0,0
160804000,-0.010604991,-0.0015746386,0.4101699,0.0,0.9790305,-0.0050310134,-0.0018506587,0.20364334,0.0,0.0,-0.5611895,1,0,0,0,0,0
160900000,-0.010762774,-0.0006703404,0.4101699,0.0,0.97902983,-0.00520033,-0.0014240573,0.2036456,0.0,0.0,-0.56215507,1,0,0,0,0,0
161012000,-0.010662187,-8.56791e-05,0.4101699,0.0,0.97902983,-0.005210624,-0.0011276148,0.20364723,0.0,0.0,-0.563118,1,0,0,0,0,0
161104000,-0.010224563,-0.0001155727,0.4101699,0.0,0.97903097,-0.0049933568,-0.0010976876,0.20364736,0.0,0.0,-0.5607181,1,0,0,0,0,0
161216000,-0.010855599,0.00072937226,0.4101699,0.0,0.9790288,-0.0053882934,-0.0007483291,0.20364928,0.0,0.0,-0.56267625,1,0,0,0,0,0
161308000,-0.010418677,-0.00078710646,0.4101699,0.0,0.9790307,-0.005020001,-0.0014461793,0.20364557,0.0,0.0,-0.56178087,1,0,0,0,0,0
161404000,-0.009664146,0.00090519415,0.4101699,0.0,0.9790317,-0.004822962,-0.00054094224,0.20365006,0.0,0.0,-0.5624931,1,0,0,0,0,0
161496000,-0.009689546,0.0014571159,0.4101699,0.0,0.97903126,-0.0048915935,-0.00027335377,0.20365132,0.0,0.0,-0.5632872,1,0,0,0,0,0
161608000,-0.011039137,0.0026892247,0.4101699,0.0,0.9790264,-0.005677693,0.00019235848,0.2036543,0.0,0.0,-0.5642213,1,0,0,0,0,0
161700000,-0.010996098,0.002051051,0.4101699,0.0,0.9790273,-0.005591646,-0.00011565433,0.20365265,0.0,0.0,-0.56269854,1,0,0,0,0,0
161812000,-0.010334035,0.0002845021,0.4101699,0.0,0.9790305,-0.0050876825,-0.00091299193,0.20364834,0.0,0.0,-0.5634893,1,0,0,0,0,0
161908000,-0.010264872,0.00021847813,0.4101699,0.0,0.97903067,-0.005047103,-0.00093826925,0.2036482,0.0,0.0,-0.56312406,1,0,0,0,0,0
162000000,-0.010032469,5.794352e-05,0.4101699,0.0,0.9790314,-0.004916992,-0.0009931892,0.20364791,0.0,0.0,-0.56150615,1,0,0,0,0,0
162108000,-0.010942357,-0.0008470801,0.4101699,0.0,0.9790294,-0.0052702427,-0.0015288597,0.20364499,0.0,0.0,-0.56230503,1,0,0,0,0,0
162204000,-0.010584715,0.00026414252,0.4101699,0.0,0.97902983,-0.00520832,-0.0009484835,0.20364815,0.0,0.0,-0.5618683,1,0,0,0,0,0
162296000,-0.010856588,-0.00020818753,0.4101699,0.0,0.9790294,-0.0052933125,-0.0012073792,0.2036468,0.0,0.0,-0.5625849,1,0,0,0,0,0
162408000,-0.011610087,-0.0008934614,0.4101699,0.0,0.9790276,-0.005592383,-0.0016195535,0.20364437,0.0,0.0,-0.56284535,1,0,0,0,0,0
162500000,-0.010423483,3.9269955e-05,0.4101699,0.0,0.9790304,-0.0051064985,-0.0010421448,0.20364767,0.0,0.0,-0.56167936,1,0,0,0,0,0
162612000,-0.010765762,0.0014512888,0.4101699,0.0,0.97902846,-0.0054178243,-0.00038579266,0.20365115,0.0,0.0,-0.562,1,0,0,0,0,0
162708000,-0.010134445,0.0025238732,0.4101699,0.0,0.97902906,-0.0052179974,0.00020353851,0.2036538,0.0,0.0,-0.5625038,1,0,0,0,0,0
162800000,-0.009513937,0.0026573245,0.4101699,0.0,0.9790305,-0.0049278373,0.00033204973,0.20365407,0.0,0.0,-0.5633482,1,0,0,0,0,0
162912000,-0.010664417,0.0013683736,0.4101699,0.0,0.9790288,-0.0053597707,-0.00041606132,0.20365095,0.0,0.0,-0.56376344,1,0,0,0,0,0
163004000,-0.009978257,0.0007431878,0.4101699,0.0,0.9790311,-0.004960228,-0.0006522312,0.2036496,0.0,0.0,-0.56446964,1,0,0,0,0,0
163100000,-0.009465963,0.0010896048,0.4101699,0.0,0.9790321,-0.004744726,-0.00043049012,0.20365056,0.0,0.0,-0.56374913,1,0,0,0,0,0
163212000,-0.009680625,0.00018731896,0.4101699,0.0,0.9790321,-0.0047579324,-0.0008940317,0.2036484,0.0,0.0,-0.56369466,1,0,0,0,0,0
163304000,-0.009943391,0.00031190697,0.4101699,0.0,0.97903144,-0.004899246,-0.00085979974,0.20364858,0.0,0.0,-0.56242085,1,0,0,0,0,0
163416000,-0.011060863,-0.000880692,0.4101699,0.0,0.9790291,-0.00532483,-0.0015573795,0.20364481,0.0,0.0,-0.5621833,1,0,0,0,0,0
163508000,-0.010931483,-0.0013029863,0.4101699,0.0,0.9790296,-0.005218496,-0.0017509246,0.20364375,0.0,0.0,-0.56448156,1,0,0,0,0,0
163604000,-0.011186842,-0.0024674956,0.4101699,0.0,0.97902906,-0.0052249213,-0.0023469687,0.20364025,0.0,0.0,-0.5624396,1,0,0,0,0,0
163696000,-0.010646239,-0.0026626785,0.4101699,0.0,0.9790304,-0.0049404143,-0.0023874694,0.20364033,0.0,0.0,-0.56305623,1,0,0,0,0,0
163808000,-0.010700443,-0.0030013784,0.4101699,0.0,0.9790302,-0.0049324585,-0.0025587867,0.20363931,0.0,0.0,-0.5632793,1,0,0,0,0,0
163900000,-0.008682683,-0.0040463675,0.4101699,0.0,0.9790343,-0.0038383228,-0.002864876,0.2036394,0.0,0.0,-0.56315744,1,0,0,0,0,0
164012000,-0.008372535,-0.0041326676,0.4101699,0.0,0.9790348,-0.0036777123,-0.0028755423,0.20363963,0.0,0.0,-0.56459206,1,0,0,0,0,0
164108000,-0.0074929344,-0.0014830965,0.4101699,0.0,0.9790371,-0.00351693,-0.0014889702,0.20364614,0.0,0.0,-0.56410193,1,0,0,0,0,0
164200000,-0.009863199,-0.0016118436,0.4101699,0.0,0.9790322,-0.0046641063,-0.0017933405,0.2036439,0.0,0.0,-0.56293386,1,0,0,0,0,0
164312000,-0.01008249,-0.0013994086,0.4101699,0.0,0.97903174,-0.0047930838,-0.0017116789,0.20364425,0.0,0.0,-0.5649002,1,0,0,0,0,0
164404000,-0.010356961,-0.0034707212,0.4101699,0.0,0.9790309,-0.0047165263,-0.0027535632,0.20363851,0.0,0.0,-0.5640716,1,0,0,0,0,0
164500000,-0.009613819,-0.0019637041,0.4101699,0.0,0.9790329,-0.004506202,-0.0019401894,0.20364328,0.0,0.0,-0.5644157,1,0,0,0,0,0
164612000,-0.009408386,-0.0031483627,0.4101699,0.0,0.9790332,-0.004285009,-0.0024991806,0.2036406,0.0,0.0,-0.5639717,1,0,0,0,0,0
164704000,-0.009944884,-0.0020808547,0.4101699,0.0,0.9790321,-0.004656335,-0.002031246,0.20364265,0.0,0.0,-0.56335473,1,0,0,0,0,0
164796000,-0.0073183724,-0.0035523083,0.4101699,0.0,0.9790369,-0.0032207777,-0.0024841113,0.20364228,0.0,0.0,-0.56334364,1,0,0,0,0,0
164908000,-0.009013018,-0.0019577113,0.4101699,0.0,0.9790342,-0.00421271,-0.0018760809,0.20364384,0.0,0.0,-0.56358814,1,0,0,0,0,0
165004000,-0.008068507,-0.00221962,0.4101699,0.0,0.97903603,-0.0037236859,-0.0019081177,0.20364416,0.0,0.0,-0.5637414,1,0,0,0,0,0
165116000,-0.007993107,-0.0011917789,0.4101699,0.0,0.97903615,-0.0037914373,-0.0013972943,0.20364633,0.0,0.0,-0.56379545,1,0,0,0,0,0
165208000,-0.009028627,-0.0023513637,0.4101699,0.0,0.9790341,-0.0041802665,-0.0020703694,0.2036429,0.0,0.0,-0.5623351,1,0,0,0,0,0
165300000,-0.008849663,-0.0019461756,0.4101699,0.0,0.97903454,-0.0041339193,-0.0018538008,0.20364404,0.0,0.0,-0.56368506,1,0,0,0,0,0
165412000,-0.00895323,-0.0030364292,0.4101699,0.0,0.9790342,-0.0040736003,-0.0023980427,0.2036414,0.0,0.0,-0.56474304,1,0,0,0,0,0
165508000,-0.009433428,-0.0021121188,0.4101699,0.0,0.97903323,-0.004402785,-0.001994473,0.2036431,0.0,0.0,-0.5634119,1,0,0,0,0,0
165600000,-0.010565492,-0.003380797,0.4101699,0.0,0.97903043,-0.0048277625,-0.0027307763,0.20363843,0.0,0.0,-0.5624735,1,0,0,0,0,0
165712000,-0.00993813,-0.004022612,0.4101699,0.0,0.9790317,-0.004455304,-0.002981076,0.20363761,0.0,0.0,-0.5622821,1,0,0,0,0,0
165804000,-0.008958271,-0.003331324,0.4101699,0.0,0.97903407,-0.004046039,-0.002542912,0.2036407,0.0,0.0,-0.5642049,1,0,0,0,0,0
165900000,-0.010057349,-0.0034954275,0.4101699,0.0,0.9790316,-0.0045673456,-0.002735151,0.20363885,0.0,0.0,-0.56280386,1,0,0,0,0,0
166012000,-0.010773234,-0.002747702,0.4101699,0.0,0.9790301,-0.0049939216,-0.0024420202,0.20363995,0.0,0.0,-0.5627796,1,0,0,0,0,0
166104000,-0.00847486,-0.0032104843,0.4101699,0.0,0.979035,-0.003821706,-0.0024345375,0.20364162,0.0,0.0,-0.5665037,1,0,0,0,0,0
166216000,-0.01022866,-0.0017017906,0.4101699,0.0,0.97903144,-0.0048338454,-0.0018745825,0.20364334,0.0,0.0,-0.5633744,1,0,0,0,0,0
166308000,-0.00830154,-0.0020877663,0.4101699,0.0,0.9790356,-0.003851186,-0.001867301,0.20364425,0.0,0.0,-0.56382173,1,0,0,0,0,0
166404000,-0.008632974,-0.003344938,0.4101699,0.0,0.97903466,-0.0038854142,-0.0025164539,0.20364107,0.0,0.0,-0.56433713,1,0,0,0,0,0
166496000,-0.009187978,-0.0039238594,0.4101699,0.0,0.9790333,-0.004098149,-0.0028563554,0.20363897,0.0,0.0,-0.56515676,1,0,0,0,0,0
166608000,-0.007997477,-0.0047685686,0.4101699,0.0,0.979035,-0.0034293619,-0.0031486375,0.20363879,0.0,0.0,-0.5637098,1,0,0,0,0,0
166700000,-0.0076618367,-0.00402399,0.4101699,0.0,0.9790361,-0.0033408792,-0.0027499797,0.2036409,0.0,0.0,-0.56445014,1,0,0,0,0,0
166812000,-0.009079353,-0.0037723992,0.4101699,0.0,0.9790336,-0.004060398,-0.0027711538,0.20363949,0.0,0.0,-0.56618255,1,0,0,0,0,0
166908000,-0.009199632,-0.0020897142,0.4101699,0.0,0.9790338,-0.004290619,-0.0019596997,0.20364337,0.0,0.0,-0.5633948,1,0,0,0,0,0
167000000,-0.0079651335,-0.0026434504,0.4101699,0.0,0.97903615,-0.0036299254,-0.0021050642,0.20364338,0.0,0.0,-0.5626638,1,0,0,0,0,0
167112000,-0.007561751,-0.002060312,0.4101699,0.0,0.979037,-0.0034918417,-0.0017785347,0.20364495,0.0,0.0,-0.5646407,1,0,0,0,0,0
167204000,-0.0066212704,-0.00290732,0.4101699,0.0,0.97903824,-0.0029452108,-0.0020973983,0.20364429,0.0,0.0,-0.5639984,1,0,0,0,0,0
167300000,-0.0074872873,-0.003321857,0.4101699,0.0,0.9790368,-0.0033269306,-0.0023885004,0.20364253,0.0,0.0,-0.56407267,1,0,0,0,0,0
167412000,-0.008064206,-0.0034967994,0.4101699,0.0,0.9790357,-0.0035915293,-0.0025328805,0.20364146,0.0,0.0,-0.56238973,1,0,0,0,0,0
167504000,-0.008733678,-0.003743753,0.4101699,0.0,0.9790343,-0.0038941002,-0.002721934,0.20364001,0.0,0.0,-0.56296897,1,0,0,0,0,0
167616000,-0.007203085,-0.0027619444,0.4101699,0.0,0.9790374,-0.0032448228,-0.002085476,0.20364393,0.0,0.0,-0.56469214,1,0,0,0,0,0
167708000,-0.007331357,-0.0010192043,0.4101699,0.0,0.9790374,-0.0034850705,-0.0012454342,0.20364712,0.0,0.0,-0.5641339,1,0,0,0,0,0
167804000,-0.008592963,-0.0009055206,0.4101699,0.0,0.97903496,-0.0041142264,-0.0013182451,0.20364656,0.0,0.0,-0.5639098,1,0,0,0,0,0
167916000,-0.01033786,-0.0010385006,0.4101699,0.0,0.979031,-0.004954841,-0.0015610113,0.20364496,0.0,0.0,-0.5647022,1,0,0,0,0,0
168008000,-0.009081359,-0.0014361561,0.4101699,0.0,0.97903407,-0.0042992714,-0.0016277297,0.20364499,0.0,0.0,-0.5643642,1,0,0,0,0,0
168100000,-0.007921587,-0.002112171,0.4101699,0.0,0.97903633,-0.0036627075,-0.00184056,0.20364454,0.0,0.0,-0.56452847,1,0,0,0,0,0
168212000,-0.007977123,-0.16927332,1.3565441,0.0,0.7760762,0.049946733,-0.06831749,0.62493503,0.0,0.0,-0.5363101,1,0,0,0,0,0
168308000,-0.006901727,-0.17028682,1.3565389,0.0,0.7760185,0.05068078,-0.068374656,0.62494123,0.0,0.0,-0.5109256,1,0,0,0,0,0
168400000,-0.0055753523,-0.12020333,1.3565348,0.0,0.7773571,0.035520904,-0.048516423,0.6261792,0.0,0.0,-0.46717563,1,0,0,0,0,0
168512000,-0.0035579342,-0.064320005,1.3565398,0.0,0.77829146,0.018790688,-0.026152963,0.62707686,0.0,0.0,-0.58989185,1,0,0,0,0,0
168604000,-0.003069745,-0.051670775,1.3565506,0.0,0.77842015,0.015013879,-0.021077355,0.62721,0.0,0.0,-0.5734127,1,0,0,0,0,0
168700000,-0.0033774015,-0.06429052,1.3565669,0.0,0.77828157,0.018852053,-0.026084634,0.6270901,0.0,0.0,-0.56193787,1,0,0,0,0,0
168812000,-0.004387426,-0.07475638,1.3565881,0.0,0.77814996,0.021741083,-0.030472983,0.626962,0.0,0.0,-0.5715028,1,0,0,0,0,0
168904000,-0.004399089,-0.077562034,1.3566076,0.0,0.7781043,0.022616526,-0.031567853,0.6269335,0.0,0.0,-0.5713678,1,0,0,0,0,0
169016000,-0.00888215,-0.07988301,1.3566285,0.0,0.7781142,0.021600446,-0.033875603,0.62683666,0.0,0.0,-0.5700822,1,0,0,0,0,0
169108000,-0.008872569,-0.08131109,1.3566433,0.0,0.77808905,0.022052206,-0.034427874,0.6268221,0.0,0.0,-0.5707394,1,0,0,0,0,0
169204000,-0.010002415,-0.08448664,1.3566525,0.0,0.7780522,0.022608506,-0.03601687,0.62675864,0.0,0.0,-0.5701979,1,0,0,0,0,0
169316000,-0.011189028,-0.0886956,1.3566678,0.0,0.7779972,0.023466844,-0.03802526,0.62667674,0.0,0.0,-0.57242215,1,0,0,0,0,0
169408000,-0.0123433545,-0.091470525,1.3566798,0.0,0.7779636,0.02388808,-0.03946575,0.6266135,0.0,0.0,-0.57198036,1,0,0,0,0,0
169500000,-0.012247245,-0.09393755,1.3567036,0.0,0.7779152,0.024699405,-0.040394515,0.626583,0.0,0.0,-0.57223475,1,0,0,0,0,0
169612000,-0.012795949,-0.09735079,1.3567308,0.0,0.77785677,0.025556622,-0.041892976,0.6265228,0.0,0.0,-0.5720242,1,0,0,0,0,0
169708000,-0.01166799,-0.10207095,1.3567616,0.0,0.77774966,0.027475655,-0.043374017,0.6264737,0.0,0.0,-0.5732612,1,0,0,0,0,0
169800000,-0.011774478,-0.10655381,1.3567939,0.0,0.7776583,0.028840145,-0.045149222,0.62640035,0.0,0.0,-0.5740781,1,0,0,0,0,0
169912000,-0.011154607,-0.11159123,1.3568307,0.0,0.7775397,0.030660857,-0.0469121,0.6263316,0.0,0.0,-0.57458484,1,0,0,0,0,0
170004000,-0.012501133,-0.11555454,1.3568575,0.0,0.77747196,0.031380143,-0.048873257,0.62623006,0.0,0.0,-0.5755239,1,0,0,0,0,0
170100000,-0.013412618,-0.12025079,1.3568856,0.0,0.7773796,0.032498267,-0.050982546,0.62611955,0.0,0.0,-0.5764603,1,0,0,0,0,0
170212000,-0.014429849,-0.124642715,1.3569175,0.0,0.7772913,0.033480007,-0.053006273,0.6260093,0.0,0.0,-0.5752506,1,0,0,0,0,0
170304000,-0.014325712,-0.12892638,1.3569489,0.0,0.7771837,0.034863565,-0.05463664,0.6259272,0.0,0.0,-0.5754075,1,0,0,0,0,0
170400000,-0.014767575,-0.13243543,1.356975,0.0,0.7771022,0.03579202,-0.056136925,0.6258433,0.0,0.0,-0.57647127,1,0,0,0,0,0
170512000,-0.013842483,-0.13814788,1.3570069,0.0,0.7769376,0.03794189,-0.058064483,0.62574506,0.0,0.0,-0.5767893,1,0,0,0,0,0
170604000,-0.01545493,-0.1434636,1.3570287,0.0,0.7768284,0.038981248,-0.060631614,0.6255733,0.0,0.0,-0.5779865,1,0,0,0,0,0
170700000,-0.014649423,-0.1495782,1.3570528,0.0,0.7766449,0.041209836,-0.06275182,0.6254491,0.0,0.0,-0.5780746,1,0,0,0,0,0
170812000,-0.0152407335,-0.1545341,1.3570821,0.0,0.7765132,0.042533014,-0.06485865,0.62530917,0.0,0.0,-0.578951,1,0,0,0,0,0
170904000,-0.014690541,-0.1592935,1.3571163,0.0,0.7763565,0.04423784,-0.066531844,0.6252096,0.0,0.0,-0.5798113,1,0,0,0,0,0
171016000,-0.014699571,-0.16630198,1.3571517,0.0,0.77614,0.046429344,-0.069251396,0.6250242,0.0,0.0,-0.578868,1,0,0,0,0,0
171108000,-0.015732193,-0.16996063,1.3571838,0.0,0.77604324,0.047174845,-0.070991576,0.62489325,0.0,0.0,-0.5808736,1,0,0,0,0,0
171204000,-0.014873534,-0.17706183,1.3572034,0.0,0.77579385,0.04973077,-0.07347487,0.6247176,0.0,0.0,-0.5823179,1,0,0,0,0,0
171296000,-0.015391004,-0.18215065,1.357234,0.0,0.7756317,0.05112323,-0.075607285,0.62455213,0.0,0.0,-0.58194,1,0,0,0,0,0
171408000,-0.017409211,-0.18956855,1.3572689,0.0,0.7754243,0.05266226,-0.07910932,0.624248,0.0,0.0,-0.58295023,1,0,0,0,0,0
171500000,-0.01581262,-0.1947043,1.3573024,0.0,0.7751925,0.054888576,-0.080598444,0.62415355,0.0,0.0,-0.58387446,1,0,0,0,0,0
171612000,-0.016395,-0.20344707,1.3573356,0.0,0.7748824,0.05739745,-0.08416282,0.6238425,0.0,0.0,-0.58685267,1,0,0,0,0,0
171708000,-0.01579377,-0.21149662,1.3573726,0.0,0.77454895,0.060147475,-0.087088086,0.62359595,0.0,0.0,-0.58643955,1,0,0,0,0,0
171800000,-0.015094666,-0.2165739,1.357408,0.0,0.77431774,0.062005892,-0.088832416,0.623455,0.0,0.0,-0.5883673,1,0,0,0,0,0
171912000,-0.014876665,-0.22532512,1.3574554,0.0,0.77394104,0.06482539,-0.09214573,0.62315494,0.0,0.0,-0.588267,1,0,0,0,0,0
172004000,-0.015109767,-0.23157263,1.3574895,0.0,0.7736756,0.06668716,-0.09463107,0.6229156,0.0,0.0,-0.5890163,1,0,0,0,0,0
172100000,-0.014449416,-0.24076138,1.3575299,0.0,0.7732403,0.0698119,-0.09797262,0.6225971,0.0,0.0,-0.59089464,1,0,0,0,0,0
172212000,-0.014245168,-0.24948153,1.3575804,0.0,0.77282196,0.07261317,-0.10127293,0.62226796,0.0,0.0,-0.59313416,1,0,0,0,0,0
172304000,-0.013956604,-0.255868,1.357633,0.0,0.77249587,0.07471842,-0.103644945,0.622033,0.0,0.0,-0.59342724,1,0,0,0,0,0
172396000,-0.014137425,-0.26248065,1.3576807,0.0,0.77216977,0.07671197,-0.10624919,0.6217558,0.0,0.0,-0.5954547,1,0,0,0,0,0
172508000,-0.014355933,-0.27340254,1.3577381,0.0,0.771617,0.08003291,-0.11052359,0.6212781,0.0,0.0,-0.5969699,1,0,0,0,0,0
172604000,-0.015132943,-0.28215125,1.3577789,0.0,0.7711847,0.0824592,-0.11413199,0.620845,0.0,0.0,-0.5974647,1,0,0,0,0,0
172700000,-0.014801504,-0.29337168,1.3578151,0.0,0.77055955,0.08608009,-0.11834483,0.6203409,0.0,0.0,-0.5996337,1,0,0,0,0,0
172812000,-0.014683639,-0.30466682,1.3578534,0.0,0.7699137,0.08963936,-0.12264881,0.6198024,0.0,0.0,-0.6021371,1,0,0,0,0,0
172904000,-0.016097002,-0.31069496,1.3578887,0.0,0.7696215,0.09097066,-0.12540075,0.61942047,0.0,0.0,-0.6049022,1,0,0,0,0,0
172996000,-0.0130204335,-0.31913874,1.3579193,0.0,0.768973,0.09477811,-0.1276885,0.6191876,0.0,0.0,-0.60596335,1,0,0,0,0,0
173108000,-0.014190218,-0.3301129,1.3579639,0.0,0.7683486,0.09773659,-0.13225847,0.6185432,0.0,0.0,-0.60778624,1,0,0,0,0,0
173204000,-0.014623884,-0.3436242,1.3579926,0.0,0.7675102,0.10176081,-0.13756871,0.61777645,0.0,0.0,-0.6109893,1,0,0,0,0,0
173296000,-0.014492548,-0.3522532,1.3580273,0.0,0.766931,0.10448645,-0.14082971,0.61730576,0.0,0.0,-0.61374784,1,0,0,0,0,0
173408000,-0.015128371,-0.36433822,1.3580633,0.0,0.76614344,0.107985586,-0.14564572,0.6165637,0.0,0.0,-0.6144225,1,0,0,0,0,0
173500000,-0.016707076,-0.37320614,1.3580692,0.0,0.7656169,0.11012394,-0.1495196,0.61591184,0.0,0.0,-0.61729807,1,0,0,0,0,0
173612000,-0.016805995,-0.3846151,1.3580781,0.0,0.7648132,0.1136122,-0.15390342,0.6151965,0.0,0.0,-0.6199731,1,0,0,0,0,0
173708000,-0.016566081,-0.3986851,1.3580776,0.0,0.76377046,0.1180464,-0.15919216,0.6143107,0.0,0.0,-0.62407386,1,0,0,0,0,0
173800000,-0.016420888,-0.4074928,1.3580806,0.0,0.7630972,0.120817475,-0.16250034,0.6137422,0.0,0.0,-0.62597686,1,0,0,0,0,0
173912000,-0.017812006,-0.4216121,1.358074,0.0,0.7620912,0.12463489,-0.16829532,0.61266613,0.0,0.0,-0.62952065,1,0,0,0,0,0
174004000,-0.017597225,-0.42852023,1.3580756,0.0,0.761529,0.12684228,-0.17085268,0.61220413,0.0,0.0,-0.6327911,1,0,0,0,0,0
174100000,-0.018167682,-0.44506493,1.35807,0.0,0.7602183,0.13170898,-0.17730159,0.6109705,0.0,0.0,-0.6363949,1,0,0,0,0,0
174212000,-0.019450793,-0.45955807,1.35806,0.0,0.75908446,0.13566767,-0.18317956,0.60977894,0.0,0.0,-0.6400113,1,0,0,0,0,0
174304000,-0.019145442,-0.47239304,1.3580405,0.0,0.75795424,0.13971409,-0.1879377,0.60882246,0.0,0.0,-0.6440055,1,0,0,0,0,0
174400000,-0.019130582,-0.48353228,1.3580186,0.0,0.7569664,0.14312577,-0.19213767,0.60794723,0.0,0.0,-0.6475768,1,0,0,0,0,0
174512000,-0.020550532,-0.49881038,1.3579837,0.0,0.755681,0.14725299,-0.19832583,0.60657203,0.0,0.0,-0.65168357,1,0,0,0,0,0
174604000,-0.021095587,-0.50788975,1.3579463,0.0,0.75488186,0.14981355,-0.20190775,0.6057578,0.0,0.0,-0.6557485,1,0,0,0,0,0
174700000,-0.022057118,-0.5246643,1.3579013,0.0,0.75335735,0.15455662,-0.20849808,0.6042296,0.0,0.0,-0.66080296,1,0,0,0,0,0
174812000,-0.023718657,-0.5392443,1.357844,0.0,0.7520641,0.15835884,-0.21446364,0.6027665,0.0,0.0,-0.6673349,1,0,0,0,0,0
174904000,-0.024330633,-0.5512866,1.3577862,0.0,0.7509125,0.16177882,-0.21915293,0.6016062,0.0,0.0,-0.6712844,1,0,0,0,0,0
175016000,-0.02530671,-0.5654937,1.3577242,0.0,0.7495408,0.1657121,-0.22475004,0.6001795,0.0,0.0,-0.6779704,1,0,0,0,0,0
175108000,-0.026683433,-0.53047574,1.3576612,0.0,0.7532192,0.15455744,-0.21209031,0.6031505,0.0,0.0,-0.66602576,1,0,0,0,0,0
175204000,-0.026965503,-0.5045778,1.3576007,0.0,0.755732,0.14655128,-0.20246606,0.6053093,0.0,0.0,-0.6739595,1,0,0,0,0,0
175296000,-0.02705099,-0.48421448,1.357526,0.0,0.75761604,0.14028773,-0.1948353,0.6069403,0.0,0.0,-0.6771835,1,0,0,0,0,0
175408000,-0.02537242,-0.49333873,1.357437,0.0,0.7567011,0.14370456,-0.19776857,0.6063332,0.0,0.0,-0.6740882,1,0,0,0,0,0
175500000,-0.025876217,-0.5053074,1.3573598,0.0,0.7556569,0.14716117,-0.20242827,0.60526764,0.0,0.0,-0.6707314,1,0,0,0,0,0
175612000,-0.025587825,-0.50630075,1.3572592,0.0,0.75557333,0.14756301,-0.20272167,0.60517603,0.0,0.0,-0.6700741,1,0,0,0,0,0
175708000,-0.026522266,-0.50195825,1.3571739,0.0,0.7560719,0.14587605,-0.20137854,0.60541064,0.0,0.0,-0.6718445,1,0,0,0,0,0
175800000,-0.027041717,-0.497956,1.3570752,0.0,0.75650865,0.14444765,-0.20003784,0.6056521,0.0,0.0,-0.6737138,1,0,0,0,0,0
175912000,-0.027088271,-0.49793664,1.3569552,0.0,0.7565501,0.14441213,-0.20005333,0.60560364,0.0,0.0,-0.67363113,1,0,0,0,0,0
176004000,-0.027935034,-0.4996469,1.3568546,0.0,0.7564846,0.14460403,-0.20096022,0.6053393,0.0,0.0,-0.6714164,1,0,0,0,0,0
176100000,-0.02840132,-0.50077295,1.3567603,0.0,0.75644314,0.144762,-0.20153159,0.60516334,0.0,0.0,-0.6729238,1,0,0,0,0,0
176212000,-0.027698128,-0.5009436,1.356638,0.0,0.7564135,0.1450677,-0.20139183,0.6051737,0.0,0.0,-0.6716728,1,0,0,0,0,0
176304000,-0.028818714,-0.5012793,1.3565305,0.0,0.7564962,0.14473556,-0.20186488,0.6049922,0.0,0.0,-0.67212605,1,0,0,0,0,0
176416000,-0.028726267,-0.5002,1.3564107,0.0,0.7566252,0.14442894,-0.20143972,0.605046,0.0,0.0,-0.673653,1,0,0,0,0,0
176508000,-0.028367039,-0.49911496,1.3563098,0.0,0.75672954,0.14422345,-0.20093022,0.60513383,0.0,0.0,-0.6751232,1,0,0,0,0,0
176604000,-0.028770225,-0.5019151,1.3562255,0.0,0.75652635,0.14491715,-0.20211138,0.6048287,0.0,0.0,-0.67256075,1,0,0,0,0,0
176716000,-0.027830517,-0.5018754,1.356121,0.0,0.75649345,0.14524995,-0.20181987,0.6048875,0.0,0.0,-0.6731153,1,0,0,0,0,0
176808000,-0.02813794,-0.50074315,1.3560356,0.0,0.7566461,0.1447795,-0.20149314,0.60491824,0.0,0.0,-0.6731122,1,0,0,0,0,0
176900000,-0.027619543,-0.5003416,1.3559521,0.0,0.75667083,0.1448447,-0.20119135,0.6049722,0.0,0.0,-0.6729438,1,0,0,0,0,0
177012000,-0.028894123,-0.49991852,1.3558533,0.0,0.75683177,0.14422339,-0.20142485,0.6048416,0.0,0.0,-0.67401946,1,0,0,0,0,0
177108000,-0.030651126,-0.50063443,1.3557711,0.0,0.75691736,0.14376865,-0.20223129,0.6045735,0.0,0.0,-0.6736299,1,0,0,0,0,0
177200000,-0.029628891,-0.5012889,1.3556825,0.0,0.75681037,0.14434628,-0.20217478,0.6045888,0.0,0.0,-0.6744759,1,0,0,0,0,0
177312000,-0.030141246,-0.5024659,1.355582,0.0,0.75676924,0.1445014,-0.20277953,0.6044007,0.0,0.0,-0.6741781,1,0,0,0,0,0
177404000,-0.031307034,-0.5010444,1.3555007,0.0,0.7570086,0.14361815,-0.20260309,0.6043706,0.0,0.0,-0.6742651,1,0,0,0,0,0
177500000,-0.03052167,-0.50130016,1.3554267,0.0,0.756951,0.14398597,-0.20246729,0.6044008,0.0,0.0,-0.6754237,1,0,0,0,0,0
177612000,-0.031667113,-0.500679,1.3553259,0.0,0.7571207,0.14335266,-0.20258704,0.6042985,0.0,0.0,-0.6748489,1,0,0,0,0,0
177704000,-0.031958524,-0.5032655,1.3552351,0.0,0.7569314,0.1440224,-0.20365421,0.6040177,0.0,0.0,-0.6754876,1,0,0,0,0,0
177816000,-0.031601448,-0.5057197,1.3551376,0.0,0.7567083,0.14489625,-0.20447604,0.60381055,0.0,0.0,-0.6735662,1,0,0,0,0,0
177908000,-0.031920012,-0.5038994,1.3550603,0.0,0.756923,0.14421259,-0.2038935,0.60390204,0.0,0.0,-0.6746729,1,0,0,0,0,0
178004000,-0.031757083,-0.50181395,1.3549892,0.0,0.7571248,0.14363077,-0.20306522,0.6040669,0.0,0.0,-0.6763953,1,0,0,0,0,0
178096000,-0.030739496,-0.5019136,1.3549163,0.0,0.75706446,0.14403899,-0.20280057,0.60413426,0.0,0.0,-0.67605305,1,0,0,0,0,0
178212000,-0.03230719,-0.50531614,1.3548409,0.0,0.75688636,0.14447574,-0.20455882,0.6036601,0.0,0.0,-0.67486817,1,0,0,0,0,0
178304000,-0.032238066,-0.50519806,1.3547794,0.0,0.7569108,0.14445962,-0.20449802,0.6036538,0.0,0.0,-0.6763563,1,0,0,0,0,0
178416000,-0.032751072,-0.50630474,1.3546983,0.0,0.7568699,0.14459467,-0.20507471,0.60347706,0.0,0.0,-0.6754513,1,0,0,0,0,0
178508000,-0.034135967,-0.50604904,1.3546273,0.0,0.75701493,0.14398524,-0.20540155,0.6033298,0.0,0.0,-0.67667514,1,0,0,0,0,0
178604000,-0.035854667,-0.46150485,1.354565,0.0,0.7610709,0.12970509,-0.1891365,0.6067743,0.0,0.0,-0.662216,1,0,0,0,0,0
178696000,-0.035814617,-0.4067849,1.354498,0.0,0.76538,0.112892166,-0.16837758,0.6108173,0.0,0.0,-0.6613632,1,0,0,0,0,0
178808000,-0.033026814,-0.36855423,1.354428,0.0,0.76791835,0.102153644,-0.15295227,0.61357284,0.0,0.0,-0.66197556,1,0,0,0,0,0
178900000,-0.028801948,-0.36689204,1.3543975,0.0,0.7678212,0.103259616,-0.15102203,0.61398727,0.0,0.0,-0.65228,1,0,0,0,0,0
179012000,-0.02666459,-0.36330655,1.3543944,0.0,0.76795024,0.10297192,-0.14899488,0.61436933,0.0,0.0,-0.64404154,1,0,0,0,0,0
179108000,-0.025410775,-0.34612128,1.354404,0.0,0.7689966,0.098139666,-0.14203037,0.61549985,0.0,0.0,-0.6396612,1,0,0,0,0,0
179200000,-0.027203478,-0.33425826,1.3544235,0.0,0.7698109,0.09377826,-0.13803421,0.616071,0.0,0.0,-0.63555074,1,0,0,0,0,0
179312000,-0.025760354,-0.31329125,1.3544537,0.0,0.7709669,0.08783595,-0.12953945,0.6173446,0.0,0.0,-0.6339144,1,0,0,0,0,0
179404000,-0.02532875,-0.30385104,1.3544867,0.0,0.771466,0.08507483,-0.12577611,0.6178858,0.0,0.0,-0.63038254,1,0,0,0,0,0
179500000,-0.026081676,-0.2880276,1.3545191,0.0,0.77233285,0.079871245,-0.11991925,0.61866134,0.0,0.0,-0.6238744,1,0,0,0,0,0
179612000,-0.024036527,-0.2752803,1.354566,0.0,0.7728859,0.07670098,-0.11437407,0.6194215,0.0,0.0,-0.62189746,1,0,0,0,0,0
179704000,-0.021931779,-0.26537475,1.3546304,0.0,0.7732711,0.07443684,-0.1099002,0.62002647,0.0,0.0,-0.6192346,1,0,0,0,0,0
179816000,-0.020691764,-0.25206265,1.3547215,0.0,0.7738228,0.0707778,-0.10437493,0.6207211,0.0,0.0,-0.6162403,1,0,0,0,0,0
179908000,-0.020416481,-0.24445868,1.3548106,0.0,0.774128,0.068520695,-0.101349786,0.621095,0.0,0.0,-0.613982,1,0,0,0,0,0
180004000,-0.020636514,-0.22933027,1.3548923,0.0,0.77475804,0.0637247,-0.09556889,0.62173605,0.0,0.0,-0.61026806,1,0,0,0,0,0
180096000,-0.02005014,-0.2223437,1.3549901,0.0,0.7749938,0.061777737,-0.09268163,0.62207574,0.0,0.0,-0.6078841,1,0,0,0,0,0
180208000,-0.018386817,-0.21134546,1.3551106,0.0,0.77533674,0.058996584,-0.08790484,0.6226115,0.0,0.0,-0.6055751,1,0,0,0,0,0
180300000,-0.01693602,-0.2033891,1.3552278,0.0,0.775557,0.057080824,-0.08436935,0.6230048,0.0,0.0,-0.6039549,1,0,0,0,0,0
180412000,-0.01654038,-0.19235551,1.3553683,0.0,0.775898,0.05379471,-0.07996835,0.6234529,0.0,0.0,-0.60029435,1,0,0,0,0,0
180508000,-0.016183829,-0.17964628,1.3554878,0.0,0.7762787,0.049966868,-0.07492836,0.6239235,0.0,0.0,-0.59856665,1,0,0,0,0,0
180600000,-0.018162021,-0.17294434,1.3556093,0.0,0.7765006,0.047108427,-0.07294413,0.62410474,0.0,0.0,-0.5968932,1,0,0,0,0,0
180712000,-0.016635133,-0.1647548,1.3557378,0.0,0.77667195,0.045144908,-0.06928838,0.62445307,0.0,0.0,-0.5937366,1,0,0,0,0,0
180804000,-0.01632187,-0.1597037,1.3558383,0.0,0.77678,0.04369005,-0.06722878,0.6246473,0.0,0.0,-0.59307086,1,0,0,0,0,0
180900000,-0.017173765,-0.14983428,1.3559337,0.0,0.77703935,0.040274113,-0.06366308,0.62492794,0.0,0.0,-0.589643,1,0,0,0,0,0
181012000,-0.016470173,-0.14058395,1.3560485,0.0,0.77722675,0.037655547,-0.059850108,0.6252349,0.0,0.0,-0.5897558,1,0,0,0,0,0
181104000,-0.015754895,-0.13591658,1.3561532,0.0,0.77729446,0.03647528,-0.05781227,0.62541234,0.0,0.0,-0.58763856,1,0,0,0,0,0
181216000,-0.0147702005,-0.12845877,1.3562745,0.0,0.7774131,0.034525905,-0.05460581,0.62566376,0.0,0.0,-0.5851581,1,0,0,0,0,0
181308000,-0.013194836,-0.12467789,1.3564004,0.0,0.77743155,0.033957392,-0.052642137,0.6258401,0.0,0.0,-0.5853858,1,0,0,0,0,0
181404000,-0.010967126,-0.115293905,1.3565178,0.0,0.7775594,0.031886574,-0.048297077,0.62614053,0.0,0.0,-0.5837905,1,0,0,0,0,0
181516000,-0.010460249,-0.11003668,1.3566713,0.0,0.7776098,0.030439924,-0.046093,0.6263161,0.0,0.0,-0.5817732,1,0,0,0,0,0
181608000,-0.008329705,-0.10583293,1.3567911,0.0,0.7776223,0.029953532,-0.04379011,0.6264893,0.0,0.0,-0.5794249,1,0,0,0,0,0
181700000,-0.005979775,-0.10219288,1.3569069,0.0,0.7776205,0.029728785,-0.041637324,0.62664896,0.0,0.0,-0.5801779,1,0,0,0,0,0
181812000,-0.0063528987,-0.094848365,1.3570238,0.0,0.77772284,0.027283676,-0.038897466,0.62680924,0.0,0.0,-0.5801645,1,0,0,0,0,0
181908000,-0.0028380959,-0.08861187,1.3571249,0.0,0.77775055,0.026696974,-0.03536961,0.62700903,0.0,0.0,-0.57883996,1,0,0,0,0,0
182000000,0.003936121,-0.08391165,1.3572223,0.0,0.77770686,0.027859097,-0.031416383,0.62722325,0.0,0.0,-0.5772596,1,0,0,0,0,0
182112000,0.021146426,-0.07730094,1.3573111,0.0,0.7775361,0.0324794,-0.023444805,0.6275612,0.0,0.0,-0.56721294,1,0,0,0,0,0
182204000,0.10138792,-0.025043683,1.3573495,0.0,0.77694607,0.047290895,0.02207333,0.62740034,0.0,0.0,-0.53615206,1,0,0,0,0,0
182300000,-0.32922447,0.09563276,1.3573437,0.025288876,0.7620899,-0.15701179,-0.066049814,0.6246628,0.0,0.0,-0.6938997,1,0,0,0,0,0
182412000,-0.42325205,0.10838345,1.3572711,0.025288876,0.7528045,-0.19651176,-0.09043821,0.6216827,0.0,0.0,-0.48838758,1,0,0,0,0,0
182504000,-0.26889256,0.06374812,1.3575488,0.025288876,0.76824504,-0.12410517,-0.059532978,0.6251826,0.0,0.0,-0.55351216,1,0,0,0,0,0
182616000,-0.14101358,0.03004675,1.3585571,0.025288876,0.7753406,-0.064218864,-0.03259383,0.62742364,0.0,0.0,-0.59043705,1,0,0,0,0,0
182708000,-0.111116424,0.018454185,1.35997,0.025288876,0.77602714,-0.04896981,-0.027750863,0.6281829,0.0,0.0,-0.57572824,1,0,0,0,0,0
182804000,-0.12237612,0.019654168,1.3616284,0.025288876,0.7751906,-0.05368862,-0.030865641,0.62868464,0.0,0.0,-0.57238144,1,0,0,0,0,0
182900000,-0.13133048,0.02314549,1.3632218,0.025288876,0.7743549,-0.058228344,-0.032372203,0.6292345,0.0,0.0,-0.5748969,1,0,0,0,0,0
183012000,-0.13276707,0.022492304,1.3652782,0.025288876,0.773682,-0.05854539,-0.033137582,0.6299925,0.0,0.0,-0.57464695,1,0,0,0,0,0
183104000,-0.1320201,0.019656235,1.3670751,0.025288876,0.77320814,-0.05733406,-0.03405225,0.6306365,0.0,0.0,-0.574817,1,0,0,0,0,0
183216000,-0.13028125,0.018898081,1.3692002,0.025288876,0.77260554,-0.056387153,-0.03385731,0.63147044,0.0,0.0,-0.57454276,1,0,0,0,0,0
183308000,-0.12947729,0.017214838,1.3710636,0.025288876,0.77207977,-0.05551394,-0.034306098,0.63216615,0.0,0.0,-0.57513285,1,0,0,0,0,0
183404000,-0.12815376,0.017963162,1.372785,0.025288876,0.77155423,-0.05521027,-0.03364611,0.63286954,0.0,0.0,-0.57626534,1,0,0,0,0,0
183516000,-0.12858573,0.021335742,1.3749772,0.025288876,0.7707666,-0.056406874,-0.03254232,0.6337808,0.0,0.0,-0.57568115,1,0,0,0,0,0
183608000,-0.12903427,0.019078378,1.3768499,0.025288876,0.7702152,-0.05583413,-0.033607658,0.63444597,0.0,0.0,-0.57591254,1,0,0,0,0,0
183700000,-0.13025482,0.017632121,1.3787163,0.025288876,0.76962364,-0.055813804,-0.03460444,0.63511163,0.0,0.0,-0.57589185,1,0,0,0,0,0
183812000,-0.12839788,0.015649224,1.3809025,0.025288876,0.76902723,-0.054432288,-0.034838054,0.63594073,0.0,0.0,-0.57512134,1,0,0,0,0,0
183908000,-0.12895599,0.01635851,1.3826267,0.025288876,0.76844674,-0.054842163,-0.034789853,0.6366095,0.0,0.0,-0.57657796,1,0,0,0,0,0
184000000,-0.12805122,0.0156635,1.3845221,0.025288876,0.76788414,-0.054240596,-0.034820557,0.63733774,0.0,0.0,-0.5750779,1,0,0,0,0,0
184112000,-0.12720822,0.016016755,1.3867481,0.025288876,0.76718885,-0.053991023,-0.034476276,0.6382144,0.0,0.0,-0.5762808,1,0,0,0,0,0
184204000,-0.1264448,0.015244607,1.3886678,0.025288876,0.7666143,-0.05341891,-0.034580406,0.63894683,0.0,0.0,-0.5779925,1,0,0,0,0,0
184300000,-0.12760709,0.015250825,1.3904341,0.025288876,0.76601845,-0.05383551,-0.034996893,0.63960356,0.0,0.0,-0.57655174,1,0,0,0,0,0
184412000,-0.12803756,0.013417765,1.3927003,0.025288876,0.7653243,-0.05337419,-0.03589768,0.6404227,0.0,0.0,-0.57546544,1,0,0,0,0,0
184504000,-0.12829947,0.012144257,1.3946522,0.025288876,0.7647212,-0.05303142,-0.036520988,0.641136,0.0,0.0,-0.57854426,1,0,0,0,0,0
184616000,-0.13046008,0.012219602,1.3969582,0.025288876,0.76392204,-0.053838737,-0.03724686,0.6419791,0.0,0.0,-0.5752308,1,0,0,0,0,0
184708000,-0.12871005,0.010929702,1.3989382,0.025288876,0.7633624,-0.052719757,-0.037230358,0.6427381,0.0,0.0,-0.5754576,1,0,0,0,0,0
184804000,-0.12823845,0.009947793,1.400769,0.025288876,0.7628084,-0.052190155,-0.037501596,0.6434231,0.0,0.0,-0.57721615,1,0,0,0,0,0
184916000,-0.12813063,0.008922515,1.4031036,0.025288876,0.76208264,-0.05177519,-0.037918612,0.6442916,0.0,0.0,-0.57659274,1,0,0,0,0,0
185008000,-0.12797265,0.005721549,1.405126,0.025288876,0.7615054,-0.050644897,-0.039139204,0.64499044,0.0,0.0,-0.5762304,1,0,0,0,0,0
185100000,-0.128984,0.00749029,1.4071493,0.025288876,0.7607877,-0.051560815,-0.038843878,0.6457822,0.0,0.0,-0.5761487,1,0,0,0,0,0
185212000,-0.12842593,0.0051594535,1.4095191,0.025288876,0.7600876,-0.050549403,-0.03961059,0.64663947,0.0,0.0,-0.5756425,1,0,0,0,0,0
185308000,-0.1282193,0.0054434836,1.4113792,0.025288876,0.7594849,-0.050525974,-0.039482825,0.6473569,0.0,0.0,-0.57684964,1,0,0,0,0,0
185400000,-0.12603797,0.005419825,1.4134288,0.025288876,0.75887626,-0.049650166,-0.038836632,0.648177,0.0,0.0,-0.57731843,1,0,0,0,0,0
185512000,-0.12691687,0.0051382417,1.4158274,0.025288876,0.75808257,-0.04984535,-0.039288152,0.649063,0.0,0.0,-0.5777206,1,0,0,0,0,0
185604000,-0.12907209,0.0026887755,1.4179026,0.025288876,0.7574078,-0.049825147,-0.040967897,0.64974797,0.0,0.0,-0.57590234,1,0,0,0,0,0
185700000,-0.12983644,0.0026519413,1.4198002,0.025288876,0.7567727,-0.050063506,-0.041277688,0.65044975,0.0,0.0,-0.5766795,1,0,0,0,0,0
185812000,-0.12931313,0.0012750638,1.4221929,0.025288876,0.7560365,-0.049367923,-0.04168765,0.6513323,0.0,0.0,-0.5758976,1,0,0,0,0,0
185904000,-0.12924373,0.0012954281,1.4242384,0.025288876,0.7553713,-0.049305692,-0.0417078,0.6521071,0.0,0.0,-0.57689035,1,0,0,0,0,0
185996000,-0.13047212,-0.000100378005,1.426272,0.025288876,0.75470734,-0.0492712,-0.042685624,0.6528148,0.0,0.0,-0.5771816,1,0,0,0,0,0
186108000,-0.12911302,-0.0009234241,1.4286389,0.025288876,0.7539848,-0.048439257,-0.04260993,0.6537162,0.0,0.0,-0.5771131,1,0,0,0,0,0
186204000,-0.12970081,-0.0013221959,1.4305319,0.025288876,0.7533599,-0.048489828,-0.042998288,0.6544071,0.0,0.0,-0.57745934,1,0,0,0,0,0
186316000,-0.12986045,-0.0011792441,1.432953,0.025288876,0.7525603,-0.04854465,-0.04305548,0.6553187,0.0,0.0,-0.576286,1,0,0,0,0,0
186408000,-0.13013548,-0.0022733414,1.435027,0.025288876,0.7518967,-0.048244424,-0.043607302,0.6560657,0.0,0.0,-0.5782119,1,0,0,0,0,0
186500000,-0.12872688,-0.0009269296,1.4370998,0.025288876,0.75122195,-0.048112385,-0.04268895,0.6569082,0.0,0.0,-0.5775191,1,0,0,0,0,0
186612000,-0.131431,-0.0022400978,1.4395376,0.025288876,0.750383,-0.048642963,-0.044129584,0.65773225,0.0,0.0,-0.57694113,1,0,0,0,0,0
186708000,-0.12961425,-0.0010747755,1.441455,0.025288876,0.7497715,-0.04830329,-0.04314123,0.6585199,0.0,0.0,-0.5769326,1,0,0,0,0,0
186800000,-0.12895982,-0.00042904672,1.4435678,0.025288876,0.7490775,-0.04822547,-0.042734656,0.65934134,0.0,0.0,-0.5773449,1,0,0,0,0,0
186912000,-0.12914625,0.0006805204,1.4460399,0.025288876,0.7482337,-0.04860866,-0.042440657,0.6602896,0.0,0.0,-0.57617664,1,0,0,0,0,0
187004000,-0.12941039,0.0019687635,1.4481679,0.025288876,0.7474964,-0.049087986,-0.042098135,0.6611106,0.0,0.0,-0.5770134,1,0,0,0,0,0
187100000,-0.12982686,0.0013124327,1.4501138,0.025288876,0.7468569,-0.048985366,-0.042528804,0.661813,0.0,0.0,-0.5773114,1,0,0,0,0,0
187212000,-0.13113286,0.0009953897,1.4526005,0.025288876,0.74600834,-0.04931455,-0.043140706,0.66270536,0.0,0.0,-0.576646,1,0,0,0,0,0
187304000,-0.12969199,0.00064306136,1.4547341,0.025288876,0.7453439,-0.048614662,-0.042846575,0.6635234,0.0,0.0,-0.5773134,1,0,0,0,0,0
187396000,-0.13032967,0.0017374774,1.4568783,0.025288876,0.7445926,-0.049169607,-0.042703003,0.6643348,0.0,0.0,-0.57612735,1,0,0,0,0,0
187508000,-0.13003707,0.0018762079,1.4593772,0.025288876,0.7437661,-0.049053542,-0.04261548,0.6652741,0.0,0.0,-0.5775747,1,0,0,0,0,0
187604000,-0.13018812,0.0014181082,1.4613472,0.025288876,0.7431168,-0.048915144,-0.042884305,0.6659922,0.0,0.0,-0.57685953,1,0,0,0,0,0
187716000,-0.12987697,0.0024909084,1.4638525,0.025288876,0.74226594,-0.049103595,-0.04244358,0.66695476,0.0,0.0,-0.5788912,1,0,0,0,0,0
187808000,-0.13033736,0.0013439134,1.4660153,0.025288876,0.7415583,-0.04884547,-0.043075692,0.6677199,0.0,0.0,-0.57714224,1,0,0,0,0,0
187900000,-0.13093027,0.002716041,1.4681787,0.025288876,0.74079055,-0.049477056,-0.042818386,0.66854167,0.0,0.0,-0.57672614,1,0,0,0,0,0
188012000,-0.13009152,0.0026395537,1.4706945,0.025288876,0.73997134,-0.04908724,-0.042628128,0.66948915,0.0,0.0,-0.5781559,1,0,0,0,0,0
188108000,-0.13028784,0.0017998148,1.4726691,0.025288876,0.7393239,-0.04883634,-0.043052815,0.6701952,0.0,0.0,-0.57737184,1,0,0,0,0,0
188200000,-0.12999499,0.0025532541,1.4748403,0.025288876,0.7385863,-0.048934173,-0.042729277,0.6710216,0.0,0.0,-0.57832485,1,0,0,0,0,0
188312000,-0.12936404,0.0016620841,1.4773794,0.025288876,0.7377689,-0.04834778,-0.042908154,0.6719511,0.0,0.0,-0.5784976,1,0,0,0,0,0
188404000,-0.1305575,0.0015640522,1.4795566,0.025288876,0.73701024,-0.048707873,-0.043398336,0.6727258,0.0,0.0,-0.576938,1,0,0,0,0,0
188500000,-0.132113,0.0009476892,1.481546,0.025288876,0.73631644,-0.04902983,-0.044197466,0.6734098,0.0,0.0,-0.57829934,1,0,0,0,0,0
188612000,-0.13182454,-0.0005323293,1.4840683,0.025288876,0.7355067,-0.04836898,-0.04470628,0.67430824,0.0,0.0,-0.57724184,1,0,0,0,0,0
188704000,-0.13132901,-0.0005439703,1.4862295,0.025288876,0.7347898,-0.04813466,-0.04459554,0.67511344,0.0,0.0,-0.579016,1,0,0,0,0,0
188796000,-0.130685,0.0018858488,1.4883924,0.025288876,0.7340207,-0.04867122,-0.043538082,0.67598015,0.0,0.0,-0.5763622,1,0,0,0,0,0
188908000,-0.1317059,0.0011403012,1.4908711,0.025288876,0.7331743,-0.04873917,-0.044217203,0.6768492,0.0,0.0,-0.57791334,1,0,0,0,0,0
189004000,-0.13113332,0.0006783227,1.4928037,0.025288876,0.7325442,-0.048330206,-0.044239514,0.67755896,0.0,0.0,-0.5789529,1,0,0,0,0,0
189116000,-0.1326795,-0.0009031052,1.495253,0.025288876,0.7317119,-0.048305243,-0.045401726,0.6783826,0.0,0.0,-0.5784414,1,0,0,0,0,0
189208000,-0.13425988,3.2142358e-05,1.497351,0.025288876,0.7309402,-0.04915278,-0.045647215,0.67913675,0.0,0.0,-0.5782802,1,0,0,0,0,0
189300000,-0.13388145,0.0004976755,1.4994265,0.025288876,0.7302337,-0.049125474,-0.045399576,0.6799149,0.0,0.0,-0.5781567,1,0,0,0,0,0
189412000,-0.13384819,0.0014268069,1.5018513,0.025288876,0.72938836,-0.04937452,-0.045108907,0.680823,0.0,0.0,-0.57785547,1,0,0,0,0,0
189508000,-0.13294601,0.000730659,1.5037643,0.025288876,0.7287749,-0.048765417,-0.04510236,0.68152386,0.0,0.0,-0.57777536,1,0,0,0,0,0
189600000,-0.13169262,0.0014056842,1.5058703,0.025288876,0.72807187,-0.0484919,-0.044480346,0.68233526,0.0,0.0,-0.57654715,1,0,0,0,0,0
189716000,-0.13193381,0.0013429562,1.5083449,0.025288876,0.7272227,-0.04850309,-0.044645507,0.6832287,0.0,0.0,-0.57854784,1,0,0,0,0,0
189808000,-0.13176252,0.0010554058,1.5104818,0.025288876,0.72650295,-0.048294798,-0.04474318,0.6840022,0.0,0.0,-0.5784422,1,0,0,0,0,0
189900000,-0.13313699,0.00095572666,1.5126243,0.025288876,0.7257388,-0.048711486,-0.045301657,0.68474674,0.0,0.0,-0.57806355,1,0,0,0,0,0
190012000,-0.13346936,0.00066389574,1.5151358,0.025288876,0.724877,-0.04867497,-0.045582503,0.68564296,0.0,0.0,-0.5767762,1,0,0,0,0,0
190108000,-0.1349007,0.0017377321,1.5171065,0.025288876,0.7241409,-0.049516797,-0.045732807,0.68635017,0.0,0.0,-0.5778803,1,0,0,0,0,0
190200000,-0.13472642,0.00087786786,1.5192585,0.025288876,0.72342646,-0.049109127,-0.04603722,0.6871121,0.0,0.0,-0.57834935,1,0,0,0,0,0
190312000,-0.13476184,0.0017606562,1.5217733,0.025288876,0.72254026,-0.049367674,-0.045792177,0.6880417,0.0,0.0,-0.57756966,1,0,0,0,0,0
190404000,-0.1329796,0.0008026454,1.5239393,0.025288876,0.72186065,-0.048344888,-0.04557756,0.6888415,0.0,0.0,-0.5784546,1,0,0,0,0,0
190500000,-0.13372937,0.00017744972,1.525929,0.025288876,0.72117126,-0.048354335,-0.046109583,0.6895272,0.0,0.0,-0.5774853,1,0,0,0,0,0
190612000,-0.13448188,-0.00019862657,1.5284672,0.025288876,0.72028613,-0.048436966,-0.04656613,0.6904154,0.0,0.0,-0.57731503,1,0,0,0,0,0
190704000,-0.1351467,0.00026161215,1.5306348,0.025288876,0.71951056,-0.048784707,-0.04668279,0.69119126,0.0,0.0,-0.57737416,1,0,0,0,0,0
190816000,-0.13447243,0.0013088259,1.5331659,0.025288876,0.71862704,-0.048845682,-0.04613484,0.69214225,0.0,0.0,-0.5785866,1,0,0,0,0,0
190908000,-0.13327476,0.0005312055,1.535355,0.025288876,0.71791625,-0.04809586,-0.046052467,0.6929373,0.0,0.0,-0.5792681,1,0,0,0,0,0
191004000,-0.13402465,0.0009742376,1.5373751,0.025288876,0.7171875,-0.048471883,-0.04620224,0.69365543,0.0,0.0,-0.5784447,1,0,0,0,0,0
191116000,-0.13393617,-0.0003248426,1.5399605,0.025288876,0.7163227,-0.047929283,-0.0466994,0.69455284,0.0,0.0,-0.57930106,1,0,0,0,0,0
191208000,-0.13423543,-0.00046113395,1.5421865,0.025288876,0.7155453,-0.047936965,-0.04690552,0.69533944,0.0,0.0,-0.57841516,1,0,0,0,0,0
191300000,-0.13463576,-0.00027482913,1.5444022,0.025288876,0.71476054,-0.04809288,-0.04703135,0.69612676,0.0,0.0,-0.5793322,1,0,0,0,0,0
191412000,-0.13462391,0.0016368866,1.5469913,0.025288876,0.7138139,-0.04869401,-0.046407092,0.6970976,0.0,0.0,-0.5765676,1,0,0,0,0,0
191508000,-0.13474861,0.002498908,1.5490294,0.025288876,0.7130795,-0.04899188,-0.046192806,0.6978421,0.0,0.0,-0.57758427,1,0,0,0,0,0
191600000,-0.13542171,0.0041084443,1.5512551,0.025288876,0.7122469,-0.04974228,-0.045909088,0.69865763,0.0,0.0,-0.57781154,1,0,0,0,0,0
191712000,-0.13565674,0.0022968678,1.5538459,0.025288876,0.71137947,-0.049132854,-0.046700172,0.6995315,0.0,0.0,-0.5784957,1,0,0,0,0,0
191804000,-0.13488176,0.00090819417,1.5560678,0.025288876,0.7106541,-0.04831938,-0.04697684,0.7003065,0.0,0.0,-0.5785666,1,0,0,0,0,0
191900000,-0.13476893,0.0007918234,1.5581107,0.025288876,0.7099439,-0.04819053,-0.047027927,0.701032,0.0,0.0,-0.580016,1,0,0,0,0,0
192012000,-0.13630393,0.0012717899,1.5607187,0.025288876,0.70898044,-0.048841767,-0.047459304,0.7019322,0.0,0.0,-0.5774513,1,0,0,0,0,0
192104000,-0.13598663,0.0013256619,1.562943,0.025288876,0.70820576,-0.048695523,-0.04738303,0.7027291,0.0,0.0,-0.57928705,1,0,0,0,0,0
192216000,-0.13609996,0.0006967465,1.5655354,0.025288876,0.7073067,-0.0484529,-0.047708414,0.7036288,0.0,0.0,-0.5791365,1,0,0,0,0,0
192308000,-0.1367641,0.00028938253,1.5677586,0.025288876,0.7065179,-0.048490986,-0.048140064,0.7043889,0.0,0.0,-0.5790652,1,0,0,0,0,0
192404000,-0.13628328,0.0006371035,1.5698038,0.025288876,0.7058004,-0.04839463,-0.0478974,0.7051309,0.0,0.0,-0.5792688,1,0,0,0,0,0
192516000,-0.13817264,0.00040131953,1.5724207,0.025288876,0.70483696,-0.04891456,-0.048710752,0.7060024,0.0,0.0,-0.5790699,1,0,0,0,0,0
192608000,-0.13754062,-0.00019407309,1.5746702,0.025288876,0.70407236,-0.048426844,-0.04875198,0.70679575,0.0,0.0,-0.578126,1,0,0,0,0,0
192700000,-0.13858579,-0.0020370216,1.5769093,0.025288876,0.7033002,-0.048087724,-0.049823925,0.70751256,0.0,0.0,-0.5797527,1,0,0,0,0,0
192812000,-0.13981342,0.0014085488,1.5795121,0.025288876,0.7022639,-0.049674477,-0.04911141,0.7084814,0.0,0.0,-0.57775366,1,0,0,0,0,0
192908000,-0.13915443,5.9251888e-05,1.5815616,0.025288876,0.7015874,-0.048914537,-0.04940195,0.709184,0.0,0.0,-0.5792666,1,0,0,0,0,0
193000000,-0.13948329,-0.0010946573,1.5838072,0.025288876,0.70081115,-0.048564635,-0.04997788,0.7099348,0.0,0.0,-0.5793063,1,0,0,0,0,0
193112000,-0.139336,-0.0021330214,1.5864527,0.025288876,0.69990045,-0.048077844,-0.050353058,0.7108392,0.0,0.0,-0.5799018,1,0,0,0,0,0
193204000,-0.13769126,-0.0030046492,1.5887318,0.025288876,0.69915026,-0.0471353,-0.050127205,0.7116562,0.0,0.0,-0.5799509,1,0,0,0,0,0
