timestamp,q[0],q[1],q[2],q[3],delta_q_reset[0],delta_q_reset[1],delta_q_reset[2],delta_q_reset[3],quat_reset_counter
146200000,0.97901833,-0.0034987486,-0.0007863202,0.20374098,0.9999983,-4.6566134e-10,2.3283067e-10,-0.0019015821,3
146248000,0.97901946,-0.0035415397,-0.0008083837,0.20373462,0.9999983,-4.6566134e-10,2.3283067e-10,-0.0019015821,3
146300000,0.97902036,-0.0035463048,-0.00079888327,0.20373058,0.9999983,-4.6566134e-10,2.3283067e-10,-0.0019015821,3
146352000,0.97902143,-0.0034955998,-0.00076095044,0.20372576,0.9999983,-4.6566134e-10,2.3283067e-10,-0.0019015821,3
146404000,0.9790181,-0.00350014,-0.0007725474,0.20374188,0.9999983,-4.6566134e-10,2.3283067e-10,-0.0019015821,3
146456000,0.9790261,-0.0035218755,-0.0007846986,0.20370314,0.9999983,-4.6566134e-10,2.3283067e-10,-0.0019015821,3
146508000,0.9790414,-0.0035443227,-0.00086054724,0.20362903,0.9999983,-4.6566134e-10,2.3283067e-10,-0.0019015821,3
146560000,0.9790367,-0.0035537744,-0.00090298196,0.20365098,0.9999983,-4.6566134e-10,2.3283067e-10,-0.0019015821,3
146612000,0.97903997,-0.003568698,-0.00090400176,0.20363465,0.9999983,-4.6566134e-10,2.3283067e-10,-0.0019015821,3
146664000,0.9790559,-0.0035680942,-0.0008839339,0.20355894,0.9999983,-4.6566134e-10,2.3283067e-10,-0.0019015821,3
146716000,0.97904944,-0.0035110486,-0.0008943868,0.20359075,0.9999983,-4.6566134e-10,2.3283067e-10,-0.0019015821,3
146768000,0.97905713,-0.0034641412,-0.00089819997,0.20355426,0.9999983,-4.6566134e-10,2.3283067e-10,-0.0019015821,3
146820000,0.97906667,-0.0034511294,-0.0009620247,0.20350802,0.9999983,-4.6566134e-10,2.3283067e-10,-0.0019015821,3
146876000,0.9790677,-0.0034386157,-0.0009331488,0.20350376,0.9999983,-4.6566134e-10,2.3283067e-10,-0.0019015821,3
146924000,0.97907895,-0.0034098604,-0.0009409928,0.20345029,0.9999983,-4.6566134e-10,2.3283067e-10,-0.0019015821,3
146976000,0.9790854,-0.003416363,-0.0010288598,0.20341888,0.9999983,-4.6566134e-10,2.3283067e-10,-0.0019015821,3
147028000,0.97909355,-0.0034391994,-0.0009601298,0.20337926,0.9999983,-4.6566134e-10,2.3283067e-10,-0.0019015821,3
147080000,0.97910696,-0.0034129203,-0.0009795203,0.20331527,0.9999983,-4.6566134e-10,2.3283067e-10,-0.0019015821,3
147132000,0.97911096,-0.0033623313,-0.0009954652,0.20329654,0.9999983,-4.6566134e-10,2.3283067e-10,-0.0019015821,3
147184000,0.9791152,-0.0033363716,-0.0010347286,0.20327613,0.9999983,-4.6566134e-10,2.3283067e-10,-0.0019015821,3
147236000,0.97913104,-0.003346341,-0.0010381785,0.20319982,0.9999983,-4.6566134e-10,2.3283067e-10,-0.0019015821,3
147292000,0.97912514,-0.0033405893,-0.0010395856,0.20322877,0.9999983,-4.6566134e-10,2.3283067e-10,-0.0019015821,3
147340000,0.97912043,-0.00336379,-0.0010379287,0.20325089,0.9999983,-4.6566134e-10,2.3283067e-10,-0.0019015821,3
147392000,0.97911793,-0.0033640256,-0.0010950358,0.20326282,0.9999983,-4.6566134e-10,2.3283067e-10,-0.0019015821,3
147444000,0.9791269,-0.003387709,-0.0011278696,0.2032185,0.9999983,-4.6566134e-10,2.3283067e-10,-0.0019015821,3
147496000,0.97913647,-0.0034158921,-0.0012555771,0.20317167,0.9999983,-4.6566134e-10,2.3283067e-10,-0.0019015821,3
147548000,0.9791469,-0.0033667744,-0.0012478343,0.20312208,0.9999983,-4.6566134e-10,2.3283067e-10,-0.0019015821,3
147600000,0.9791468,-0.0034224594,-0.0013166375,0.2031213,0.9999983,-4.6566134e-10,2.3283067e-10,-0.0019015821,3
147656000,0.9791459,-0.0034181892,-0.0013404617,0.20312564,0.9999983,-4.6566134e-10,2.3283067e-10,-0.0019015821,3
147704000,0.9791325,-0.0033681314,-0.001422478,0.20319007,0.9999983,-4.6566134e-10,2.3283067e-10,-0.0019015821,3
147756000,0.97911984,-0.0033717868,-0.001407638,0.20325106,0.9999983,-4.6566134e-10,2.3283067e-10,-0.0019015821,3
147808000,0.97912014,-0.0033333164,-0.0013806523,0.20325081,0.9999983,-4.6566134e-10,2.3283067e-10,-0.0019015821,3
147860000,0.9791138,-0.003368026,-0.001395109,0.20328043,0.9999983,-4.6566134e-10,2.3283067e-10,-0.0019015821,3
147912000,0.97911566,-0.0033493151,-0.0013495814,0.20327199,0.9999983,-4.6566134e-10,2.3283067e-10,-0.0019015821,3
147968000,0.9791107,-0.003345204,-0.0013020156,0.20329642,0.9999983,-4.6566134e-10,2.3283067e-10,-0.0019015821,3
148020000,0.9791136,-0.0033488697,-0.0012634557,0.20328298,0.9999983,-4.6566134e-10,2.3283067e-10,-0.0019015821,3
148072000,0.97910947,-0.003238083,-0.0014088822,0.20330343,0.9999983,-4.6566134e-10,2.3283067e-10,-0.0019015821,3
148120000,0.97912425,-0.0022933728,-0.00273341,0.2032316,0.9999983,-4.6566134e-10,2.3283067e-10,-0.0019015821,3
148172000,0.9791266,-0.00074135355,-0.004457239,0.20320176,0.9999983,-4.6566134e-10,2.3283067e-10,-0.0019015821,3
148224000,0.97910064,0.00019795852,-0.005541026,0.20330057,0.9999983,-4.6566134e-10,2.3283067e-10,-0.0019015821,3
148276000,0.97908014,0.0004015826,-0.0059081907,0.20338877,0.9999983,-4.6566134e-10,2.3283067e-10,-0.0019015821,3
148328000,0.9790725,0.00038103896,-0.005540189,0.20343599,0.9999983,-4.6566134e-10,2.3283067e-10,-0.0019015821,3
148380000,0.97906333,-5.7545403e-05,-0.004910771,0.20349681,0.9999983,-4.6566134e-10,2.3283067e-10,-0.0019015821,3
148432000,0.9790521,-0.00064348854,-0.0043441243,0.20356284,0.9999983,-4.6566134e-10,2.3283067e-10,-0.0019015821,3
148484000,0.97904307,-0.0009430269,-0.0037412322,0.20361696,0.9999983,-4.6566134e-10,2.3283067e-10,-0.0019015821,3
148536000,0.97903883,-0.0012961809,-0.0030287511,0.20364726,0.9999983,-4.6566134e-10,2.3283067e-10,-0.0019015821,3
148592000,0.9790319,-0.0015612262,-0.0024614497,0.20368607,0.9999983,-4.6566134e-10,2.3283067e-10,-0.0019015821,3
148640000,0.9790265,-0.0018143803,-0.0021160888,0.2037139,0.9999983,-4.6566134e-10,2.3283067e-10,-0.0019015821,3
148692000,0.9790302,-0.0020088344,-0.0016341811,0.20369908,0.9999983,-4.6566134e-10,2.3283067e-10,-0.0019015821,3
148748000,0.97903234,-0.0021236024,-0.0013788679,0.20368938,0.9999983,-4.6566134e-10,2.3283067e-10,-0.0019015821,3
148796000,0.9790191,-0.0022445545,-0.0012142581,0.20375293,0.9999983,-4.6566134e-10,2.3283067e-10,-0.0019015821,3
148848000,0.979009,-0.0024277773,-0.001191371,0.20379923,0.9999983,-4.6566134e-10,2.3283067e-10,-0.0019015821,3
148900000,0.97901356,-0.0027324574,-0.0013445275,0.2037725,0.9999983,-4.6566134e-10,2.3283067e-10,-0.0019015821,3
148952000,0.9790222,-0.002845618,-0.0011380364,0.20373055,0.9999983,-4.6566134e-10,2.3283067e-10,-0.0019015821,3
149004000,0.9790112,-0.003061792,-0.0007018917,0.20378247,0.9999983,-4.6566134e-10,2.3283067e-10,-0.0019015821,3
149056000,0.97901505,-0.0032079476,-0.0005911085,0.20376177,0.9999983,-4.6566134e-10,2.3283067e-10,-0.0019015821,3
149108000,0.9789991,-0.003243941,-0.0004182051,0.20383878,0.9999983,-4.6566134e-10,2.3283067e-10,-0.0019015821,3
149160000,0.97901714,-0.003291332,-4.6296853e-05,0.20375122,0.9999983,-4.6566134e-10,2.3283067e-10,-0.0019015821,3
149212000,0.9790115,-0.003396056,0.00029241905,0.20377669,0.9999983,-4.6566134e-10,2.3283067e-10,-0.0019015821,3
149264000,0.9790178,-0.0036174438,0.00037372034,0.20374247,0.9999983,-4.6566134e-10,2.3283067e-10,-0.0019015821,3
149320000,0.979014,-0.0036722913,0.00027325255,0.20376012,0.9999983,-4.6566134e-10,2.3283067e-10,-0.0019015821,3
149368000,0.97900665,-0.0037922722,0.00019927837,0.20379305,0.9999983,-4.6566134e-10,2.3283067e-10,-0.0019015821,3
149420000,0.97899723,-0.0038444898,0.00028404625,0.2038374,0.9999983,-4.6566134e-10,2.3283067e-10,-0.0019015821,3
149472000,0.97900826,-0.0037430513,0.00042143263,0.20378561,0.9999983,-4.6566134e-10,2.3283067e-10,-0.0019015821,3
149524000,0.9790333,-0.0036854958,0.00039695203,0.20366684,0.9999983,-4.6566134e-10,2.3283067e-10,-0.0019015821,3
149576000,0.9790382,-0.003663586,0.00041490735,0.20364355,0.9999983,-4.6566134e-10,2.3283067e-10,-0.0019015821,3
149628000,0.9790373,-0.0036347422,0.00028297983,0.2036485,0.9999983,-4.6566134e-10,2.3283067e-10,-0.0019015821,3
149680000,0.97902906,-0.003669665,0.00023336236,0.203688,0.9999983,-4.6566134e-10,2.3283067e-10,-0.0019015821,3
149732000,0.97876525,-0.0034520836,0.00018820522,0.20495516,0.9999992,-4.8021326e-10,1.7462301e-10,0.0012577177,4
149788000,0.9787888,-0.0034446088,6.7049485e-05,0.20484348,0.9999992,-4.8021326e-10,1.7462301e-10,0.0012577177,4
149836000,0.97881,-0.0034674695,0.00016266984,0.2047415,0.9999992,-4.8021326e-10,1.7462301e-10,0.0012577177,4
149888000,0.9788701,-0.0033366242,0.00019661024,0.20445597,0.9999992,-4.8021326e-10,1.7462301e-10,0.0012577177,4
149940000,0.9789315,-0.0030642021,0.00028859396,0.20416623,0.9999992,-4.8021326e-10,1.7462301e-10,0.0012577177,4
149992000,0.97897136,-0.0031317119,0.00024232856,0.20397373,0.9999992,-4.8021326e-10,1.7462301e-10,0.0012577177,4
150044000,0.9789866,-0.003477536,9.265843e-05,0.20389496,0.9999992,-4.8021326e-10,1.7462301e-10,0.0012577177,4
150096000,0.9790222,-0.0036226676,0.00011265226,0.20372134,0.9999992,-4.8021326e-10,1.7462301e-10,0.0012577177,4
150148000,0.9790573,-0.003674122,0.00017879174,0.20355155,0.9999992,-4.8021326e-10,1.7462301e-10,0.0012577177,4
150200000,0.97909206,-0.0036029085,5.7831392e-05,0.203386,0.9999992,-4.8021326e-10,1.7462301e-10,0.0012577177,4
150256000,0.97911924,-0.0034427226,-4.0112114e-05,0.20325793,0.9999992,-4.8021326e-10,1.7462301e-10,0.0012577177,4
150304000,0.9791476,-0.0033254162,-0.00013245223,0.2031232,0.9999992,-4.8021326e-10,1.7462301e-10,0.0012577177,4
150356000,0.9791745,-0.003090251,-0.00017198401,0.20299743,0.9999992,-4.8021326e-10,1.7462301e-10,0.0012577177,4
150408000,0.9792009,-0.003086829,-0.00023309344,0.20286955,0.9999992,-4.8021326e-10,1.7462301e-10,0.0012577177,4
150460000,0.9792173,-0.0031822738,-0.00034769016,0.202789,0.9999992,-4.8021326e-10,1.7462301e-10,0.0012577177,4
150512000,0.97922826,-0.0032174254,-0.00049004704,0.20273477,0.9999992,-4.8021326e-10,1.7462301e-10,0.0012577177,4
150564000,0.9792262,-0.0034256303,-0.0005325597,0.2027417,0.9999992,-4.8021326e-10,1.7462301e-10,0.0012577177,4
150620000,0.9792055,-0.0036243836,-0.0005182741,0.20283827,0.9999992,-4.8021326e-10,1.7462301e-10,0.0012577177,4
150668000,0.9791823,-0.0039074323,-0.0004927028,0.20294495,0.9999992,-4.8021326e-10,1.7462301e-10,0.0012577177,4
150720000,0.9791529,-0.004306528,-0.00034715587,0.20307891,0.9999992,-4.8021326e-10,1.7462301e-10,0.0012577177,4
150772000,0.97912425,-0.0045816037,-0.00012729618,0.20321125,0.9999992,-4.8021326e-10,1.7462301e-10,0.0012577177,4
150824000,0.9790817,-0.004639219,-3.8917983e-06,0.20341466,0.9999992,-4.8021326e-10,1.7462301e-10,0.0012577177,4
150876000,0.9790498,-0.004574413,-0.000119327946,0.20356977,0.9999992,-4.8021326e-10,1.7462301e-10,0.0012577177,4
150928000,0.9790415,-0.0045471415,-0.00042665383,0.20361,0.9999992,-4.8021326e-10,1.7462301e-10,0.0012577177,4
150980000,0.97902596,-0.0043841535,-0.00074929954,0.20368743,0.9999992,-4.8021326e-10,1.7462301e-10,0.0012577177,4
151032000,0.97902566,-0.004417751,-0.0010471178,0.20368636,0.9999992,-4.8021326e-10,1.7462301e-10,0.0012577177,4
151084000,0.9790492,-0.0043671643,-0.0012059482,0.20357339,0.9999992,-4.8021326e-10,1.7462301e-10,0.0012577177,4
151136000,0.9790741,-0.0043725898,-0.0010793878,0.20345393,0.9999992,-4.8021326e-10,1.7462301e-10,0.0012577177,4
151188000,0.9791023,-0.004289761,-0.0008293093,0.20332137,0.9999992,-4.8021326e-10,1.7462301e-10,0.0012577177,4
151240000,0.97910213,-0.0042290483,-0.0006122459,0.20332417,0.9999992,-4.8021326e-10,1.7462301e-10,0.0012577177,4
151292000,0.9791207,-0.004095082,-0.0005900705,0.20323806,0.9999992,-4.8021326e-10,1.7462301e-10,0.0012577177,4
151344000,0.97911626,-0.0039250534,-0.0006203794,0.20326261,0.9999992,-4.8021326e-10,1.7462301e-10,0.0012577177,4
151400000,0.97913414,-0.0038947107,-0.00077049364,0.20317654,0.9999992,-4.8021326e-10,1.7462301e-10,0.0012577177,4
151448000,0.97912,-0.003851732,-0.00093126943,0.20324439,0.9999992,-4.8021326e-10,1.7462301e-10,0.0012577177,4
151504000,0.9790916,-0.0040022815,-0.0009963983,0.20337853,0.9999992,-4.8021326e-10,1.7462301e-10,0.0012577177,4
151556000,0.9790889,-0.003980219,-0.001034514,0.20339158,0.9999992,-4.8021326e-10,1.7462301e-10,0.0012577177,4
151608000,0.979069,-0.0038142751,-0.0009669036,0.2034906,0.9999992,-4.8021326e-10,1.7462301e-10,0.0012577177,4
151656000,0.97906595,-0.0036701993,-0.0008704436,0.20350817,0.9999992,-4.8021326e-10,1.7462301e-10,0.0012577177,4
151708000,0.97906625,-0.003807807,-0.0007754295,0.20350501,0.9999992,-4.8021326e-10,1.7462301e-10,0.0012577177,4
151760000,0.97905284,-0.0039193095,-0.00085823383,0.20356694,0.9999992,-4.8021326e-10,1.7462301e-10,0.0012577177,4
151812000,0.97905445,-0.0039304183,-0.0008078609,0.2035593,0.9999992,-4.8021326e-10,1.7462301e-10,0.0012577177,4
151864000,0.9790621,-0.0038463476,-0.00064571557,0.20352477,0.9999992,-4.8021326e-10,1.7462301e-10,0.0012577177,4
151916000,0.9790421,-0.003740822,-0.0006799834,0.20362274,0.9999992,-4.8021326e-10,1.7462301e-10,0.0012577177,4
151968000,0.97903305,-0.0036388992,-0.00072342466,0.20366773,0.9999992,-4.8021326e-10,1.7462301e-10,0.0012577177,4
152020000,0.9790349,-0.0037051495,-0.0006846136,0.20365806,0.9999992,-4.8021326e-10,1.7462301e-10,0.0012577177,4
152072000,0.9790289,-0.0037356338,-0.0006350676,0.20368634,0.9999992,-4.8021326e-10,1.7462301e-10,0.0012577177,4
152124000,0.9790258,-0.0037153566,-0.00035822025,0.20370238,0.9999992,-4.8021326e-10,1.7462301e-10,0.0012577177,4
152176000,0.97901314,-0.0036014589,-0.0002189843,0.20376538,0.9999992,-4.8021326e-10,1.7462301e-10,0.0012577177,4
152228000,0.97900647,-0.003414571,-0.00010251053,0.20380066,0.9999992,-4.8021326e-10,1.7462301e-10,0.0012577177,4
152280000,0.9790077,-0.003291928,-1.7205286e-05,0.20379671,0.9999992,-4.8021326e-10,1.7462301e-10,0.0012577177,4
152332000,0.97902066,-0.003253663,-0.00013122264,0.20373526,0.9999992,-4.8021326e-10,1.7462301e-10,0.0012577177,4
152384000,0.97902197,-0.0031416507,-0.00028016625,0.20373037,0.9999992,-4.8021326e-10,1.7462301e-10,0.0012577177,4
152436000,0.9790237,-0.0030599474,-0.00039413307,0.203723,0.9999992,-4.8021326e-10,1.7462301e-10,0.0012577177,4
152488000,0.9790331,-0.002989732,-0.00027096792,0.20367908,0.9999992,-4.8021326e-10,1.7462301e-10,0.0012577177,4
152540000,0.9790359,-0.0030326871,-0.00029200249,0.20366512,0.9999992,-4.8021326e-10,1.7462301e-10,0.0012577177,4
152596000,0.9790312,-0.003229865,-0.0007235239,0.20368372,0.9999992,-4.8021326e-10,1.7462301e-10,0.0012577177,4
152644000,0.9790229,-0.0031620965,-0.0009831474,0.20372306,0.9999992,-4.8021326e-10,1.7462301e-10,0.0012577177,4
152696000,0.9790198,-0.0029840316,-0.0011775625,0.20373993,0.9999992,-4.8021326e-10,1.7462301e-10,0.0012577177,4
152748000,0.97902393,-0.0028777274,-0.0011518383,0.20372185,0.9999992,-4.8021326e-10,1.7462301e-10,0.0012577177,4
152804000,0.9790222,-0.0028344695,-0.00096502656,0.20373169,0.9999992,-4.8021326e-10,1.7462301e-10,0.0012577177,4
152852000,0.9790228,-0.0029213596,-0.00073565956,0.20372842,0.9999992,-4.8021326e-10,1.7462301e-10,0.0012577177,4
152904000,0.9790365,-0.0030668858,-0.00064770854,0.20366111,0.9999992,-4.8021326e-10,1.7462301e-10,0.0012577177,4
152956000,0.979033,-0.003171799,-0.0005384264,0.20367667,0.9999992,-4.8021326e-10,1.7462301e-10,0.0012577177,4
153008000,0.97903615,-0.0032881629,-0.0004121342,0.20365979,0.9999992,-4.8021326e-10,1.7462301e-10,0.0012577177,4
153060000,0.97902787,-0.0033285096,-0.00030784294,0.20369929,0.9999992,-4.8021326e-10,1.7462301e-10,0.0012577177,4
153112000,0.9790315,-0.0033421037,-0.0003409185,0.20368142,0.9999992,-4.8021326e-10,1.7462301e-10,0.0012577177,4
153164000,0.9790305,-0.0033108452,-0.00030534735,0.20368701,0.9999992,-4.8021326e-10,1.7462301e-10,0.0012577177,4
153216000,0.97902876,-0.0034008406,-0.00029414849,0.2036937,0.9999992,-4.8021326e-10,1.7462301e-10,0.0012577177,4
153268000,0.9790333,-0.0033712494,-0.00033193664,0.20367195,0.9999992,-4.8021326e-10,1.7462301e-10,0.0012577177,4
153320000,0.97904027,-0.003322036,-0.00024327755,0.20363985,0.9999992,-4.8021326e-10,1.7462301e-10,0.0012577177,4
153372000,0.9790438,-0.0032845016,-0.0002700364,0.20362365,0.9999992,-4.8021326e-10,1.7462301e-10,0.0012577177,4
153424000,0.97903025,-0.003499923,-0.00044277607,0.20368464,0.9999992,-4.8021326e-10,1.7462301e-10,0.0012577177,4
153476000,0.9790208,-0.0036940777,-0.0005753151,0.20372607,0.9999992,-4.8021326e-10,1.7462301e-10,0.0012577177,4
153532000,0.97903335,-0.0038459962,-0.00041051008,0.20366383,0.9999992,-4.8021326e-10,1.7462301e-10,0.0012577177,4
153584000,0.97902054,-0.003909673,-0.00013028616,0.20372413,0.9999992,-4.8021326e-10,1.7462301e-10,0.0012577177,4
153632000,0.9790134,-0.003957618,7.957578e-06,0.20375772,0.9999992,-4.8021326e-10,1.7462301e-10,0.0012577177,4
153688000,0.97900724,-0.004104509,0.00023133316,0.20378394,0.9999992,-4.8021326e-10,1.7462301e-10,0.0012577177,4
153736000,0.9790047,-0.0042323633,0.00037858685,0.20379354,0.9999992,-4.8021326e-10,1.7462301e-10,0.0012577177,4
153788000,0.9789925,-0.004072997,0.0005147705,0.20385545,0.9999992,-4.8021326e-10,1.7462301e-10,0.0012577177,4
153840000,0.97900134,-0.0038705089,0.000500417,0.20381658,0.9999992,-4.8021326e-10,1.7462301e-10,0.0012577177,4
153892000,0.9790104,-0.003815286,0.00039680908,0.20377454,0.9999992,-4.8021326e-10,1.7462301e-10,0.0012577177,4
153944000,0.9790068,-0.0037667272,0.00017868953,0.20379293,0.9999992,-4.8021326e-10,1.7462301e-10,0.0012577177,4
153996000,0.97900164,-0.003717471,-5.613866e-05,0.20381881,0.9999992,-4.8021326e-10,1.7462301e-10,0.0012577177,4
154048000,0.9790015,-0.0037882968,-0.00024376101,0.20381741,0.9999992,-4.8021326e-10,1.7462301e-10,0.0012577177,4
154104000,0.9789905,-0.0036830956,-0.00051624,0.20387207,0.9999992,-4.8021326e-10,1.7462301e-10,0.0012577177,4
154152000,0.9789967,-0.0036811684,-0.00056550524,0.20384234,0.9999992,-4.8021326e-10,1.7462301e-10,0.0012577177,4
154204000,0.97900075,-0.003379478,-0.0004161942,0.2038284,0.9999992,-4.8021326e-10,1.7462301e-10,0.0012577177,4
154256000,0.9789897,-0.0032090459,-0.0003068442,0.20388453,0.9999992,-4.8021326e-10,1.7462301e-10,0.0012577177,4
154308000,0.9789904,-0.0032521808,-0.00022055532,0.20388032,0.9999992,-4.8021326e-10,1.7462301e-10,0.0012577177,4
154360000,0.9789772,-0.0034971936,-9.05155e-05,0.20393978,0.9999992,-4.8021326e-10,1.7462301e-10,0.0012577177,4
154416000,0.9789919,-0.0036995155,-0.00017261371,0.20386578,0.9999992,-4.8021326e-10,1.7462301e-10,0.0012577177,4
154464000,0.97899175,-0.0037764702,-0.0002925196,0.2038651,0.9999992,-4.8021326e-10,1.7462301e-10,0.0012577177,4
154516000,0.97899425,-0.003861832,-0.00023920831,0.2038516,0.9999992,-4.8021326e-10,1.7462301e-10,0.0012577177,4
154572000,0.9790067,-0.0038794575,-0.0001637413,0.203791,0.9999992,-4.8021326e-10,1.7462301e-10,0.0012577177,4
154624000,0.9790175,-0.0039165476,-9.269901e-05,0.20373876,0.9999992,-4.8021326e-10,1.7462301e-10,0.0012577177,4
154676000,0.9790029,-0.004053713,3.0565112e-05,0.20380592,0.9999992,-4.8021326e-10,1.7462301e-10,0.0012577177,4
154728000,0.97899836,-0.004091061,0.00012972218,0.20382741,0.9999992,-4.8021326e-10,1.7462301e-10,0.0012577177,4
154776000,0.9790024,-0.0041861567,0.00015151227,0.20380579,0.9999992,-4.8021326e-10,1.7462301e-10,0.0012577177,4
154828000,0.97900575,-0.0044173333,0.00010040752,0.203785,0.9999992,-4.8021326e-10,1.7462301e-10,0.0012577177,4
154880000,0.97900206,-0.0045636464,-0.0001301404,0.20379944,0.9999992,-4.8021326e-10,1.7462301e-10,0.0012577177,4
154936000,0.9789865,-0.0045295716,-0.00016091064,0.20387489,0.9999992,-4.8021326e-10,1.7462301e-10,0.0012577177,4
154984000,0.97899985,-0.0046637105,-0.00014312408,0.203808,0.9999992,-4.8021326e-10,1.7462301e-10,0.0012577177,4
155036000,0.97899413,-0.004777772,-0.00017548112,0.20383261,0.9999992,-4.8021326e-10,1.7462301e-10,0.0012577177,4
155092000,0.9789803,-0.004652267,-0.00032745776,0.20390163,0.9999992,-4.8021326e-10,1.7462301e-10,0.0012577177,4
155140000,0.9789875,-0.004465498,-0.0003200264,0.20387119,0.9999992,-4.8021326e-10,1.7462301e-10,0.0012577177,4
155192000,0.9789895,-0.0043486673,-0.00016729163,0.20386495,0.9999992,-4.8021326e-10,1.7462301e-10,0.0012577177,4
155244000,0.97900075,-0.004357548,-1.189965e-05,0.20381011,0.9999992,-4.8021326e-10,1.7462301e-10,0.0012577177,4
155296000,0.979014,-0.0044102822,-0.00013200592,0.20374541,0.9999992,-4.8021326e-10,1.7462301e-10,0.0012577177,4
155348000,0.9790139,-0.0044976207,-0.00046690245,0.2037436,0.9999992,-4.8021326e-10,1.7462301e-10,0.0012577177,4
155400000,0.97901255,-0.0046455935,-0.00083522784,0.20374529,0.9999992,-4.8021326e-10,1.7462301e-10,0.0012577177,4
155452000,0.9790235,-0.004721719,-0.001072676,0.20368996,0.9999992,-4.8021326e-10,1.7462301e-10,0.0012577177,4
155504000,0.979017,-0.004639494,-0.0011013021,0.20372315,0.9999992,-4.8021326e-10,1.7462301e-10,0.0012577177,4
155560000,0.97902256,-0.0045633125,-0.0010905501,0.20369828,0.9999992,-4.8021326e-10,1.7462301e-10,0.0012577177,4
155608000,0.97902375,-0.0046473956,-0.0010058171,0.2036912,0.9999992,-4.8021326e-10,1.7462301e-10,0.0012577177,4
155660000,0.97902155,-0.004776121,-0.00093271956,0.20369862,0.9999992,-4.8021326e-10,1.7462301e-10,0.0012577177,4
155712000,0.9790056,-0.0048511364,-0.0008992016,0.20377363,0.9999992,-4.8021326e-10,1.7462301e-10,0.0012577177,4
155768000,0.97898567,-0.0049631456,-0.0009125994,0.20386645,0.9999992,-4.8021326e-10,1.7462301e-10,0.0012577177,4
155816000,0.97899604,-0.005144112,-0.0009696475,0.20381215,0.9999992,-4.8021326e-10,1.7462301e-10,0.0012577177,4
155868000,0.9790222,-0.005307128,-0.0010762988,0.20368198,0.9999992,-4.8021326e-10,1.7462301e-10,0.0012577177,4
155920000,0.9790279,-0.0053623444,-0.0013408938,0.20365128,0.9999992,-4.8021326e-10,1.7462301e-10,0.0012577177,4
155972000,0.9790095,-0.0052956655,-0.0014499368,0.20374092,0.9999992,-4.8021326e-10,1.7462301e-10,0.0012577177,4
156024000,0.9790068,-0.005369859,-0.0015597398,0.20375061,0.9999992,-4.8021326e-10,1.7462301e-10,0.0012577177,4
156076000,0.979001,-0.0054402165,-0.0015811187,0.20377667,0.9999992,-4.8021326e-10,1.7462301e-10,0.0012577177,4
156128000,0.97900784,-0.0053426833,-0.001733059,0.20374516,0.9999992,-4.8021326e-10,1.7462301e-10,0.0012577177,4
156184000,0.97902465,-0.0052599106,-0.0017933066,0.20366634,0.9999992,-4.8021326e-10,1.7462301e-10,0.0012577177,4
156236000,0.97903883,-0.005060167,-0.0017116616,0.2036038,0.9999992,-4.8021326e-10,1.7462301e-10,0.0012577177,4
156284000,0.97903365,-0.004900803,-0.0016137564,0.20363358,0.9999992,-4.8021326e-10,1.7462301e-10,0.0012577177,4
156340000,0.979038,-0.0047040125,-0.0015728208,0.20361727,0.9999992,-4.8021326e-10,1.7462301e-10,0.0012577177,4
156388000,0.97903544,-0.004584037,-0.0015582455,0.2036322,0.9999992,-4.8021326e-10,1.7462301e-10,0.0012577177,4
156440000,0.9790578,-0.004298609,-0.001502449,0.20353162,0.9999992,-4.8021326e-10,1.7462301e-10,0.0012577177,4
156492000,0.97907096,-0.0042515425,-0.0014046212,0.20347029,0.9999992,-4.8021326e-10,1.7462301e-10,0.0012577177,4
156544000,0.97906476,-0.0044060876,-0.0014197789,0.20349663,0.9999992,-4.8021326e-10,1.7462301e-10,0.0012577177,4
156600000,0.9790564,-0.004615229,-0.0013473333,0.20353281,0.9999992,-4.8021326e-10,1.7462301e-10,0.0012577177,4
156648000,0.9790449,-0.004804526,-0.0013217153,0.20358342,0.9999992,-4.8021326e-10,1.7462301e-10,0.0012577177,4
156700000,0.9790515,-0.004937966,-0.0013614525,0.20354843,0.9999992,-4.8021326e-10,1.7462301e-10,0.0012577177,4
156752000,0.97903645,-0.0048471307,-0.0014906626,0.20362218,0.9999992,-4.8021326e-10,1.7462301e-10,0.0012577177,4
156804000,0.9790233,-0.0048346217,-0.0013270841,0.2036872,0.9999992,-4.8021326e-10,1.7462301e-10,0.0012577177,4
156856000,0.97902054,-0.0048616,-0.0011095793,0.20370065,0.9999992,-4.8021326e-10,1.7462301e-10,0.0012577177,4
156908000,0.9790183,-0.0048601246,-0.0010962522,0.20371157,0.9999992,-4.8021326e-10,1.7462301e-10,0.0012577177,4
156964000,0.9790046,-0.004892947,-0.0008378395,0.2037778,0.9999992,-4.8021326e-10,1.7462301e-10,0.0012577177,4
157012000,0.9790127,-0.005023236,-0.0006808427,0.20373613,0.9999992,-4.8021326e-10,1.7462301e-10,0.0012577177,4
157064000,0.97901785,-0.0050864182,-0.00056031905,0.20371069,0.9999992,-4.8021326e-10,1.7462301e-10,0.0012577177,4
157120000,0.9790096,-0.005186918,-0.0008272155,0.20374651,0.9999992,-4.8021326e-10,1.7462301e-10,0.0012577177,4
157168000,0.9789961,-0.0052963016,-0.0010323084,0.20380755,0.9999992,-4.8021326e-10,1.7462301e-10,0.0012577177,4
157220000,0.9790009,-0.0053536627,-0.0011719363,0.20378213,0.9999992,-4.8021326e-10,1.7462301e-10,0.0012577177,4
157272000,0.9789883,-0.0054115052,-0.0011884617,0.20384133,0.9999992,-4.8021326e-10,1.7462301e-10,0.0012577177,4
157324000,0.9789983,-0.0053412854,-0.00126855,0.20379482,0.9999992,-4.8021326e-10,1.7462301e-10,0.0012577177,4
157376000,0.97899985,-0.0052900007,-0.001286137,0.20378841,0.9999992,-4.8021326e-10,1.7462301e-10,0.0012577177,4
157428000,0.9790125,-0.0053430195,-0.0012440893,0.20372665,0.9999992,-4.8021326e-10,1.7462301e-10,0.0012577177,4
157480000,0.9790074,-0.0052647,-0.0013098218,0.2037524,0.9999992,-4.8021326e-10,1.7462301e-10,0.0012577177,4
157532000,0.9790183,-0.004929632,-0.0012441995,0.20370932,0.9999992,-4.8021326e-10,1.7462301e-10,0.0012577177,4
157588000,0.979032,-0.004731392,-0.0012863638,0.20364736,0.9999992,-4.8021326e-10,1.7462301e-10,0.0012577177,4
157636000,0.9790438,-0.00448392,-0.0012237484,0.20359682,0.9999992,-4.8021326e-10,1.7462301e-10,0.0012577177,4
157692000,0.9790561,-0.0042847646,-0.0012418585,0.20354205,0.9999992,-4.8021326e-10,1.7462301e-10,0.0012577177,4
157740000,0.9790598,-0.004251335,-0.0013608328,0.20352389,0.9999992,-4.8021326e-10,1.7462301e-10,0.0012577177,4
157796000,0.97905743,-0.004229489,-0.0014572565,0.20353504,0.9999992,-4.8021326e-10,1.7462301e-10,0.0012577177,4
157844000,0.97904366,-0.0041377884,-0.0014320245,0.2036034,0.9999992,-4.8021326e-10,1.7462301e-10,0.0012577177,4
157896000,0.9790424,-0.0039609135,-0.001740593,0.20361048,0.9999992,-4.8021326e-10,1.7462301e-10,0.0012577177,4
157948000,0.9790435,-0.003911484,-0.0019301444,0.20360452,0.9999992,-4.8021326e-10,1.7462301e-10,0.0012577177,4
158000000,0.9790523,-0.0038370246,-0.0020728316,0.20356236,0.9999992,-4.8021326e-10,1.7462301e-10,0.0012577177,4
158052000,0.9790606,-0.0039548376,-0.0019484004,0.2035217,0.9999992,-4.8021326e-10,1.7462301e-10,0.0012577177,4
158104000,0.97905767,-0.004037606,-0.0016675749,0.20353597,0.9999992,-4.8021326e-10,1.7462301e-10,0.0012577177,4
158156000,0.97905695,-0.0040887063,-0.0015286662,0.20354009,0.9999992,-4.8021326e-10,1.7462301e-10,0.0012577177,4
158212000,0.9790576,-0.004157574,-0.0014925742,0.20353566,0.9999992,-4.8021326e-10,1.7462301e-10,0.0012577177,4
158260000,0.9790442,-0.0041748495,-0.0014847529,0.20359953,0.9999992,-4.8021326e-10,1.7462301e-10,0.0012577177,4
158312000,0.9790437,-0.0042682863,-0.0016124493,0.20359927,0.9999992,-4.8021326e-10,1.7462301e-10,0.0012577177,4
158364000,0.979055,-0.0042099655,-0.0018645313,0.2035444,0.9999992,-4.8021326e-10,1.7462301e-10,0.0012577177,4
158416000,0.97906476,-0.0040754653,-0.0020968444,0.20349774,0.9999992,-4.8021326e-10,1.7462301e-10,0.0012577177,4
158468000,0.9790567,-0.004039318,-0.0022205918,0.2035355,0.9999992,-4.8021326e-10,1.7462301e-10,0.0012577177,4
158520000,0.9790452,-0.0041195005,-0.002355729,0.20358793,0.9999992,-4.8021326e-10,1.7462301e-10,0.0012577177,4
158572000,0.979053,-0.0040077814,-0.0023910094,0.20355235,0.9999992,-4.8021326e-10,1.7462301e-10,0.0012577177,4
158624000,0.9790572,-0.004043387,-0.0024532527,0.2035305,0.9999992,-4.8021326e-10,1.7462301e-10,0.0012577177,4
158680000,0.9790576,-0.0041801035,-0.0024886674,0.2035257,0.9999992,-4.8021326e-10,1.7462301e-10,0.0012577177,4
158728000,0.9790502,-0.004180173,-0.002506216,0.20356083,0.9999992,-4.8021326e-10,1.7462301e-10,0.0012577177,4
158780000,0.97904617,-0.004057969,-0.00240885,0.20358402,0.9999992,-4.8021326e-10,1.7462301e-10,0.0012577177,4
158832000,0.97903097,-0.004137299,-0.002271567,0.20365728,0.9999992,-4.8021326e-10,1.7462301e-10,0.0012577177,4
158884000,0.97904795,-0.0043932153,-0.0022168776,0.20357043,0.9999992,-4.8021326e-10,1.7462301e-10,0.0012577177,4
158940000,0.9790589,-0.004543499,-0.0019774158,0.20351723,0.9999992,-4.8021326e-10,1.7462301e-10,0.0012577177,4
158988000,0.9790387,-0.0046132184,-0.0018784701,0.20361346,0.9999992,-4.8021326e-10,1.7462301e-10,0.0012577177,4
159040000,0.97903514,-0.0046651177,-0.0019915248,0.20362855,0.9999992,-4.8021326e-10,1.7462301e-10,0.0012577177,4
159092000,0.9790444,-0.00481097,-0.0018809818,0.20358187,0.9999992,-4.8021326e-10,1.7462301e-10,0.0012577177,4
159144000,0.9790424,-0.004824027,-0.0019420477,0.20359021,0.9999992,-4.8021326e-10,1.7462301e-10,0.0012577177,4
159196000,0.9790491,-0.004701254,-0.002131008,0.20355898,0.9999992,-4.8021326e-10,1.7462301e-10,0.0012577177,4
159252000,0.9790648,-0.004552051,-0.0022986815,0.20348474,0.9999992,-4.8021326e-10,1.7462301e-10,0.0012577177,4
159300000,0.9790802,-0.004518104,-0.0021875375,0.2034129,0.9999992,-4.8021326e-10,1.7462301e-10,0.0012577177,4
159352000,0.97909665,-0.0045436914,-0.0020195784,0.20333505,0.9999992,-4.8021326e-10,1.7462301e-10,0.0012577177,4
159404000,0.97909075,-0.0046194913,-0.002107861,0.20336045,0.9999992,-4.8021326e-10,1.7462301e-10,0.0012577177,4
159460000,0.9790798,-0.0045260447,-0.0021419781,0.2034151,0.9999992,-4.8021326e-10,1.7462301e-10,0.0012577177,4
159508000,0.9790824,-0.004520384,-0.0020151434,0.20340396,0.9999992,-4.8021326e-10,1.7462301e-10,0.0012577177,4
159560000,0.9790708,-0.004534024,-0.0020719531,0.20345895,0.9999992,-4.8021326e-10,1.7462301e-10,0.0012577177,4
159612000,0.9790718,-0.004699555,-0.0023109014,0.20344792,0.9999992,-4.8021326e-10,1.7462301e-10,0.0012577177,4
159664000,0.9790646,-0.0048950915,-0.0025835107,0.20347476,0.9999992,-4.8021326e-10,1.7462301e-10,0.0012577177,4
159716000,0.97905415,-0.0048796637,-0.0027591495,0.2035231,0.9999992,-4.8021326e-10,1.7462301e-10,0.0012577177,4
159768000,0.9790465,-0.004801396,-0.0027652406,0.2035615,0.9999992,-4.8021326e-10,1.7462301e-10,0.0012577177,4
159820000,0.97904944,-0.004715534,-0.0027320466,0.20354961,0.9999992,-4.8021326e-10,1.7462301e-10,0.0012577177,4
159872000,0.97905934,-0.0044950256,-0.0026085628,0.20350915,0.9999992,-4.8021326e-10,1.7462301e-10,0.0012577177,4
159928000,0.9790472,-0.004491852,-0.0025776566,0.20356798,0.9999992,-4.8021326e-10,1.7462301e-10,0.0012577177,4
159976000,0.9790529,-0.0044172034,-0.0023473036,0.20354496,0.9999992,-4.8021326e-10,1.7462301e-10,0.0012577177,4
160032000,0.9790483,-0.0044416916,-0.0021041546,0.2035693,0.9999992,-4.8021326e-10,1.7462301e-10,0.0012577177,4
160080000,0.97903943,-0.0044300477,-0.0019302706,0.20361342,0.9999992,-4.8021326e-10,1.7462301e-10,0.0012577177,4
160132000,0.9790394,-0.004638373,-0.0018342884,0.20361038,0.9999992,-4.8021326e-10,1.7462301e-10,0.0012577177,4
160184000,0.9790473,-0.0047098394,-0.0018366436,0.2035704,0.9999992,-4.8021326e-10,1.7462301e-10,0.0012577177,4
160236000,0.97904634,-0.0046904986,-0.0018473855,0.2035754,0.9999992,-4.8021326e-10,1.7462301e-10,0.0012577177,4
160288000,0.9790372,-0.0048594517,-0.0017957138,0.20361596,0.9999992,-4.8021326e-10,1.7462301e-10,0.0012577177,4
160340000,0.9790338,-0.004854616,-0.001817159,0.2036317,0.9999992,-4.8021326e-10,1.7462301e-10,0.0012577177,4
160392000,0.979036,-0.004765087,-0.0019852961,0.20362209,0.9999992,-4.8021326e-10,1.7462301e-10,0.0012577177,4
160444000,0.9790305,-0.0046799765,-0.0020621791,0.20364998,0.9999992,-4.8021326e-10,1.7462301e-10,0.0012577177,4
160496000,0.9790261,-0.0046845335,-0.002093132,0.20367037,0.9999992,-4.8021326e-10,1.7462301e-10,0.0012577177,4
160548000,0.9790399,-0.0047577834,-0.0016379575,0.20360678,0.9999992,-4.8021326e-10,1.7462301e-10,0.0012577177,4
160600000,0.97904605,-0.004413004,-0.0013030196,0.20358698,0.9999992,-4.8021326e-10,1.7462301e-10,0.0012577177,4
160656000,0.9790487,-0.0040515265,-0.0012492944,0.2035824,0.9999992,-4.8021326e-10,1.7462301e-10,0.0012577177,4
160704000,0.97905296,-0.004082828,-0.0011422804,0.2035618,0.9999992,-4.8021326e-10,1.7462301e-10,0.0012577177,4
160756000,0.97904265,-0.0042727175,-0.001096121,0.20360783,0.9999992,-4.8021326e-10,1.7462301e-10,0.0012577177,4
160808000,0.97905403,-0.0047130794,-0.0012317235,0.2035422,0.9999992,-4.8021326e-10,1.7462301e-10,0.0012577177,4
160860000,0.97904146,-0.004898162,-0.0015107535,0.20359643,0.9999992,-4.8021326e-10,1.7462301e-10,0.0012577177,4
160916000,0.97902757,-0.0050621093,-0.0016175979,0.20365891,0.9999992,-4.8021326e-10,1.7462301e-10,0.0012577177,4
160964000,0.97902805,-0.0050186873,-0.0015382412,0.20365828,0.9999992,-4.8021326e-10,1.7462301e-10,0.0012577177,4
161016000,0.97903717,-0.0050552287,-0.0015675889,0.20361285,0.9999992,-4.8021326e-10,1.7462301e-10,0.0012577177,4
161068000,0.97905475,-0.0050701583,-0.0014685517,0.20352885,0.9999992,-4.8021326e-10,1.7462301e-10,0.0012577177,4
161120000,0.97906,-0.005114838,-0.0012804158,0.20350347,0.9999992,-4.8021326e-10,1.7462301e-10,0.0012577177,4
161172000,0.9790551,-0.005092661,-0.0012096913,0.20352805,0.9999992,-4.8021326e-10,1.7462301e-10,0.0012577177,4
161228000,0.97905326,-0.0052419067,-0.0012517907,0.20353359,0.9999992,-4.8021326e-10,1.7462301e-10,0.0012577177,4
161280000,0.979062,-0.0054169684,-0.0010989292,0.20348722,0.9999992,-4.8021326e-10,1.7462301e-10,0.0012577177,4
161328000,0.9790696,-0.0052765077,-0.0008724487,0.20345563,0.9999992,-4.8021326e-10,1.7462301e-10,0.0012577177,4
161380000,0.97905725,-0.00521538,-0.00078983227,0.20351699,0.9999992,-4.8021326e-10,1.7462301e-10,0.0012577177,4
161432000,0.9790547,-0.005128406,-0.0009779527,0.20353068,0.9999992,-4.8021326e-10,1.7462301e-10,0.0012577177,4
161488000,0.9790623,-0.005001766,-0.00090408226,0.20349741,0.9999992,-4.8021326e-10,1.7462301e-10,0.0012577177,4
161536000,0.9790734,-0.0048979367,-0.0008720728,0.2034466,0.9999992,-4.8021326e-10,1.7462301e-10,0.0012577177,4
161588000,0.9790759,-0.0048708916,-0.0006554718,0.2034365,0.9999992,-4.8021326e-10,1.7462301e-10,0.0012577177,4
161640000,0.97905064,-0.005066101,-0.00036047056,0.20355344,0.9999992,-4.8021326e-10,1.7462301e-10,0.0012577177,4
161692000,0.9790477,-0.0052836817,-0.0002089575,0.20356217,0.9999992,-4.8021326e-10,1.7462301e-10,0.0012577177,4
161744000,0.9790546,-0.005325975,-0.00018795885,0.20352842,0.9999992,-4.8021326e-10,1.7462301e-10,0.0012577177,4
161796000,0.9790457,-0.005386719,-0.00015974246,0.20356941,0.9999992,-4.8021326e-10,1.7462301e-10,0.0012577177,4
161848000,0.9790434,-0.0053647,-0.0003562191,0.20358069,0.9999992,-4.8021326e-10,1.7462301e-10,0.0012577177,4
161900000,0.9790415,-0.0051964032,-0.0005171597,0.20359387,0.9999992,-4.8021326e-10,1.7462301e-10,0.0012577177,4
161952000,0.9790366,-0.005055149,-0.00059439905,0.20362072,0.9999992,-4.8021326e-10,1.7462301e-10,0.0012577177,4
162004000,0.9790446,-0.005061699,-0.00081360224,0.20358166,0.9999992,-4.8021326e-10,1.7462301e-10,0.0012577177,4
162060000,0.97904205,-0.004996972,-0.0009149925,0.20359519,0.9999992,-4.8021326e-10,1.7462301e-10,0.0012577177,4
162108000,0.9790231,-0.0049953363,-0.0010083668,0.20368573,0.9999992,-4.8021326e-10,1.7462301e-10,0.0012577177,4
162164000,0.97902405,-0.004966947,-0.0011280777,0.20368089,0.9999992,-4.8021326e-10,1.7462301e-10,0.0012577177,4
162212000,0.97902995,-0.0049994327,-0.0011981091,0.20365173,0.9999992,-4.8021326e-10,1.7462301e-10,0.0012577177,4
162264000,0.9790293,-0.0050694356,-0.0012455474,0.20365277,0.9999992,-4.8021326e-10,1.7462301e-10,0.0012577177,4
162316000,0.97903955,-0.0052158376,-0.0012293527,0.20359997,0.9999992,-4.8021326e-10,1.7462301e-10,0.0012577177,4
162368000,0.9790482,-0.0052268067,-0.0012351066,0.20355801,0.9999992,-4.8021326e-10,1.7462301e-10,0.0012577177,4
162420000,0.9790359,-0.0054136897,-0.001225314,0.2036122,0.9999992,-4.8021326e-10,1.7462301e-10,0.0012577177,4
162476000,0.9790467,-0.0055674957,-0.0012894718,0.20355578,0.9999992,-4.8021326e-10,1.7462301e-10,0.0012577177,4
162524000,0.97903746,-0.0055075176,-0.0014006319,0.20360124,0.9999992,-4.8021326e-10,1.7462301e-10,0.0012577177,4
162576000,0.97903985,-0.0054396964,-0.0012179684,0.20359273,0.9999992,-4.8021326e-10,1.7462301e-10,0.0012577177,4
162628000,0.97903967,-0.0053300476,-0.0009783836,0.20359793,0.9999992,-4.8021326e-10,1.7462301e-10,0.0012577177,4
162684000,0.97902864,-0.0053630234,-0.0007620346,0.2036508,0.9999992,-4.8021326e-10,1.7462301e-10,0.0012577177,4
162732000,0.97902304,-0.005403007,-0.0004205391,0.20367733,0.9999992,-4.8021326e-10,1.7462301e-10,0.0012577177,4
162788000,0.9790153,-0.0053272634,-0.00022069536,0.20371711,0.9999992,-4.8021326e-10,1.7462301e-10,0.0012577177,4
162840000,0.9790204,-0.005240558,-7.792185e-05,0.20369512,0.9999992,-4.8021326e-10,1.7462301e-10,0.0012577177,4
162892000,0.9790345,-0.0052256207,0.00013556152,0.20362778,0.9999992,-4.8021326e-10,1.7462301e-10,0.0012577177,4
162940000,0.97903883,-0.005214724,0.00027357886,0.20360717,0.9999992,-4.8021326e-10,1.7462301e-10,0.0012577177,4
162992000,0.97902644,-0.005210205,8.961794e-05,0.20366694,0.9999992,-4.8021326e-10,1.7462301e-10,0.0012577177,4
163044000,0.9790242,-0.004979194,-0.0002106294,0.20368308,0.9999992,-4.8021326e-10,1.7462301e-10,0.0012577177,4
163096000,0.9790298,-0.004927843,-0.0004161811,0.20365748,0.9999992,-4.8021326e-10,1.7462301e-10,0.0012577177,4
163148000,0.9790359,-0.004820722,-0.0004491233,0.20363055,0.9999992,-4.8021326e-10,1.7462301e-10,0.0012577177,4
163200000,0.97903055,-0.0048590344,-0.0004896382,0.20365511,0.9999992,-4.8021326e-10,1.7462301e-10,0.0012577177,4
163252000,0.9790306,-0.0048138476,-0.00054201926,0.2036561,0.9999992,-4.8021326e-10,1.7462301e-10,0.0012577177,4
163304000,0.9790347,-0.0048698196,-0.00066458114,0.20363422,0.9999992,-4.8021326e-10,1.7462301e-10,0.0012577177,4
163356000,0.9790346,-0.0049159755,-0.00083798135,0.20363344,0.9999992,-4.8021326e-10,1.7462301e-10,0.0012577177,4
163408000,0.97902745,-0.0050661163,-0.0007904211,0.20366395,0.9999992,-4.8021326e-10,1.7462301e-10,0.0012577177,4
163460000,0.9790278,-0.0050222944,-0.0008458256,0.203663,0.9999992,-4.8021326e-10,1.7462301e-10,0.0012577177,4
163512000,0.9790273,-0.005135865,-0.0010390845,0.20366213,0.9999992,-4.8021326e-10,1.7462301e-10,0.0012577177,4
163568000,0.97902834,-0.0052411123,-0.0013695739,0.20365252,0.9999992,-4.8021326e-10,1.7462301e-10,0.0012577177,4
163616000,0.9790396,-0.005220016,-0.0014658364,0.203598,0.9999992,-4.8021326e-10,1.7462301e-10,0.0012577177,4
163668000,0.9790444,-0.00517737,-0.00150849,0.20357594,0.9999992,-4.8021326e-10,1.7462301e-10,0.0012577177,4
163720000,0.9790477,-0.005242392,-0.0016321174,0.20355698,0.9999992,-4.8021326e-10,1.7462301e-10,0.0012577177,4
163772000,0.97904986,-0.005134478,-0.0018337385,0.20354754,0.9999992,-4.8021326e-10,1.7462301e-10,0.0012577177,4
163824000,0.9790383,-0.005095229,-0.0019424213,0.20360336,0.9999992,-4.8021326e-10,1.7462301e-10,0.0012577177,4
163876000,0.97904056,-0.005013069,-0.0020916075,0.20359297,0.9999992,-4.8021326e-10,1.7462301e-10,0.0012577177,4
163932000,0.9790417,-0.0048758355,-0.0023261239,0.20358849,0.9999992,-4.8021326e-10,1.7462301e-10,0.0012577177,4
163980000,0.9790474,-0.0045831245,-0.0024891573,0.20356564,0.9999992,-4.8021326e-10,1.7462301e-10,0.0012577177,4
164032000,0.9790472,-0.004221689,-0.0026974417,0.20357187,0.9999992,-4.8021326e-10,1.7462301e-10,0.0012577177,4
164088000,0.9790368,-0.0040511857,-0.0027730677,0.2036243,0.9999992,-4.8021326e-10,1.7462301e-10,0.0012577177,4
164140000,0.9790577,-0.0038116763,-0.0025089108,0.20353153,0.9999992,-4.8021326e-10,1.7462301e-10,0.0012577177,4
164188000,0.97906625,-0.0036611904,-0.0021296933,0.20349786,0.9999992,-4.8021326e-10,1.7462301e-10,0.0012577177,4
164244000,0.97906667,-0.0039975797,-0.0018897179,0.20349212,0.9999992,-4.8021326e-10,1.7462301e-10,0.0012577177,4
164296000,0.9790773,-0.004234318,-0.0018217962,0.20343685,0.9999992,-4.8021326e-10,1.7462301e-10,0.0012577177,4
164344000,0.97906685,-0.004307566,-0.0018711782,0.2034847,0.9999992,-4.8021326e-10,1.7462301e-10,0.0012577177,4
164396000,0.9790597,-0.004450461,-0.0018792575,0.2035163,0.9999992,-4.8021326e-10,1.7462301e-10,0.0012577177,4
164448000,0.97906095,-0.004655963,-0.0018939532,0.20350516,0.9999992,-4.8021326e-10,1.7462301e-10,0.0012577177,4
164500000,0.9790641,-0.004571119,-0.0019918897,0.2034908,0.9999992,-4.8021326e-10,1.7462301e-10,0.0012577177,4
164552000,0.9790772,-0.004546422,-0.0020737383,0.20342803,0.9999992,-4.8021326e-10,1.7462301e-10,0.0012577177,4
164604000,0.9790731,-0.004485567,-0.0021735418,0.20344816,0.9999992,-4.8021326e-10,1.7462301e-10,0.0012577177,4
164656000,0.9790676,-0.0044768066,-0.0023425317,0.20347245,0.9999992,-4.8021326e-10,1.7462301e-10,0.0012577177,4
164708000,0.9790709,-0.0044535953,-0.00236459,0.20345709,0.9999992,-4.8021326e-10,1.7462301e-10,0.0012577177,4
164760000,0.9790677,-0.004513631,-0.002189306,0.20347327,0.9999992,-4.8021326e-10,1.7462301e-10,0.0012577177,4
164812000,0.9790776,-0.0044217748,-0.0021257438,0.20342857,0.9999992,-4.8021326e-10,1.7462301e-10,0.0012577177,4
164864000,0.9790785,-0.0042430684,-0.0022013963,0.20342712,0.9999992,-4.8021326e-10,1.7462301e-10,0.0012577177,4
164916000,0.9790732,-0.0039957105,-0.0021299361,0.20345795,0.9999992,-4.8021326e-10,1.7462301e-10,0.0012577177,4
164968000,0.9790672,-0.004092185,-0.0020163609,0.20348658,0.9999992,-4.8021326e-10,1.7462301e-10,0.0012577177,4
165020000,0.9790546,-0.004040265,-0.0018655142,0.2035495,0.9999992,-4.8021326e-10,1.7462301e-10,0.0012577177,4
165072000,0.97904474,-0.0041007223,-0.0017227688,0.20359717,0.9999992,-4.8021326e-10,1.7462301e-10,0.0012577177,4
165124000,0.97904444,-0.0039710253,-0.0016968308,0.20360129,0.9999992,-4.8021326e-10,1.7462301e-10,0.0012577177,4
165176000,0.9790631,-0.0038708502,-0.0015698238,0.20351425,0.9999992,-4.8021326e-10,1.7462301e-10,0.0012577177,4
165228000,0.97906435,-0.0037529469,-0.0015415795,0.20351079,0.9999992,-4.8021326e-10,1.7462301e-10,0.0012577177,4
165284000,0.9790682,-0.003902164,-0.0016954861,0.2034879,0.9999992,-4.8021326e-10,1.7462301e-10,0.0012577177,4
165332000,0.9790535,-0.004019092,-0.0017258928,0.2035562,0.9999992,-4.8021326e-10,1.7462301e-10,0.0012577177,4
165388000,0.9790687,-0.004157851,-0.001731259,0.2034807,0.9999992,-4.8021326e-10,1.7462301e-10,0.0012577177,4
165436000,0.9790648,-0.0042838156,-0.0017384532,0.20349644,0.9999992,-4.8021326e-10,1.7462301e-10,0.0012577177,4
165488000,0.97907037,-0.004292331,-0.0018324455,0.20346873,0.9999992,-4.8021326e-10,1.7462301e-10,0.0012577177,4
165540000,0.9790756,-0.004188808,-0.0020551297,0.20344359,0.9999992,-4.8021326e-10,1.7462301e-10,0.0012577177,4
165592000,0.97907513,-0.004325296,-0.0021355008,0.20344207,0.9999992,-4.8021326e-10,1.7462301e-10,0.0012577177,4
165644000,0.97908366,-0.0045665773,-0.0022278368,0.20339458,0.9999992,-4.8021326e-10,1.7462301e-10,0.0012577177,4
165696000,0.97905874,-0.0046053897,-0.0024144202,0.20351149,0.9999992,-4.8021326e-10,1.7462301e-10,0.0012577177,4
165748000,0.9790513,-0.004599863,-0.0025887608,0.20354551,0.9999992,-4.8021326e-10,1.7462301e-10,0.0012577177,4
165800000,0.9790476,-0.004544313,-0.0027831336,0.20356202,0.9999992,-4.8021326e-10,1.7462301e-10,0.0012577177,4
165852000,0.97904485,-0.004538587,-0.0028616355,0.20357408,0.9999992,-4.8021326e-10,1.7462301e-10,0.0012577177,4
165904000,0.9790511,-0.004418833,-0.0027537658,0.2035482,0.9999992,-4.8021326e-10,1.7462301e-10,0.0012577177,4
165956000,0.9790481,-0.004438058,-0.0027338106,0.20356269,0.9999992,-4.8021326e-10,1.7462301e-10,0.0012577177,4
166008000,0.9790476,-0.0044233147,-0.0028270292,0.20356427,0.9999992,-4.8021326e-10,1.7462301e-10,0.0012577177,4
166060000,0.97906226,-0.004483471,-0.0027998972,0.20349261,0.9999992,-4.8021326e-10,1.7462301e-10,0.0012577177,4
166112000,0.9790545,-0.0045125266,-0.0025998643,0.20353174,0.9999992,-4.8021326e-10,1.7462301e-10,0.0012577177,4
166164000,0.9790506,-0.0044150446,-0.0024599158,0.20355485,0.9999992,-4.8021326e-10,1.7462301e-10,0.0012577177,4
166220000,0.9790692,-0.004299261,-0.0023262429,0.203469,0.9999992,-4.8021326e-10,1.7462301e-10,0.0012577177,4
166268000,0.97906417,-0.004478842,-0.0021724878,0.20349106,0.9999992,-4.8021326e-10,1.7462301e-10,0.0012577177,4
166320000,0.9790579,-0.004529072,-0.0020496284,0.20352158,0.9999992,-4.8021326e-10,1.7462301e-10,0.0012577177,4
166372000,0.97904533,-0.0043831784,-0.0019601376,0.20358601,0.9999992,-4.8021326e-10,1.7462301e-10,0.0012577177,4
166424000,0.9790444,-0.0042520426,-0.0019686571,0.20359309,0.9999992,-4.8021326e-10,1.7462301e-10,0.0012577177,4
166480000,0.97905535,-0.004023745,-0.002069489,0.20354392,0.9999992,-4.8021326e-10,1.7462301e-10,0.0012577177,4
166528000,0.979057,-0.004094007,-0.0023909442,0.20353124,0.9999992,-4.8021326e-10,1.7462301e-10,0.0012577177,4
166580000,0.9790525,-0.0041100737,-0.0024937866,0.20355143,0.9999992,-4.8021326e-10,1.7462301e-10,0.0012577177,4
166632000,0.97905886,-0.004197055,-0.0027120227,0.20351645,0.9999992,-4.8021326e-10,1.7462301e-10,0.0012577177,4
166688000,0.9790592,-0.0040061483,-0.0029693795,0.20351502,0.9999992,-4.8021326e-10,1.7462301e-10,0.0012577177,4
166740000,0.9790725,-0.0038593046,-0.0031076001,0.20345138,0.9999992,-4.8021326e-10,1.7462301e-10,0.0012577177,4
166788000,0.9790655,-0.0037763205,-0.0029748338,0.20348917,0.9999992,-4.8021326e-10,1.7462301e-10,0.0012577177,4
166840000,0.97905904,-0.003616519,-0.00294334,0.20352319,0.9999992,-4.8021326e-10,1.7462301e-10,0.0012577177,4
166892000,0.97906315,-0.003816122,-0.002897044,0.20350066,0.9999992,-4.8021326e-10,1.7462301e-10,0.0012577177,4
166948000,0.9790713,-0.0039733527,-0.002702273,0.20346062,0.9999992,-4.8021326e-10,1.7462301e-10,0.0012577177,4
166996000,0.97906095,-0.0040371777,-0.002322806,0.203514,0.9999992,-4.8021326e-10,1.7462301e-10,0.0012577177,4
167052000,0.9790661,-0.0039982568,-0.0021511375,0.20349234,0.9999992,-4.8021326e-10,1.7462301e-10,0.0012577177,4
167100000,0.9790545,-0.0038693303,-0.002082286,0.20355104,0.9999992,-4.8021326e-10,1.7462301e-10,0.0012577177,4
167152000,0.9790603,-0.0036854413,-0.002089135,0.20352693,0.9999992,-4.8021326e-10,1.7462301e-10,0.0012577177,4
167204000,0.97907114,-0.0036770157,-0.0020300702,0.2034752,0.9999992,-4.8021326e-10,1.7462301e-10,0.0012577177,4
167260000,0.9790791,-0.0034960208,-0.0020521083,0.20343933,0.9999992,-4.8021326e-10,1.7462301e-10,0.0012577177,4
167308000,0.97907054,-0.0033133312,-0.0020237432,0.20348419,0.9999992,-4.8021326e-10,1.7462301e-10,0.0012577177,4
167360000,0.97906226,-0.0031952914,-0.0021091637,0.20352538,0.9999992,-4.8021326e-10,1.7462301e-10,0.0012577177,4
167412000,0.97906137,-0.0033241166,-0.0022950822,0.20352565,0.9999992,-4.8021326e-10,1.7462301e-10,0.0012577177,4
167468000,0.97906053,-0.0034632913,-0.0022813615,0.20352721,0.9999992,-4.8021326e-10,1.7462301e-10,0.0012577177,4
167520000,0.979065,-0.0035346665,-0.0024435958,0.2035028,0.9999992,-4.8021326e-10,1.7462301e-10,0.0012577177,4
167572000,0.9790704,-0.0037361612,-0.0026315653,0.20347063,0.9999992,-4.8021326e-10,1.7462301e-10,0.0012577177,4
167624000,0.97905385,-0.0036801698,-0.0026232451,0.20355165,0.9999992,-4.8021326e-10,1.7462301e-10,0.0012577177,4
167672000,0.97905463,-0.0036908567,-0.0024459334,0.20354956,0.9999992,-4.8021326e-10,1.7462301e-10,0.0012577177,4
167724000,0.9790509,-0.0036816723,-0.0022814984,0.20357002,0.9999992,-4.8021326e-10,1.7462301e-10,0.0012577177,4
167780000,0.9790588,-0.0036555196,-0.002108429,0.20353395,0.9999992,-4.8021326e-10,1.7462301e-10,0.0012577177,4
167828000,0.9790651,-0.0036672687,-0.0019450758,0.20350534,0.9999992,-4.8021326e-10,1.7462301e-10,0.0012577177,4
167880000,0.97905976,-0.003886913,-0.0016454422,0.20352922,0.9999992,-4.8021326e-10,1.7462301e-10,0.0012577177,4
167932000,0.9790714,-0.004176417,-0.0014123052,0.20346957,0.9999992,-4.8021326e-10,1.7462301e-10,0.0012577177,4
167988000,0.97906715,-0.004393213,-0.0013674183,0.20348574,0.9999992,-4.8021326e-10,1.7462301e-10,0.0012577177,4
168036000,0.97905535,-0.004499242,-0.001373313,0.20354004,0.9999992,-4.8021326e-10,1.7462301e-10,0.0012577177,4
168088000,0.97904885,-0.0045971246,-0.0013738105,0.20356914,0.9999992,-4.8021326e-10,1.7462301e-10,0.0012577177,4
168140000,0.97905654,-0.0042743753,-0.0015293469,0.20353813,0.9999992,-4.8021326e-10,1.7462301e-10,0.0012577177,4
168192000,0.9790499,-0.0040585115,-0.0016776186,0.20357311,0.9999992,-4.8021326e-10,1.7462301e-10,0.0012577177,4
168244000,0.97903645,-0.0039002015,-0.0019759368,0.20363805,0.9999992,-4.8021326e-10,1.7462301e-10,0.0012577177,4
168300000,0.97645855,0.022595119,-0.013908559,0.21406713,0.9999992,-4.8021326e-10,1.7462301e-10,0.0012577177,4
168352000,0.96817243,0.046884306,-0.02895914,0.24414243,0.9999992,-4.8021326e-10,1.7462301e-10,0.0012577177,4
168400000,0.95691067,0.054733377,-0.037773147,0.28266492,0.9999992,-4.8021326e-10,1.7462301e-10,0.0012577177,4
168456000,0.9409402,0.055580974,-0.042583536,0.3312535,0.9999992,-4.8021326e-10,1.7462301e-10,0.0012577177,4
168504000,0.92621464,0.049474686,-0.04187996,0.37138233,0.9999992,-4.8021326e-10,1.7462301e-10,0.0012577177,4
168556000,0.9101045,0.039178528,-0.037956607,0.41077265,0.9999992,-4.8021326e-10,1.7462301e-10,0.0012577177,4
168612000,0.89323723,0.02827031,-0.032533452,0.44751492,0.9999992,-4.8021326e-10,1.7462301e-10,0.0012577177,4
168660000,0.87957597,0.020967374,-0.028292729,0.4744535,0.9999992,-4.8021326e-10,1.7462301e-10,0.0012577177,4
168712000,0.8657914,0.016324487,-0.025227332,0.49950227,0.9999992,-4.8021326e-10,1.7462301e-10,0.0012577177,4
168764000,0.8533101,0.014758393,-0.024235714,0.52063125,0.9999992,-4.8021326e-10,1.7462301e-10,0.0012577177,4
168816000,0.8421204,0.014914097,-0.024804601,0.5385125,0.9999992,-4.8021326e-10,1.7462301e-10,0.0012577177,4
168872000,0.8315717,0.015951926,-0.026291078,0.5545654,0.9999992,-4.8021326e-10,1.7462301e-10,0.0012577177,4
168920000,0.82367384,0.016948197,-0.02763587,0.5661366,0.9999992,-4.8021326e-10,1.7462301e-10,0.0012577177,4
168976000,0.81567144,0.018065559,-0.0289708,0.5775073,0.9999992,-4.8021326e-10,1.7462301e-10,0.0012577177,4
169024000,0.8097434,0.018878533,-0.029791791,0.5857233,0.9999992,-4.8021326e-10,1.7462301e-10,0.0012577177,4
169076000,0.80416983,0.019249916,-0.030768653,0.5932905,0.9999992,-4.8021326e-10,1.7462301e-10,0.0012577177,4
169128000,0.7994267,0.019519852,-0.031746145,0.59960675,0.9999992,-4.8021326e-10,1.7462301e-10,0.0012577177,4
169180000,0.7953649,0.01976606,-0.03235754,0.60494393,0.9999992,-4.8021326e-10,1.7462301e-10,0.0012577177,4
169232000,0.7919227,0.020010948,-0.033009473,0.6094,0.9999992,-4.8021326e-10,1.7462301e-10,0.0012577177,4
169284000,0.78895366,0.020311238,-0.033769667,0.61318773,0.9999992,-4.8021326e-10,1.7462301e-10,0.0012577177,4
169336000,0.7864554,0.020671278,-0.0345439,0.6163337,0.9999992,-4.8021326e-10,1.7462301e-10,0.0012577177,4
169388000,0.78435796,0.021020232,-0.035310015,0.6189459,0.9999992,-4.8021326e-10,1.7462301e-10,0.0012577177,4
169444000,0.7824112,0.02137566,-0.036180317,0.6213427,0.9999992,-4.8021326e-10,1.7462301e-10,0.0012577177,4
169496000,0.7808817,0.021802971,-0.037120067,0.623194,0.9999992,-4.8021326e-10,1.7462301e-10,0.0012577177,4
169544000,0.77972794,0.022173803,-0.037759468,0.62458545,0.9999992,-4.8021326e-10,1.7462301e-10,0.0012577177,4
169596000,0.77864826,0.02261156,-0.038462587,0.62587243,0.9999992,-4.8021326e-10,1.7462301e-10,0.0012577177,4
169648000,0.7777471,0.023093022,-0.03919022,0.62692934,0.9999992,-4.8021326e-10,1.7462301e-10,0.0012577177,4
169700000,0.77700573,0.0235659,-0.03989245,0.6277861,0.9999992,-4.8021326e-10,1.7462301e-10,0.0012577177,4
169752000,0.77640146,0.024119962,-0.04062054,0.62846553,0.9999992,-4.8021326e-10,1.7462301e-10,0.0012577177,4
169804000,0.7758781,0.024891747,-0.041424148,0.62902915,0.9999992,-4.8021326e-10,1.7462301e-10,0.0012577177,4
169856000,0.77541405,0.025584035,-0.042286463,0.629516,0.9999992,-4.8021326e-10,1.7462301e-10,0.0012577177,4
169908000,0.7750226,0.026427496,-0.043143094,0.6299049,0.9999992,-4.8021326e-10,1.7462301e-10,0.0012577177,4
169960000,0.77470815,0.027254432,-0.04393106,0.63020205,0.9999992,-4.8021326e-10,1.7462301e-10,0.0012577177,4
170012000,0.7744563,0.028022565,-0.04494541,0.63040626,0.9999992,-4.8021326e-10,1.7462301e-10,0.0012577177,4
170068000,0.77427727,0.028896054,-0.046058837,0.63050646,0.9999992,-4.8021326e-10,1.7462301e-10,0.0012577177,4
170116000,0.77409244,0.029403998,-0.04689248,0.6306486,0.9999992,-4.8021326e-10,1.7462301e-10,0.0012577177,4
170168000,0.7739639,0.02995487,-0.047894362,0.6307049,0.9999992,-4.8021326e-10,1.7462301e-10,0.0012577177,4
170220000,0.7738176,0.030568609,-0.048903298,0.6307777,0.9999992,-4.8021326e-10,1.7462301e-10,0.0012577177,4
170272000,0.7737716,0.0311093,-0.050046287,0.630718,0.9999992,-4.8021326e-10,1.7462301e-10,0.0012577177,4
170324000,0.7737578,0.03169814,-0.051029842,0.6306267,0.9999992,-4.8021326e-10,1.7462301e-10,0.0012577177,4
170376000,0.7737224,0.032367013,-0.051977787,0.6305589,0.9999992,-4.8021326e-10,1.7462301e-10,0.0012577177,4
170428000,0.77376735,0.03292804,-0.052797228,0.63040644,0.9999992,-4.8021326e-10,1.7462301e-10,0.0012577177,4
170480000,0.77374125,0.03352925,-0.053708445,0.63033,0.9999992,-4.8021326e-10,1.7462301e-10,0.0012577177,4
170532000,0.7736708,0.034281217,-0.054561142,0.63030267,0.9999992,-4.8021326e-10,1.7462301e-10,0.0012577177,4
170584000,0.7736559,0.035082735,-0.05542147,0.63020194,0.9999992,-4.8021326e-10,1.7462301e-10,0.0012577177,4
170636000,0.7736499,0.036073394,-0.05654825,0.6300532,0.9999992,-4.8021326e-10,1.7462301e-10,0.0012577177,4
170688000,0.7736109,0.036762025,-0.057865724,0.62994146,0.9999992,-4.8021326e-10,1.7462301e-10,0.0012577177,4
170744000,0.7735895,0.03764453,-0.05920755,0.629791,0.9999992,-4.8021326e-10,1.7462301e-10,0.0012577177,4
170796000,0.773562,0.038539115,-0.060234446,0.6296732,0.9999992,-4.8021326e-10,1.7462301e-10,0.0012577177,4
170848000,0.7735265,0.039444193,-0.061245468,0.6295633,0.9999992,-4.8021326e-10,1.7462301e-10,0.0012577177,4
170896000,0.7735145,0.040251672,-0.06221731,0.6294316,0.9999992,-4.8021326e-10,1.7462301e-10,0.0012577177,4
170948000,0.7735271,0.041004967,-0.06322648,0.6292671,0.9999992,-4.8021326e-10,1.7462301e-10,0.0012577177,4
171000000,0.77350444,0.041776806,-0.06431281,0.6291339,0.9999992,-4.8021326e-10,1.7462301e-10,0.0012577177,4
171052000,0.77349126,0.04266315,-0.06546919,0.6289713,0.9999992,-4.8021326e-10,1.7462301e-10,0.0012577177,4
171104000,0.7734751,0.043609966,-0.066688485,0.62879825,0.9999992,-4.8021326e-10,1.7462301e-10,0.0012577177,4
171156000,0.7734429,0.04440218,-0.06793581,0.62864876,0.9999992,-4.8021326e-10,1.7462301e-10,0.0012577177,4
171208000,0.77341413,0.045213368,-0.068973824,0.6285134,0.9999992,-4.8021326e-10,1.7462301e-10,0.0012577177,4
171264000,0.7733924,0.046196073,-0.07016793,0.62833655,0.9999992,-4.8021326e-10,1.7462301e-10,0.0012577177,4
171312000,0.7733628,0.047205206,-0.07130261,0.62817,0.9999992,-4.8021326e-10,1.7462301e-10,0.0012577177,4
171364000,0.77331823,0.048261613,-0.0725518,0.6280016,0.9999992,-4.8021326e-10,1.7462301e-10,0.0012577177,4
171416000,0.77326196,0.049184296,-0.073786885,0.62785536,0.9999992,-4.8021326e-10,1.7462301e-10,0.0012577177,4
171468000,0.77324146,0.050069742,-0.075169854,0.6276466,0.9999992,-4.8021326e-10,1.7462301e-10,0.0012577177,4
171524000,0.7731742,0.051036675,-0.076661006,0.627471,0.9999992,-4.8021326e-10,1.7462301e-10,0.0012577177,4
171572000,0.77310026,0.05193252,-0.07782797,0.627345,0.9999992,-4.8021326e-10,1.7462301e-10,0.0012577177,4
171628000,0.77302957,0.05310181,-0.07915805,0.627168,0.9999992,-4.8021326e-10,1.7462301e-10,0.0012577177,4
171676000,0.77299607,0.05408884,-0.08047078,0.6269577,0.9999992,-4.8021326e-10,1.7462301e-10,0.0012577177,4
171728000,0.77293396,0.055379897,-0.08196008,0.62672865,0.9999992,-4.8021326e-10,1.7462301e-10,0.0012577177,4
171780000,0.7728263,0.056601357,-0.0833378,0.6265705,0.9999992,-4.8021326e-10,1.7462301e-10,0.0012577177,4
171832000,0.7727158,0.05772239,-0.08452928,0.6264448,0.9999992,-4.8021326e-10,1.7462301e-10,0.0012577177,4
171884000,0.7726746,0.05883655,-0.08571816,0.62623054,0.9999992,-4.8021326e-10,1.7462301e-10,0.0012577177,4
171936000,0.7726246,0.059950765,-0.08710093,0.6259957,0.9999992,-4.8021326e-10,1.7462301e-10,0.0012577177,4
171992000,0.7723908,0.061452992,-0.088646226,0.62592155,0.9999992,-4.8021326e-10,1.7462301e-10,0.0012577177,4
172040000,0.7722827,0.06244575,-0.09008171,0.6257518,0.9999992,-4.8021326e-10,1.7462301e-10,0.0012577177,4
172092000,0.77214944,0.06374102,-0.09163614,0.62555987,0.9999992,-4.8021326e-10,1.7462301e-10,0.0012577177,4
172144000,0.7719815,0.065134995,-0.09318421,0.6253948,0.9999992,-4.8021326e-10,1.7462301e-10,0.0012577177,4
172196000,0.77187264,0.066425726,-0.09455356,0.625188,0.9999992,-4.8021326e-10,1.7462301e-10,0.0012577177,4
172248000,0.77173996,0.06767087,-0.095958225,0.6250041,0.9999992,-4.8021326e-10,1.7462301e-10,0.0012577177,4
172300000,0.771655,0.06901301,-0.09742609,0.624735,0.9999992,-4.8021326e-10,1.7462301e-10,0.0012577177,4
172352000,0.7715645,0.07021516,-0.09886416,0.624487,0.9999992,-4.8021326e-10,1.7462301e-10,0.0012577177,4
172404000,0.7713925,0.07160274,-0.1003882,0.6242987,0.9999992,-4.8021326e-10,1.7462301e-10,0.0012577177,4
172456000,0.7712037,0.07287879,-0.102069415,0.6241118,0.9999992,-4.8021326e-10,1.7462301e-10,0.0012577177,4
172508000,0.7710182,0.07429174,-0.10389084,0.6238736,0.9999992,-4.8021326e-10,1.7462301e-10,0.0012577177,4
172560000,0.77079153,0.07571356,-0.105757006,0.6236693,0.9999992,-4.8021326e-10,1.7462301e-10,0.0012577177,4
172612000,0.7706043,0.07718103,-0.10747089,0.6234277,0.9999992,-4.8021326e-10,1.7462301e-10,0.0012577177,4
172664000,0.7704033,0.07853074,-0.10925949,0.6231968,0.9999992,-4.8021326e-10,1.7462301e-10,0.0012577177,4
172720000,0.770162,0.07997067,-0.11139658,0.62293345,0.9999992,-4.8021326e-10,1.7462301e-10,0.0012577177,4
172768000,0.7699417,0.081310414,-0.11311365,0.6227229,0.9999992,-4.8021326e-10,1.7462301e-10,0.0012577177,4
172824000,0.7697139,0.082912825,-0.11502184,0.6224435,0.9999992,-4.8021326e-10,1.7462301e-10,0.0012577177,4
172872000,0.7695243,0.084220916,-0.11671308,0.62218744,0.9999992,-4.8021326e-10,1.7462301e-10,0.0012577177,4
172928000,0.7692778,0.08590078,-0.118788175,0.6218699,0.9999992,-4.8021326e-10,1.7462301e-10,0.0012577177,4
172980000,0.76904935,0.0873209,-0.120771445,0.6215727,0.9999992,-4.8021326e-10,1.7462301e-10,0.0012577177,4
173032000,0.7688293,0.08876778,-0.12245584,0.6213101,0.9999992,-4.8021326e-10,1.7462301e-10,0.0012577177,4
173080000,0.7685797,0.09036221,-0.12400928,0.62108105,0.9999992,-4.8021326e-10,1.7462301e-10,0.0012577177,4
173132000,0.76829654,0.09208566,-0.12581463,0.620815,0.9999992,-4.8021326e-10,1.7462301e-10,0.0012577177,4
173188000,0.76800054,0.093777314,-0.12785326,0.62051153,0.9999992,-4.8021326e-10,1.7462301e-10,0.0012577177,4
173236000,0.7677092,0.09516521,-0.12984283,0.6202475,0.9999992,-4.8021326e-10,1.7462301e-10,0.0012577177,4
173288000,0.76735723,0.096860014,-0.1319343,0.6199794,0.9999992,-4.8021326e-10,1.7462301e-10,0.0012577177,4
173340000,0.76702046,0.098497376,-0.13404334,0.6196857,0.9999992,-4.8021326e-10,1.7462301e-10,0.0012577177,4
173392000,0.7666921,0.10021321,-0.13620496,0.61934555,0.9999992,-4.8021326e-10,1.7462301e-10,0.0012577177,4
173448000,0.76629436,0.10202842,-0.13846439,0.6190402,0.9999992,-4.8021326e-10,1.7462301e-10,0.0012577177,4
173496000,0.7659791,0.10350802,-0.14046063,0.61873484,0.9999992,-4.8021326e-10,1.7462301e-10,0.0012577177,4
173548000,0.76567775,0.105095655,-0.1427436,0.6183178,0.9999992,-4.8021326e-10,1.7462301e-10,0.0012577177,4
173600000,0.76528496,0.106744625,-0.14510722,0.61797124,0.9999992,-4.8021326e-10,1.7462301e-10,0.0012577177,4
173656000,0.76485634,0.10847658,-0.14756434,0.6176183,0.9999992,-4.8021326e-10,1.7462301e-10,0.0012577177,4
173708000,0.7645109,0.110095836,-0.14972599,0.617239,0.9999992,-4.8021326e-10,1.7462301e-10,0.0012577177,4
173760000,0.7641763,0.11183666,-0.15185395,0.6168206,0.9999992,-4.8021326e-10,1.7462301e-10,0.0012577177,4
173808000,0.7638284,0.11338783,-0.15378487,0.6164897,0.9999992,-4.8021326e-10,1.7462301e-10,0.0012577177,4
173860000,0.7634865,0.1150485,-0.15598321,0.61605316,0.9999992,-4.8021326e-10,1.7462301e-10,0.0012577177,4
173912000,0.7630572,0.116902635,-0.15829594,0.61564606,0.9999992,-4.8021326e-10,1.7462301e-10,0.0012577177,4
