timestamp,timestamp_sample,xyz[0],xyz[1],xyz[2]
146200000,146200000,-0.003330959,-0.0039681876,-0.0022893616
146212000,146212000,0.0010535556,-0.0029786546,0.0004811813
146224000,146224000,-0.0010089311,0.0017387536,-0.0004328378
146236000,146236000,-0.003737606,0.002394966,0.0015240967
146248000,146248000,-0.0042545977,-0.0024876143,-2.5316207e-05
146256000,146256000,-0.0013132163,0.0010023392,-0.00043754498
146272000,146272000,0.004080455,0.0033143149,0.004072201
146284000,146284000,-0.002574504,-0.0006932337,-0.0026207317
146296000,146296000,-0.004740844,-0.002662661,0.00269405
146308000,146308000,-0.0008180077,0.001008593,-0.0006681728
146320000,146320000,0.0040196436,-0.0017201598,-0.0014817748
146332000,146332000,0.0015663188,0.0010422268,0.0019188762
146344000,146344000,0.0021594516,0.0049587833,0.0010416544
146356000,146356000,0.0031217372,0.00016079843,0.0013851416
146368000,146368000,0.004782772,0.0016077128,-0.000878418
146380000,146380000,-0.0031259353,-0.003439927,0.00034266358
146392000,146392000,-0.0017754607,0.0019808803,0.0038534838
146404000,146404000,-0.0011316035,0.00012751017,0.0033569813
146416000,146416000,0.0027109273,0.0013350346,0.00020291253
146428000,146428000,-0.0050182734,0.0030715019,0.0006830588
146440000,146440000,-0.0054646474,-0.0028638723,-0.0018042376
146452000,146452000,0.000942771,-0.0007574088,-0.0021843964
146464000,146464000,-0.00018856837,-0.0038807485,-0.00053014944
146476000,146476000,-0.0027631666,-0.0025174376,-0.00087670685
146488000,146488000,-0.0024003782,-0.0024244785,-0.0031468493
146500000,146500000,-0.0008563958,0.00018776953,-0.0014139598
146508000,146508000,0.0013647056,-0.002960985,-0.00080920185
146524000,146524000,-0.0050863,-0.0018995637,0.00022072233
146536000,146536000,-0.001960145,-0.0025648838,0.0012006192
146548000,146548000,0.0047325967,-0.0008806973,0.003436813
146556000,146556000,0.0029926456,0.001229404,0.003839136
146572000,146572000,-0.00400528,-0.0010123784,0.0048074564
146584000,146584000,-0.0031759178,0.0010155835,-0.00012991224
146592000,146592000,-0.002162616,0.0006276611,-0.0019655973
146608000,146608000,0.0020474899,0.0013671941,0.00020770039
146620000,146620000,0.0052799764,0.0019986394,-0.0037248651
146632000,146632000,0.00056324684,-0.0005353908,-0.0017530718
146644000,146644000,-0.0031150628,-5.694898e-05,-0.0028998854
146656000,146656000,-0.0011899518,0.0015442595,-0.0016973196
146664000,146664000,0.0018265074,0.003772254,-7.266334e-05
146680000,146680000,0.0036399285,0.0015312685,0.0068381154
146692000,146692000,0.0011488097,-0.0030446667,0.003459133
146704000,146704000,0.0027843057,0.0005901735,-0.0022324272
146716000,146716000,0.00036842452,-0.0021708626,0.0009989892
146724000,146724000,-0.0012313176,-0.002251044,0.00063391624
146740000,146740000,0.0028895426,0.00230685,0.0040571466
146752000,146752000,0.0049818684,-0.0005354858,0.0017582066
146764000,146764000,-0.00011978694,-0.002246994,-0.006249715
146776000,146776000,-0.00039581105,0.00029391004,-0.0012604197
146788000,146788000,-0.0027359603,-0.0012118858,-0.001485488
146800000,146800000,0.0019246605,-0.0038949377,0.0008801232
146812000,146812000,-0.0021729558,-0.0033413684,-0.00036523145
146824000,146824000,0.0026252074,-0.0016887961,-0.0026462148
146836000,146836000,-0.00090801925,0.0036646884,-6.3429616e-05
146848000,146848000,0.0035790387,-4.422851e-06,0.0019190246
146860000,146860000,0.0012257672,6.907107e-05,0.00158879
146872000,146872000,-0.00081035995,0.0006920877,0.0014183512
146884000,146884000,3.8581435e-05,0.0013612537,-0.0032445306
146896000,146896000,0.0015625174,-9.6595846e-05,-0.005056269
146908000,146908000,0.0015495706,-0.0009613531,-3.6265574e-05
146920000,146920000,-0.00021421438,-0.0010599019,0.0007795926
146928000,146928000,-0.0028378558,-0.00081227114,0.00066394644
146940000,146940000,-0.004881307,-0.0017008502,0.0037069852
146956000,146956000,0.0027226512,-0.003601912,-0.0032184946
146968000,146968000,-0.0017098774,-0.0030935393,-0.0005436172
146980000,146980000,0.0011231706,-0.0011768308,-0.004397678
146992000,146992000,-0.0019856512,0.0031222992,0.0024083855
147004000,147004000,0.0014072686,0.00429315,-5.1964533e-05
147016000,147016000,0.0006375162,0.0032096077,0.0004204514
147028000,147028000,-0.0013986088,0.0031142505,-0.0047212937
147036000,147036000,-0.0015299146,0.00039304048,-0.0029076994
147052000,147052000,0.00010449049,-0.0019072965,-0.0015309019
147064000,147064000,0.00028263536,-0.0005703587,0.00033845767
147076000,147076000,0.003930131,0.00038259244,-0.0041138683
147088000,147088000,0.001082366,-4.908722e-05,-0.0011079158
147100000,147100000,0.0033257233,0.0027882122,-0.0006780036
147108000,147108000,0.004721994,0.0003376389,-0.005353342
147124000,147124000,-0.0014198504,-0.002564054,0.0039470866
147136000,147136000,-0.000395542,-0.003619418,0.00314203
147148000,147148000,-0.0013710903,-0.0025619315,0.0011557426
147160000,147160000,0.0012858419,-0.00047937408,-0.002035576
147172000,147172000,0.0015200281,0.00076691154,0.0009403141
147184000,147184000,0.0020970404,-0.0014168508,0.0003651203
147192000,147192000,-0.002516545,-0.004003523,-0.0049754004
147204000,147204000,0.00040746777,9.937119e-05,-0.0046789707
147220000,147220000,0.00086619344,0.0031570308,0.00063416373
147228000,147228000,-0.00428843,0.00043022493,-0.0016280679
147244000,147244000,0.0030367428,-0.0018130862,-0.00028617657
147256000,147256000,-0.00064121844,0.0021207854,-0.0017863003
147264000,147264000,0.00052875665,0.0013390095,0.0018706984
147280000,147280000,-0.0004823057,-0.0006700964,0.0018088218
147292000,147292000,-0.001335653,-6.4145774e-05,0.003344976
147304000,147304000,0.00021958345,0.0008485089,0.0025474087
147316000,147316000,-0.002122335,-0.0020033233,0.0054186573
147328000,147328000,0.0012554121,0.0041605365,0.0010701107
147336000,147336000,-0.0013895051,0.0011299676,0.00038577357
147352000,147352000,-0.0006795841,-7.5269956e-05,-0.0018096743
147364000,147364000,-0.0002330828,-0.0045426227,0.0035008788
147376000,147376000,-6.810698e-05,-0.0025505228,0.0030812745
147388000,147388000,-0.0020467066,-0.0008337358,-0.00016990265
147400000,147400000,-0.0027900347,-0.0022508022,-0.0036370482
147412000,147412000,0.00031187217,-0.0034484132,-0.001721993
147424000,147424000,-0.0017321092,0.0050506247,-0.0008613951
147436000,147436000,-0.0017682735,8.593593e-05,-0.0020052548
147444000,147444000,-0.0007774665,-0.001900218,0.00048619564
147460000,147460000,0.00037247734,-0.0064037135,0.004257007
147468000,147468000,0.00050179556,-0.0064778156,-0.0017291572
147484000,147484000,-0.004291019,-0.00012524426,-0.0027702271
147492000,147492000,-0.0054856148,0.001243996,-0.0024186415
147504000,147504000,0.00067183987,-0.0064706267,-0.0037801529
147520000,147520000,-0.0009814485,0.0042792344,-0.0012727489
147528000,147528000,0.0044936114,0.0010196967,0.00037089165
147544000,147544000,0.0025340375,-0.0016471418,-0.0009246365
147556000,147556000,-0.0018667863,-0.002409893,0.00026760483
147568000,147568000,-0.0004257679,-0.0018657278,-0.00051527936
147580000,147580000,-0.004167023,-0.0006695478,-0.0015011587
147592000,147592000,-0.0034152004,0.00015499629,0.00040533266
147600000,147600000,-0.0025787496,-0.002851631,0.0018712789
147616000,147616000,0.0015612666,-0.0019547017,0.0007284322
147624000,147624000,-0.0010754215,0.0002821954,-0.004972894
147640000,147640000,0.0032047858,0.0010528802,0.0028425874
147652000,147652000,-0.0018712769,-0.0013544522,0.0022388175
147664000,147664000,-0.001598015,-0.0006109392,-0.00094016735
147676000,147676000,0.0017105925,-0.0018596593,0.0040117158
147688000,147688000,-0.0011438264,-0.0035024104,0.007171564
147700000,147700000,0.0016164994,-0.0070010666,0.0024911615
147712000,147712000,0.0019380809,-0.0010563289,0.0042408803
147724000,147724000,-0.00068883173,0.004518883,0.0054916255
147732000,147732000,-0.0020117965,0.0012225155,0.0047604023
147748000,147748000,-0.002028897,-0.0005511879,0.0006804031
147760000,147760000,0.0029931185,0.0027286196,0.00059910526
147772000,147772000,0.0053780936,0.0016612071,0.0015092754
147784000,147784000,-0.0013151041,-0.0010576211,-0.002061036
147796000,147796000,-0.00012863177,0.0019432772,-0.0038142821
147804000,147804000,0.00088878314,0.0032805176,0.0015242925
147820000,147820000,-0.0022962578,0.001323015,0.0015385004
147832000,147832000,-0.002716284,-0.0011994364,0.0021601806
147844000,147844000,-0.003448578,0.0011365465,0.0011701062
147852000,147852000,-0.0011584971,-0.00085783005,-0.00054869894
147868000,147868000,0.00039779994,-0.00031481078,0.005172749
147880000,147880000,-0.003456471,0.0013339156,-0.0023162575
147892000,147892000,0.0045115156,-0.0003019264,-0.0020246129
147904000,147904000,0.00028974464,0.002309912,-9.7664306e-05
147916000,147916000,0.0055680773,0.0064225355,0.0025187628
147928000,147928000,0.0012804703,0.0003293543,0.0015634522
147940000,147940000,0.0029369532,0.00068324106,0.0031321405
147952000,147952000,-0.0015859925,0.005638947,-0.0020988993
147964000,147964000,-0.0005993341,0.0033282647,0.0041519175
147976000,147976000,-0.003506157,-0.0038888627,0.001407657
147988000,147988000,-0.0001394343,0.0033242742,-0.001176779
147996000,147996000,-0.0016545684,0.003901862,0.0008704747
148008000,148008000,0.00093834556,-0.000869852,0.0022935916
148024000,148024000,0.0033613956,0.0042693308,-0.003807957
148036000,148036000,0.0055835703,-0.0040186015,-0.0016497626
148048000,148048000,0.0032718435,-0.0018670294,0.0011014463
148060000,148060000,-0.0013182438,-0.0052432986,0.0043075043
148072000,148072000,0.0029731612,-0.013086609,0.0016125218
148084000,148084000,0.0066713155,-0.034939934,-0.0006884461
148092000,148092000,0.013002034,-0.045651436,-0.0032796585
148108000,148108000,0.035170928,-0.0700719,-0.0013871981
148120000,148120000,0.0454717,-0.08606869,-0.0042545525
148132000,148132000,0.050477475,-0.08589709,-0.0069446173
148144000,148144000,0.051614095,-0.08116151,-0.0046537
148156000,148156000,0.04300715,-0.07753897,0.0031781704
148168000,148168000,0.04058126,-0.07181995,0.00226761
148180000,148180000,0.03392672,-0.06237871,0.0029541696
148192000,148192000,0.035028692,-0.059607726,0.0024018344
148204000,148204000,0.031809203,-0.048132334,0.0054893703
148216000,148216000,0.021076346,-0.040038314,0.005071294
148224000,148224000,0.015086909,-0.03249825,0.004198092
148240000,148240000,0.008911389,-0.023290146,0.0022751607
148252000,148252000,0.0032831894,-0.01805978,0.0027092176
148264000,148264000,0.0016998901,-0.011203484,0.0024397473
148276000,148276000,0.002424829,-0.0062115467,0.007694902
148288000,148288000,0.0066867536,-0.00061292015,-0.00053591694
148300000,148300000,0.008553313,0.0074981777,-0.000364247
148312000,148312000,-0.0004750911,0.01935815,0.0052103633
148324000,148324000,-0.0022477584,0.023692394,0.001502761
148336000,148336000,-0.0041037,0.027559035,0.005550027
148348000,148348000,-0.009134729,0.02550411,0.00507797
148360000,148360000,-0.011795907,0.029408716,0.0016368516
148368000,148368000,-0.014027836,0.027102271,0.0033123414
148384000,148384000,-0.016924268,0.025676372,-0.00058603997
148396000,148396000,-0.020109562,0.026830511,0.0024875242
148408000,148408000,-0.023336707,0.025933482,0.004870097
148420000,148420000,-0.01390817,0.024994703,0.0010769261
148428000,148428000,-0.014525052,0.029591028,0.0022835077
148444000,148444000,-0.010369957,0.025188806,0.003840075
148456000,148456000,-0.007648985,0.022874402,0.0017932177
148468000,148468000,-0.0075537665,0.025657088,0.00086973916
148480000,148480000,-0.0036185253,0.026567752,0.0037824244
148492000,148492000,-0.002878816,0.026509233,0.0037405675
148504000,148504000,-0.0035909954,0.029459447,0.00042432814
148512000,148512000,-0.009842713,0.02756489,0.0009505376
148528000,148528000,-0.011779605,0.031652763,0.00033930424
148536000,148536000,-0.008413695,0.032718595,0.001207584
148548000,148548000,-0.00072637445,0.030263394,0.005044384
148564000,148564000,-0.005935528,0.021789689,-0.0013776843
148576000,148576000,-0.0068999273,0.020490834,-0.0011680591
148588000,148588000,-0.0067338184,0.015819082,0.004287954
148596000,148596000,-0.0054670055,0.017422881,0.0044593913
148612000,148612000,-0.006949526,0.012579106,0.00026215386
148624000,148624000,-0.00868184,0.016737692,0.0021577748
148636000,148636000,-0.0077397367,0.019475149,0.002595524
148648000,148648000,-0.00925346,0.021186076,0.0003719875
148656000,148656000,-0.0058017382,0.019182056,0.0025032784
148668000,148668000,-0.0053894026,0.023047794,-0.00032832936
148680000,148680000,-0.00055325695,0.019692,-0.0031119557
148696000,148696000,-0.0014734976,0.018534591,0.00030492464
148708000,148708000,-0.0027099831,0.013175515,0.0032073963
148720000,148720000,-0.002710795,0.011404374,-0.0022446893
148732000,148732000,-0.0011156928,0.00794472,-0.0032783647
148744000,148744000,-0.0004496221,0.0065891184,4.7531314e-05
148752000,148752000,-0.0036769765,0.008865738,0.0028536972
148768000,148768000,-0.0037005772,0.012736684,0.0031738952
148780000,148780000,-0.0031746314,0.008163205,0.0015719384
148792000,148792000,-0.006668406,0.004680355,0.0034623654
148804000,148804000,-0.003914978,0.0029522702,0.00053774775
148812000,148812000,-0.0034002888,0.0018788357,-0.0011037942
148828000,148828000,-0.0040219547,0.0021995474,0.0030807622
148840000,148840000,-0.008575209,0.0056119296,0.0026333705
148852000,148852000,-0.017291086,0.0008111056,0.000418683
148860000,148860000,-0.0195024,-0.001762555,-0.0048411647
148876000,148876000,-0.008648729,-0.006424289,0.002091797
148888000,148888000,-0.011537579,-0.005762553,0.00018706205
148900000,148900000,-0.013507869,0.002438122,-0.0004421053
148912000,148912000,-0.007958038,0.0019384981,6.326629e-05
148920000,148920000,-0.0065051373,0.003813162,-0.0020233572
148932000,148932000,0.00026246178,0.0057956176,0.00031153034
148948000,148948000,-0.00017612358,0.01853704,-0.0017131347
148960000,148960000,-0.0029465468,0.017316371,-0.001612104
148972000,148972000,-0.0007859909,0.0182493,0.0050430773
148984000,148984000,-0.008559785,0.019153956,0.0020614318
148992000,148992000,-0.0049770614,0.021294838,0.0021207638
149008000,149008000,-0.008731001,0.013124041,0.0012793408
149020000,149020000,-0.0020203935,0.006692729,-0.0008315216
149032000,149032000,-0.0046348115,0.006216224,-0.0039022828
149044000,149044000,-0.0056546633,0.0076951785,0.0006645747
149056000,149056000,-0.006588745,0.00076714484,0.00256801
149068000,149068000,-0.004308928,0.005156302,0.004852491
149080000,149080000,-0.0013438342,0.0016380623,0.0049757194
149092000,149092000,0.0049057454,0.004050183,0.004574017
149104000,149104000,-0.00070523954,0.012562963,0.001154614
149116000,149116000,-0.00018088717,0.016003931,0.0012242402
149128000,149128000,-0.00061930576,0.012213936,-0.0028650954
149140000,149140000,0.0034406101,0.0153758,-0.0063510546
149148000,149148000,0.003389719,0.01571476,-0.0071016885
149164000,149164000,-0.001342621,0.014011012,-0.0011091323
149176000,149176000,-0.001192866,0.01298739,-0.0004513785
149188000,149188000,-0.00080936437,0.013228941,0.0022639069
149200000,149200000,-0.0042066835,0.01616575,-0.0004627271
149208000,149208000,-0.0045358487,0.014906202,0.0020097543
149224000,149224000,-0.0029163738,0.008136124,0.0014700937
149236000,149236000,-0.009591051,0.0076996353,-0.004363294
149248000,149248000,-0.010058518,0.0052398094,-0.0060412125
149260000,149260000,-0.0071474044,-7.396238e-05,0.006314135
149272000,149272000,-0.008370961,-0.0018580253,0.0009433237
149280000,149280000,-0.0028398074,-0.0036375467,0.00015786657
149296000,149296000,-0.0028691466,-0.0008834228,0.0043465514
149304000,149304000,-0.00057316065,-0.00036350358,0.0023428744
149320000,149320000,-0.0032510525,-0.0057377913,-0.00031226777
149332000,149332000,-0.0055146706,-0.0037773438,0.0034232922
149344000,149344000,-0.005734093,0.00015297858,0.0009954073
149356000,149356000,-0.0071322536,0.0007917783,0.0030791634
149368000,149368000,-0.0039114556,-0.004309544,-0.00015027214
149380000,149380000,-0.0017530886,-0.002552718,0.001720471
149392000,149392000,-0.0022064378,0.0008280012,0.0034068597
149404000,149404000,-0.001608749,0.0077159973,0.0026736243
149416000,149416000,-0.0021779248,0.0064977957,0.0026046578
149428000,149428000,0.0010619463,0.008478267,-0.0035711373
149440000,149440000,0.0026472416,0.001995508,-0.0022418322
149452000,149452000,0.005775654,0.00255194,0.004744704
149460000,149460000,0.00462298,0.0054665487,-0.0003019568
149476000,149476000,0.0049866997,0.0014540246,-0.004604457
149488000,149488000,0.0040718713,-0.007624467,-0.0037420732
149500000,149500000,0.0015070068,-0.004440519,-0.0018636233
149512000,149512000,-0.00039267424,0.0019260407,-0.0055995355
149524000,149524000,0.003091337,0.0046107564,-0.006487395
149536000,149536000,0.004688047,0.0050301305,-0.003747238
149548000,149548000,-0.00037058024,-0.0012994958,0.00045527963
149560000,149560000,0.0015023904,0.001063237,0.0023047328
149572000,149572000,-0.0011353854,0.0008699298,-0.0018174497
149584000,149584000,0.0011951597,-0.0019346434,1.5933478e-05
149596000,149596000,0.0029329448,-0.004906834,0.0013066111
149608000,149608000,-0.0031412793,-0.00316789,0.001787559
149620000,149620000,-0.0018082892,-0.0074892696,-0.0011959757
149632000,149632000,-0.0005832398,-0.0070583466,-0.00057692174
149640000,149640000,0.0004265838,-0.004239478,0.0019055081
149656000,149656000,-0.0021392363,-0.0030169967,9.3130846e-05
149668000,149668000,-0.002207395,0.001296836,0.0063578887
149680000,149680000,-0.004372121,0.0014251815,0.0015959445
149692000,149692000,0.002101689,-0.00230429,-0.00041811413
149704000,149704000,0.00761846,-0.0022649146,0.001610078
149716000,149716000,0.012667436,-0.0030143862,-0.00027084065
149728000,149728000,0.007258123,-0.003715266,0.0039307927
149740000,149740000,0.008985031,-0.0068705673,0.0027192887
149748000,149748000,0.0044809505,-0.014170885,-0.0010278214
149764000,149764000,-0.0035909084,-0.005108307,-0.0018153709
149776000,149776000,-0.0044749975,-0.0011099828,-0.0034618871
149788000,149788000,-0.003025383,0.004445499,-0.003228315
149800000,149800000,-0.0013673268,0.005280616,0.005108834
149808000,149808000,-0.002661806,0.0021953671,0.0033445726
149824000,149824000,0.00050967094,0.0046869293,9.605079e-05
149836000,149836000,0.001145883,0.0062049213,-0.004178955
149848000,149848000,0.004154454,0.0031036236,-0.005942055
149860000,149860000,0.00020559793,0.0037451799,-0.005413129
149872000,149872000,0.006165846,-0.002121308,-0.0016207357
149884000,149884000,0.007117447,-0.0014735851,0.004426438
149896000,149896000,0.010711921,-0.0047467547,-0.00023853985
149908000,149908000,0.012468917,-0.00040904293,-0.008018729
149920000,149920000,0.011865668,0.003498108,-0.009460244
149932000,149932000,0.008326492,0.0060247486,-0.004530061
149944000,149944000,0.010312699,0.0007321853,-0.0062884805
149956000,149956000,0.0024492808,-0.001276616,-0.007314407
149968000,149968000,0.00012980969,-0.0013064258,-0.0042506577
149980000,149980000,-0.0003734036,-0.003078083,-0.0018682315
149992000,149992000,-0.013506711,0.00062427437,-0.0021414477
150004000,150004000,-0.0147957895,-0.00529671,0.0030515664
150016000,150016000,-0.01718541,-0.002068163,0.0037877606
150028000,150028000,-0.015128096,-0.0023915917,-0.0015033876
150040000,150040000,-0.010427056,-0.0027535288,0.00029469485
150052000,150052000,-0.012523246,0.0012526345,-0.0057310183
150064000,150064000,-0.00806485,0.0034272526,-0.004842386
150076000,150076000,-0.0051933653,0.0045725144,-0.0037404709
150084000,150084000,-0.0064738253,0.002985691,-0.00017147815
150100000,150100000,0.00047393478,-0.0033920174,-0.004198047
150108000,150108000,0.0014530245,-0.003327915,-0.004904104
150124000,150124000,-0.0013293863,0.0023453378,-0.0029980303
150132000,150132000,-0.005047907,0.0037038238,-0.0035024001
150148000,150148000,-0.0029096548,0.005823628,0.0021283347
150156000,150156000,-0.0019695018,0.0046591554,0.0011285297
150172000,150172000,-5.359022e-05,-0.007066121,0.0022938675
150180000,150180000,0.0013661019,-0.008569034,-0.0015027161
150196000,150196000,0.006306537,-0.009399287,0.002040098
150208000,150208000,0.004133901,-0.00254696,0.0007709763
150220000,150220000,0.0038000937,-0.00411897,0.0025134701
150232000,150232000,0.005488516,-0.0016424609,0.008448661
150240000,150240000,0.0029280547,-0.0060686213,0.005356276
150256000,150256000,0.0073745684,-0.0074334457,2.5512605e-05
150268000,150268000,0.0013557129,-0.0033896822,0.00033150252
150280000,150280000,0.0043005557,-0.0026394394,0.00196874
150292000,150292000,0.0013604562,-0.007333958,0.0017885515
150304000,150304000,0.007658906,-0.005854118,0.00088255666
150316000,150316000,0.00776892,-0.0035313033,-0.001608596
150328000,150328000,0.005139795,-0.0011442555,0.0054018437
150340000,150340000,0.013149225,-0.0037470926,0.001853012
150352000,150352000,0.008515102,-0.004755777,0.00095142174
150364000,150364000,0.008585511,-0.0016089543,0.0016028308
150376000,150376000,0.0018571112,-0.005607625,0.0036013925
150384000,150384000,-0.00088834815,-0.0027017263,0.0029683542
150396000,150396000,-0.003391244,0.0019106292,-0.00057116797
150412000,150412000,-0.0038553867,-0.0046528396,0.0042598364
150424000,150424000,-0.0025601778,-0.00016303314,0.00284748
150436000,150436000,-0.012718162,-0.0076678204,-0.0021061911
150448000,150448000,-0.0034674148,-0.003401549,0.0056240964
150460000,150460000,-0.00080890564,-0.003056245,0.006982882
150472000,150472000,-0.0070046284,-0.0046071857,0.0015346134
150480000,150480000,-0.0033660876,-0.0077488124,0.003327351
150496000,150496000,0.0049369475,-0.005729681,-0.0014494845
150508000,150508000,-0.0036622423,-0.0053336965,0.0056081796
150520000,150520000,-0.010801192,-0.0034385026,0.0040399972
150528000,150528000,-0.0082952995,-0.0021291352,0.0015466757
150544000,150544000,-0.010436545,0.0023952848,-0.0010465485
150556000,150556000,-0.004364889,0.0044941707,0.0029184958
150564000,150564000,-0.007420232,0.000111411326,0.0056330143
150576000,150576000,-0.009800221,-0.0015769168,0.0043975036
150592000,150592000,-0.0052397507,0.003857065,0.0012313821
150604000,150604000,-0.0066060876,-0.0012516845,0.0066086706
150616000,150616000,-0.005944995,0.005693051,0.0048010014
150628000,150628000,-0.0062871487,0.008964248,0.0040883278
150640000,150640000,-0.0051920516,-0.0010546139,0.0028331513
150652000,150652000,-0.014338245,0.0034910445,0.003916555
150660000,150660000,-0.018269772,0.0043963455,0.0032694056
150676000,150676000,-0.011132409,0.0032556087,0.007830692
150688000,150688000,-0.008957066,0.006624108,0.004930683
150700000,150700000,-0.0125510115,0.008044748,0.007555698
150708000,150708000,-0.017583724,0.009946363,0.005252293
150724000,150724000,-0.019302942,0.015710544,0.0014261191
150736000,150736000,-0.01197201,0.017336294,0.005441552
150748000,150748000,-0.008662568,0.008341536,0.0032172974
150760000,150760000,-0.009276212,0.009822546,0.0033078452
150772000,150772000,-0.002760689,0.0055609033,0.0050017294
150780000,150780000,-0.0009099909,0.0060591768,0.009323486
150796000,150796000,-0.0007113169,0.007657298,0.0070001027
150808000,150808000,-0.00061839673,0.0004847208,0.011126405
150820000,150820000,-0.0017901793,0.004221691,0.0054030498
150832000,150832000,0.0013588388,0.0005018711,0.0009830836
150844000,150844000,0.0031354958,-0.0010574996,0.0034438488
150856000,150856000,0.000109560264,-0.010372693,0.008908041
150864000,150864000,0.001047153,-0.008710122,0.0077689476
150880000,150880000,0.0015576427,-0.0025314717,0.002806667
150892000,150892000,0.00018974277,-0.014037834,4.5231383e-05
150904000,150904000,0.00094381056,-0.009971507,0.001336665
150916000,150916000,-0.0021771267,-0.008825596,0.0025580865
150928000,150928000,-0.004276234,-0.014408795,0.002106545
150936000,150936000,-0.0018970164,-0.013845285,-2.8581417e-05
150948000,150948000,0.00063349627,-0.0137422085,0.0057412665
150964000,150964000,0.008579998,-0.010137914,0.002006305
150976000,150976000,0.0037040622,-0.015061816,0.008076087
150988000,150988000,-0.001092036,-0.019341372,0.0028704414
151000000,151000000,-0.006202595,-0.01697366,0.0003669859
151012000,151012000,-0.0035187362,-0.0030848277,0.0021244192
151024000,151024000,-0.00064479344,-0.006798914,0.0017563355
151036000,151036000,-0.0042419266,-0.009044219,0.0022825496
151048000,151048000,-0.0015121175,-0.0061400495,0.0015892633
151060000,151060000,-0.003279744,-0.0077843275,-0.00029944791
151072000,151072000,0.00032169963,-0.0052265897,-0.0004690249
151084000,151084000,0.0056177923,-0.0059734657,-0.0043737916
151096000,151096000,0.0017306391,0.00093241176,-0.0022554814
151108000,151108000,0.0018300408,0.00033177948,0.0012895474
151120000,151120000,0.0034189636,0.0059302216,-0.0030203387
151132000,151132000,-0.0002578452,0.0089713335,0.0002630792
151144000,151144000,-0.0029868747,0.01177137,0.0018905423
151156000,151156000,0.0018131805,0.008057728,-0.0035893738
151168000,151168000,0.007904628,0.008207625,-0.0013449998
151180000,151180000,0.0103844805,0.00615182,0.0013386701
151192000,151192000,0.0049058804,0.008538661,-0.000929873
151204000,151204000,0.0057769604,0.004872633,0.0013874298
151216000,151216000,0.0058464343,0.011211742,0.0063016284
151228000,151228000,0.0017368896,0.010168806,0.0069508213
151240000,151240000,0.0016906193,0.004070393,0.0024131685
151252000,151252000,-0.0006352185,0.0004938585,-0.0017030679
151264000,151264000,0.008801896,-0.0007484881,0.0018454697
151276000,151276000,0.0036425218,-0.0032847426,-0.0016391571
151288000,151288000,0.006860489,0.0008325516,-4.203509e-05
151300000,151300000,0.0073859803,0.00042740954,0.002808455
151312000,151312000,0.005442754,-0.0017240751,0.0030879322
151324000,151324000,0.0053611617,-0.0037825261,0.0062607457
151332000,151332000,0.006123184,-0.0009158966,0.0019125118
151348000,151348000,0.0057705054,-0.004056615,0.0006925091
151360000,151360000,-0.0033709265,-0.0086661,-0.0015850823
151372000,151372000,0.000110104185,-0.007271948,-0.0002332398
151384000,151384000,0.0030558584,-0.00872572,-0.0070593418
151396000,151396000,-0.00054511265,7.483177e-06,0.0013771805
151408000,151408000,0.0013041203,-0.00047315005,0.003391817
151420000,151420000,0.00042696198,-0.009504465,0.001948288
151432000,151432000,-0.0013011827,-0.006592384,0.007722703
151444000,151444000,-0.0010521167,-0.0072840094,0.003246932
151456000,151456000,-0.0012238349,-0.007840996,0.002281072
151468000,151468000,-0.0043434803,-0.00019883178,0.0067851413
151480000,151480000,-0.005003253,-0.00070186425,0.0026305907
151492000,151492000,-0.009431988,0.0012298143,0.0062506786
151504000,151504000,-0.0062751165,-0.0020401701,0.0060040494
151516000,151516000,-0.002376326,0.00034512766,0.003834405
151528000,151528000,0.0021768955,-0.0011565858,-0.00025460924
151540000,151540000,0.0009607132,-0.0031320364,0.0020689878
151548000,151548000,0.0024913019,-0.0055704336,-0.00068185653
151564000,151564000,0.00038771334,-0.0016288655,0.000727158
151576000,151576000,-0.0006340215,-0.0019098874,0.0049169976
151588000,151588000,0.0052729836,0.0066657406,0.0047932635
151600000,151600000,0.011490914,0.00072924094,0.0037940817
151612000,151612000,0.016379504,0.0034243031,0.0018235865
151620000,151620000,0.017074017,0.0038179264,0.0007932088
151636000,151636000,0.0047797076,-0.0012474186,0.00094193534
151648000,151648000,0.00040792272,0.003026641,0.0013723926
151660000,151660000,0.0024842988,0.007766367,0.002989178
151672000,151672000,-0.00036080647,0.005897816,0.0019633817
151680000,151680000,0.0011199708,-0.00014192471,0.0004623739
151696000,151696000,-0.009098041,0.010029718,-7.870025e-05
151708000,151708000,-0.0088067455,0.0028553964,0.0012410281
151720000,151720000,-0.00911107,0.0023494672,0.0040274328
151732000,151732000,-0.0066644577,-0.0028930544,0.008839813
151744000,151744000,-0.0040989174,-0.0021644444,0.0010793308
151756000,151756000,-0.0016961242,-0.004167411,0.0014281414
151764000,151764000,-0.00040968048,-0.00695968,0.001316547
151780000,151780000,-9.428989e-05,-0.0016572508,0.0035155073
151792000,151792000,-0.00016683072,0.004347941,0.0007672607
151804000,151804000,-0.00075507443,0.006818632,-0.0009569693
151816000,151816000,0.0014343996,0.004682801,-0.00015011727
151828000,151828000,0.004145977,0.005189631,0.0020548056
151840000,151840000,0.0044459435,0.006517734,-0.0014885565
151852000,151852000,0.0050662514,0.0088359825,-0.0026797308
151864000,151864000,0.004936667,0.0040532043,0.00046483008
151876000,151876000,0.006001792,-0.0056048254,0.0053772517
151888000,151888000,0.0048426874,0.00054041203,0.0034421284
151896000,151896000,0.0012934618,-0.0012387242,0.008910774
151912000,151912000,0.001268523,-0.00030949665,0.0045322124
151924000,151924000,0.0050868867,-0.004687414,0.0016069977
151936000,151936000,0.0030860547,-0.0049672923,0.0010635568
151944000,151944000,0.005668536,-0.0035932153,0.0010440218
151956000,151956000,0.008564394,-0.0018035215,0.0029389337
151972000,151972000,-0.0035234452,0.00425006,0.0019868512
151984000,151984000,-0.0023449957,0.0070829894,0.00073452044
151996000,151996000,0.00040922945,0.002328758,0.0014495259
152008000,152008000,-0.0025650265,0.0009453632,-0.00451516
152020000,152020000,-0.003851737,-0.0032084752,-0.0014298793
152032000,152032000,-0.0045555932,-0.0030923523,0.0010496828
152044000,152044000,-0.0035464615,-0.00085880235,0.0028167102
152056000,152056000,0.0005245821,0.0034360634,-0.0010341872
152068000,152068000,0.0012983272,0.0032906393,0.00010523018
152076000,152076000,0.0030720884,0.0096478425,-0.0011302455
152088000,152088000,0.00725101,0.011089668,-0.000323462
152100000,152100000,0.005576679,0.008617117,-0.0019485868
152116000,152116000,-0.0018425132,0.011492742,0.0017162352
152128000,152128000,-0.0011088515,0.011684619,-0.00038281636
152140000,152140000,0.0021209482,0.007027087,0.0021667595
152152000,152152000,0.0018077266,0.0014495598,0.001238757
152164000,152164000,0.010518006,0.004735142,0.0017781149
152176000,152176000,0.008398868,0.0028024637,0.0031221274
152188000,152188000,0.007903522,0.0034896769,0.004234736
152196000,152196000,0.008588271,0.0028133923,0.00076214125
152208000,152208000,0.008002806,0.0021259377,5.1289186e-05
152224000,152224000,0.0057029855,0.0022167864,0.0032031154
152236000,152236000,0.0068336134,0.0045796176,-0.0006394022
152248000,152248000,0.0050847903,0.004467716,0.00010074947
152260000,152260000,0.005286248,0.0040022023,-0.003935222
152272000,152272000,0.0066113374,-2.196664e-05,0.00031410955
152284000,152284000,0.0015212134,-0.002009571,0.0032904716
152296000,152296000,-0.0016587689,-0.00045678066,-0.0018513814
152304000,152304000,0.0008451552,-0.0043773283,-0.0018768846
152320000,152320000,0.002612117,-0.011113394,-0.0013723958
152332000,152332000,0.001621912,-0.0036414624,-0.0031370611
152344000,152344000,0.00068293343,-0.006893039,-0.001043677
152356000,152356000,-0.002768897,-0.00026609655,0.0010936318
152368000,152368000,0.00291991,-0.007400299,0.0006633827
152380000,152380000,0.007642156,-0.009920536,0.00093860435
152392000,152392000,0.0062622153,-0.008580808,-0.0014928859
152400000,152400000,0.00033811724,-0.006748878,0.00064881303
152416000,152416000,0.0024457057,-0.0033452413,0.0017416019
152428000,152428000,0.003772971,-0.004954102,-0.0007531166
152440000,152440000,0.005010276,-0.0036928416,-0.001218584
152452000,152452000,0.00545185,-0.00089672673,0.0045856754
152464000,152464000,0.0053378427,0.0025242078,-0.0019100113
152476000,152476000,0.0054501295,0.00702469,-0.007865553
152488000,152488000,-0.001916562,0.008602696,-6.776963e-05
152500000,152500000,-0.0021276793,0.0045746462,4.1799798e-05
152512000,152512000,-0.0042510475,0.000109029,-0.0029601692
152524000,152524000,-0.0015567864,-0.001141395,-7.2844654e-05
152536000,152536000,-0.0005735926,-0.004829917,0.0016733162
152548000,152548000,-0.0034567923,-0.0060773557,-0.00033110456
152556000,152556000,-0.005459182,-0.008205566,-0.00084285816
152572000,152572000,-0.011804966,-0.018474158,0.0019790074
152584000,152584000,-0.014070938,-0.01623664,0.00093454396
152596000,152596000,-0.010110353,-0.014230979,0.0029284332
152608000,152608000,-0.004617818,-0.014788597,-9.987948e-05
152620000,152620000,-0.0006333857,-0.0087199425,0.00012424467
152632000,152632000,-0.0016979665,-0.011397519,0.0043292046
152644000,152644000,0.0069823046,-0.0109518925,0.004469947
152656000,152656000,0.006358567,-0.013840243,0.0036221608
152668000,152668000,0.004951772,-0.015236888,6.9454356e-05
152680000,152680000,0.005535643,-0.007598189,0.0026311218
152692000,152692000,0.0041937325,-0.0014928286,-0.0036160205
152704000,152704000,0.0027131964,-0.007093116,-1.712406e-05
152716000,152716000,0.0022989977,-0.0057737543,-0.00060956104
152728000,152728000,0.0024347282,0.000451223,-0.00067265646
152740000,152740000,0.005022087,0.007556602,-0.00020299932
152752000,152752000,0.008839252,0.0037353053,-0.00089557644
152764000,152764000,0.005243726,0.0033794835,-0.003229883
152776000,152776000,-0.0012193836,0.00197748,0.0015417739
152788000,152788000,0.0011733128,0.0048328587,0.0003475952
152800000,152800000,0.002614215,0.010061866,0.0033818418
152808000,152808000,0.0047869133,0.01342359,0.002724574
152824000,152824000,-0.0005170794,0.010004649,-0.0025159612
152832000,152832000,-0.0011854258,0.0055088373,-0.0005919775
152848000,152848000,-0.0038386532,0.011381447,0.0006697071
152860000,152860000,-0.0035820766,0.013026686,-3.2145763e-05
152872000,152872000,-0.0025344174,0.008995428,-0.0034462514
152884000,152884000,-0.0032882488,0.0007364708,-0.00272372
152892000,152892000,-0.005224142,-0.00071105454,0.0017333895
152908000,152908000,-0.0100253085,0.0025909187,-0.006595632
152920000,152920000,-0.0107564395,0.0032044447,-0.0015974042
152936000,152936000,-0.0022265927,0.01041201,0.0009567509
152944000,152944000,0.00028795534,0.0060403254,-0.0006161437
152960000,152960000,0.0034524486,0.0040093632,0.0076570082
152972000,152972000,-0.0025118839,0.00022328552,-0.0010170826
152980000,152980000,-0.0063017104,0.008036819,-0.0010937013
152992000,152992000,-0.0044584977,0.005136888,-0.002471487
153008000,153008000,-0.0028299296,0.007591714,0.0022486441
153016000,153016000,-0.0032052305,0.007871094,0.00011682117
153032000,153032000,0.00058486353,0.0043161167,0.0033766425
153044000,153044000,-0.0004733685,0.0030723433,0.0040269545
153052000,153052000,-5.5618584e-06,0.003767429,0.0036277412
153068000,153068000,-0.0019064711,0.0034169815,-0.0009322447
153080000,153080000,-0.0012450416,-0.001053615,-0.003959764
153092000,153092000,-0.0010085762,-0.0038070264,0.00275677
153100000,153100000,0.00072685175,-0.0044953744,0.0019967596
153112000,153112000,-0.0007363777,0.0013083443,0.00058512983
153128000,153128000,0.0014513046,5.6318473e-05,6.0438186e-05
153140000,153140000,0.0021548728,0.0054405564,0.0015823217
153148000,153148000,0.0022259126,0.0041479045,0.0001699854
153164000,153164000,-0.00037369883,-0.0016386746,0.0038436153
153172000,153172000,-0.002371007,0.0013977252,0.002934308
153188000,153188000,-0.0015705458,0.0026046918,0.0029623124
153200000,153200000,-0.005483501,-0.00032337802,-0.0013582706
153212000,153212000,-0.0045344047,0.0021610216,0.0030028292
153224000,153224000,-0.0044845114,-0.0005907039,0.0059101884
153236000,153236000,-0.0029557273,-0.002395939,0.0018187842
153248000,153248000,0.0036194506,-0.0039467835,-0.0005754573
153256000,153256000,0.0007551146,-0.0006452496,0.0004037615
153272000,153272000,0.0054020085,-0.0019516964,-0.0048580705
153284000,153284000,0.0037038687,-0.00054604,-0.0027954776
153296000,153296000,0.0015834706,0.007126741,-0.000802571
153308000,153308000,0.0009819712,0.010054834,0.0006444344
153320000,153320000,0.003938352,-0.000699901,0.0021913336
153332000,153332000,0.0017587407,0.0019563104,0.0008197178
153344000,153344000,0.004221734,-0.00018450618,-0.002528432
153356000,153356000,-0.00012229179,-0.0027764179,0.0013795946
153368000,153368000,0.0011971109,-0.00345934,0.0031064812
153380000,153380000,-0.006177029,-0.008465646,0.0028321906
153392000,153392000,-0.004633096,-0.003771253,0.0045828787
153404000,153404000,-0.010020854,-0.0056470037,0.0038355533
153416000,153416000,-0.013822927,-0.0050624236,0.002399359
153428000,153428000,-0.011922445,-0.0033017504,0.002941453
153440000,153440000,-0.013007685,-0.0042615053,0.0047692857
153452000,153452000,-0.007355311,-0.0066617625,0.003290024
153464000,153464000,-0.0056038043,-0.004488267,-0.0019862542
153476000,153476000,-0.0068698805,0.0004199352,0.0022241003
153488000,153488000,-0.008310479,0.0043920795,-0.004895019
153496000,153496000,-0.0013242573,0.007041269,-0.0019051778
153512000,153512000,-0.0036399572,0.0019122837,0.00093790505
153524000,153524000,-0.005305657,0.010815268,-0.0048564738
153536000,153536000,-0.0038511252,0.011094449,-0.0028762738
153548000,153548000,-0.0054345583,0.012969722,0.00048450666
153560000,153560000,0.00042284705,0.013715667,-0.00023518482
153572000,153572000,0.0012426991,0.010154494,0.0014923945
153584000,153584000,0.0020749178,0.006693663,0.006292861
153592000,153592000,0.0039215307,0.0059039234,0.0035514273
153604000,153604000,-0.00032936828,0.002358927,0.00063175213
153620000,153620000,-0.0016761106,0.0045776297,-0.0030194696
153628000,153628000,-0.0017258315,0.0063262554,0.0026602964
153644000,153644000,-0.0017275186,0.011359533,0.004108421
153656000,153656000,-0.00090561796,0.009938583,-0.0012541941
153668000,153668000,0.0018285444,0.00945559,-0.0017735434
153676000,153676000,0.0001946043,0.007192457,-0.0011973586
153692000,153692000,-0.016287819,0.005474262,-0.0009266929
153704000,153704000,-0.011614996,0.006861658,-0.0033463936
153716000,153716000,-0.0060088118,0.008126495,0.0015709789
153728000,153728000,0.0018311433,0.00643819,0.002327507
153740000,153740000,0.0034243804,0.007320054,-0.0037428741
153752000,153752000,0.006304744,0.012129281,0.00067775574
153764000,153764000,0.0043195486,0.0044684634,0.004326203
153776000,153776000,0.0057431366,-0.0001009563,-0.0013630734
153788000,153788000,0.010807134,-0.0025462196,0.003885196
153800000,153800000,0.007932906,-0.0017529777,-0.00019950865
153812000,153812000,0.0023636338,-0.000453264,-0.005843982
153824000,153824000,0.009311736,-0.006092855,0.0004568919
153836000,153836000,0.009244402,-0.0017086412,-0.0015395151
153848000,153848000,0.0072036744,-0.0037335926,-0.0025474643
153860000,153860000,0.0021527756,-0.0022170101,-0.0059092054
153872000,153872000,0.0012026302,-0.0020554797,-0.003861966
153884000,153884000,0.0008840135,-0.003798977,-0.0013081044
153892000,153892000,-0.00093559874,-0.0096977465,0.0057590012
153908000,153908000,-0.005552682,-0.008112783,0.004412896
153916000,153916000,-0.0027474698,-0.005850698,0.002612629
153932000,153932000,0.00082140544,-0.008371977,-0.0024197295
153944000,153944000,0.005699315,-0.013251075,-0.00029283392
153956000,153956000,0.0053643705,-0.014289266,0.003977606
153964000,153964000,0.0031890809,-0.010290121,0.003178403
153980000,153980000,-0.0015129867,-0.004340739,0.00040012924
153992000,153992000,-0.0026149582,-0.009602999,-0.0012060836
154000000,154000000,-0.0038723731,-0.012732131,0.0010217853
154012000,154012000,-0.00639056,-0.0090505555,-0.0010020057
154028000,154028000,-0.002533949,-0.004874863,-0.0012812472
154040000,154040000,-0.0033990243,-0.0053743217,-0.00083618803
154052000,154052000,-0.0026211613,-0.0045681847,0.0016310635
154064000,154064000,0.0036547256,-0.009854545,0.0050280597
154076000,154076000,0.0031929552,-0.0114229,-0.0015077079
154088000,154088000,-3.4918776e-07,-0.013496536,-0.004093849
154100000,154100000,0.004026954,-0.009418004,0.0042406926
154112000,154112000,-0.005803448,-0.011081303,0.0024701853
154124000,154124000,-0.0013568985,-0.008175254,-0.0012959166
154136000,154136000,0.0028388717,-0.0024865097,-0.0009596436
154148000,154148000,-0.00027216144,0.0043084146,-0.006776758
154156000,154156000,0.0005036786,0.006920756,-0.004985227
154172000,154172000,0.012220073,0.0043241167,-0.003501346
154184000,154184000,0.01627265,0.0028664414,-0.00013702273
154196000,154196000,0.01445438,0.0010693651,-0.0034511779
154208000,154208000,0.0120457355,-0.00079372106,0.00045345933
154220000,154220000,0.012079091,0.0008049803,0.000938723
154232000,154232000,0.006309893,0.00039595645,0.00040546356
154244000,154244000,0.0058866595,0.004180005,0.0017255761
154256000,154256000,0.004018323,0.0045673773,0.0025254823
154268000,154268000,0.0022940312,0.00073375273,0.0006337244
154280000,154280000,-0.0026598203,-0.00055821706,-0.004802656
154292000,154292000,0.002273032,0.006821073,-0.0026651348
154304000,154304000,-0.0034604813,0.0072456915,0.0030442153
154316000,154316000,-0.006648641,0.007883708,0.0016637746
154328000,154328000,-0.011601568,0.0064048255,0.0030553357
154340000,154340000,-0.0059993914,0.0049307714,0.004954602
154352000,154352000,-0.007806501,0.009273642,0.00026291225
154364000,154364000,-0.010947222,0.0028723762,0.0021402994
154376000,154376000,-0.008687413,0.00072959205,-0.0011678814
154388000,154388000,-0.010183454,0.0005084886,-0.0014894442
154396000,154396000,-0.012519448,-0.0050011654,-0.0065416447
154412000,154412000,-0.0031113713,-0.0023814323,-0.0013186595
154424000,154424000,-0.007826303,-0.0004986543,-0.00039684048
154432000,154432000,-0.008076076,-0.0025700964,-6.706763e-05
154448000,154448000,-0.0028969592,-0.0066565173,0.00060409325
154460000,154460000,-0.0027390996,-0.003806238,-0.00067367835
154472000,154472000,-0.00228777,-0.006187315,0.0036393292
154480000,154480000,-0.0028184713,-0.0021385173,0.0039484934
154496000,154496000,0.00023113977,0.0052830447,-0.0008704372
154508000,154508000,-0.0031014502,0.0076277703,-0.0031983063
154520000,154520000,-0.0052699153,0.001644481,-0.0041802926
154528000,154528000,-0.0017566924,0.0030943747,-0.0030511406
154544000,154544000,-0.0024262709,0.0030937549,-0.0032774548
154556000,154556000,0.0020849726,0.0064509683,-0.003026717
154568000,154568000,0.0026940382,0.00055924803,-0.00080052135
154576000,154576000,-0.001957885,-0.0029206974,0.00040294952
154592000,154592000,0.00067669776,-0.003264198,-0.0025199566
154604000,154604000,0.0035080044,0.0030301877,-0.0036017327
154616000,154616000,-0.0020978516,0.009094331,-0.0010371184
154624000,154624000,-0.0061507905,0.008958838,-0.0020522692
154640000,154640000,-0.0073519805,0.009460395,0.0018750662
154652000,154652000,-0.0060282433,0.0062387744,-0.0011123399
154664000,154664000,-0.001161911,0.0017970214,0.006335701
154676000,154676000,-0.0018398302,0.004014449,0.004114695
154688000,154688000,0.00035325857,0.006067808,2.9256225e-05
154696000,154696000,-0.00059523666,0.007464648,0.0023014697
154712000,154712000,-0.0014210484,0.0016912003,0.00087660475
154724000,154724000,-0.0025184709,0.0028152317,0.0015057715
154736000,154736000,-0.0008985103,0.0009974688,-0.0025713965
154748000,154748000,-0.0029693788,-0.0014440697,-0.0024124903
154760000,154760000,-0.0026171594,0.0010916041,-0.0034228882
154772000,154772000,-0.0052929004,0.002029983,-0.0017363911
154780000,154780000,-0.009263238,0.0041873846,0.0023365733
154796000,154796000,-0.010829375,0.0020288136,-3.584929e-05
154808000,154808000,-0.009863517,-0.00016788673,-0.006370236
154816000,154816000,-0.0062445547,-0.0012929393,-0.0038154817
154832000,154832000,-0.0053957943,-0.00025454024,-0.0015287033
154844000,154844000,-0.01235092,-0.007823087,-0.0014209221
154852000,154852000,-0.011473374,-0.008929873,-0.0017092061
154868000,154868000,-0.0054342365,-0.011205567,-4.9276252e-05
154880000,154880000,-0.0030686518,-0.0042363787,0.0016305372
154892000,154892000,-0.0030349037,-0.0022757947,0.0029113255
154904000,154904000,0.002856111,-0.001672063,-0.0010417558
154916000,154916000,0.0033009544,-0.0034853844,0.0047138487
154928000,154928000,-0.00081406994,-0.00028396817,0.0031848345
154940000,154940000,0.0018650563,-0.00028037187,0.0022773996
154952000,154952000,-0.0015556293,0.0009836163,-0.0057314914
154964000,154964000,-0.004233285,0.005479518,-0.00015373355
154976000,154976000,-0.009614283,0.0015050094,-0.0005887718
154984000,154984000,-0.010020649,-0.0014069257,-0.005942968
155000000,155000000,-0.010616998,-0.0022548488,-0.0023458016
155008000,155008000,-0.0042866864,-0.00086685736,0.00016285476
155024000,155024000,0.002974323,0.00377933,0.0017450779
155036000,155036000,-0.006326731,-0.0028202878,0.0013542047
155048000,155048000,-0.0021619815,-0.0024460675,-6.0486713e-05
155060000,155060000,0.0027020064,-0.004546951,0.0051050596
155072000,155072000,0.0037210004,-0.008484399,0.004474121
155084000,155084000,0.0058534504,-0.009733722,0.00026141573
155096000,155096000,0.0045167333,-0.008487934,0.00085008546
155108000,155108000,0.0046742563,-0.0008181655,-0.0026489182
155116000,155116000,0.0069769644,-0.0022502043,0.0015017138
155128000,155128000,0.008951781,-0.0017096759,-0.0023043202
155144000,155144000,0.008439372,0.0013040053,-0.00014807949
155152000,155152000,0.007152885,0.00024156133,0.0014457821
155164000,155164000,0.0069564595,0.0028759066,0.0012686464
155180000,155180000,0.0069903857,0.0074686846,-0.0014959043
155188000,155188000,0.0046399455,0.0108866915,1.9707695e-05
155204000,155204000,0.0014569475,0.0041796113,-0.0040483335
155216000,155216000,-0.0020082411,0.008383478,-0.0023660725
155228000,155228000,0.0021148245,0.0060188323,-0.0011680742
155236000,155236000,0.00040739914,0.0021504825,-0.00090868253
155252000,155252000,0.003063492,0.0005286713,-0.0020128665
155264000,155264000,-0.0011578109,-0.0058204597,-0.0038150048
155276000,155276000,-0.0043248697,-0.0069392654,-0.0014275607
155288000,155288000,-0.008855293,-0.005086038,-0.0011961173
155300000,155300000,-0.0020968013,-0.0036196741,-0.0017318447
155312000,155312000,-0.0037219436,-0.0087000765,0.002927518
155324000,155324000,-0.0012330236,-0.009002577,0.00013845874
155336000,155336000,-0.0076599214,-0.014363273,-0.0005465122
155348000,155348000,-0.00981484,-0.017901491,-0.00060291286
155360000,155360000,-0.011553974,-0.015686875,0.004696569
155368000,155368000,-0.009038913,-0.014510337,0.0017714249
155384000,155384000,-0.010983379,-0.014888588,0.0029639367
155396000,155396000,-0.0045300466,-0.01198265,-0.0036482809
155408000,155408000,-0.005702689,-0.008020356,-0.0044932826
155420000,155420000,-0.0075772326,-0.0094488,-0.0013700785
155432000,155432000,-0.003732757,-0.011997401,-0.0016413423
155440000,155440000,0.0011254353,-0.008644537,0.00056788867
155452000,155452000,-0.005958083,-0.005852729,-0.0023419124
155468000,155468000,0.00030213263,0.0003634463,1.7040482e-05
155480000,155480000,0.005489336,-0.0020547342,0.0015930866
155492000,155492000,0.0068062725,-0.005997421,0.00086252013
155504000,155504000,0.002368177,-0.0007008505,0.0037762641
155516000,155516000,0.0009606723,-0.0016191956,0.0015414766
155524000,155524000,0.005785346,-0.0032127183,-0.0013601412
155540000,155540000,0.002126682,0.00048022205,-0.0009019526
155552000,155552000,6.5126515e-05,0.0016256962,-0.0014893865
155564000,155564000,0.0023277136,-0.0010712538,-0.0023486197
155576000,155576000,-0.0048014997,0.0046849963,0.0005106841
155588000,155588000,-0.0051084617,0.0019552298,-0.0007178368
155600000,155600000,-0.0024443297,0.008983067,0.0013558483
155608000,155608000,0.0016674419,0.0033396217,-0.00025707512
155624000,155624000,-0.005857951,0.006276552,0.002864
155636000,155636000,-0.0056425203,0.0030027628,-0.0027124423
155644000,155644000,-0.0039987396,-0.0006553838,-0.0019186031
155656000,155656000,-0.0025814855,0.0017915363,0.0016839314
155672000,155672000,-0.008225688,0.0020644492,0.0036464229
155684000,155684000,-0.0067301,-0.001335769,0.0021220925
155696000,155696000,-0.000854008,0.0025912127,0.00096824294
155708000,155708000,0.0039613517,0.0043071653,0.002197717
155716000,155716000,2.7496833e-05,0.0015726234,0.0064575276
155732000,155732000,-0.00094531936,-0.0015684799,0.003604009
155740000,155740000,-0.0028167458,-0.0016344097,-0.0010149658
155756000,155756000,-0.00729183,-0.0019127829,0.0062511573
155768000,155768000,-0.0082884235,0.0011565876,0.0033707935
155780000,155780000,-0.0065688835,-4.8311893e-05,0.0023384248
155788000,155788000,-0.0050933375,-0.0023441892,-0.0010141303
155804000,155804000,-0.01275398,-0.003366408,-0.0011596333
155816000,155816000,-0.009334184,0.0020482317,-0.005656312
155828000,155828000,-0.006432535,0.0010210574,-0.00331541
155836000,155836000,-0.009022304,-0.0034894017,-0.003964755
155852000,155852000,-0.008387277,-0.0045009577,-0.0041631944
155864000,155864000,-0.0038136472,-0.005176351,-0.007411495
155876000,155876000,-0.0021167388,-0.0022283974,-0.0021004912
155888000,155888000,-0.0032089648,-0.0065191956,-0.005014345
155900000,155900000,-0.004223267,-0.0070065516,0.000802922
155908000,155908000,-0.006907048,-0.010490024,0.0016959957
155924000,155924000,-0.0028414945,-0.015370644,0.002366337
155936000,155936000,0.003975393,-0.009851114,0.0030571409
155944000,155944000,0.0040294686,-0.008533182,0.007073427
155960000,155960000,-0.0024814168,-0.0035913647,0.0070376443
155972000,155972000,0.0007554182,0.0005934248,-0.00024077165
155984000,155984000,-0.0029027092,-0.00074584223,0.0011726693
155996000,155996000,-0.0072249286,-0.006405467,0.0014162314
156008000,156008000,-0.0019330548,-0.0029964605,-0.0045678983
156020000,156020000,-0.0015703856,-0.0046203677,0.0018157936
156028000,156028000,-0.0027306527,-0.005519832,0.0044342647
156044000,156044000,-0.005475199,-0.0011109118,0.0013128571
156056000,156056000,-0.0037707293,0.001933889,0.00026180557
156064000,156064000,-0.0010148629,0.000807425,0.0014894373
156076000,156076000,-0.002030556,0.0005004867,0.0017447055
156088000,156088000,0.0020202275,-0.00551632,0.00036780938
156100000,156100000,0.0008497702,-0.0038729436,-0.00095071783
156116000,156116000,0.004408075,-0.008931275,-0.0009857828
156128000,156128000,0.0019223867,-0.008873127,-0.00049317785
156136000,156136000,0.0007661218,-0.0035310374,-0.00027541933
156152000,156152000,0.0008747445,-0.0016272725,-0.0017830115
156164000,156164000,0.003503288,-0.002616901,-0.00034422646
156176000,156176000,0.0047380645,-0.0029477007,-0.005720467
156188000,156188000,0.0033638317,-0.0053110677,-0.002555798
156200000,156200000,0.007143,-0.003116747,-0.0052469783
156212000,156212000,0.010110647,0.0018069674,-0.0031809527
156220000,156220000,0.010868812,0.0045586545,-0.003635474
156236000,156236000,0.0038720474,0.0019564067,0.0023352795
156248000,156248000,0.0044531007,0.0007576714,0.00034611765
156260000,156260000,0.005853353,-0.00017260574,-0.0016346254
156272000,156272000,0.010004414,-0.0035298322,0.004866919
156284000,156284000,0.008159336,0.010531029,0.004231065
156296000,156296000,0.008513178,0.0025145956,-8.419488e-05
156308000,156308000,0.0076622316,0.0037614307,-0.00022953993
156320000,156320000,0.009046576,0.0020394786,-0.0046873307
156332000,156332000,0.010141315,-0.0040769633,0.0025021618
156344000,156344000,3.5283738e-05,-0.0048735854,0.00092782074
156356000,156356000,0.0031474847,-0.0025946223,-7.464806e-05
156364000,156364000,0.007220266,0.0014968361,0.0031664756
156376000,156376000,0.004116855,0.0028111802,0.0030927607
156392000,156392000,0.006210657,-0.0022700932,-0.0013280383
156404000,156404000,0.007288615,-0.0016192026,-0.0064516086
156416000,156416000,0.014269865,0.0042001484,-0.0033238607
156428000,156428000,0.015382293,0.00065425923,-0.0019295213
156440000,156440000,0.0100081805,-0.0036661513,-0.0019441799
156452000,156452000,0.011183728,0.0013601184,-0.0018132621
156460000,156460000,0.0033754306,0.0013110214,-0.0022557427
156476000,156476000,-0.00035647856,0.0051087546,-0.0027413126
156488000,156488000,0.001069478,0.0008670096,-0.0012772782
156500000,156500000,-0.00321529,0.0025375078,0.003906443
156512000,156512000,-0.007024357,-0.0009607468,0.0017554514
156524000,156524000,-0.0015958452,-0.003419857,0.0012007556
156532000,156532000,-0.0056478307,0.00136523,-0.00064384344
156548000,156548000,-0.006408498,0.005409351,-0.0014407911
156560000,156560000,-0.004188975,0.009348762,-0.0031614874
156572000,156572000,-0.0103747845,0.002914776,0.0033442683
156584000,156584000,-0.004840767,-0.0011504386,0.0012672667
156596000,156596000,-0.0039618383,0.002665955,0.004341097
156608000,156608000,-0.007682777,0.0073574167,-0.00012782699
156620000,156620000,-0.0038049654,0.0066989614,0.0024282013
156632000,156632000,-0.008338815,-0.00064430153,0.003440136
156644000,156644000,-0.011868363,-0.0032777507,0.0005900713
156656000,156656000,-0.010662249,0.00048461976,0.0023588557
156664000,156664000,-0.010359078,0.004232156,-0.0035614742
156680000,156680000,-0.004071846,-0.003185275,-0.0034010862
156692000,156692000,-0.0042259805,-0.0028414694,-0.0009775297
156700000,156700000,-0.001686741,-0.0023585022,0.0019366108
156716000,156716000,-0.0050312867,-0.004631999,0.004081941
156728000,156728000,-0.0006444338,-0.0033032536,0.002405221
156740000,156740000,0.0083800685,-0.0058248644,0.0017751957
156752000,156752000,0.007468604,-0.010094408,0.002238649
156764000,156764000,0.004795764,-0.00058423914,0.00393912
156776000,156776000,0.0033322715,0.0028969413,-0.0023900229
156788000,156788000,-0.00047392654,0.0062223035,0.007851826
156800000,156800000,-0.0010468627,0.010488984,0.002438335
156812000,156812000,0.0012743594,0.0091342535,-0.0040896633
156824000,156824000,0.00034431895,0.00809201,0.0009272219
156836000,156836000,0.0064202803,0.011552327,0.0019976406
156848000,156848000,-0.00031526765,0.008373131,0.0021702237
156860000,156860000,-0.005443012,0.004370243,-0.0032927822
156868000,156868000,-0.0012909318,0.0038822743,-0.0021674847
156880000,156880000,0.0014642689,0.00392902,0.00074109563
156896000,156896000,0.0008312268,-0.004920074,-0.0030987493
156908000,156908000,-0.0008058962,-0.0025421954,0.0016365245
156916000,156916000,0.00086392823,0.0022805673,0.0026522963
156932000,156932000,0.000795564,0.007963877,-0.0031226298
156944000,156944000,0.0014530607,0.010046132,0.0004792998
156956000,156956000,0.00088834297,0.009755066,0.004885367
156968000,156968000,-0.0021099779,0.012684912,0.0049863183
156980000,156980000,-0.0031499811,0.012249801,-0.0014569466
156992000,156992000,-0.005107803,0.0106867775,-0.0017104086
157004000,157004000,-0.0020636106,0.0014441456,-0.0037758816
157016000,157016000,-0.0070316982,0.0020174542,-0.0026209038
157028000,157028000,-0.00047763414,0.0012815539,-0.0032213859
157036000,157036000,-0.00028016657,0.0067609632,-0.002256927
157048000,157048000,-0.0038907328,0.0073415413,-0.0018711161
157064000,157064000,0.00029904128,0.003223754,-0.0003781159
157072000,157072000,-0.0031627382,-0.00036151893,0.0015880137
157088000,157088000,-0.007478875,-0.008441871,0.0007819304
157100000,157100000,-0.00723944,-0.012726622,-0.0012407996
157112000,157112000,-0.0054547433,-0.012466328,0.00085620384
157124000,157124000,-0.0030554035,-0.009571267,0.0005444638
157136000,157136000,-0.004176697,-0.00757031,0.003932657
157148000,157148000,-0.004460969,-0.011758831,0.0032195533
157160000,157160000,-0.007958839,-0.0061007054,0.0012013243
157168000,157168000,-0.008977216,-0.0037318887,0.00041525124
157180000,157180000,-0.0046416824,-0.0051563773,-0.0010289975
157196000,157196000,-0.003891815,-0.0055287,0.0014233405
157204000,157204000,-0.00424029,-0.005343783,-0.0010584841
157220000,157220000,-0.0018525997,-0.0018129684,-0.0018221752
157232000,157232000,-0.0038203858,-0.0026324964,0.0010717666
157244000,157244000,-0.0010976489,-0.0055305795,0.0010541455
157256000,157256000,-0.0037910012,-0.0020169653,0.0029118017
157268000,157268000,-0.00203639,0.004264101,0.0035220983
157280000,157280000,-0.0005350824,0.004751274,0.0025047811
157292000,157292000,0.003158585,-0.0049189692,-0.006125577
157304000,157304000,0.0018430031,-0.005835274,-0.0049204025
157312000,157312000,0.000584155,-0.0029014335,-0.0034185215
157328000,157328000,0.0022507599,-0.004004784,0.001506899
157340000,157340000,-5.8528967e-06,-0.00020954572,0.0038076204
157352000,157352000,0.00024706306,-0.00047563063,-0.002449735
157364000,157364000,0.0035719008,-0.0037656683,-0.00158268
157376000,157376000,0.0035270946,-0.0021971073,-0.001891881
157388000,157388000,0.0023666301,0.0017735395,-0.0042603775
157400000,157400000,-0.004272444,-0.0022300468,-0.0033798092
157412000,157412000,-0.002161876,0.0046581174,-0.0013253668
157424000,157424000,-0.00080453145,0.0011809831,-0.0020924117
157436000,157436000,-0.0020089902,0.0029850188,0.0018748641
157448000,157448000,-0.0019654264,-0.0070732003,0.0019783627
157460000,157460000,0.00071786414,-0.007473406,0.0026279693
157468000,157468000,0.0020224121,-0.0054865596,-0.0012790896
157480000,157480000,0.0092253545,0.0014571096,0.0013020252
157496000,157496000,0.013772749,0.0031543772,0.0006828371
157508000,157508000,0.015325771,0.0005557337,-0.0055678682
157516000,157516000,0.017036581,-0.00260865,-0.0020082495
157532000,157532000,0.009489017,-0.0021973052,-0.0010266585
157544000,157544000,0.0061301026,-0.005191155,-0.0024533349
157552000,157552000,0.007053313,-0.007178226,-0.0013761327
157568000,157568000,0.005481843,-0.00078401715,-0.0036547987
157576000,157576000,0.008956829,0.00012473995,-0.0028567084
157592000,157592000,0.0073245266,-0.0011687153,-0.000624992
157604000,157604000,0.014902752,0.0008493657,-0.0054855417
157616000,157616000,0.009230752,0.0006946926,-0.0020890855
157628000,157628000,0.009816801,-0.00086350273,0.00069735205
157640000,157640000,0.0074066394,3.0837953e-05,-0.0001763583
157652000,157652000,0.006945007,-0.003655951,0.0020421653
157660000,157660000,0.0050302325,-0.0007006214,0.0011741782
157676000,157676000,0.009682551,-0.005006972,-0.0015815345
157688000,157688000,0.008401946,0.00010501826,-0.0060323835
157700000,157700000,0.00036995136,-0.0062245023,0.0011317724
157712000,157712000,5.9052574e-05,-0.008716807,-0.0037774201
157724000,157724000,0.0024825083,-0.0010009818,-0.0005911434
157736000,157736000,0.0014565759,-0.004197464,0.0044846507
157748000,157748000,-0.0021318826,-0.008610337,-0.0010223369
157760000,157760000,-0.0009324107,-0.0040007145,0.004188526
157772000,157772000,0.0019317734,-0.0032592244,0.0042553334
157784000,157784000,0.004565428,-0.0074824523,0.0033368412
157796000,157796000,-0.0018606378,0.00039750198,-0.0023668956
157808000,157808000,0.00021584061,0.0027128,0.0011209549
157820000,157820000,0.0037428946,0.0010600802,0.006071502
157828000,157828000,0.0029789654,0.0014010267,0.0056371093
157844000,157844000,0.007926977,-0.0030217473,0.0032615494
157856000,157856000,0.009688451,-0.005566938,0.0016973309
157868000,157868000,0.00596427,-0.010603888,-0.0007463388
157876000,157876000,0.0019268688,-0.015394516,0.0005212089
157892000,157892000,0.0015896094,-0.017337514,0.0015821103
157900000,157900000,-0.0009657546,-0.016424939,0.000121427256
157912000,157912000,-0.0018610335,-0.0077660712,-0.0020314476
157928000,157928000,-0.0047378712,-0.010664077,0.0019226783
157940000,157940000,-4.8638205e-05,-0.0040642912,0.003586078
157952000,157952000,0.01129394,-0.0061578494,-0.00020910939
157964000,157964000,0.007635036,-0.008798167,-0.002623032
157976000,157976000,0.0023172768,-0.0063290535,3.474456e-05
157988000,157988000,-0.0024940781,-0.006237402,-0.0020968032
158000000,158000000,-0.0021843265,-0.003971348,0.00024333323
158012000,158012000,-0.000116499374,-0.0027178782,-0.00454245
158024000,158024000,-0.0035325808,0.008760009,3.29516e-05
158032000,158032000,-0.0076964707,0.008350214,0.0030486032
158044000,158044000,-0.0027275586,0.0060852566,-0.0017910182
158060000,158060000,0.0001991007,0.008621344,-0.0004485528
158072000,158072000,0.005940506,0.010170936,0.004277902
158084000,158084000,-0.0046960227,0.014407385,0.0019465875
158096000,158096000,-0.004087739,0.008599442,0.0006909705
158108000,158108000,-0.0044574365,0.011141948,-0.001383196
158120000,158120000,-0.0035351133,0.013654016,-0.0012007825
158128000,158128000,0.0015454813,0.011370868,-0.0034018368
158144000,158144000,-0.0022085004,0.00044049695,0.0006604042
158156000,158156000,0.0019833788,-0.0023352029,0.0068300315
158168000,158168000,0.0038518144,0.0023391289,0.005590392
158180000,158180000,0.00012343898,0.0006042756,0.0010625335
158188000,158188000,-0.0058497833,-0.0024010395,0.001128074
158204000,158204000,-0.0036623776,0.0035109774,-0.0036828096
158216000,158216000,-0.00042255846,0.0026902813,-0.00052444893
158228000,158228000,0.0020416693,0.0005051689,0.0017093153
