timestamp,timestamp_sample,control[0],control[1],control[2],control[3],control[4],control[5],control[6],control[7]
2051220000,2051220000,-0.002104431,0.00048360732,-0.23689412,-0.0,0.0,0.0,0.0,-1.0
2051320000,2051320000,-0.0020937712,-0.00018402195,-0.23748164,-0.0,0.0,0.0,0.0,-1.0
2051416000,2051416000,-0.00093256903,0.0024140743,-0.23728387,-0.0,0.0,0.0,0.0,-1.0
2051520000,2051520000,-0.0005904804,-0.00014711969,-0.23778129,-0.0,0.0,0.0,0.0,-1.0
2051624000,2051624000,-0.0007174821,-0.00082142744,-0.23851593,-0.0,0.0,0.0,0.0,-1.0
2051720000,2051720000,-0.00029160263,0.00026018044,-0.23779587,-0.0,0.0,0.0,0.0,-1.0
2051824000,2051824000,-0.00022889173,0.0008785185,-0.23697479,-0.0,0.0,0.0,0.0,-1.0
2051924000,2051924000,-0.000668804,1.3869954e-05,-0.23725696,-0.0,0.0,0.0,0.0,-1.0
2052028000,2052028000,-0.001541253,0.00063907844,-0.23735733,-0.0,0.0,0.0,0.0,-1.0
2052128000,2052128000,-0.0019997116,0.0019656988,-0.23774178,-0.0,0.0,0.0,0.0,-1.0
2052224000,2052224000,-0.0011440036,0.0011954547,-0.2373768,-0.0,0.0,0.0,0.0,-1.0
2052331999,2052331999,0.043775126,-0.050951086,0.0005678673,0.12021206,0.0,0.0,0.0,-1.0
2052432000,2052432000,0.04107628,-0.035793148,-0.0010843963,0.18174282,0.0,0.0,0.0,-1.0
2052532000,2052532000,0.038802058,-0.031781375,0.00046619985,0.24577288,0.0,0.0,0.0,-1.0
2052628000,2052628000,0.032057893,-0.03147651,-0.00017322451,0.31452563,0.0,0.0,0.0,-1.0
2052735999,2052735999,0.033246476,-0.029701894,-0.0011536998,0.3849932,0.0,0.0,0.0,-1.0
2052836000,2052836000,0.03067739,-0.031034695,-0.0016956208,0.47324505,0.0,0.0,0.0,-1.0
2052936000,2052936000,0.028972056,-0.031614922,0.00020460886,0.5481058,0.0,0.0,0.0,-1.0
2053036000,2053036000,0.0063206307,-0.0036926214,0.00052842975,0.6096217,0.0,0.0,0.0,-1.0
2053139999,2053139999,-0.007261188,0.0070924675,-0.00024649187,0.61027217,0.0,0.0,0.0,-1.0
2053240000,2053240000,0.00037801825,0.0016998947,0.00074501726,0.6052573,0.0,0.0,0.0,-1.0
2053336000,2053336000,0.0020924802,-0.00148051,-0.001181187,0.6168894,0.0,0.0,0.0,-1.0
2053436000,2053436000,0.0028363988,-0.0008399184,-0.00021825777,0.6172991,0.0,0.0,0.0,-1.0
2053539999,2053539999,0.0019118004,-0.0026445417,-0.0007669135,0.61778665,0.0,0.0,0.0,-1.0
2053644000,2053644000,0.00026006205,-0.0024144417,2.8419941e-05,0.6172318,0.0,0.0,0.0,-1.0
2053744000,2053744000,0.0014909338,-0.0017092316,-0.00097193266,0.618281,0.0,0.0,0.0,-1.0
2053844000,2053844000,-0.001621272,-0.00029083854,0.00043815508,0.6207695,0.0,0.0,0.0,-1.0
2053948000,2053948000,0.00051972317,-0.0031640467,0.00094950304,0.6210769,0.0,0.0,0.0,-1.0
2054048000,2054048000,0.0020543924,-0.0008773152,-0.000679275,0.63005155,0.0,0.0,0.0,-1.0
2054148000,2054148000,0.0028053802,-0.0025870781,0.0008375958,0.6283796,0.0,0.0,0.0,-1.0
2054248000,2054248000,0.0012418255,-6.8270136e-05,-0.00029445413,0.6304473,0.0,0.0,0.0,-1.0
2054347999,2054347999,-0.0006068731,-0.000591245,-0.00025556324,0.6295757,0.0,0.0,0.0,-1.0
2054448000,2054448000,-0.0002805607,0.00047198776,-0.0012183008,0.6359233,0.0,0.0,0.0,-1.0
2054552000,2054552000,-0.00022207038,-0.0012422656,0.0009639154,0.63365024,0.0,0.0,0.0,-1.0
2054652000,2054652000,-7.5726304e-05,-0.0024464317,0.0013968163,0.6358015,0.0,0.0,0.0,-1.0
2054751999,2054751999,7.5204065e-05,-0.00097634725,0.0039725304,0.640347,0.0,0.0,0.0,-1.0
2054856000,2054856000,-0.0023721394,-0.00028995494,0.0011986174,0.6441192,0.0,0.0,0.0,1.0
2054956000,2054956000,-0.000603491,-0.00048415433,0.00022650878,0.5335123,0.0,0.0,0.0,1.0
2055052000,2055052000,0.00010130694,-0.00056380173,0.0002682617,0.5266362,0.0,0.0,0.0,1.0
2055155999,2055155999,0.0017222916,0.00083431974,-9.3936076e-05,0.55326325,0.0,0.0,0.0,1.0
2055256000,2055256000,0.0005374792,-0.0021032174,-0.0006159664,0.54714316,0.0,0.0,0.0,1.0
2055360000,2055360000,-0.00023075507,-0.0015753929,-0.0010985349,0.5492918,0.0,0.0,0.0,1.0
2055460000,2055460000,-4.1138846e-06,0.00091514306,-0.00092267484,0.5494952,0.0,0.0,0.0,1.0
2055559999,2055559999,-0.00014805514,0.00022493687,6.7349276e-05,0.55274576,0.0,0.0,0.0,1.0
2055664000,2055664000,-0.0010104285,0.002669713,-0.00084521674,0.5546348,0.0,0.0,0.0,1.0
2055764000,2055764000,-0.0026905662,-0.0024579505,-0.00051891344,0.55541354,0.0,0.0,0.0,1.0
2055860000,2055860000,-0.0008470061,0.0015628269,0.0001548084,0.55529034,0.0,0.0,0.0,1.0
2055963999,2055963999,0.0023726108,-0.00039183872,4.7332385e-05,0.5554381,0.0,0.0,0.0,1.0
2056064000,2056064000,-0.0025273925,-0.00051864114,0.00059319026,0.5567848,0.0,0.0,0.0,1.0
2056164000,2056164000,-0.0007527222,0.0034376653,-0.0003390783,0.560319,0.0,0.0,0.0,1.0
2056268000,2056268000,0.0022097162,0.0002959504,-3.2945693e-05,0.5615193,0.0,0.0,0.0,1.0
2056372000,2056372000,0.0015465603,-0.0014023634,0.0004325956,0.5612204,0.0,0.0,0.0,1.0
2056472000,2056472000,0.00089366443,-0.000681271,5.9231484e-06,0.56079704,0.0,0.0,0.0,1.0
2056572000,2056572000,0.0018792204,0.0004974664,-0.0001465995,0.5611344,0.0,0.0,0.0,1.0
2056672000,2056672000,-0.00078016164,-0.000980912,0.00047872437,0.5605794,0.0,0.0,0.0,1.0
2056776000,2056776000,-0.00068949093,0.0014267006,8.4901076e-05,0.5631468,0.0,0.0,0.0,1.0
2056876000,2056876000,0.001035885,1.9002939e-05,-0.0005443014,0.5653004,0.0,0.0,0.0,1.0
2056972000,2056972000,0.0021471174,0.0011761601,0.0015812261,0.5659884,0.0,0.0,0.0,1.0
2057076000,2057076000,-0.0013908276,-0.0028150566,-0.00013765284,0.56418526,0.0,0.0,0.0,1.0
2057180000,2057180000,-0.0012397227,-2.1061132e-05,0.0004532415,0.5641514,0.0,0.0,0.0,1.0
2057280000,2057280000,-0.0013326934,-0.00054029573,-0.00030973225,0.5649647,0.0,0.0,0.0,1.0
2057380000,2057380000,0.00047928642,0.00010043138,0.0008150795,0.56564987,0.0,0.0,0.0,1.0
2057476000,2057476000,-0.0028421555,0.0015798846,9.0048205e-05,0.5636998,0.0,0.0,0.0,1.0
2057584000,2057584000,0.001585479,-0.0008796959,0.00012731022,0.56365854,0.0,0.0,0.0,1.0
2057680000,2057680000,-3.0484844e-06,-0.0003479162,-0.00013241229,0.5624128,0.0,0.0,0.0,1.0
2057784000,2057784000,-0.00065250875,-0.00061134784,-0.0010530447,0.5628262,0.0,0.0,0.0,1.0
2057884000,2057884000,-0.0018550898,-0.0011845905,-0.00011901329,0.5657647,0.0,0.0,0.0,1.0
2057988000,2057988000,-0.00026164204,-3.5856647e-06,-0.00061064877,0.5654964,0.0,0.0,0.0,1.0
2058088000,2058088000,0.0005351443,0.00074442854,-0.00015006735,0.5677544,0.0,0.0,0.0,1.0
2058184000,2058184000,-0.0010530957,0.001101092,0.00024708288,0.5667504,0.0,0.0,0.0,1.0
2058288000,2058288000,0.0012764339,1.6449558e-05,0.00040801513,0.5664383,0.0,0.0,0.0,1.0
2058387999,2058387999,0.00021628104,-9.6431184e-05,-0.00021670546,0.5669039,0.0,0.0,0.0,1.0
2058492000,2058492000,-0.0027286178,-0.0003437221,-4.5028853e-05,0.56603247,0.0,0.0,0.0,1.0
2058588000,2058588000,0.0048203203,0.00030420072,-0.0007147773,0.5647737,0.0,0.0,0.0,1.0
2058692000,2058692000,-0.0069205184,0.003523577,0.0009923936,0.56471086,0.0,0.0,0.0,1.0
2058796000,2058796000,-0.0044832244,0.0016677261,-0.00045516356,0.5635356,0.0,0.0,0.0,1.0
2058896000,2058896000,-0.0039096833,-0.00066507515,-0.0003851133,0.5654406,0.0,0.0,0.0,1.0
2058996000,2058996000,0.0005885946,0.0014868084,0.0008910004,0.56532085,0.0,0.0,0.0,1.0
2059096000,2059096000,-0.00029559474,0.0020983792,0.0006675797,0.5644369,0.0,0.0,0.0,1.0
2059195999,2059195999,-0.0011212169,-0.00032338346,-8.293237e-05,0.5631926,0.0,0.0,0.0,1.0
2059300000,2059300000,0.00026282822,0.00013969345,0.0015071988,0.5631476,0.0,0.0,0.0,1.0
2059396000,2059396000,0.0013554603,0.00092164415,0.00041133488,0.5617091,0.0,0.0,0.0,1.0
2059500000,2059500000,0.0026600796,-0.0016040124,-0.0006620399,0.5633579,0.0,0.0,0.0,1.0
2059604000,2059604000,0.0020549663,0.0016371624,0.00045244183,0.5637936,0.0,0.0,0.0,1.0
2059704000,2059704000,0.0004610569,-0.0017189726,0.00013477923,0.5639154,0.0,0.0,0.0,1.0
2059804000,2059804000,0.0011538251,2.8678623e-06,0.0009700664,0.5613206,0.0,0.0,0.0,1.0
2059904000,2059904000,-0.0038999948,-0.00027641782,0.0007715661,0.56274855,0.0,0.0,0.0,1.0
2060008000,2060008000,0.00084720063,0.0024202806,0.00063615665,0.56263596,0.0,0.0,0.0,1.0
2060108000,2060108000,0.0011431989,0.00073346787,0.0010685346,0.56267405,0.0,0.0,0.0,1.0
2060208000,2060208000,0.00018674569,0.00017250987,-0.00027568868,0.56333137,0.0,0.0,0.0,1.0
2060308000,2060308000,-4.2195054e-05,-0.0030542489,0.00025120671,0.56287694,0.0,0.0,0.0,1.0
2060412000,2060412000,0.000894933,-0.0025107272,0.0005702621,0.56213456,0.0,0.0,0.0,1.0
2060512000,2060512000,-0.00014082823,-0.0016356567,0.0005054126,0.5628677,0.0,0.0,0.0,1.0
2060612000,2060612000,0.00053053227,0.0015989462,-0.00062933576,0.56426346,0.0,0.0,0.0,1.0
2060712000,2060712000,-0.0028259028,-0.0042599197,-0.0003175494,0.5588344,0.0,0.0,0.0,1.0
2060816000,2060816000,0.0007782916,0.008217744,-0.03393512,0.55936986,0.0,0.0,0.0,1.0
2060916000,2060916000,-0.006532021,0.026884459,-0.051883135,0.564724,0.0,0.0,0.0,1.0
2061016000,2061016000,-0.002786662,0.016982192,-0.04777795,0.5624933,0.0,0.0,0.0,1.0
2061116000,2061116000,0.0011110934,-0.00048601208,-0.04295891,0.56777453,0.0,0.0,0.0,1.0
2061220000,2061220000,-0.0004318005,-0.010264043,-0.04368103,0.573684,0.0,0.0,0.0,1.0
2061320000,2061320000,0.012359738,-0.009349583,-0.040609498,0.5794878,0.0,0.0,0.0,1.0
2061416000,2061416000,0.012745388,-0.0047708256,-0.042944375,0.59007746,0.0,0.0,0.0,1.0
2061520000,2061520000,-0.0043889373,0.009095061,-0.040579513,0.60112214,0.0,0.0,0.0,1.0
2061624000,2061624000,0.008554393,0.0013800676,-0.0466952,0.60443574,0.0,0.0,0.0,1.0
2061720000,2061720000,0.008757339,0.0049498165,-0.04886847,0.6124405,0.0,0.0,0.0,1.0
2061820000,2061820000,0.002403031,0.010564972,-0.046641506,0.61883026,0.0,0.0,0.0,1.0
2061920000,2061920000,0.008778795,0.007406078,-0.04587853,0.6267732,0.0,0.0,0.0,1.0
2062023999,2062023999,0.000905694,0.0046565,-0.041083835,0.6330561,0.0,0.0,0.0,1.0
2062128000,2062128000,-0.012096452,0.0068305703,-0.0477212,0.64501876,0.0,0.0,0.0,1.0
2062228000,2062228000,-0.013100598,0.008654903,-0.046405837,0.6535064,0.0,0.0,0.0,1.0
2062331999,2062331999,-0.018930556,0.0053670565,-0.042508945,0.6614836,0.0,0.0,0.0,1.0
2062432000,2062432000,-0.03205113,0.0014350826,-0.05044336,0.6718622,0.0,0.0,0.0,1.0
2062528000,2062528000,-0.026023246,0.0027516964,-0.04600919,0.6726002,0.0,0.0,0.0,1.0
2062632000,2062632000,-0.024762964,0.0010432017,-0.045982245,0.67927647,0.0,0.0,0.0,1.0
2062731999,2062731999,-0.016960336,-0.0016039815,-0.03701497,0.6794077,0.0,0.0,0.0,1.0
2062836000,2062836000,-0.031018013,-0.015375181,-0.034507226,0.68955183,0.0,0.0,0.0,1.0
2062936000,2062936000,-0.030062443,-0.023262173,-0.03794183,0.68729025,0.0,0.0,0.0,1.0
2063036000,2063036000,-0.022690823,-0.022635208,-0.03106296,0.68378913,0.0,0.0,0.0,1.0
2063139999,2063139999,-0.032306347,-0.026437687,-0.028602494,0.6851126,0.0,0.0,0.0,1.0
2063240000,2063240000,-0.03100305,-0.03169964,-0.034431763,0.682156,0.0,0.0,0.0,1.0
2063340000,2063340000,-0.030793868,-0.035233036,-0.035655383,0.6797174,0.0,0.0,0.0,1.0
2063440000,2063440000,-0.027648324,-0.037581228,-0.033006713,0.67981154,0.0,0.0,0.0,1.0
2063543999,2063543999,-0.02397623,-0.039535522,-0.03443923,0.681632,0.0,0.0,0.0,1.0
2063644000,2063644000,-0.02029715,-0.040563613,-0.031004393,0.6787628,0.0,0.0,0.0,1.0
2063744000,2063744000,-0.018475916,-0.03748153,-0.026949432,0.67789733,0.0,0.0,0.0,1.0
2063844000,2063844000,-0.01747608,-0.03830707,-0.029733395,0.6782129,0.0,0.0,0.0,1.0
2063948000,2063948000,-0.015391216,-0.048955284,-0.02820247,0.6825779,0.0,0.0,0.0,1.0
2064048000,2064048000,-0.010844084,-0.043457128,-0.007868055,0.6794793,0.0,0.0,0.0,1.0
2064144000,2064144000,-0.015292738,-0.042963125,0.0062290747,0.6797602,0.0,0.0,0.0,1.0
2064248000,2064248000,-0.0102682365,-0.04467653,0.0040021595,0.6788872,0.0,0.0,0.0,1.0
2064352000,2064352000,-0.0036549522,-0.047150254,0.0030731894,0.6814214,0.0,0.0,0.0,1.0
2064452000,2064452000,-0.00085882004,-0.040153313,0.0026171263,0.67998445,0.0,0.0,0.0,1.0
2064552000,2064552000,-0.0023241136,-0.054654323,0.00332639,0.68335176,0.0,0.0,0.0,1.0
2064652000,2064652000,-0.0021773558,-0.05096078,8.9116395e-05,0.68103015,0.0,0.0,0.0,1.0
2064756000,2064756000,-0.0035899226,-0.04934951,0.00048767775,0.6816331,0.0,0.0,0.0,1.0
2064856000,2064856000,0.00025774818,-0.04646726,-0.00054183044,0.68110687,0.0,0.0,0.0,1.0
2064956000,2064956000,0.00031173322,-0.04517443,-0.0012559146,0.6798736,0.0,0.0,0.0,1.0
2065056000,2065056000,-0.00035689957,-0.04227843,-0.0007220339,0.68170583,0.0,0.0,0.0,1.0
2065155999,2065155999,0.0014725518,-0.04396281,-0.0002577901,0.68134975,0.0,0.0,0.0,1.0
2065260000,2065260000,-0.0010549938,-0.05031769,-0.00035071187,0.68258774,0.0,0.0,0.0,1.0
2065360000,2065360000,-0.0005524047,-0.049654923,-0.0012977282,0.68402916,0.0,0.0,0.0,1.0
2065456000,2065456000,0.0018732972,-0.04531816,-0.0013215365,0.6823748,0.0,0.0,0.0,1.0
2065564000,2065564000,0.0036097756,-0.045189388,0.00020865817,0.6819396,0.0,0.0,0.0,1.0
2065664000,2065664000,0.0004460269,-0.05185107,-0.00030199718,0.6855812,0.0,0.0,0.0,1.0
2065764000,2065764000,0.00513809,-0.052843474,-0.0016558226,0.6870847,0.0,0.0,0.0,1.0
2065864000,2065864000,0.0037741712,-0.050537072,-0.0010926686,0.6837,0.0,0.0,0.0,1.0
2065968000,2065968000,0.0026149799,-0.044840574,-0.00080737006,0.6830038,0.0,0.0,0.0,1.0
2066068000,2066068000,0.00300385,-0.050674252,-0.00030668266,0.68547916,0.0,0.0,0.0,1.0
2066164000,2066164000,0.004000677,-0.051530022,-0.0002691904,0.6854676,0.0,0.0,0.0,1.0
2066268000,2066268000,-0.002103007,-0.048525833,-0.0008262554,0.68576425,0.0,0.0,0.0,1.0
2066372000,2066372000,0.0018804793,-0.049965702,-0.00079447683,0.6866143,0.0,0.0,0.0,1.0
2066468000,2066468000,0.0028301436,-0.047298435,-0.0008148346,0.6871636,0.0,0.0,0.0,1.0
2066572000,2066572000,0.0032090473,-0.043641146,-0.0009610816,0.68470937,0.0,0.0,0.0,1.0
2066668000,2066668000,0.0025756024,-0.04542949,-0.0011681691,0.68586224,0.0,0.0,0.0,1.0
2066776000,2066776000,0.005291633,-0.045319512,-0.00031803641,0.68594104,0.0,0.0,0.0,1.0
2066872000,2066872000,-0.00026321854,-0.056160673,-0.00053512165,0.68779737,0.0,0.0,0.0,1.0
2066976000,2066976000,0.00159026,-0.051043484,-0.0010086494,0.6873255,0.0,0.0,0.0,1.0
2067076000,2067076000,0.0013295568,-0.049545832,-0.0013440982,0.68525904,0.0,0.0,0.0,1.0
2067180000,2067180000,0.005230584,-0.055762842,-0.0013991855,0.68938446,0.0,0.0,0.0,1.0
2067280000,2067280000,-0.00043919316,-0.058903694,-0.0014104997,0.6900557,0.0,0.0,0.0,1.0
2067380000,2067380000,0.0019321587,-0.059590638,-0.0022972405,0.68904513,0.0,0.0,0.0,1.0
2067476000,2067476000,-0.00029405567,-0.0508175,-0.0011561331,0.6875288,0.0,0.0,0.0,1.0
2067584000,2067584000,-0.001643186,-0.047077052,-0.0005083475,0.68764037,0.0,0.0,0.0,1.0
2067680000,2067680000,0.00022585853,-0.045377016,-0.0009436463,0.68507904,0.0,0.0,0.0,1.0
2067780000,2067780000,0.0017882875,-0.051964942,-0.0017104528,0.68809134,0.0,0.0,0.0,1.0
2067880000,2067880000,0.00012860459,-0.053080678,-0.00108943,0.6902947,0.0,0.0,0.0,1.0
2067988000,2067988000,0.0023298464,-0.049012553,-0.0003120592,0.68857884,0.0,0.0,0.0,1.0
2068084000,2068084000,0.00076496287,-0.060830347,-0.0003828681,0.69090873,0.0,0.0,0.0,1.0
2068188000,2068188000,0.002776288,-0.057749625,-0.0023566007,0.69079304,0.0,0.0,0.0,1.0
2068288000,2068288000,0.001158076,-0.05709038,-0.00026117289,0.68971926,0.0,0.0,0.0,1.0
2068392000,2068392000,0.0030763298,-0.046842787,-0.0011884188,0.6874775,0.0,0.0,0.0,1.0
2068492000,2068492000,0.0011013316,-0.05081251,-0.0024653669,0.6905364,0.0,0.0,0.0,1.0
2068592000,2068592000,0.0027238464,-0.05087191,-0.0008447489,0.6898178,0.0,0.0,0.0,1.0
2068692000,2068692000,0.0011905236,-0.05035521,-0.0012049468,0.69107825,0.0,0.0,0.0,1.0
2068796000,2068796000,0.00038564886,-0.047603525,0.00010818313,0.6887424,0.0,0.0,0.0,1.0
2068896000,2068896000,0.00078134064,-0.04648007,-0.0026941814,0.6884563,0.0,0.0,0.0,1.0
2068996000,2068996000,0.0044215196,-0.056640487,-0.0019679784,0.69153243,0.0,0.0,0.0,1.0
2069092000,2069092000,0.0022136979,-0.05731861,-0.0013652673,0.69192505,0.0,0.0,0.0,1.0
2069195999,2069195999,0.0017564247,-0.05535117,-0.0010661576,0.69386494,0.0,0.0,0.0,1.0
2069296000,2069296000,0.0025833175,-0.05048986,-0.0012952252,0.69108236,0.0,0.0,0.0,1.0
2069400000,2069400000,0.00024803326,-0.046873532,-0.00095333543,0.6928043,0.0,0.0,0.0,1.0
2069496000,2069496000,-0.00057036185,-0.054039516,-0.0015924511,0.6950944,0.0,0.0,0.0,1.0
2069604000,2069604000,-0.0007659467,-0.05566678,-0.0015314934,0.6967345,0.0,0.0,0.0,1.0
2069700000,2069700000,0.001869313,-0.05358655,-0.00027278322,0.69538677,0.0,0.0,0.0,1.0
2069804000,2069804000,-0.0011683478,-0.047921117,-0.0015184684,0.6948109,0.0,0.0,0.0,1.0
2069904000,2069904000,0.0016280147,-0.0481603,-0.0017327745,0.6947764,0.0,0.0,0.0,1.0
2070008000,2070008000,0.0022243923,-0.04597743,-0.0012818326,0.6952582,0.0,0.0,0.0,1.0
2070108000,2070108000,0.0031713129,-0.049462177,-0.0021559019,0.6938437,0.0,0.0,0.0,1.0
2070208000,2070208000,0.0010919586,-0.046418075,-0.0009073537,0.69546115,0.0,0.0,0.0,1.0
2070308000,2070308000,-0.0015795245,-0.049318515,-0.0016104535,0.6976839,0.0,0.0,0.0,1.0
2070412000,2070412000,0.0026381975,-0.05608335,-0.0013579992,0.69872105,0.0,0.0,0.0,1.0
2070512000,2070512000,-0.00044869963,-0.049613766,-0.0010585204,0.69612324,0.0,0.0,0.0,1.0
2070612000,2070612000,0.00077525753,-0.055609223,-0.000986915,0.6986611,0.0,0.0,0.0,1.0
2070712000,2070712000,-5.3919503e-06,-0.055401534,-0.0011198699,0.6991254,0.0,0.0,0.0,1.0
2070811999,2070811999,0.00015551556,-0.050599188,-0.0012087973,0.6978392,0.0,0.0,0.0,1.0
2070916000,2070916000,-0.0016600635,-0.053926665,-0.0019742155,0.69739133,0.0,0.0,0.0,1.0
2071016000,2071016000,0.00048817444,-0.051067807,-0.0016113112,0.69620514,0.0,0.0,0.0,1.0
2071116000,2071116000,0.00074433855,-0.048347343,-0.0002673954,0.69673234,0.0,0.0,0.0,1.0
2071215999,2071215999,0.00041469157,-0.04788984,-0.0021679804,0.6963732,0.0,0.0,0.0,1.0
2071316000,2071316000,0.0006146382,-0.048137534,-0.0019979952,0.6985269,0.0,0.0,0.0,1.0
2071420000,2071420000,0.002265412,-0.046534296,-0.0014509052,0.7007549,0.0,0.0,0.0,1.0
2071516000,2071516000,0.0011728408,-0.049164463,-0.0011623332,0.6999341,0.0,0.0,0.0,1.0
2071624000,2071624000,-0.0025781605,-0.05098272,-0.0014674629,0.69950616,0.0,0.0,0.0,1.0
2071720000,2071720000,-0.0005428374,-0.061374046,-0.0023272496,0.70146036,0.0,0.0,0.0,1.0
2071824000,2071824000,0.0026872086,-0.05749606,-0.0013314816,0.7010906,0.0,0.0,0.0,1.0
2071924000,2071924000,0.00253451,-0.048463766,-0.000990425,0.7022049,0.0,0.0,0.0,1.0
2072028000,2072028000,-0.0010234521,-0.053672224,-0.0016407991,0.7022938,0.0,0.0,0.0,1.0
2072128000,2072128000,-0.00084747915,-0.053789847,-0.0013779262,0.70115227,0.0,0.0,0.0,1.0
2072228000,2072228000,0.00065114483,-0.050744668,-0.0012156956,0.7016524,0.0,0.0,0.0,1.0
2072331999,2072331999,-0.0010689932,-0.053241167,-0.0021876285,0.7030878,0.0,0.0,0.0,1.0
2072432000,2072432000,-0.0010778012,-0.056471646,-0.00087108836,0.7030011,0.0,0.0,0.0,1.0
2072528000,2072528000,0.0039796396,-0.054855544,-0.0028054023,0.70125234,0.0,0.0,0.0,1.0
2072632000,2072632000,-0.0006432026,-0.050710518,-0.00064418826,0.70167685,0.0,0.0,0.0,1.0
2072731999,2072731999,0.0011547672,-0.04786552,-0.0016544857,0.70109516,0.0,0.0,0.0,1.0
2072836000,2072836000,0.0020827167,-0.05625324,-0.0008153031,0.7042049,0.0,0.0,0.0,1.0
2072936000,2072936000,0.0029025935,-0.053298097,-0.00093260343,0.7008127,0.0,0.0,0.0,1.0
2073036000,2073036000,0.001487664,-0.0571769,-0.0011884295,0.70352286,0.0,0.0,0.0,1.0
2073135999,2073135999,0.00060365396,-0.053746123,-0.001637555,0.7026467,0.0,0.0,0.0,1.0
2073240000,2073240000,0.00015550345,-0.04772699,-0.0015128106,0.6997968,0.0,0.0,0.0,1.0
2073340000,2073340000,-0.0005149255,-0.0498338,-0.0015349467,0.7011841,0.0,0.0,0.0,1.0
2073440000,2073440000,0.00077708287,-0.056719884,-0.0018923271,0.7049308,0.0,0.0,0.0,1.0
2073543999,2073543999,-2.9055926e-05,-0.060279902,-0.0015890368,0.7037095,0.0,0.0,0.0,1.0
2073639999,2073639999,-0.0011173724,-0.05347266,-0.0009932213,0.7019816,0.0,0.0,0.0,1.0
2073744000,2073744000,0.001174249,-0.049760163,-0.0011905143,0.7005586,0.0,0.0,0.0,1.0
2073844000,2073844000,0.0021003745,-0.048410594,-0.0012052616,0.7006129,0.0,0.0,0.0,1.0
2073948000,2073948000,-0.00034835492,-0.057508443,-0.0020872562,0.7046029,0.0,0.0,0.0,1.0
2074048000,2074048000,0.00013867539,-0.048419498,-0.0013876472,0.7004444,0.0,0.0,0.0,1.0
2074148000,2074148000,-0.00029574696,-0.051543944,-0.0007927153,0.7018309,0.0,0.0,0.0,1.0
2074248000,2074248000,0.00058764964,-0.049697626,-0.0012381726,0.7029394,0.0,0.0,0.0,1.0
2074347999,2074347999,0.0009910192,-0.05223644,-0.0015204145,0.7012624,0.0,0.0,0.0,1.0
2074452000,2074452000,-0.00039518153,-0.046507902,-0.001794615,0.70195067,0.0,0.0,0.0,1.0
2074552000,2074552000,-0.00027469313,-0.057452247,-0.0018126225,0.7049346,0.0,0.0,0.0,1.0
2074652000,2074652000,0.001971187,-0.053259842,-0.0010253834,0.70358634,0.0,0.0,0.0,1.0
2074751999,2074751999,0.00048516135,-0.053590503,-0.00040897657,0.703848,0.0,0.0,0.0,1.0
2074856000,2074856000,-0.0033530048,-0.05249954,-0.0022687847,0.7028115,0.0,0.0,0.0,1.0
2074956000,2074956000,-0.00055245677,-0.050297115,-0.0008213637,0.7023064,0.0,0.0,0.0,1.0
2075056000,2075056000,0.0014636427,-0.047604505,-0.0022597304,0.70195585,0.0,0.0,0.0,1.0
2075155999,2075155999,-0.0005112578,-0.048415422,-0.0011159901,0.7041976,0.0,0.0,0.0,1.0
2075260000,2075260000,-0.00025124388,-0.05763823,-0.0011143244,0.70365125,0.0,0.0,0.0,1.0
2075356000,2075356000,-0.0003855202,-0.05458894,-0.0023557777,0.7035516,0.0,0.0,0.0,1.0
2075460000,2075460000,0.002324114,-0.04391177,-0.0018165079,0.7015449,0.0,0.0,0.0,1.0
2075564000,2075564000,-0.00077374367,-0.050145224,-0.001943213,0.7034437,0.0,0.0,0.0,1.0
2075664000,2075664000,-0.0029619893,-0.059189487,-0.0012852894,0.7058088,0.0,0.0,0.0,1.0
2075760000,2075760000,-0.00025698508,-0.052817024,-0.0011733397,0.70441633,0.0,0.0,0.0,1.0
2075864000,2075864000,-0.0007884264,-0.056269377,-0.0007415629,0.7038138,0.0,0.0,0.0,1.0
2075968000,2075968000,0.0005716675,-0.05447008,-0.0019061724,0.7039751,0.0,0.0,0.0,1.0
2076064000,2076064000,0.00026407262,-0.049734656,-0.0006127182,0.70218426,0.0,0.0,0.0,1.0
2076168000,2076168000,4.9264083e-05,-0.059294447,-0.0008288141,0.7055771,0.0,0.0,0.0,1.0
2076264000,2076264000,-0.0004731367,-0.05614352,-0.0010786039,0.7047991,0.0,0.0,0.0,1.0
2076372000,2076372000,0.00269567,-0.05963234,-0.0023454512,0.7069196,0.0,0.0,0.0,1.0
2076472000,2076472000,0.0029434846,-0.053217247,-0.0007135254,0.7044057,0.0,0.0,0.0,1.0
2076572000,2076572000,0.00032199174,-0.049437568,-0.0020705522,0.7027498,0.0,0.0,0.0,1.0
2076672000,2076672000,0.0033455435,-0.04797297,-0.0018436818,0.7034231,0.0,0.0,0.0,1.0
2076776000,2076776000,0.0014594202,-0.058008432,-0.00038817478,0.7070222,0.0,0.0,0.0,1.0
2076872000,2076872000,-0.0004062257,-0.052751888,-0.0018709889,0.7052767,0.0,0.0,0.0,1.0
2076972000,2076972000,0.0015416481,-0.05354371,-0.0020669475,0.70558727,0.0,0.0,0.0,1.0
2077072000,2077072000,-0.0008559526,-0.05539058,-0.00096759864,0.70385426,0.0,0.0,0.0,1.0
2077180000,2077180000,-0.00014774437,-0.05657939,-0.0032157826,0.70429575,0.0,0.0,0.0,1.0
2077276000,2077276000,-0.001306538,-0.055237822,-0.0014506135,0.7044907,0.0,0.0,0.0,1.0
2077380000,2077380000,0.002767306,-0.061864197,-0.0022816458,0.708215,0.0,0.0,0.0,1.0
2077480000,2077480000,-0.0005873005,-0.053126678,-0.0008683564,0.705916,0.0,0.0,0.0,1.0
2077584000,2077584000,0.0013146373,-0.054059856,-0.0014575567,0.70470154,0.0,0.0,0.0,1.0
2077680000,2077680000,-0.0011151526,-0.061191592,-0.0019657514,0.7088275,0.0,0.0,0.0,1.0
2077780000,2077780000,-0.00044418994,-0.054314286,-0.0016946713,0.70445323,0.0,0.0,0.0,1.0
2077884000,2077884000,0.00044817524,-0.05325769,-0.0017674121,0.70425534,0.0,0.0,0.0,1.0
2077988000,2077988000,-4.4955e-05,-0.06269962,-0.001146642,0.70721203,0.0,0.0,0.0,1.0
2078088000,2078088000,-0.0013884878,-0.06286356,-0.0013420299,0.70731556,0.0,0.0,0.0,1.0
2078184000,2078184000,0.002253856,-0.0628892,-0.00055565446,0.7084974,0.0,0.0,0.0,1.0
2078288000,2078288000,0.0026763466,-0.06141995,-0.001927942,0.70774895,0.0,0.0,0.0,1.0
2078392000,2078392000,0.003412741,-0.05009429,-0.0014742438,0.70407754,0.0,0.0,0.0,1.0
2078492000,2078492000,2.6852242e-05,-0.058336616,-0.0017708894,0.7074192,0.0,0.0,0.0,1.0
2078588000,2078588000,0.0011694273,-0.05132851,-0.0022970533,0.7054866,0.0,0.0,0.0,1.0
2078692000,2078692000,-0.00071391184,-0.053227622,-0.002069771,0.70616204,0.0,0.0,0.0,1.0
2078796000,2078796000,-0.00091984315,-0.052228596,-0.0014546069,0.70401317,0.0,0.0,0.0,1.0
2078896000,2078896000,0.0018418366,-0.06438595,-0.002095957,0.7081521,0.0,0.0,0.0,1.0
2078996000,2078996000,0.0007759393,-0.055957038,-0.0011287396,0.70788425,0.0,0.0,0.0,1.0
2079092000,2079092000,0.00068064954,-0.049893994,-0.0011059822,0.70361817,0.0,0.0,0.0,1.0
2079200000,2079200000,0.00023187853,-0.051605687,-0.0018575094,0.7080735,0.0,0.0,0.0,1.0
2079300000,2079300000,0.0051427702,-0.056975305,-0.0012075974,0.7070463,0.0,0.0,0.0,1.0
2079396000,2079396000,0.002204466,-0.0565449,-0.0013463781,0.7041869,0.0,0.0,0.0,1.0
2079496000,2079496000,0.0013715948,-0.059220456,-0.0014908568,0.7073169,0.0,0.0,0.0,1.0
2079604000,2079604000,0.0031909454,-0.051915497,-0.0007818279,0.70775545,0.0,0.0,0.0,1.0
2079704000,2079704000,-0.00084156066,-0.052738704,-0.0012258678,0.70566934,0.0,0.0,0.0,1.0
2079804000,2079804000,-0.0022889222,-0.050528195,-0.00083636417,0.7071644,0.0,0.0,0.0,1.0
2079904000,2079904000,-0.0015146439,-0.048380375,-0.0017422821,0.7068933,0.0,0.0,0.0,1.0
2080008000,2080008000,0.0007957233,-0.05036033,-0.0011750906,0.7087353,0.0,0.0,0.0,1.0
2080108000,2080108000,0.00029437002,-0.059863236,-0.0013658513,0.7111367,0.0,0.0,0.0,1.0
2080208000,2080208000,-0.0008317285,-0.05962035,-0.0015768263,0.7113071,0.0,0.0,0.0,1.0
2080308000,2080308000,-0.0007241385,-0.052957516,-0.002662995,0.71052784,0.0,0.0,0.0,1.0
2080407999,2080407999,0.0027212235,-0.05108626,-0.0020123937,0.7098239,0.0,0.0,0.0,1.0
2080508000,2080508000,0.0024919128,-0.049294934,-0.0011462809,0.71030945,0.0,0.0,0.0,1.0
2080612000,2080612000,0.0021510248,-0.052335445,-0.0019480288,0.71064746,0.0,0.0,0.0,1.0
2080712000,2080712000,-0.0020054022,-0.05357162,-0.0018277495,0.7095864,0.0,0.0,0.0,1.0
2080816000,2080816000,0.0015934978,-0.054445744,-0.0019782993,0.71200365,0.0,0.0,0.0,1.0
2080916000,2080916000,-9.496944e-06,-0.055641416,-0.0012295004,0.71237975,0.0,0.0,0.0,1.0
2081016000,2081016000,0.0027554976,-0.048279542,-0.0030326638,0.7099303,0.0,0.0,0.0,1.0
2081116000,2081116000,0.0011569362,-0.052810177,0.00023793592,0.71098673,0.0,0.0,0.0,1.0
2081220000,2081220000,0.0007521031,-0.06026205,-0.0018665576,0.71499825,0.0,0.0,0.0,1.0
2081316000,2081316000,0.001492037,-0.05480957,-0.0015545792,0.7122524,0.0,0.0,0.0,1.0
2081420000,2081420000,0.00044323015,-0.05608356,-0.0015395327,0.71185964,0.0,0.0,0.0,1.0
2081516000,2081516000,0.0022116492,-0.054526374,-0.0018344468,0.7117763,0.0,0.0,0.0,1.0
2081624000,2081624000,-0.00062891084,-0.052256983,-0.00037311402,0.7122946,0.0,0.0,0.0,1.0
2081724000,2081724000,0.0003446915,-0.05552704,-0.002184821,0.71391743,0.0,0.0,0.0,1.0
2081824000,2081824000,-0.00027428454,-0.056331176,-0.0012284805,0.71283597,0.0,0.0,0.0,1.0
2081924000,2081924000,-0.00079283305,-0.05533282,-0.0011260824,0.7131854,0.0,0.0,0.0,1.0
2082028000,2082028000,-0.0042325817,-0.055992234,-0.0015786381,0.7125394,0.0,0.0,0.0,1.0
2082128000,2082128000,0.002022784,-0.050628096,-0.0007777885,0.7110629,0.0,0.0,0.0,1.0
2082224000,2082224000,-0.0008728104,-0.05116135,-0.0019950953,0.71175605,0.0,0.0,0.0,1.0
2082327999,2082327999,0.00049411465,-0.055992145,-0.0011802441,0.71533036,0.0,0.0,0.0,1.0
2082432000,2082432000,0.0036690172,-0.043240897,-0.0010837482,0.7064297,0.0,0.0,0.0,1.0
2082528000,2082528000,-0.00018806139,-0.044184834,-0.000637808,0.70191115,0.0,0.0,0.0,1.0
2082632000,2082632000,-0.0014806107,-0.039428417,-0.0034981864,0.6931165,0.0,0.0,0.0,1.0
2082731999,2082731999,0.008902723,-0.060792767,-0.0032906043,0.6891471,0.0,0.0,0.0,1.0
2082836000,2082836000,0.011719965,-0.07232237,0.0006703719,0.67472386,0.0,0.0,0.0,1.0
2082932000,2082932000,0.00439865,-0.06742331,0.0022775154,0.66352534,0.0,0.0,0.0,1.0
2083036000,2083036000,0.00053764135,-0.055566527,-0.0003655092,0.6582315,0.0,0.0,0.0,1.0
2083139999,2083139999,-0.000407808,-0.04403947,0.0011053521,0.6506681,0.0,0.0,0.0,1.0
2083240000,2083240000,-4.512386e-05,-0.051783957,-0.001143887,0.6451899,0.0,0.0,0.0,1.0
2083340000,2083340000,-0.0005588718,-0.04625511,0.0011206436,0.6383773,0.0,0.0,0.0,1.0
2083440000,2083440000,-0.0020223828,-0.052306738,0.0013029112,0.63275975,0.0,0.0,0.0,1.0
2083543999,2083543999,5.519367e-06,-0.05108807,6.401213e-05,0.6267004,0.0,0.0,0.0,1.0
2083644000,2083644000,0.0022663118,-0.048468795,-0.0008180649,0.6242028,0.0,0.0,0.0,1.0
2083744000,2083744000,0.0005337965,-0.039013695,0.0008348217,0.6178476,0.0,0.0,0.0,1.0
2083844000,2083844000,-1.719722e-05,-0.040343467,0.00032350025,0.61416245,0.0,0.0,0.0,1.0
2083948000,2083948000,0.005211645,-0.03495183,0.000988305,0.61045617,0.0,0.0,0.0,1.0
2084048000,2084048000,0.0017379369,-0.02746105,0.0014657641,0.60681725,0.0,0.0,0.0,1.0
2084148000,2084148000,0.00037323928,-0.030260831,0.0018557587,0.60314876,0.0,0.0,0.0,1.0
2084248000,2084248000,-0.0012089108,-0.02975521,0.0013681682,0.600437,0.0,0.0,0.0,1.0
2084352000,2084352000,-0.0024071569,-0.029263757,0.0021503312,0.5993128,0.0,0.0,0.0,1.0
2084452000,2084452000,-0.000922664,-0.022510868,0.0029607718,0.5953211,0.0,0.0,0.0,1.0
2084548000,2084548000,0.0023862114,-0.024163267,-0.0055429838,0.59434426,0.0,0.0,0.0,1.0
2084652000,2084652000,0.004969933,-0.023852132,0.015111808,0.59269035,0.0,0.0,0.0,1.0
2084756000,2084756000,-0.0016777237,-0.0146863405,0.04105497,0.58777344,0.0,0.0,0.0,1.0
2084852000,2084852000,0.00031263102,-0.014898773,0.04855961,0.5862406,0.0,0.0,0.0,1.0
2084956000,2084956000,0.0003727146,-0.014010157,0.052176584,0.5870685,0.0,0.0,0.0,1.0
2085056000,2085056000,0.00023493567,-0.017108565,0.047729976,0.58710015,0.0,0.0,0.0,1.0
2085155999,2085155999,0.00044651353,-0.016163398,0.04894624,0.5868842,0.0,0.0,0.0,1.0
2085256000,2085256000,-0.0054637305,-0.017061928,0.047442816,0.58863384,0.0,0.0,0.0,1.0
2085360000,2085360000,-0.04437727,-0.02176305,0.048645467,0.5827894,0.0,0.0,0.0,1.0
2085460000,2085460000,-0.039151553,-0.017546762,0.04027894,0.5772468,0.0,0.0,0.0,1.0
2085564000,2085564000,-0.0043883035,-0.0040810537,0.0356849,0.58584446,0.0,0.0,0.0,1.0
2085664000,2085664000,0.016733564,-0.007061431,0.045547456,0.58436465,0.0,0.0,0.0,1.0
2085764000,2085764000,0.0109083075,-0.005322716,0.046351563,0.5817897,0.0,0.0,0.0,1.0
2085864000,2085864000,0.00088671397,-0.0060039163,0.04530869,0.58057237,0.0,0.0,0.0,1.0
2085968000,2085968000,-0.007761511,-0.0054702116,0.047952197,0.58119595,0.0,0.0,0.0,1.0
2086068000,2086068000,-0.007999999,-0.00017018057,0.043161206,0.5807208,0.0,0.0,0.0,1.0
2086168000,2086168000,-0.003496427,-0.00082411617,0.039800666,0.5810756,0.0,0.0,0.0,1.0
2086268000,2086268000,0.024103783,-0.0144590195,0.04690176,0.58454883,0.0,0.0,0.0,1.0
2086367999,2086367999,0.0057182433,-0.0077408287,0.041877612,0.5838942,0.0,0.0,0.0,1.0
2086468000,2086468000,0.010692847,-0.016398015,0.038952745,0.5864397,0.0,0.0,0.0,1.0
2086572000,2086572000,0.017696047,-0.018827982,0.042887628,0.58946157,0.0,0.0,0.0,1.0
2086672000,2086672000,0.015867138,-0.019040968,0.04099621,0.5884617,0.0,0.0,0.0,1.0
2086776000,2086776000,0.007154505,-0.009958399,0.046090618,0.5904667,0.0,0.0,0.0,1.0
2086876000,2086876000,0.016037833,-0.024796002,0.043663383,0.5925192,0.0,0.0,0.0,1.0
2086976000,2086976000,0.0005587239,-0.000955035,0.039028455,0.5922186,0.0,0.0,0.0,1.0
2087076000,2087076000,-0.0061281417,0.0049395356,0.034947492,0.59291726,0.0,0.0,0.0,1.0
2087180000,2087180000,-0.0021265438,0.0055906978,0.037064333,0.59469944,0.0,0.0,0.0,1.0
2087280000,2087280000,0.0048946086,-0.02161203,0.033841923,0.6017868,0.0,0.0,0.0,1.0
2087380000,2087380000,0.009516092,-0.045752544,0.038717646,0.6093419,0.0,0.0,0.0,1.0
2087480000,2087480000,0.0074373498,-0.026431825,0.007022802,0.6092307,0.0,0.0,0.0,1.0
2087584000,2087584000,0.0100660045,-0.010801112,-0.008890526,0.60817444,0.0,0.0,0.0,1.0
2087684000,2087684000,0.007040829,-0.046314918,-0.007812656,0.62099564,0.0,0.0,0.0,1.0
2087780000,2087780000,0.0059327646,-0.049257964,-0.00626662,0.62453187,0.0,0.0,0.0,1.0
2087880000,2087880000,0.0024142594,-0.03298594,-0.0045030564,0.6227137,0.0,0.0,0.0,1.0
2087988000,2087988000,0.0031821672,-0.008079425,-0.0024332441,0.62304693,0.0,0.0,0.0,1.0
2088088000,2088088000,0.0020693757,-0.017030831,-0.0025678277,0.62963915,0.0,0.0,0.0,1.0
2088188000,2088188000,-0.0014848649,-0.022983156,-0.0012348071,0.6353999,0.0,0.0,0.0,1.0
2088288000,2088288000,0.0012862664,-0.028964639,-0.00055861287,0.6412729,0.0,0.0,0.0,1.0
2088392000,2088392000,-0.0017270506,-0.02929285,-0.00078678876,0.64550793,0.0,0.0,0.0,1.0
2088492000,2088492000,-0.0043583126,-0.038624693,-0.0012650602,0.65192854,0.0,0.0,0.0,1.0
2088592000,2088592000,0.0004173417,-0.030354217,0.00038239174,0.65489906,0.0,0.0,0.0,1.0
2088692000,2088692000,-0.0030153452,-0.04500427,0.0021596318,0.6575665,0.0,0.0,0.0,1.0
2088791999,2088791999,0.00013755611,-0.02661551,0.0026006922,0.6555595,0.0,0.0,0.0,1.0
2088896000,2088896000,0.0010072729,-0.017353358,0.0048645036,0.65343946,0.0,0.0,0.0,1.0
2088996000,2088996000,-0.0014297975,-0.040595345,0.0049193073,0.65887004,0.0,0.0,0.0,1.0
2089096000,2089096000,-0.0042768107,-0.040859282,0.0091526415,0.65774214,0.0,0.0,0.0,1.0
2089195999,2089195999,-0.004195383,-0.039025728,0.009363076,0.6564465,0.0,0.0,0.0,1.0
2089300000,2089300000,-0.0067697605,-0.039549228,0.010520385,0.65447396,0.0,0.0,0.0,1.0
2089396000,2089396000,-0.003747939,-0.042307757,0.016467461,0.65772647,0.0,0.0,0.0,1.0
2089500000,2089500000,-0.010988065,-0.046762586,0.018362183,0.65807587,0.0,0.0,0.0,1.0
2089604000,2089604000,0.00031156954,-0.027781488,-0.008152563,0.6555733,0.0,0.0,0.0,1.0
2089704000,2089704000,0.011337764,-0.035302028,-0.038512602,0.6567201,0.0,0.0,0.0,1.0
2089804000,2089804000,0.010565334,-0.038216554,-0.040651385,0.65541494,0.0,0.0,0.0,1.0
2089900000,2089900000,-4.8819697e-05,-0.0352773,-0.036344454,0.6570429,0.0,0.0,0.0,1.0
2090008000,2090008000,-0.012880993,-0.03713724,-0.013191368,0.65828073,0.0,0.0,0.0,1.0
2090104000,2090104000,-0.012814867,-0.042516645,0.00033757184,0.6594552,0.0,0.0,0.0,1.0
2090208000,2090208000,-0.009490618,-0.04394167,0.00015851436,0.6594533,0.0,0.0,0.0,1.0
2090304000,2090304000,-0.0023349752,-0.04330591,1.7797109e-05,0.6613007,0.0,0.0,0.0,1.0
2090412000,2090412000,0.0018021795,-0.04430599,0.00061240955,0.6624096,0.0,0.0,0.0,1.0
2090512000,2090512000,0.0044637183,-0.035541914,0.00021371432,0.65900534,0.0,0.0,0.0,1.0
2090608000,2090608000,0.0016976115,-0.03816121,-0.00025284942,0.6592271,0.0,0.0,0.0,1.0
2090708000,2090708000,0.0018748369,-0.036679763,-0.0003525589,0.6609472,0.0,0.0,0.0,1.0
2090816000,2090816000,-4.7079986e-05,-0.040829517,0.0007816176,0.66213924,0.0,0.0,0.0,1.0
2090916000,2090916000,0.001639707,-0.05154365,-0.0013111567,0.66504055,0.0,0.0,0.0,1.0
2091016000,2091016000,0.0010507575,-0.03516594,-0.0012783615,0.6618828,0.0,0.0,0.0,1.0
2091112000,2091112000,-0.0014256309,-0.049077515,-0.0005065233,0.66679806,0.0,0.0,0.0,1.0
2091220000,2091220000,-0.0006251456,-0.037785616,2.3634173e-05,0.6631779,0.0,0.0,0.0,1.0
2091320000,2091320000,0.0022023746,-0.03703695,-0.002160201,0.66401935,0.0,0.0,0.0,1.0
2091420000,2091420000,-0.00044998864,-0.039937895,-0.00055455137,0.66471195,0.0,0.0,0.0,1.0
2091520000,2091520000,0.00097098434,-0.042069398,-0.0007884917,0.6654058,0.0,0.0,0.0,1.0
2091619999,2091619999,0.0018152776,-0.0339768,0.00024172745,0.6642656,0.0,0.0,0.0,1.0
2091720000,2091720000,0.0025299063,-0.04331694,-0.0021511223,0.6666754,0.0,0.0,0.0,1.0
2091824000,2091824000,0.00045882256,-0.039853893,-0.00010421651,0.6639125,0.0,0.0,0.0,1.0
2091920000,2091920000,0.0008161865,-0.048390936,-0.0020321715,0.6681999,0.0,0.0,0.0,1.0
2092028000,2092028000,0.0001484818,-0.045301467,-0.0009221425,0.66772825,0.0,0.0,0.0,1.0
2092128000,2092128000,0.00063504267,-0.03783624,-0.0006035577,0.6650334,0.0,0.0,0.0,1.0
2092228000,2092228000,0.0046971627,-0.036211148,-0.00097362866,0.664639,0.0,0.0,0.0,1.0
2092331999,2092331999,0.0033246705,-0.03951558,-0.00091818173,0.6681838,0.0,0.0,0.0,1.0
2092427999,2092427999,-0.0003987637,-0.03906638,-0.0013443826,0.6671801,0.0,0.0,0.0,1.0
2092532000,2092532000,0.0037327087,-0.04316577,-0.0013329929,0.6679605,0.0,0.0,0.0,1.0
2092632000,2092632000,0.0004867224,-0.04824306,-0.00015922828,0.6707188,0.0,0.0,0.0,1.0
2092735999,2092735999,0.0019318939,-0.04631932,-0.0019392625,0.6680385,0.0,0.0,0.0,1.0
2092836000,2092836000,0.0024893542,-0.03749415,-1.2003293e-05,0.6678054,0.0,0.0,0.0,1.0
2092936000,2092936000,1.1709286e-05,-0.052266225,-0.0005936781,0.6715594,0.0,0.0,0.0,1.0
2093032000,2093032000,-0.0015490479,-0.047314942,0.0007876411,0.6711437,0.0,0.0,0.0,1.0
2093139999,2093139999,0.00046895113,-0.04853975,0.00075548136,0.67233473,0.0,0.0,0.0,1.0
2093235999,2093235999,0.003067537,-0.036518566,-0.0014630773,0.66801286,0.0,0.0,0.0,1.0
2093340000,2093340000,0.00091028813,-0.03959486,0.0006164714,0.66830677,0.0,0.0,0.0,1.0
2093440000,2093440000,0.0015513974,-0.039731182,-0.0004168189,0.6700778,0.0,0.0,0.0,1.0
2093543999,2093543999,0.0008400499,-0.0422914,0.00046490645,0.6705804,0.0,0.0,0.0,1.0
2093644000,2093644000,0.00023748583,-0.045833714,0.0013483665,0.6708531,0.0,0.0,0.0,1.0
2093740000,2093740000,-0.0001949346,-0.043246683,0.00056065875,0.67048633,0.0,0.0,0.0,1.0
2093840000,2093840000,-0.0008872895,-0.04912114,-0.0003605359,0.67177474,0.0,0.0,0.0,1.0
2093948000,2093948000,0.0006958861,-0.041257806,-0.00074190006,0.6693419,0.0,0.0,0.0,1.0
2094048000,2094048000,-0.0022287867,-0.048589002,0.0009497049,0.6720497,0.0,0.0,0.0,1.0
2094148000,2094148000,-0.00025450083,-0.047261212,0.00039501657,0.6710395,0.0,0.0,0.0,1.0
2094244000,2094244000,-0.0025145935,-0.04054941,7.504123e-05,0.67267853,0.0,0.0,0.0,1.0
2094347999,2094347999,0.001252669,-0.04090755,0.0013229725,0.66955024,0.0,0.0,0.0,1.0
2094452000,2094452000,-0.0009266558,-0.046157807,0.0014838354,0.67077374,0.0,0.0,0.0,1.0
2094552000,2094552000,-0.0013086661,-0.04962438,0.0015240654,0.67138666,0.0,0.0,0.0,1.0
2094652000,2094652000,0.0018549418,-0.03897424,0.0021688957,0.6703503,0.0,0.0,0.0,1.0
2094756000,2094756000,0.0026631863,-0.05058918,0.0034957053,0.6740107,0.0,0.0,0.0,1.0
2094852000,2094852000,-0.0031571987,-0.041355953,0.0036562313,0.67057335,0.0,0.0,0.0,1.0
2094956000,2094956000,-0.0023303938,-0.045716252,0.004225791,0.6730319,0.0,0.0,0.0,1.0
2095056000,2095056000,0.0005211593,-0.049975466,0.0032556974,0.67243296,0.0,0.0,0.0,1.0
2095160000,2095160000,-0.0021263475,-0.04435986,0.006356009,0.672135,0.0,0.0,0.0,1.0
2095256000,2095256000,-0.0014187697,-0.03734678,0.008619873,0.67198014,0.0,0.0,0.0,1.0
2095360000,2095360000,-0.001959957,-0.044694725,0.01245719,0.67206806,0.0,0.0,0.0,1.0
2095460000,2095460000,-0.00687892,-0.043210916,0.018955432,0.67279756,0.0,0.0,0.0,1.0
2095559999,2095559999,-0.00398761,-0.043887485,-0.010797286,0.6716153,0.0,0.0,0.0,1.0
2095660000,2095660000,0.0042995852,-0.04689712,-0.043479357,0.6716666,0.0,0.0,0.0,1.0
2095764000,2095764000,0.0046361475,-0.041956615,-0.040620673,0.67041385,0.0,0.0,0.0,1.0
2095860000,2095860000,-0.002614436,-0.047623735,-0.008551907,0.6732183,0.0,0.0,0.0,1.0
2095963999,2095963999,-0.009029224,-0.04075334,0.0024571274,0.66998625,0.0,0.0,0.0,1.0
2096068000,2096068000,-0.007927808,-0.035111833,0.0022146243,0.67024523,0.0,0.0,0.0,1.0
2096168000,2096168000,-0.003389527,-0.043566536,0.0013986434,0.6706983,0.0,0.0,0.0,1.0
2096268000,2096268000,0.00055027776,-0.033980925,0.003050861,0.6628975,0.0,0.0,0.0,1.0
2096372000,2096372000,-0.0034152116,-0.038589023,0.0026399547,0.65953434,0.0,0.0,0.0,1.0
2096468000,2096468000,0.0015009928,-0.051008407,0.0022437968,0.6566656,0.0,0.0,0.0,1.0
2096572000,2096572000,-0.0013819556,-0.05941853,0.0023832095,0.6486485,0.0,0.0,0.0,1.0
2096672000,2096672000,-0.001454545,-0.049892627,0.002654603,0.64211845,0.0,0.0,0.0,1.0
2096771999,2096771999,-0.002576301,-0.046983976,0.0015243833,0.6364771,0.0,0.0,0.0,1.0
2096872000,2096872000,-0.0002937296,-0.037599154,0.0023085463,0.6315021,0.0,0.0,0.0,1.0
2096972000,2096972000,0.0010826455,-0.039224874,0.00114229,0.6269201,0.0,0.0,0.0,1.0
2097072000,2097072000,6.7939516e-05,-0.043593712,0.0022258766,0.6233921,0.0,0.0,0.0,1.0
2097180000,2097180000,0.0010216667,-0.041699555,0.002984434,0.62025803,0.0,0.0,0.0,1.0
2097280000,2097280000,0.00014631572,-0.031911924,0.0038578848,0.61703837,0.0,0.0,0.0,1.0
2097380000,2097380000,-0.005181372,-0.032294445,0.0037492726,0.61087143,0.0,0.0,0.0,1.0
2097480000,2097480000,-0.0010083347,-0.03121356,0.003085669,0.6070003,0.0,0.0,0.0,1.0
2097584000,2097584000,0.0012227308,-0.025396677,0.003701098,0.6038735,0.0,0.0,0.0,1.0
2097680000,2097680000,-0.001539672,-0.027474701,0.002960498,0.60291886,0.0,0.0,0.0,1.0
2097780000,2097780000,-0.0044848574,-0.023194283,0.0051307767,0.6010191,0.0,0.0,0.0,1.0
2097884000,2097884000,-0.0030301404,-0.025889017,0.003221821,0.5979982,0.0,0.0,0.0,1.0
2097988000,2097988000,-0.00056270335,-0.022563402,0.0044593327,0.5959177,0.0,0.0,0.0,1.0
2098088000,2098088000,-0.0025660384,-0.026203077,0.0048678634,0.5952951,0.0,0.0,0.0,1.0
2098188000,2098188000,-0.0027418938,-0.02056219,0.006393584,0.5921968,0.0,0.0,0.0,1.0
2098288000,2098288000,0.00062453235,-0.020494355,0.0061264746,0.59087044,0.0,0.0,0.0,1.0
2098387999,2098387999,-0.0015949043,-0.018596552,0.005981611,0.58939266,0.0,0.0,0.0,1.0
2098492000,2098492000,-0.00056204904,-0.01701818,0.0070768553,0.58827865,0.0,0.0,0.0,1.0
2098592000,2098592000,0.00021507172,-0.015908703,0.007371663,0.58668953,0.0,0.0,0.0,1.0
2098692000,2098692000,-0.00026995712,-0.015312661,0.007395624,0.5851283,0.0,0.0,0.0,1.0
2098796000,2098796000,-0.0032476305,-0.014493175,-0.00068625296,0.5817561,0.0,0.0,0.0,1.0
2098896000,2098896000,0.0037973323,-0.022399615,0.020809483,0.58200616,0.0,0.0,0.0,1.0
2098996000,2098996000,-0.0032684205,-0.031832315,0.043755732,0.58189595,0.0,0.0,0.0,1.0
2099096000,2099096000,-0.010106731,-0.021066625,0.024042564,0.5813778,0.0,0.0,0.0,1.0
2099195999,2099195999,-0.004156043,-0.033065815,0.0035594588,0.58641595,0.0,0.0,0.0,1.0
2099300000,2099300000,-0.009387627,-0.009570273,-0.0010206057,0.59229195,0.0,0.0,0.0,1.0
2099400000,2099400000,-0.0035033207,-0.007435441,-0.0032133074,0.600808,0.0,0.0,0.0,1.0
2099500000,2099500000,0.0036572937,-0.01618122,-0.0038771583,0.6139449,0.0,0.0,0.0,1.0
2099604000,2099604000,0.0040781004,0.029196683,-0.0037193103,0.6093641,0.0,0.0,0.0,1.0
2099704000,2099704000,0.00053392234,0.0054774135,-0.0023904238,0.6230637,0.0,0.0,0.0,1.0
2099800000,2099800000,0.00013010215,-0.016377807,-0.00042085582,0.62930846,0.0,0.0,0.0,1.0
2099900000,2099900000,0.00011007389,-0.02493849,-0.0017424505,0.63355905,0.0,0.0,0.0,1.0
2100008000,2100008000,0.00069529284,-0.02851694,-0.00021731784,0.63872665,0.0,0.0,0.0,1.0
2100108000,2100108000,0.0030014843,-0.036109444,-0.00061816396,0.64810276,0.0,0.0,0.0,1.0
2100208000,2100208000,0.001317427,-0.02555678,-0.00044665695,0.6532374,0.0,0.0,0.0,1.0
2100308000,2100308000,0.0051292,-0.026576823,-3.116508e-05,0.6593098,0.0,0.0,0.0,1.0
2100412000,2100412000,0.0018805696,-0.045688104,0.00022400194,0.6720633,0.0,0.0,0.0,1.0
2100512000,2100512000,0.0077006854,-0.021069348,-0.000650316,0.6687315,0.0,0.0,0.0,1.0
2100612000,2100612000,0.004212981,-0.015758611,-0.00087419874,0.6725936,0.0,0.0,0.0,1.0
2100712000,2100712000,0.0020844652,-0.02073259,0.0009093088,0.67906564,0.0,0.0,0.0,1.0
2100816000,2100816000,0.0006882198,-0.029746737,-0.00023713894,0.68236816,0.0,0.0,0.0,1.0
2100916000,2100916000,-0.0017407441,-0.028824734,-0.00076869805,0.6811429,0.0,0.0,0.0,1.0
2101012000,2101012000,-0.0030101894,-0.040210754,-0.0035026406,0.6810505,0.0,0.0,0.0,1.0
2101112000,2101112000,0.005388643,-0.060382154,-0.0033183938,0.6879761,0.0,0.0,0.0,1.0
2101220000,2101220000,0.0053869924,-0.051609464,-0.0011335274,0.68079436,0.0,0.0,0.0,1.0
2101320000,2101320000,0.00495629,-0.05194556,-0.0015465016,0.6819215,0.0,0.0,0.0,1.0
2101420000,2101420000,0.0037787089,-0.049396254,-0.0011035486,0.6828796,0.0,0.0,0.0,1.0
2101520000,2101520000,0.0043319836,-0.042368326,-0.002131359,0.6789676,0.0,0.0,0.0,1.0
2101624000,2101624000,0.006316156,-0.03914679,-0.00042794616,0.68215436,0.0,0.0,0.0,1.0
2101724000,2101724000,0.004473416,-0.054420177,-0.0013674386,0.6848733,0.0,0.0,0.0,1.0
2101820000,2101820000,0.0028791751,-0.043705076,-0.002372749,0.6823623,0.0,0.0,0.0,1.0
2101924000,2101924000,0.0022051977,-0.046542674,-0.001054859,0.68449557,0.0,0.0,0.0,1.0
2102028000,2102028000,0.0040583056,-0.05279267,-0.0021202704,0.68566704,0.0,0.0,0.0,1.0
2102128000,2102128000,0.004599099,-0.038563594,-0.0010839964,0.6804854,0.0,0.0,0.0,1.0
2102224000,2102224000,0.005225378,-0.050633658,-0.00089039106,0.6856227,0.0,0.0,0.0,1.0
2102331999,2102331999,0.0056866966,-0.05193262,-0.00071629987,0.6846683,0.0,0.0,0.0,1.0
2102432000,2102432000,0.001471689,-0.049978413,0.0005579445,0.6875183,0.0,0.0,0.0,1.0
2102528000,2102528000,0.0029790597,-0.05343668,-0.0020721876,0.68544936,0.0,0.0,0.0,1.0
2102632000,2102632000,0.0053628376,-0.05036789,-0.0007340787,0.68570304,0.0,0.0,0.0,1.0
2102735999,2102735999,0.006581654,-0.05349006,-0.0009860565,0.6870075,0.0,0.0,0.0,1.0
2102836000,2102836000,0.0053066257,-0.048700504,-0.0008129904,0.68578655,0.0,0.0,0.0,1.0
2102936000,2102936000,0.0078473445,-0.054010168,-0.0013489326,0.68612826,0.0,0.0,0.0,1.0
2103032000,2103032000,0.004068111,-0.044564195,-0.00111606,0.6851225,0.0,0.0,0.0,1.0
2103139999,2103139999,0.006065039,-0.05271547,-0.0011426618,0.68767804,0.0,0.0,0.0,1.0
2103240000,2103240000,0.005282138,-0.044796787,-0.0010900683,0.6849469,0.0,0.0,0.0,1.0
2103340000,2103340000,0.0035248809,-0.038112905,-0.0008512327,0.6824247,0.0,0.0,0.0,1.0
2103436000,2103436000,0.00546627,-0.052385524,-0.00077553984,0.68769723,0.0,0.0,0.0,1.0
2103543999,2103543999,0.0040753433,-0.05157122,-0.0010987418,0.6879418,0.0,0.0,0.0,1.0
2103644000,2103644000,0.005233111,-0.047497623,-0.0017711897,0.6867589,0.0,0.0,0.0,1.0
2103744000,2103744000,0.0046016676,-0.05125666,-0.002014285,0.68683493,0.0,0.0,0.0,1.0
2103844000,2103844000,0.0075644455,-0.050472274,-0.0014776522,0.6874428,0.0,0.0,0.0,1.0
2103948000,2103948000,0.006028694,-0.046215653,-0.0008590543,0.6887708,0.0,0.0,0.0,1.0
2104048000,2104048000,0.009656016,-0.048308533,-0.00083895365,0.68671066,0.0,0.0,0.0,1.0
2104144000,2104144000,3.1099655e-05,-0.05299816,-0.00034320448,0.6890572,0.0,0.0,0.0,1.0
2104244000,2104244000,0.004252208,-0.047682293,-0.0020637098,0.68663764,0.0,0.0,0.0,1.0
2104352000,2104352000,0.0066675954,-0.041188102,-0.0011385136,0.6869669,0.0,0.0,0.0,1.0
2104452000,2104452000,0.002391599,-0.041245487,-0.000888936,0.68632126,0.0,0.0,0.0,1.0
2104552000,2104552000,0.006852307,-0.054518092,-0.0016923628,0.6890959,0.0,0.0,0.0,1.0
2104648000,2104648000,0.0058780136,-0.050436877,-0.0010334356,0.68942404,0.0,0.0,0.0,1.0
2104751999,2104751999,0.0033673812,-0.05240531,-0.0013775975,0.6892561,0.0,0.0,0.0,1.0
2104856000,2104856000,0.004720361,-0.052778468,-0.0018139752,0.6862846,0.0,0.0,0.0,1.0
2104952000,2104952000,0.0044824798,-0.03909814,-0.0017065863,0.68654996,0.0,0.0,0.0,1.0
2105056000,2105056000,0.004415565,-0.050350785,-0.0013049198,0.6903262,0.0,0.0,0.0,1.0
2105160000,2105160000,0.007821597,-0.055795282,-0.0010340431,0.68954325,0.0,0.0,0.0,1.0
2105256000,2105256000,0.0054737427,-0.04691676,-0.001534252,0.69003105,0.0,0.0,0.0,1.0
2105360000,2105360000,0.0055017355,-0.05042566,-0.0008247836,0.68992275,0.0,0.0,0.0,1.0
2105460000,2105460000,0.006250323,-0.043266192,-0.0016458721,0.6883487,0.0,0.0,0.0,1.0
2105559999,2105559999,0.0032485325,-0.049100667,-0.00087210187,0.69110584,0.0,0.0,0.0,1.0
2105664000,2105664000,0.005517714,-0.05085836,-0.0018737039,0.69171816,0.0,0.0,0.0,1.0
2105764000,2105764000,0.003963912,-0.047924854,-0.00090897904,0.6911264,0.0,0.0,0.0,1.0
2105864000,2105864000,0.0051625962,-0.049599856,-0.0011748754,0.6904921,0.0,0.0,0.0,1.0
2105968000,2105968000,0.0035541393,-0.051903192,-0.00044813397,0.6924882,0.0,0.0,0.0,1.0
2106064000,2106064000,0.0072967075,-0.045481935,-0.00037739583,0.6887968,0.0,0.0,0.0,1.0
2106164000,2106164000,0.0053020646,-0.049117923,-0.000776335,0.68915063,0.0,0.0,0.0,1.0
2106268000,2106268000,0.006879765,-0.05394977,-0.0016027915,0.69150406,0.0,0.0,0.0,1.0
2106367999,2106367999,0.0071317414,-0.052477047,-0.0011562682,0.69225025,0.0,0.0,0.0,1.0
2106472000,2106472000,0.0061680456,-0.0451303,-0.00046340638,0.6896212,0.0,0.0,0.0,1.0
2106572000,2106572000,0.0051209624,-0.0489644,-0.0013377948,0.6908342,0.0,0.0,0.0,1.0
2106672000,2106672000,0.0073776906,-0.051677402,-0.00093021395,0.6932873,0.0,0.0,0.0,1.0
2106771999,2106771999,0.0048134215,-0.051941574,-0.0020550583,0.69257766,0.0,0.0,0.0,1.0
2106876000,2106876000,0.0033180937,-0.054357458,-0.00020021742,0.6919751,0.0,0.0,0.0,1.0
2106976000,2106976000,0.0073227147,-0.053559553,-0.0009633511,0.6914288,0.0,0.0,0.0,1.0
2107076000,2107076000,0.007598105,-0.048662856,-0.0014236978,0.6930911,0.0,0.0,0.0,1.0
2107180000,2107180000,0.0050358325,-0.040234476,-0.0025492273,0.6895591,0.0,0.0,0.0,1.0
2107276000,2107276000,0.009125367,-0.05183511,-0.0020048162,0.69543093,0.0,0.0,0.0,1.0
2107380000,2107380000,0.006270383,-0.058576573,-0.0012042902,0.6940182,0.0,0.0,0.0,1.0
2107480000,2107480000,0.0064954353,-0.046323273,-0.0017483968,0.6903967,0.0,0.0,0.0,1.0
2107579999,2107579999,0.005422934,-0.051822763,-0.0013981935,0.69258004,0.0,0.0,0.0,1.0
2107680000,2107680000,0.006314401,-0.05180069,-0.0010571294,0.6927282,0.0,0.0,0.0,1.0
2107784000,2107784000,0.0033168134,-0.05308891,-0.0022344193,0.6941669,0.0,0.0,0.0,1.0
2107884000,2107884000,0.004773271,-0.054105286,-0.0017655044,0.6931966,0.0,0.0,0.0,1.0
2107988000,2107988000,0.0014694883,-0.05473769,-0.0012799939,0.6934578,0.0,0.0,0.0,1.0
2108088000,2108088000,0.004380304,-0.044581696,-0.0010178565,0.6920494,0.0,0.0,0.0,1.0
2108184000,2108184000,0.004889116,-0.046042904,-0.0021531607,0.69169855,0.0,0.0,0.0,1.0
2108284000,2108284000,0.004333498,-0.054882128,0.0003045618,0.6954184,0.0,0.0,0.0,1.0
2108387999,2108387999,0.0031357037,-0.05729368,-0.001151431,0.6950873,0.0,0.0,0.0,1.0
2108492000,2108492000,0.0056731836,-0.05420587,-0.0017294115,0.6969323,0.0,0.0,0.0,1.0
2108588000,2108588000,0.00816711,-0.054941695,-0.0021592975,0.6950886,0.0,0.0,0.0,1.0
2108692000,2108692000,0.0059742546,-0.05731686,-0.0019606706,0.6942864,0.0,0.0,0.0,1.0
2108791999,2108791999,0.0059867688,-0.055481356,-0.0023088637,0.69655794,0.0,0.0,0.0,1.0
2108896000,2108896000,0.0069034374,-0.045656662,-0.0021349594,0.693399,0.0,0.0,0.0,1.0
2108992000,2108992000,0.004135757,-0.057256814,-0.000920169,0.69594973,0.0,0.0,0.0,1.0
2109096000,2109096000,0.0028757793,-0.051570415,-0.0002752894,0.6966201,0.0,0.0,0.0,1.0
2109195999,2109195999,0.0034866224,-0.05163751,-0.0015920303,0.69297314,0.0,0.0,0.0,1.0
2109300000,2109300000,0.0067962753,-0.047922555,-0.0019648022,0.696078,0.0,0.0,0.0,1.0
2109396000,2109396000,0.009801259,-0.048143953,-0.00023730937,0.6945037,0.0,0.0,0.0,1.0
2109500000,2109500000,0.0037552996,-0.055556856,-0.0014519399,0.6968759,0.0,0.0,0.0,1.0
2109604000,2109604000,0.0037621874,-0.049638107,-0.0021782247,0.69447124,0.0,0.0,0.0,1.0
2109700000,2109700000,0.0064381533,-0.044474404,-0.0016512085,0.6948026,0.0,0.0,0.0,1.0
2109804000,2109804000,0.006574521,-0.043472383,-0.0013948295,0.6950923,0.0,0.0,0.0,1.0
2109904000,2109904000,0.0041976357,-0.04967238,-0.0019045107,0.69447386,0.0,0.0,0.0,1.0
2110008000,2110008000,0.005874044,-0.047144983,-0.000554305,0.6944024,0.0,0.0,0.0,1.0
2110108000,2110108000,0.0078070117,-0.053260528,-0.0015845653,0.6951087,0.0,0.0,0.0,1.0
2110208000,2110208000,0.0060630436,-0.053543832,-0.0015897186,0.6966295,0.0,0.0,0.0,1.0
2110304000,2110304000,0.004701793,-0.0451533,-0.00066627597,0.6962198,0.0,0.0,0.0,1.0
2110412000,2110412000,0.007371081,-0.054536864,-0.00090018177,0.6975309,0.0,0.0,0.0,1.0
2110512000,2110512000,0.0042310054,-0.05182608,-0.0012419656,0.69542396,0.0,0.0,0.0,1.0
2110608000,2110608000,0.005095892,-0.04439568,-0.0016274584,0.69605136,0.0,0.0,0.0,1.0
2110712000,2110712000,0.0047531202,-0.043252207,-0.0010990087,0.6960674,0.0,0.0,0.0,1.0
2110816000,2110816000,0.0073043937,-0.051048175,-0.0010510649,0.69924206,0.0,0.0,0.0,1.0
2110916000,2110916000,0.0036869422,-0.054199737,-0.00055280246,0.69912165,0.0,0.0,0.0,1.0
2111016000,2111016000,0.0051776916,-0.046186484,-0.0017468185,0.6963213,0.0,0.0,0.0,1.0
2111112000,2111112000,0.005924492,-0.055770382,-0.0013816056,0.6996977,0.0,0.0,0.0,1.0
2111220000,2111220000,0.006255765,-0.05210963,-0.0014004491,0.7004019,0.0,0.0,0.0,1.0
2111320000,2111320000,0.0059927367,-0.06250804,-0.0018516264,0.70229447,0.0,0.0,0.0,1.0
2111420000,2111420000,0.005599521,-0.05298478,-0.00211573,0.69976866,0.0,0.0,0.0,1.0
2111520000,2111520000,0.004820583,-0.043225843,-0.0011456256,0.69846165,0.0,0.0,0.0,1.0
2111624000,2111624000,0.007042506,-0.047351215,-0.0014481928,0.7009924,0.0,0.0,0.0,1.0
2111720000,2111720000,0.0043775253,-0.050782297,-0.0014293619,0.70257163,0.0,0.0,0.0,1.0
2111824000,2111824000,0.0059626973,-0.051325377,-0.00060210197,0.70068324,0.0,0.0,0.0,1.0
2111924000,2111924000,0.0064347507,-0.052842375,-0.0030424374,0.70096046,0.0,0.0,0.0,1.0
2112028000,2112028000,0.005800875,-0.046108227,-0.0015330311,0.6995457,0.0,0.0,0.0,1.0
2112128000,2112128000,0.0035866066,-0.04769884,-0.0010220608,0.6982391,0.0,0.0,0.0,1.0
2112228000,2112228000,0.006664632,-0.047160186,-0.0012042582,0.7002451,0.0,0.0,0.0,1.0
2112331999,2112331999,0.0017050819,-0.046678044,-0.000694715,0.69924426,0.0,0.0,0.0,1.0
2112427999,2112427999,0.0060221795,-0.050626885,-0.0013690459,0.7002962,0.0,0.0,0.0,1.0
2112528000,2112528000,0.0051711015,-0.052639574,-0.00082604797,0.70056766,0.0,0.0,0.0,1.0
2112632000,2112632000,0.0045334687,-0.05278702,-0.0014166831,0.70199263,0.0,0.0,0.0,1.0
2112735999,2112735999,0.006315265,-0.04840683,-0.0017253037,0.70172226,0.0,0.0,0.0,1.0
2112831999,2112831999,0.0062559545,-0.05485001,-0.0007310086,0.7023775,0.0,0.0,0.0,1.0
2112936000,2112936000,0.0040053963,-0.05785546,-0.00086280797,0.70477915,0.0,0.0,0.0,1.0
2113036000,2113036000,0.008223304,-0.055882968,-0.0019481946,0.7022573,0.0,0.0,0.0,1.0
2113139999,2113139999,0.0010811216,-0.049369104,-0.00021012733,0.70137435,0.0,0.0,0.0,1.0
2113240000,2113240000,0.005926058,-0.04738864,-0.000117406016,0.69911414,0.0,0.0,0.0,1.0
2113336000,2113336000,0.0054872627,-0.05553578,-0.0012418716,0.70363647,0.0,0.0,0.0,1.0
2113436000,2113436000,0.005483043,-0.053423513,-0.0003379556,0.7018268,0.0,0.0,0.0,1.0
2113543999,2113543999,0.0057275686,-0.044762768,-0.0016588706,0.69547254,0.0,0.0,0.0,1.0
2113644000,2113644000,0.008642705,-0.028314777,-0.00013483095,0.6882458,0.0,0.0,0.0,1.0
2113744000,2113744000,0.008145805,-0.04122303,-3.3247634e-05,0.68250656,0.0,0.0,0.0,1.0
2113844000,2113844000,0.0014819908,-0.059678145,0.0013560537,0.677832,0.0,0.0,0.0,1.0
2113948000,2113948000,-0.00045015244,-0.06745744,-0.0013786105,0.66607195,0.0,0.0,0.0,1.0
2114048000,2114048000,0.0015141089,-0.056423847,-0.0023249225,0.6575271,0.0,0.0,0.0,1.0
2114148000,2114148000,0.0033075893,-0.052072056,-0.0012979447,0.6505308,0.0,0.0,0.0,1.0
2114248000,2114248000,0.0032922032,-0.043271802,-0.00027111743,0.64374065,0.0,0.0,0.0,1.0
2114352000,2114352000,0.0031603067,-0.054084077,-0.0009136305,0.6408102,0.0,0.0,0.0,1.0
2114452000,2114452000,0.0041246014,-0.048774756,-3.2059732e-05,0.632199,0.0,0.0,0.0,1.0
2114552000,2114552000,0.002400266,-0.042345155,-0.0013919864,0.62830514,0.0,0.0,0.0,1.0
2114652000,2114652000,0.006134349,-0.045998376,-0.0011111563,0.6241562,0.0,0.0,0.0,1.0
2114756000,2114756000,0.0016398425,-0.036445193,-0.0010730793,0.6168549,0.0,0.0,0.0,1.0
2114852000,2114852000,0.0035201286,-0.04064063,-0.0010119175,0.61446494,0.0,0.0,0.0,1.0
2114956000,2114956000,0.0018945276,-0.03777742,0.0012287868,0.61182606,0.0,0.0,0.0,1.0
2115056000,2115056000,-1.3552606e-05,-0.029338729,0.00090767886,0.60701174,0.0,0.0,0.0,1.0
2115155999,2115155999,0.0041236933,-0.025311135,0.00077733235,0.6037864,0.0,0.0,0.0,1.0
2115260000,2115260000,0.001751285,-0.027193638,-0.00015503104,0.60184234,0.0,0.0,0.0,1.0
2115356000,2115356000,5.7583675e-05,-0.031718615,7.117196e-05,0.60030234,0.0,0.0,0.0,1.0
2115460000,2115460000,9.01646e-05,-0.026461175,-0.00083712535,0.5964249,0.0,0.0,0.0,1.0
2115559999,2115559999,-0.0009456361,-0.023753423,0.00042581244,0.5941697,0.0,0.0,0.0,1.0
2115664000,2115664000,0.0028182075,-0.01936467,-0.002717759,0.5926341,0.0,0.0,0.0,1.0
2115764000,2115764000,0.0035252161,-0.013454491,0.029432366,0.589117,0.0,0.0,0.0,1.0
2115864000,2115864000,0.0012805162,-0.0022721477,0.047170997,0.5850062,0.0,0.0,0.0,1.0
2115968000,2115968000,0.010887706,-0.002356654,0.052785166,0.58409524,0.0,0.0,0.0,1.0
2116068000,2116068000,-0.003240933,-0.014392695,0.047945708,0.5813749,0.0,0.0,0.0,1.0
2116168000,2116168000,-0.001308073,-0.017275976,0.043075487,0.57968456,0.0,0.0,0.0,1.0
2116268000,2116268000,0.0057152,-0.007277608,0.0449278,0.5792969,0.0,0.0,0.0,1.0
2116367999,2116367999,-0.028121423,-0.039814427,0.045483343,0.5741189,0.0,0.0,0.0,1.0
2116472000,2116472000,-0.022762824,-0.021130487,0.047921367,0.56858176,0.0,0.0,0.0,1.0
2116568000,2116568000,-0.005176643,-0.001463661,0.049031183,0.57235587,0.0,0.0,0.0,1.0
2116668000,2116668000,0.0032555077,0.00736906,0.046753533,0.5702427,0.0,0.0,0.0,1.0
2116776000,2116776000,0.0035993168,0.007970478,0.042653717,0.56857777,0.0,0.0,0.0,1.0
2116876000,2116876000,0.004547663,0.005176924,0.04762157,0.57019156,0.0,0.0,0.0,1.0
2116976000,2116976000,-0.001523782,0.0035929522,0.044480916,0.5718469,0.0,0.0,0.0,1.0
2117076000,2117076000,-0.0034563192,-0.0020144293,0.040625863,0.5699702,0.0,0.0,0.0,1.0
2117180000,2117180000,-0.0018998478,0.003917489,0.04513867,0.56984985,0.0,0.0,0.0,1.0
2117276000,2117276000,0.005416273,0.002954265,0.04386794,0.5727844,0.0,0.0,0.0,1.0
2117380000,2117380000,0.0044360785,0.002469561,0.047283143,0.5715734,0.0,0.0,0.0,1.0
2117480000,2117480000,0.00204015,0.0005758684,0.04268709,0.57511306,0.0,0.0,0.0,1.0
2117579999,2117579999,0.0051520416,0.0023259516,0.040413182,0.5740712,0.0,0.0,0.0,1.0
2117680000,2117680000,0.0016716116,0.0011369172,0.03965109,0.5739004,0.0,0.0,0.0,1.0
2117784000,2117784000,0.011466668,-0.00020131748,0.046959445,0.5766671,0.0,0.0,0.0,1.0
2117884000,2117884000,0.00262478,-0.0028315282,0.04478936,0.57638806,0.0,0.0,0.0,1.0
2117988000,2117988000,0.00841421,-0.0043088766,0.047552876,0.57797486,0.0,0.0,0.0,1.0
2118088000,2118088000,0.004493758,-0.0029088957,0.04294264,0.5788235,0.0,0.0,0.0,1.0
2118188000,2118188000,0.0056566307,-0.0026771296,0.047401957,0.5788563,0.0,0.0,0.0,1.0
2118284000,2118284000,0.0025699541,-0.0050755464,0.0459031,0.58145195,0.0,0.0,0.0,1.0
2118392000,2118392000,0.0092849145,-0.0072181104,0.040483378,0.5840364,0.0,0.0,0.0,1.0
2118492000,2118492000,0.00959747,-0.0124089755,0.044420537,0.5845031,0.0,0.0,0.0,1.0
2118592000,2118592000,0.012063708,-0.011774716,0.043752346,0.58800656,0.0,0.0,0.0,1.0
2118692000,2118692000,0.013295986,-0.013430672,0.04104671,0.58833826,0.0,0.0,0.0,1.0
2118791999,2118791999,0.0078039747,-0.017917115,0.038554914,0.5911146,0.0,0.0,0.0,1.0
2118892000,2118892000,0.003441327,-0.008801602,0.041650448,0.5927077,0.0,0.0,0.0,1.0
2118996000,2118996000,0.010988022,-0.020025972,0.03886298,0.5981451,0.0,0.0,0.0,1.0
2119096000,2119096000,0.0059232507,-0.012574788,0.03481011,0.5989657,0.0,0.0,0.0,1.0
2119195999,2119195999,0.005289359,-0.017687067,0.038599353,0.6014391,0.0,0.0,0.0,1.0
2119296000,2119296000,0.007893555,-0.007065543,0.0063859094,0.60346293,0.0,0.0,0.0,1.0
2119400000,2119400000,0.013111253,-0.0145475585,-0.008615661,0.60564184,0.0,0.0,0.0,1.0
2119496000,2119496000,0.0071501737,-0.027672138,-0.00800615,0.61226046,0.0,0.0,0.0,1.0
2119604000,2119604000,0.004863886,-0.017775983,-0.008006239,0.61502355,0.0,0.0,0.0,1.0
2119704000,2119704000,0.0023011738,-0.018520933,-0.0054161474,0.6174186,0.0,0.0,0.0,1.0
2119804000,2119804000,0.007749026,-0.016618323,-0.0062321145,0.62069756,0.0,0.0,0.0,1.0
2119904000,2119904000,0.0021893613,-0.019333366,-0.0034837704,0.6266198,0.0,0.0,0.0,1.0
