timestamp,noutputs,output[0],output[1],output[2],output[3],output[4],output[5],output[6],output[7],output[8],output[9],output[10],output[11],output[12],output[13],output[14],output[15]
2051220000,6,900.0,900.0,900.0,900.0,900.0,900.0,nan,nan,nan,nan,nan,nan,nan,nan,nan,nan
2051316000,6,1000.0,1000.0,1000.0,1000.0,1500.0,1500.0,nan,nan,nan,nan,nan,nan,nan,nan,nan,nan
2051416000,6,1000.0,1000.0,1000.0,1000.0,1500.0,1500.0,nan,nan,nan,nan,nan,nan,nan,nan,nan,nan
2051516000,6,1000.0,1000.0,1000.0,1000.0,1500.0,1500.0,nan,nan,nan,nan,nan,nan,nan,nan,nan,nan
2051624000,6,1000.0,1000.0,1000.0,1000.0,1500.0,1500.0,nan,nan,nan,nan,nan,nan,nan,nan,nan,nan
2051720000,6,1000.0,1000.0,1000.0,1000.0,1500.0,1500.0,nan,nan,nan,nan,nan,nan,nan,nan,nan,nan
2051820000,6,1000.0,1000.0,1000.0,1000.0,1500.0,1500.0,nan,nan,nan,nan,nan,nan,nan,nan,nan,nan
2051924000,6,1000.0,1000.0,1000.0,1000.0,1500.0,1500.0,nan,nan,nan,nan,nan,nan,nan,nan,nan,nan
2052023999,6,1000.0,1000.0,1000.0,1000.0,1500.0,1500.0,nan,nan,nan,nan,nan,nan,nan,nan,nan,nan
2052128000,6,1000.0,1000.0,1000.0,1000.0,1500.0,1500.0,nan,nan,nan,nan,nan,nan,nan,nan,nan,nan
2052224000,6,1000.0,1000.0,1000.0,1000.0,1500.0,1500.0,nan,nan,nan,nan,nan,nan,nan,nan,nan,nan
2052327999,6,1062.2166,1179.5629,1105.2677,1133.8011,1500.0,1500.0,nan,nan,nan,nan,nan,nan,nan,nan,nan,nan
2052432000,6,1135.2549,1226.3165,1177.6116,1187.7883,1500.0,1500.0,nan,nan,nan,nan,nan,nan,nan,nan,nan,nan
2052528000,6,1202.9006,1289.8112,1242.7024,1247.6774,1500.0,1500.0,nan,nan,nan,nan,nan,nan,nan,nan,nan,nan
2052628000,6,1276.2549,1352.4906,1308.2819,1321.0752,1500.0,1500.0,nan,nan,nan,nan,nan,nan,nan,nan,nan,nan
2052735999,6,1346.6381,1421.3116,1381.3435,1390.6796,1500.0,1500.0,nan,nan,nan,nan,nan,nan,nan,nan,nan,nan
2052831999,6,1418.5907,1493.5554,1453.2013,1466.3741,1500.0,1500.0,nan,nan,nan,nan,nan,nan,nan,nan,nan,nan
2052932000,6,1511.4999,1584.7161,1540.4987,1555.7086,1500.0,1500.0,nan,nan,nan,nan,nan,nan,nan,nan,nan,nan
2053036000,6,1604.2839,1615.8923,1609.7373,1608.5732,1500.0,1500.0,nan,nan,nan,nan,nan,nan,nan,nan,nan,nan
2053139999,6,1618.6958,1601.4135,1611.8789,1609.1006,1500.0,1500.0,nan,nan,nan,nan,nan,nan,nan,nan,nan,nan
2053235999,6,1607.2412,1603.9896,1606.5557,1603.2427,1500.0,1500.0,nan,nan,nan,nan,nan,nan,nan,nan,nan,nan
2053340000,6,1610.453,1610.5198,1613.1803,1612.2562,1500.0,1500.0,nan,nan,nan,nan,nan,nan,nan,nan,nan,nan
2053436000,6,1615.133,1619.0798,1618.2773,1616.7062,1500.0,1500.0,nan,nan,nan,nan,nan,nan,nan,nan,nan,nan
2053539999,6,1614.3827,1619.8368,1617.4507,1619.4764,1500.0,1500.0,nan,nan,nan,nan,nan,nan,nan,nan,nan,nan
2053644000,6,1615.4175,1619.0963,1615.6316,1618.7819,1500.0,1500.0,nan,nan,nan,nan,nan,nan,nan,nan,nan,nan
2053744000,6,1615.5901,1619.2562,1618.5548,1619.7229,1500.0,1500.0,nan,nan,nan,nan,nan,nan,nan,nan,nan,nan
2053844000,6,1621.7023,1620.6102,1619.4253,1621.3402,1500.0,1500.0,nan,nan,nan,nan,nan,nan,nan,nan,nan,nan
2053948000,6,1619.3087,1624.5211,1618.3704,1622.1072,1500.0,1500.0,nan,nan,nan,nan,nan,nan,nan,nan,nan,nan
2054043999,6,1627.6298,1631.5707,1629.8309,1631.1748,1500.0,1500.0,nan,nan,nan,nan,nan,nan,nan,nan,nan,nan
2054148000,6,1625.8015,1632.4363,1627.2991,1627.9816,1500.0,1500.0,nan,nan,nan,nan,nan,nan,nan,nan,nan,nan
2054248000,6,1629.5585,1630.8164,1631.2396,1630.1749,1500.0,1500.0,nan,nan,nan,nan,nan,nan,nan,nan,nan,nan
2054347999,6,1629.2627,1629.4375,1629.0526,1630.55,1500.0,1500.0,nan,nan,nan,nan,nan,nan,nan,nan,nan,nan
2054448000,6,1635.4636,1634.2323,1637.0505,1636.9469,1500.0,1500.0,nan,nan,nan,nan,nan,nan,nan,nan,nan,nan
2054548000,6,1633.1158,1635.3035,1630.7037,1635.4779,1500.0,1500.0,nan,nan,nan,nan,nan,nan,nan,nan,nan,nan
2054648000,6,1634.8625,1638.342,1633.7585,1636.2428,1500.0,1500.0,nan,nan,nan,nan,nan,nan,nan,nan,nan,nan
2054751999,6,1642.6595,1645.0471,1636.6537,1637.0276,1500.0,1500.0,nan,nan,nan,nan,nan,nan,nan,nan,nan,nan
2054852000,6,1645.5173,1644.7086,1642.184,1644.0669,1500.0,1500.0,nan,nan,nan,nan,nan,nan,nan,nan,nan,nan
2054956000,6,1533.6422,1533.7822,1532.6976,1533.9271,1500.0,1500.0,nan,nan,nan,nan,nan,nan,nan,nan,nan,nan
2055052000,6,1526.3926,1527.3534,1526.0824,1526.7164,1500.0,1500.0,nan,nan,nan,nan,nan,nan,nan,nan,nan,nan
2055155999,6,1552.9281,1553.4325,1554.7783,1551.9141,1500.0,1500.0,nan,nan,nan,nan,nan,nan,nan,nan,nan,nan
2055256000,6,1544.9183,1548.2806,1546.3937,1548.9801,1500.0,1500.0,nan,nan,nan,nan,nan,nan,nan,nan,nan,nan
2055360000,6,1547.4514,1549.1929,1548.9043,1551.6185,1500.0,1500.0,nan,nan,nan,nan,nan,nan,nan,nan,nan,nan
2055460000,6,1549.4382,1547.9233,1550.8464,1549.7728,1500.0,1500.0,nan,nan,nan,nan,nan,nan,nan,nan,nan,nan
2055559999,6,1553.0297,1552.5807,1552.7799,1552.5927,1500.0,1500.0,nan,nan,nan,nan,nan,nan,nan,nan,nan,nan
2055664000,6,1556.3762,1551.4014,1556.6688,1554.0928,1500.0,1500.0,nan,nan,nan,nan,nan,nan,nan,nan,nan,nan
2055764000,6,1554.6112,1555.2998,1552.7397,1559.0033,1500.0,1500.0,nan,nan,nan,nan,nan,nan,nan,nan,nan,nan
2055860000,6,1556.9335,1553.9204,1555.8574,1554.4501,1500.0,1500.0,nan,nan,nan,nan,nan,nan,nan,nan,nan,nan
2055963999,6,1554.0219,1556.9379,1556.3002,1554.4924,1500.0,1500.0,nan,nan,nan,nan,nan,nan,nan,nan,nan,nan
2056064000,6,1558.124,1556.4927,1554.7122,1557.8104,1500.0,1500.0,nan,nan,nan,nan,nan,nan,nan,nan,nan,nan
2056164000,6,1562.8632,1557.1763,1562.6365,1558.6002,1500.0,1500.0,nan,nan,nan,nan,nan,nan,nan,nan,nan,nan
2056268000,6,1560.6088,1562.3717,1562.8484,1560.2484,1500.0,1500.0,nan,nan,nan,nan,nan,nan,nan,nan,nan,nan
2056372000,6,1559.7937,1563.4108,1560.6638,1561.0133,1500.0,1500.0,nan,nan,nan,nan,nan,nan,nan,nan,nan,nan
2056468000,6,1559.5919,1561.3087,1559.8821,1562.4055,1500.0,1500.0,nan,nan,nan,nan,nan,nan,nan,nan,nan,nan
2056572000,6,1560.443,1561.5669,1562.5293,1559.9983,1500.0,1500.0,nan,nan,nan,nan,nan,nan,nan,nan,nan,nan
2056672000,6,1560.6387,1561.3654,1559.1329,1561.1808,1500.0,1500.0,nan,nan,nan,nan,nan,nan,nan,nan,nan,nan
2056776000,6,1564.5623,1561.8813,1563.7491,1562.3947,1500.0,1500.0,nan,nan,nan,nan,nan,nan,nan,nan,nan,nan
2056876000,6,1564.3842,1565.2559,1566.2437,1565.3181,1500.0,1500.0,nan,nan,nan,nan,nan,nan,nan,nan,nan,nan
2056972000,6,1566.9666,1567.8016,1566.6736,1562.5118,1500.0,1500.0,nan,nan,nan,nan,nan,nan,nan,nan,nan,nan
2057072000,6,1564.0085,1563.3123,1563.2748,1566.1455,1500.0,1500.0,nan,nan,nan,nan,nan,nan,nan,nan,nan,nan
2057180000,6,1565.0975,1564.0054,1563.1755,1564.3271,1500.0,1500.0,nan,nan,nan,nan,nan,nan,nan,nan,nan,nan
2057276000,6,1563.9902,1561.9188,1563.8522,1563.9512,1500.0,1500.0,nan,nan,nan,nan,nan,nan,nan,nan,nan,nan
2057376000,6,1566.0703,1566.3964,1565.3173,1564.8156,1500.0,1500.0,nan,nan,nan,nan,nan,nan,nan,nan,nan,nan
2057476000,6,1566.2938,1561.2648,1563.3401,1563.9005,1500.0,1500.0,nan,nan,nan,nan,nan,nan,nan,nan,nan,nan
2057579999,6,1561.6875,1565.4482,1563.5364,1563.9619,1500.0,1500.0,nan,nan,nan,nan,nan,nan,nan,nan,nan,nan
2057680000,6,1562.067,1562.5249,1562.2666,1562.7927,1500.0,1500.0,nan,nan,nan,nan,nan,nan,nan,nan,nan,nan
2057784000,6,1561.9113,1561.8822,1562.8766,1564.6348,1500.0,1500.0,nan,nan,nan,nan,nan,nan,nan,nan,nan,nan
2057884000,6,1565.755,1565.5643,1564.0992,1567.6404,1500.0,1500.0,nan,nan,nan,nan,nan,nan,nan,nan,nan,nan
2057983999,6,1566.0221,1564.4991,1564.1781,1567.2863,1500.0,1500.0,nan,nan,nan,nan,nan,nan,nan,nan,nan,nan
2058084000,6,1568.3805,1567.0269,1568.4578,1567.1523,1500.0,1500.0,nan,nan,nan,nan,nan,nan,nan,nan,nan,nan
2058184000,6,1568.2397,1565.6971,1566.8182,1566.2465,1500.0,1500.0,nan,nan,nan,nan,nan,nan,nan,nan,nan,nan
2058284000,6,1566.0553,1566.6318,1565.8094,1567.2567,1500.0,1500.0,nan,nan,nan,nan,nan,nan,nan,nan,nan,nan
2058387999,6,1566.5627,1566.8625,1567.1086,1567.0817,1500.0,1500.0,nan,nan,nan,nan,nan,nan,nan,nan,nan,nan
2058492000,6,1567.1067,1564.8788,1564.4722,1567.6722,1500.0,1500.0,nan,nan,nan,nan,nan,nan,nan,nan,nan,nan
2058588000,6,1562.0538,1566.2317,1567.9237,1562.8855,1500.0,1500.0,nan,nan,nan,nan,nan,nan,nan,nan,nan,nan
2058692000,6,1571.3903,1559.7834,1563.0146,1564.6552,1500.0,1500.0,nan,nan,nan,nan,nan,nan,nan,nan,nan,nan
2058796000,6,1566.5874,1559.6803,1562.8423,1565.0323,1500.0,1500.0,nan,nan,nan,nan,nan,nan,nan,nan,nan,nan
2058892000,6,1567.7513,1564.4325,1564.7628,1569.2487,1500.0,1500.0,nan,nan,nan,nan,nan,nan,nan,nan,nan,nan
2058996000,6,1566.7625,1565.4521,1565.9818,1563.0869,1500.0,1500.0,nan,nan,nan,nan,nan,nan,nan,nan,nan,nan
2059092000,6,1565.99,1563.8008,1566.1958,1561.761,1500.0,1500.0,nan,nan,nan,nan,nan,nan,nan,nan,nan,nan
2059195999,6,1563.4559,1562.783,1562.4719,1564.0596,1500.0,1500.0,nan,nan,nan,nan,nan,nan,nan,nan,nan,nan
2059296000,6,1563.582,1565.1958,1563.2189,1560.5939,1500.0,1500.0,nan,nan,nan,nan,nan,nan,nan,nan,nan,nan
2059396000,6,1562.0042,1562.1403,1562.7175,1559.9746,1500.0,1500.0,nan,nan,nan,nan,nan,nan,nan,nan,nan,nan
2059496000,6,1561.7048,1564.7471,1563.0048,1563.9749,1500.0,1500.0,nan,nan,nan,nan,nan,nan,nan,nan,nan,nan
2059599999,6,1566.113,1561.5768,1564.8307,1562.6539,1500.0,1500.0,nan,nan,nan,nan,nan,nan,nan,nan,nan,nan
2059704000,6,1562.5746,1565.494,1562.8251,1564.7677,1500.0,1500.0,nan,nan,nan,nan,nan,nan,nan,nan,nan,nan
2059800000,6,1561.6866,1561.757,1561.6,1558.9263,1500.0,1500.0,nan,nan,nan,nan,nan,nan,nan,nan,nan,nan
2059900000,6,1566.2561,1560.6621,1560.2053,1563.8707,1500.0,1500.0,nan,nan,nan,nan,nan,nan,nan,nan,nan,nan
2060008000,6,1564.4146,1561.9805,1564.2803,1559.8687,1500.0,1500.0,nan,nan,nan,nan,nan,nan,nan,nan,nan,nan
2060108000,6,1563.4441,1563.7903,1562.9413,1560.5205,1500.0,1500.0,nan,nan,nan,nan,nan,nan,nan,nan,nan,nan
2060208000,6,1563.1498,1563.0262,1563.7568,1563.3926,1500.0,1500.0,nan,nan,nan,nan,nan,nan,nan,nan,nan,nan
2060304000,6,1560.6417,1564.7207,1561.3604,1564.7849,1500.0,1500.0,nan,nan,nan,nan,nan,nan,nan,nan,nan,nan
2060412000,6,1560.3523,1564.9235,1560.3661,1562.8964,1500.0,1500.0,nan,nan,nan,nan,nan,nan,nan,nan,nan,nan
2060508000,6,1560.6124,1565.459,1562.4025,1562.997,1500.0,1500.0,nan,nan,nan,nan,nan,nan,nan,nan,nan,nan
2060612000,6,1564.6497,1562.7664,1566.1385,1563.4994,1500.0,1500.0,nan,nan,nan,nan,nan,nan,nan,nan,nan,nan
2060708000,6,1562.1,1560.5519,1560.437,1562.9492,1500.0,1500.0,nan,nan,nan,nan,nan,nan,nan,nan,nan,nan
2060811999,6,1539.3096,1517.8304,1590.9602,1589.379,1500.0,1500.0,nan,nan,nan,nan,nan,nan,nan,nan,nan,nan
2060912000,6,1547.6172,1488.0068,1621.4697,1601.8024,1500.0,1500.0,nan,nan,nan,nan,nan,nan,nan,nan,nan,nan
2061012000,6,1541.2336,1495.8159,1613.7185,1599.2052,1500.0,1500.0,nan,nan,nan,nan,nan,nan,nan,nan,nan,nan
2061116000,6,1534.0038,1525.7097,1600.858,1610.5267,1500.0,1500.0,nan,nan,nan,nan,nan,nan,nan,nan,nan,nan
2061220000,6,1533.2107,1537.0469,1599.6417,1624.8367,1500.0,1500.0,nan,nan,nan,nan,nan,nan,nan,nan,nan,nan
2061316000,6,1535.0083,1549.1455,1611.0411,1622.7562,1500.0,1500.0,nan,nan,nan,nan,nan,nan,nan,nan,nan,nan
2061416000,6,1547.5245,1556.8204,1625.8834,1630.0815,1500.0,1500.0,nan,nan,nan,nan,nan,nan,nan,nan,nan,nan
2061520000,6,1578.6718,1551.9373,1636.4348,1637.4447,1500.0,1500.0,nan,nan,nan,nan,nan,nan,nan,nan,nan,nan
2061624000,6,1565.4377,1561.0024,1645.3855,1645.9174,1500.0,1500.0,nan,nan,nan,nan,nan,nan,nan,nan,nan,nan
2061720000,6,1574.203,1564.4102,1657.6782,1653.4707,1500.0,1500.0,nan,nan,nan,nan,nan,nan,nan,nan,nan,nan
2061820000,6,1589.4154,1565.9086,1663.1863,1656.8108,1500.0,1500.0,nan,nan,nan,nan,nan,nan,nan,nan,nan,nan
2061920000,6,1592.55,1580.0066,1671.4701,1663.0659,1500.0,1500.0,nan,nan,nan,nan,nan,nan,nan,nan,nan,nan
2062023999,6,1604.4584,1589.1283,1668.2391,1670.3986,1500.0,1500.0,nan,nan,nan,nan,nan,nan,nan,nan,nan,nan
2062124000,6,1616.9954,1584.4569,1682.2399,1696.383,1500.0,1500.0,nan,nan,nan,nan,nan,nan,nan,nan,nan,nan
2062224000,6,1629.2042,1592.0553,1690.9349,1701.8312,1500.0,1500.0,nan,nan,nan,nan,nan,nan,nan,nan,nan,nan
2062331999,6,1642.1243,1605.8016,1688.4331,1709.5753,1500.0,1500.0,nan,nan,nan,nan,nan,nan,nan,nan,nan,nan
2062427999,6,1649.2382,1601.0441,1698.3494,1738.8171,1500.0,1500.0,nan,nan,nan,nan,nan,nan,nan,nan,nan,nan
2062528000,6,1652.2263,1611.7538,1696.8656,1729.5552,1500.0,1500.0,nan,nan,nan,nan,nan,nan,nan,nan,nan,nan
2062632000,6,1657.0908,1620.2894,1702.9374,1736.7882,1500.0,1500.0,nan,nan,nan,nan,nan,nan,nan,nan,nan,nan
2062731999,6,1658.3477,1635.1251,1698.1995,1725.9587,1500.0,1500.0,nan,nan,nan,nan,nan,nan,nan,nan,nan,nan
2062836000,6,1667.6371,1650.5508,1689.7228,1750.2968,1500.0,1500.0,nan,nan,nan,nan,nan,nan,nan,nan,nan,nan
2062932000,6,1655.4161,1652.5658,1686.6455,1754.5334,1500.0,1500.0,nan,nan,nan,nan,nan,nan,nan,nan,nan,nan
2063036000,6,1655.2516,1657.491,1680.3157,1742.0983,1500.0,1500.0,nan,nan,nan,nan,nan,nan,nan,nan,nan,nan
2063139999,6,1660.5327,1659.2003,1672.304,1748.4133,1500.0,1500.0,nan,nan,nan,nan,nan,nan,nan,nan,nan,nan
2063240000,6,1648.7485,1654.7809,1670.7334,1754.3612,1500.0,1500.0,nan,nan,nan,nan,nan,nan,nan,nan,nan,nan
2063340000,6,1642.7714,1653.7208,1666.8364,1755.5411,1500.0,1500.0,nan,nan,nan,nan,nan,nan,nan,nan,nan,nan
2063440000,6,1641.6738,1659.6823,1664.8013,1753.0887,1500.0,1500.0,nan,nan,nan,nan,nan,nan,nan,nan,nan,nan
2063539999,6,1644.4022,1664.6517,1665.8759,1743.4152,1500.0,1500.0,nan,nan,nan,nan,nan,nan,nan,nan,nan,nan
2063639999,6,1636.4824,1666.0248,1664.4543,1748.0897,1500.0,1500.0,nan,nan,nan,nan,nan,nan,nan,nan,nan,nan
2063740000,6,1638.6056,1666.4902,1664.5879,1741.9056,1500.0,1500.0,nan,nan,nan,nan,nan,nan,nan,nan,nan,nan
2063844000,6,1637.0278,1666.9093,1665.2235,1743.6908,1500.0,1500.0,nan,nan,nan,nan,nan,nan,nan,nan,nan,nan
2063948000,6,1634.0023,1681.3676,1661.9203,1753.0215,1500.0,1500.0,nan,nan,nan,nan,nan,nan,nan,nan,nan,nan
2064048000,6,1648.101,1696.9681,1649.4,1723.4481,1500.0,1500.0,nan,nan,nan,nan,nan,nan,nan,nan,nan,nan
2064144000,6,1661.7235,1708.7931,1637.0378,1711.4865,1500.0,1500.0,nan,nan,nan,nan,nan,nan,nan,nan,nan,nan
2064248000,6,1655.4457,1709.3938,1639.1465,1711.5627,1500.0,1500.0,nan,nan,nan,nan,nan,nan,nan,nan,nan,nan
2064347999,6,1652.24,1711.9388,1643.6384,1711.062,1500.0,1500.0,nan,nan,nan,nan,nan,nan,nan,nan,nan,nan
2064448000,6,1652.8674,1712.7859,1648.2108,1706.0736,1500.0,1500.0,nan,nan,nan,nan,nan,nan,nan,nan,nan,nan
2064552000,6,1648.4023,1724.1733,1641.0083,1719.8231,1500.0,1500.0,nan,nan,nan,nan,nan,nan,nan,nan,nan,nan
2064648000,6,1647.6342,1715.6116,1643.2633,1717.6116,1500.0,1500.0,nan,nan,nan,nan,nan,nan,nan,nan,nan,nan
2064756000,6,1648.8894,1715.2378,1644.586,1717.8192,1500.0,1500.0,nan,nan,nan,nan,nan,nan,nan,nan,nan,nan
2064852000,6,1648.8309,1709.8395,1651.0204,1708.4868,1500.0,1500.0,nan,nan,nan,nan,nan,nan,nan,nan,nan,nan
2064956000,6,1646.8148,1710.7152,1649.046,1712.9182,1500.0,1500.0,nan,nan,nan,nan,nan,nan,nan,nan,nan,nan
2065056000,6,1651.4347,1710.7024,1652.1863,1712.5,1500.0,1500.0,nan,nan,nan,nan,nan,nan,nan,nan,nan,nan
2065155999,6,1649.3365,1712.9078,1651.1901,1711.9645,1500.0,1500.0,nan,nan,nan,nan,nan,nan,nan,nan,nan,nan
2065260000,6,1647.262,1717.2944,1646.7535,1719.041,1500.0,1500.0,nan,nan,nan,nan,nan,nan,nan,nan,nan,nan
2065360000,6,1648.1984,1717.5691,1649.6373,1720.7119,1500.0,1500.0,nan,nan,nan,nan,nan,nan,nan,nan,nan,nan
2065456000,6,1648.3906,1714.026,1652.2694,1714.8131,1500.0,1500.0,nan,nan,nan,nan,nan,nan,nan,nan,nan,nan
2065559999,6,1649.0267,1714.9392,1652.4044,1711.3881,1500.0,1500.0,nan,nan,nan,nan,nan,nan,nan,nan,nan,nan
2065664000,6,1648.4648,1722.1644,1649.369,1722.3265,1500.0,1500.0,nan,nan,nan,nan,nan,nan,nan,nan,nan,nan
2065764000,6,1645.9061,1725.3402,1653.5312,1723.5612,1500.0,1500.0,nan,nan,nan,nan,nan,nan,nan,nan,nan,nan
2065860000,6,1646.2556,1719.4443,1649.2893,1719.8108,1500.0,1500.0,nan,nan,nan,nan,nan,nan,nan,nan,nan,nan
2065968000,6,1649.3834,1715.199,1653.21,1714.2228,1500.0,1500.0,nan,nan,nan,nan,nan,nan,nan,nan,nan,nan
2066064000,6,1648.5964,1717.6245,1652.1785,1717.0416,1500.0,1500.0,nan,nan,nan,nan,nan,nan,nan,nan,nan,nan
2066164000,6,1646.8425,1723.6176,1651.2183,1720.1921,1500.0,1500.0,nan,nan,nan,nan,nan,nan,nan,nan,nan,nan
2066264000,6,1650.6802,1719.2595,1651.2029,1721.9144,1500.0,1500.0,nan,nan,nan,nan,nan,nan,nan,nan,nan,nan
2066367999,6,1648.5553,1722.682,1651.757,1723.4628,1500.0,1500.0,nan,nan,nan,nan,nan,nan,nan,nan,nan,nan
2066468000,6,1651.6929,1721.1958,1655.7441,1720.0215,1500.0,1500.0,nan,nan,nan,nan,nan,nan,nan,nan,nan,nan
2066572000,6,1651.5251,1716.197,1656.1757,1714.9397,1500.0,1500.0,nan,nan,nan,nan,nan,nan,nan,nan,nan,nan
2066668000,6,1651.5688,1718.0935,1655.9087,1717.878,1500.0,1500.0,nan,nan,nan,nan,nan,nan,nan,nan,nan,nan
2066771999,6,1652.7985,1718.7041,1655.111,1717.1506,1500.0,1500.0,nan,nan,nan,nan,nan,nan,nan,nan,nan,nan
2066872000,6,1647.8066,1726.8435,1648.3649,1728.1746,1500.0,1500.0,nan,nan,nan,nan,nan,nan,nan,nan,nan,nan
2066972000,6,1649.7582,1722.1389,1653.3823,1724.0226,1500.0,1500.0,nan,nan,nan,nan,nan,nan,nan,nan,nan,nan
2067072000,6,1649.9425,1717.9053,1652.3011,1720.8872,1500.0,1500.0,nan,nan,nan,nan,nan,nan,nan,nan,nan,nan
2067175999,6,1647.4639,1724.6228,1653.7244,1722.8002,1500.0,1500.0,nan,nan,nan,nan,nan,nan,nan,nan,nan,nan
2067276000,6,1648.4303,1728.6901,1650.3196,1732.783,1500.0,1500.0,nan,nan,nan,nan,nan,nan,nan,nan,nan,nan
2067376000,6,1644.5472,1729.0106,1648.3767,1734.246,1500.0,1500.0,nan,nan,nan,nan,nan,nan,nan,nan,nan,nan
2067476000,6,1650.8562,1722.1604,1652.3345,1724.764,1500.0,1500.0,nan,nan,nan,nan,nan,nan,nan,nan,nan,nan
2067579999,6,1654.136,1720.0538,1655.5227,1720.849,1500.0,1500.0,nan,nan,nan,nan,nan,nan,nan,nan,nan,nan
2067680000,6,1652.1586,1716.3337,1653.8267,1717.9972,1500.0,1500.0,nan,nan,nan,nan,nan,nan,nan,nan,nan,nan
2067780000,6,1649.1516,1724.0115,1653.5415,1725.6606,1500.0,1500.0,nan,nan,nan,nan,nan,nan,nan,nan,nan,nan
2067880000,6,1651.8635,1726.8026,1653.6584,1728.8541,1500.0,1500.0,nan,nan,nan,nan,nan,nan,nan,nan,nan,nan
2067988000,6,1652.5287,1724.0781,1655.3147,1722.3938,1500.0,1500.0,nan,nan,nan,nan,nan,nan,nan,nan,nan,nan
2068084000,6,1647.2231,1733.9185,1648.5671,1733.9261,1500.0,1500.0,nan,nan,nan,nan,nan,nan,nan,nan,nan,nan
2068184000,6,1646.9114,1731.0858,1652.8026,1732.3723,1500.0,1500.0,nan,nan,nan,nan,nan,nan,nan,nan,nan,nan
2068284000,6,1649.3909,1729.8702,1650.6592,1728.9568,1500.0,1500.0,nan,nan,nan,nan,nan,nan,nan,nan,nan,nan
2068387999,6,1648.4578,1729.4354,1653.4368,1730.5879,1500.0,1500.0,nan,nan,nan,nan,nan,nan,nan,nan,nan,nan
2068488000,6,1650.5037,1725.5693,1654.8552,1731.2173,1500.0,1500.0,nan,nan,nan,nan,nan,nan,nan,nan,nan,nan
2068588000,6,1652.827,1724.6737,1656.0419,1725.7285,1500.0,1500.0,nan,nan,nan,nan,nan,nan,nan,nan,nan,nan
2068692000,6,1653.9598,1726.0696,1656.9836,1727.3,1500.0,1500.0,nan,nan,nan,nan,nan,nan,nan,nan,nan,nan
2068796000,6,1654.9734,1722.7024,1655.1898,1722.104,1500.0,1500.0,nan,nan,nan,nan,nan,nan,nan,nan,nan,nan
2068896000,6,1653.141,1719.0155,1658.0388,1723.6299,1500.0,1500.0,nan,nan,nan,nan,nan,nan,nan,nan,nan,nan
2068996000,6,1647.7852,1731.8057,1655.178,1731.361,1500.0,1500.0,nan,nan,nan,nan,nan,nan,nan,nan,nan,nan
2069092000,6,1649.2532,1732.1869,1653.5361,1732.7241,1500.0,1500.0,nan,nan,nan,nan,nan,nan,nan,nan,nan,nan
2069195999,6,1653.0397,1732.8081,1656.4117,1733.2002,1500.0,1500.0,nan,nan,nan,nan,nan,nan,nan,nan,nan,nan
2069296000,6,1653.1096,1726.7686,1657.6516,1726.7996,1500.0,1500.0,nan,nan,nan,nan,nan,nan,nan,nan,nan,nan
2069396000,6,1659.8422,1724.0391,1659.0267,1728.3092,1500.0,1500.0,nan,nan,nan,nan,nan,nan,nan,nan,nan,nan
2069496000,6,1655.9465,1731.4312,1657.8188,1735.1812,1500.0,1500.0,nan,nan,nan,nan,nan,nan,nan,nan,nan,nan
2069604000,6,1656.5795,1734.1859,1658.1648,1738.0078,1500.0,1500.0,nan,nan,nan,nan,nan,nan,nan,nan,nan,nan
2069700000,6,1656.3606,1733.9314,1658.6301,1732.625,1500.0,1500.0,nan,nan,nan,nan,nan,nan,nan,nan,nan,nan
2069804000,6,1660.3423,1726.599,1661.5089,1730.7936,1500.0,1500.0,nan,nan,nan,nan,nan,nan,nan,nan,nan,nan
2069904000,6,1658.5894,1727.9047,1662.8545,1729.7572,1500.0,1500.0,nan,nan,nan,nan,nan,nan,nan,nan,nan,nan
2070008000,6,1660.6643,1727.5892,1664.8302,1727.9491,1500.0,1500.0,nan,nan,nan,nan,nan,nan,nan,nan,nan,nan
2070108000,6,1655.6477,1728.2339,1662.0896,1729.4037,1500.0,1500.0,nan,nan,nan,nan,nan,nan,nan,nan,nan,nan
2070204000,6,1663.5151,1725.7777,1663.4519,1729.1,1500.0,1500.0,nan,nan,nan,nan,nan,nan,nan,nan,nan,nan
2070308000,6,1662.3604,1730.1644,1663.2605,1734.9502,1500.0,1500.0,nan,nan,nan,nan,nan,nan,nan,nan,nan,nan
2070412000,6,1656.718,1738.3269,1661.4104,1738.429,1500.0,1500.0,nan,nan,nan,nan,nan,nan,nan,nan,nan,nan
2070512000,6,1660.4532,1729.9247,1661.6288,1732.4863,1500.0,1500.0,nan,nan,nan,nan,nan,nan,nan,nan,nan,nan
2070612000,6,1658.2001,1737.3799,1660.4788,1738.5857,1500.0,1500.0,nan,nan,nan,nan,nan,nan,nan,nan,nan,nan
2070708000,6,1659.6302,1737.5505,1661.0227,1738.2982,1500.0,1500.0,nan,nan,nan,nan,nan,nan,nan,nan,nan,nan
2070811999,6,1661.058,1732.4865,1663.0624,1734.75,1500.0,1500.0,nan,nan,nan,nan,nan,nan,nan,nan,nan,nan
2070912000,6,1660.5146,1729.4147,1662.0856,1735.0748,1500.0,1500.0,nan,nan,nan,nan,nan,nan,nan,nan,nan,nan
2071012000,6,1659.045,1730.659,1661.1357,1733.9807,1500.0,1500.0,nan,nan,nan,nan,nan,nan,nan,nan,nan,nan
2071112000,6,1660.8552,1731.9012,1662.6533,1731.5195,1500.0,1500.0,nan,nan,nan,nan,nan,nan,nan,nan,nan,nan
2071215999,6,1660.6454,1728.2739,1664.3746,1732.199,1500.0,1500.0,nan,nan,nan,nan,nan,nan,nan,nan,nan,nan
2071316000,6,1662.6549,1730.8718,1666.3221,1734.2588,1500.0,1500.0,nan,nan,nan,nan,nan,nan,nan,nan,nan,nan
2071420000,6,1665.6176,1733.3309,1670.0828,1733.9883,1500.0,1500.0,nan,nan,nan,nan,nan,nan,nan,nan,nan,nan
2071516000,6,1663.699,1734.1173,1666.6401,1735.28,1500.0,1500.0,nan,nan,nan,nan,nan,nan,nan,nan,nan,nan
2071624000,6,1663.6101,1732.8118,1663.3018,1738.301,1500.0,1500.0,nan,nan,nan,nan,nan,nan,nan,nan,nan,nan
2071720000,6,1656.5503,1742.2622,1659.5745,1747.4546,1500.0,1500.0,nan,nan,nan,nan,nan,nan,nan,nan,nan,nan
2071824000,6,1658.0845,1741.7461,1662.7849,1741.7467,1500.0,1500.0,nan,nan,nan,nan,nan,nan,nan,nan,nan,nan
2071924000,6,1665.9222,1736.739,1669.9493,1736.2089,1500.0,1500.0,nan,nan,nan,nan,nan,nan,nan,nan,nan,nan
2072028000,6,1663.5931,1738.098,1665.0905,1742.3936,1500.0,1500.0,nan,nan,nan,nan,nan,nan,nan,nan,nan,nan
2072128000,6,1662.4824,1737.3896,1663.7518,1740.9852,1500.0,1500.0,nan,nan,nan,nan,nan,nan,nan,nan,nan,nan
2072224000,6,1663.1727,1737.3364,1664.9662,1741.1343,1500.0,1500.0,nan,nan,nan,nan,nan,nan,nan,nan,nan,nan
2072327999,6,1664.0128,1737.7391,1667.6216,1742.9777,1500.0,1500.0,nan,nan,nan,nan,nan,nan,nan,nan,nan,nan
2072432000,6,1662.9368,1741.5276,1663.2024,1744.3375,1500.0,1500.0,nan,nan,nan,nan,nan,nan,nan,nan,nan,nan
2072528000,6,1658.3452,1739.207,1666.582,1740.875,1500.0,1500.0,nan,nan,nan,nan,nan,nan,nan,nan,nan,nan
2072632000,6,1665.6447,1736.5718,1665.9934,1738.4974,1500.0,1500.0,nan,nan,nan,nan,nan,nan,nan,nan,nan,nan
2072731999,6,1665.4109,1733.8588,1669.0874,1736.0237,1500.0,1500.0,nan,nan,nan,nan,nan,nan,nan,nan,nan,nan
2072831999,6,1664.0471,1742.3026,1665.2063,1745.2637,1500.0,1500.0,nan,nan,nan,nan,nan,nan,nan,nan,nan,nan
2072936000,6,1660.9736,1739.0055,1665.2769,1737.9949,1500.0,1500.0,nan,nan,nan,nan,nan,nan,nan,nan,nan,nan
2073032000,6,1661.5184,1742.8185,1662.1835,1747.571,1500.0,1500.0,nan,nan,nan,nan,nan,nan,nan,nan,nan,nan
2073135999,6,1663.0901,1739.3124,1666.1947,1741.9895,1500.0,1500.0,nan,nan,nan,nan,nan,nan,nan,nan,nan,nan
2073240000,6,1664.814,1732.1091,1667.2836,1734.9806,1500.0,1500.0,nan,nan,nan,nan,nan,nan,nan,nan,nan,nan
2073340000,6,1665.0266,1734.6318,1666.8658,1738.2119,1500.0,1500.0,nan,nan,nan,nan,nan,nan,nan,nan,nan,nan
2073436000,6,1661.7015,1745.2968,1665.5139,1747.211,1500.0,1500.0,nan,nan,nan,nan,nan,nan,nan,nan,nan,nan
2073543999,6,1659.8834,1744.7303,1662.2869,1747.9373,1500.0,1500.0,nan,nan,nan,nan,nan,nan,nan,nan,nan,nan
2073639999,6,1663.9641,1738.2458,1664.3773,1741.3392,1500.0,1500.0,nan,nan,nan,nan,nan,nan,nan,nan,nan,nan
2073740000,6,1664.6403,1734.1583,1666.6344,1736.8015,1500.0,1500.0,nan,nan,nan,nan,nan,nan,nan,nan,nan,nan
2073840000,6,1662.7772,1736.3849,1666.7494,1736.54,1500.0,1500.0,nan,nan,nan,nan,nan,nan,nan,nan,nan,nan
2073943999,6,1664.467,1741.1562,1665.4045,1747.3838,1500.0,1500.0,nan,nan,nan,nan,nan,nan,nan,nan,nan,nan
2074048000,6,1665.0759,1733.3632,1667.3373,1736.0011,1500.0,1500.0,nan,nan,nan,nan,nan,nan,nan,nan,nan,nan
2074144000,6,1664.0955,1741.9769,1666.1351,1742.5729,1500.0,1500.0,nan,nan,nan,nan,nan,nan,nan,nan,nan,nan
2074244000,6,1665.703,1738.0676,1669.0391,1738.9478,1500.0,1500.0,nan,nan,nan,nan,nan,nan,nan,nan,nan,nan
2074347999,6,1662.6711,1737.1697,1665.9802,1739.2286,1500.0,1500.0,nan,nan,nan,nan,nan,nan,nan,nan,nan,nan
2074448000,6,1667.7871,1732.712,1670.647,1736.6566,1500.0,1500.0,nan,nan,nan,nan,nan,nan,nan,nan,nan,nan
2074548000,6,1663.1848,1743.3845,1665.0308,1748.1384,1500.0,1500.0,nan,nan,nan,nan,nan,nan,nan,nan,nan,nan
2074648000,6,1664.7144,1740.2233,1668.0188,1741.3889,1500.0,1500.0,nan,nan,nan,nan,nan,nan,nan,nan,nan,nan
2074751999,6,1665.4004,1741.5736,1666.5071,1741.9108,1500.0,1500.0,nan,nan,nan,nan,nan,nan,nan,nan,nan,nan
2074856000,6,1665.6134,1736.0045,1665.764,1743.864,1500.0,1500.0,nan,nan,nan,nan,nan,nan,nan,nan,nan,nan
2074952000,6,1665.0862,1738.9701,1666.9304,1738.2389,1500.0,1500.0,nan,nan,nan,nan,nan,nan,nan,nan,nan,nan
2075056000,6,1665.84,1734.0826,1670.7488,1737.152,1500.0,1500.0,nan,nan,nan,nan,nan,nan,nan,nan,nan,nan
2075155999,6,1669.3619,1737.0632,1670.5635,1739.8018,1500.0,1500.0,nan,nan,nan,nan,nan,nan,nan,nan,nan,nan
2075260000,6,1662.1665,1743.169,1663.6232,1745.6465,1500.0,1500.0,nan,nan,nan,nan,nan,nan,nan,nan,nan,nan
2075356000,6,1663.3395,1739.6051,1666.5632,1744.6985,1500.0,1500.0,nan,nan,nan,nan,nan,nan,nan,nan,nan,nan
2075456000,6,1666.2332,1733.6664,1672.2467,1734.0333,1500.0,1500.0,nan,nan,nan,nan,nan,nan,nan,nan,nan,nan
2075564000,6,1666.8818,1736.5752,1669.0895,1741.2283,1500.0,1500.0,nan,nan,nan,nan,nan,nan,nan,nan,nan,nan
2075664000,6,1664.4392,1744.9094,1663.4719,1750.4148,1500.0,1500.0,nan,nan,nan,nan,nan,nan,nan,nan,nan,nan
2075760000,6,1666.2983,1740.463,1667.8397,1743.0642,1500.0,1500.0,nan,nan,nan,nan,nan,nan,nan,nan,nan,nan
2075864000,6,1663.8484,1742.4701,1664.2023,1744.7344,1500.0,1500.0,nan,nan,nan,nan,nan,nan,nan,nan,nan,nan
2075968000,6,1663.7169,1740.8683,1667.2009,1744.1143,1500.0,1500.0,nan,nan,nan,nan,nan,nan,nan,nan,nan,nan
2076064000,6,1666.4169,1736.8701,1667.6162,1737.834,1500.0,1500.0,nan,nan,nan,nan,nan,nan,nan,nan,nan,nan
2076164000,6,1661.9288,1746.8607,1666.2009,1747.3179,1500.0,1500.0,nan,nan,nan,nan,nan,nan,nan,nan,nan,nan
2076264000,6,1664.5085,1743.1855,1665.6907,1745.8115,1500.0,1500.0,nan,nan,nan,nan,nan,nan,nan,nan,nan,nan
2076367999,6,1663.6171,1743.5917,1667.4878,1747.1525,1500.0,1500.0,nan,nan,nan,nan,nan,nan,nan,nan,nan,nan
2076472000,6,1664.7712,1742.7806,1668.7797,1741.2914,1500.0,1500.0,nan,nan,nan,nan,nan,nan,nan,nan,nan,nan
2076572000,6,1666.0481,1735.7964,1669.5363,1739.6185,1500.0,1500.0,nan,nan,nan,nan,nan,nan,nan,nan,nan,nan
2076668000,6,1663.4424,1746.8872,1670.1042,1747.0277,1500.0,1500.0,nan,nan,nan,nan,nan,nan,nan,nan,nan,nan
2076771999,6,1665.303,1747.8623,1667.2463,1747.6771,1500.0,1500.0,nan,nan,nan,nan,nan,nan,nan,nan,nan,nan
2076872000,6,1666.7449,1740.5057,1669.2062,1744.6501,1500.0,1500.0,nan,nan,nan,nan,nan,nan,nan,nan,nan,nan
2076972000,6,1665.3806,1742.1451,1670.0717,1744.7517,1500.0,1500.0,nan,nan,nan,nan,nan,nan,nan,nan,nan,nan
2077072000,6,1664.3707,1741.6296,1665.0037,1744.413,1500.0,1500.0,nan,nan,nan,nan,nan,nan,nan,nan,nan,nan
2077180000,6,1661.9001,1741.0145,1666.676,1747.5924,1500.0,1500.0,nan,nan,nan,nan,nan,nan,nan,nan,nan,nan
2077276000,6,1664.9688,1741.4519,1665.8945,1745.6476,1500.0,1500.0,nan,nan,nan,nan,nan,nan,nan,nan,nan,nan
2077376000,6,1661.8743,1750.4473,1667.991,1752.5475,1500.0,1500.0,nan,nan,nan,nan,nan,nan,nan,nan,nan,nan
2077480000,6,1667.9761,1742.3229,1668.7234,1744.6416,1500.0,1500.0,nan,nan,nan,nan,nan,nan,nan,nan,nan,nan
2077579999,6,1665.6138,1741.9319,1668.5769,1742.6836,1500.0,1500.0,nan,nan,nan,nan,nan,nan,nan,nan,nan,nan
2077680000,6,1664.6064,1749.5782,1666.5105,1754.6147,1500.0,1500.0,nan,nan,nan,nan,nan,nan,nan,nan,nan,nan
2077780000,6,1664.9703,1740.9445,1667.1241,1744.7739,1500.0,1500.0,nan,nan,nan,nan,nan,nan,nan,nan,nan,nan
2077880000,6,1665.9484,1739.6597,1669.2006,1742.2126,1500.0,1500.0,nan,nan,nan,nan,nan,nan,nan,nan,nan,nan
2077983999,6,1662.0674,1745.6353,1665.8425,1747.4344,1500.0,1500.0,nan,nan,nan,nan,nan,nan,nan,nan,nan,nan
2078084000,6,1661.7853,1751.0214,1663.6821,1752.7734,1500.0,1500.0,nan,nan,nan,nan,nan,nan,nan,nan,nan,nan
2078184000,6,1662.4862,1753.5277,1665.5697,1752.406,1500.0,1500.0,nan,nan,nan,nan,nan,nan,nan,nan,nan,nan
2078288000,6,1661.5172,1750.5774,1667.1198,1751.7816,1500.0,1500.0,nan,nan,nan,nan,nan,nan,nan,nan,nan,nan
2078387999,6,1663.1172,1748.1067,1669.6979,1747.1537,1500.0,1500.0,nan,nan,nan,nan,nan,nan,nan,nan,nan,nan
2078488000,6,1666.1241,1745.8948,1669.3096,1748.3483,1500.0,1500.0,nan,nan,nan,nan,nan,nan,nan,nan,nan,nan
2078588000,6,1666.8546,1740.0636,1671.529,1743.4991,1500.0,1500.0,nan,nan,nan,nan,nan,nan,nan,nan,nan,nan
2078692000,6,1667.2941,1741.3762,1669.7548,1746.2231,1500.0,1500.0,nan,nan,nan,nan,nan,nan,nan,nan,nan,nan
2078791999,6,1666.0864,1738.9297,1668.1377,1742.8988,1500.0,1500.0,nan,nan,nan,nan,nan,nan,nan,nan,nan,nan
2078892000,6,1660.4999,1751.7173,1665.528,1754.8633,1500.0,1500.0,nan,nan,nan,nan,nan,nan,nan,nan,nan,nan
2078996000,6,1667.0684,1746.7075,1669.565,1748.1962,1500.0,1500.0,nan,nan,nan,nan,nan,nan,nan,nan,nan,nan
2079092000,6,1667.1542,1738.1298,1669.5214,1739.6674,1500.0,1500.0,nan,nan,nan,nan,nan,nan,nan,nan,nan,nan
2079195999,6,1671.0773,1742.8494,1674.0027,1744.3646,1500.0,1500.0,nan,nan,nan,nan,nan,nan,nan,nan,nan,nan
2079300000,6,1663.2869,1748.674,1670.2305,1745.9939,1500.0,1500.0,nan,nan,nan,nan,nan,nan,nan,nan,nan,nan
2079396000,6,1662.0812,1743.9159,1666.326,1744.4246,1500.0,1500.0,nan,nan,nan,nan,nan,nan,nan,nan,nan,nan
2079496000,6,1663.6212,1748.3807,1667.2621,1750.0034,1500.0,1500.0,nan,nan,nan,nan,nan,nan,nan,nan,nan,nan
2079599999,6,1664.84,1753.4628,1669.5864,1752.9489,1500.0,1500.0,nan,nan,nan,nan,nan,nan,nan,nan,nan,nan
2079700000,6,1666.827,1741.3081,1669.7277,1744.8145,1500.0,1500.0,nan,nan,nan,nan,nan,nan,nan,nan,nan,nan
2079800000,6,1672.2919,1740.5845,1672.4237,1743.3577,1500.0,1500.0,nan,nan,nan,nan,nan,nan,nan,nan,nan,nan
2079900000,6,1670.4652,1740.3724,1672.1149,1744.6207,1500.0,1500.0,nan,nan,nan,nan,nan,nan,nan,nan,nan,nan
2080008000,6,1671.8317,1743.5645,1674.4186,1745.1263,1500.0,1500.0,nan,nan,nan,nan,nan,nan,nan,nan,nan,nan
2080104000,6,1666.3267,1753.7958,1670.0979,1754.3265,1500.0,1500.0,nan,nan,nan,nan,nan,nan,nan,nan,nan,nan
2080204000,6,1671.0586,1747.0393,1671.9973,1751.177,1500.0,1500.0,nan,nan,nan,nan,nan,nan,nan,nan,nan,nan
2080304000,6,1671.5593,1745.2128,1675.0886,1750.2507,1500.0,1500.0,nan,nan,nan,nan,nan,nan,nan,nan,nan,nan
2080412000,6,1670.7388,1747.6772,1676.0741,1751.4247,1500.0,1500.0,nan,nan,nan,nan,nan,nan,nan,nan,nan,nan
2080508000,6,1673.341,1745.2544,1677.5643,1745.078,1500.0,1500.0,nan,nan,nan,nan,nan,nan,nan,nan,nan,nan
2080612000,6,1671.0842,1746.7719,1676.1971,1748.5367,1500.0,1500.0,nan,nan,nan,nan,nan,nan,nan,nan,nan,nan
2080708000,6,1669.3472,1746.6748,1672.3892,1749.9343,1500.0,1500.0,nan,nan,nan,nan,nan,nan,nan,nan,nan,nan
2080811999,6,1671.3068,1745.6067,1674.2656,1748.6929,1500.0,1500.0,nan,nan,nan,nan,nan,nan,nan,nan,nan,nan
2080912000,6,1673.393,1749.46,1673.8718,1752.7942,1500.0,1500.0,nan,nan,nan,nan,nan,nan,nan,nan,nan,nan
2081016000,6,1672.1056,1742.4014,1679.4774,1745.7368,1500.0,1500.0,nan,nan,nan,nan,nan,nan,nan,nan,nan,nan
2081116000,6,1673.2532,1749.1403,1674.0353,1747.5181,1500.0,1500.0,nan,nan,nan,nan,nan,nan,nan,nan,nan,nan
2081215999,6,1669.3413,1757.0793,1672.5935,1760.979,1500.0,1500.0,nan,nan,nan,nan,nan,nan,nan,nan,nan,nan
2081316000,6,1671.5674,1750.1931,1675.425,1751.8241,1500.0,1500.0,nan,nan,nan,nan,nan,nan,nan,nan,nan,nan
2081420000,6,1670.8048,1750.1968,1673.6003,1752.8367,1500.0,1500.0,nan,nan,nan,nan,nan,nan,nan,nan,nan,nan
2081516000,6,1670.7208,1749.5934,1675.7198,1751.0712,1500.0,1500.0,nan,nan,nan,nan,nan,nan,nan,nan,nan,nan
2081619999,6,1674.908,1744.2521,1675.8844,1745.4617,1500.0,1500.0,nan,nan,nan,nan,nan,nan,nan,nan,nan,nan
2081720000,6,1673.1915,1750.6279,1676.8065,1755.0438,1500.0,1500.0,nan,nan,nan,nan,nan,nan,nan,nan,nan,nan
2081820000,6,1672.3921,1750.797,1676.204,1751.9509,1500.0,1500.0,nan,nan,nan,nan,nan,nan,nan,nan,nan,nan
2081924000,6,1673.5901,1750.7928,1674.5283,1753.8304,1500.0,1500.0,nan,nan,nan,nan,nan,nan,nan,nan,nan,nan
2082028000,6,1673.8354,1748.4565,1672.0582,1755.8073,1500.0,1500.0,nan,nan,nan,nan,nan,nan,nan,nan,nan,nan
2082124000,6,1673.4354,1747.2188,1676.9946,1746.6028,1500.0,1500.0,nan,nan,nan,nan,nan,nan,nan,nan,nan,nan
2082224000,6,1674.485,1745.5051,1676.674,1750.3601,1500.0,1500.0,nan,nan,nan,nan,nan,nan,nan,nan,nan,nan
2082327999,6,1674.5898,1753.9873,1676.886,1755.8583,1500.0,1500.0,nan,nan,nan,nan,nan,nan,nan,nan,nan,nan
2082432000,6,1673.2068,1737.7395,1678.5007,1736.2719,1500.0,1500.0,nan,nan,nan,nan,nan,nan,nan,nan,nan,nan
2082528000,6,1670.2728,1732.4236,1671.0627,1733.8855,1500.0,1500.0,nan,nan,nan,nan,nan,nan,nan,nan,nan,nan
2082632000,6,1663.2926,1716.7649,1667.1802,1725.2283,1500.0,1500.0,nan,nan,nan,nan,nan,nan,nan,nan,nan,nan
2082731999,6,1639.2316,1733.2538,1653.0886,1731.0144,1500.0,1500.0,nan,nan,nan,nan,nan,nan,nan,nan,nan,nan
2082836000,6,1618.2914,1732.3397,1628.8771,1719.3873,1500.0,1500.0,nan,nan,nan,nan,nan,nan,nan,nan,nan,nan
2082932000,6,1615.4138,1715.6573,1616.2859,1706.7443,1500.0,1500.0,nan,nan,nan,nan,nan,nan,nan,nan,nan,nan
2083036000,6,1618.3939,1697.4238,1619.4861,1697.6221,1500.0,1500.0,nan,nan,nan,nan,nan,nan,nan,nan,nan,nan
2083139999,6,1620.5753,1682.712,1618.4795,1680.9053,1500.0,1500.0,nan,nan,nan,nan,nan,nan,nan,nan,nan,nan
2083240000,6,1607.72,1680.6405,1609.4261,1682.9729,1500.0,1500.0,nan,nan,nan,nan,nan,nan,nan,nan,nan,nan
2083340000,6,1606.8044,1671.9285,1604.5354,1670.2408,1500.0,1500.0,nan,nan,nan,nan,nan,nan,nan,nan,nan,nan
2083436000,6,1597.711,1669.8368,1594.9662,1668.5249,1500.0,1500.0,nan,nan,nan,nan,nan,nan,nan,nan,nan,nan
2083539999,6,1591.474,1660.9594,1591.5896,1662.7787,1500.0,1500.0,nan,nan,nan,nan,nan,nan,nan,nan,nan,nan
2083639999,6,1589.7046,1657.7034,1593.0392,1656.364,1500.0,1500.0,nan,nan,nan,nan,nan,nan,nan,nan,nan,nan
2083744000,6,1590.6353,1646.5337,1589.8864,1644.3352,1500.0,1500.0,nan,nan,nan,nan,nan,nan,nan,nan,nan,nan
2083844000,6,1585.8915,1643.0045,1585.3792,1642.3746,1500.0,1500.0,nan,nan,nan,nan,nan,nan,nan,nan,nan,nan
2083948000,6,1583.9161,1638.7408,1587.5669,1631.6008,1500.0,1500.0,nan,nan,nan,nan,nan,nan,nan,nan,nan,nan
2084043999,6,1588.9476,1627.0316,1587.0751,1624.2147,1500.0,1500.0,nan,nan,nan,nan,nan,nan,nan,nan,nan,nan
2084148000,6,1582.9865,1626.587,1580.5157,1622.5057,1500.0,1500.0,nan,nan,nan,nan,nan,nan,nan,nan,nan,nan
2084248000,6,1581.0428,1622.2463,1577.751,1620.7078,1500.0,1500.0,nan,nan,nan,nan,nan,nan,nan,nan,nan,nan
2084347999,6,1581.2041,1621.7886,1575.8843,1618.3743,1500.0,1500.0,nan,nan,nan,nan,nan,nan,nan,nan,nan,nan
2084452000,6,1582.1265,1613.7424,1576.6807,1608.735,1500.0,1500.0,nan,nan,nan,nan,nan,nan,nan,nan,nan,nan
2084548000,6,1571.8341,1607.0693,1582.6824,1615.7913,1500.0,1500.0,nan,nan,nan,nan,nan,nan,nan,nan,nan,nan
2084648000,6,1583.8481,1628.5249,1566.6733,1591.715,1500.0,1500.0,nan,nan,nan,nan,nan,nan,nan,nan,nan,nan
2084756000,6,1609.6394,1638.3821,1545.138,1557.9344,1500.0,1500.0,nan,nan,nan,nan,nan,nan,nan,nan,nan,nan
2084852000,6,1612.7136,1645.4901,1538.6975,1548.0612,1500.0,1500.0,nan,nan,nan,nan,nan,nan,nan,nan,nan,nan
2084952000,6,1618.3718,1650.1462,1540.0123,1539.7435,1500.0,1500.0,nan,nan,nan,nan,nan,nan,nan,nan,nan,nan
2085052000,6,1613.1602,1645.8701,1537.6859,1551.6844,1500.0,1500.0,nan,nan,nan,nan,nan,nan,nan,nan,nan,nan
2085155999,6,1612.6926,1647.481,1538.2173,1549.146,1500.0,1500.0,nan,nan,nan,nan,nan,nan,nan,nan,nan,nan
2085256000,6,1615.5841,1645.4346,1537.5543,1555.9623,1500.0,1500.0,nan,nan,nan,nan,nan,nan,nan,nan,nan,nan
2085356000,6,1626.3595,1624.4702,1508.984,1571.344,1500.0,1500.0,nan,nan,nan,nan,nan,nan,nan,nan,nan,nan
2085460000,6,1615.06,1610.5381,1514.6185,1568.7703,1500.0,1500.0,nan,nan,nan,nan,nan,nan,nan,nan,nan,nan
2085559999,6,1615.8097,1621.9153,1551.4423,1554.2106,1500.0,1500.0,nan,nan,nan,nan,nan,nan,nan,nan,nan,nan
2085664000,6,1605.9397,1643.1948,1552.8032,1535.5209,1500.0,1500.0,nan,nan,nan,nan,nan,nan,nan,nan,nan,nan
2085760000,6,1610.3865,1637.6769,1548.8413,1530.254,1500.0,1500.0,nan,nan,nan,nan,nan,nan,nan,nan,nan,nan
2085860000,6,1612.3345,1631.769,1541.9133,1536.2727,1500.0,1500.0,nan,nan,nan,nan,nan,nan,nan,nan,nan,nan
2085968000,6,1617.871,1629.1713,1536.7849,1540.9568,1500.0,1500.0,nan,nan,nan,nan,nan,nan,nan,nan,nan,nan
2086068000,6,1617.595,1620.0393,1543.6058,1541.643,1500.0,1500.0,nan,nan,nan,nan,nan,nan,nan,nan,nan,nan
2086168000,6,1612.6847,1619.7269,1548.3011,1543.5897,1500.0,1500.0,nan,nan,nan,nan,nan,nan,nan,nan,nan,nan
2086264000,6,1590.6351,1649.1937,1552.3485,1546.3582,1500.0,1500.0,nan,nan,nan,nan,nan,nan,nan,nan,nan,nan
2086367999,6,1607.6371,1634.0781,1549.2041,1544.6575,1500.0,1500.0,nan,nan,nan,nan,nan,nan,nan,nan,nan,nan
2086468000,6,1599.3583,1642.2847,1550.3308,1553.785,1500.0,1500.0,nan,nan,nan,nan,nan,nan,nan,nan,nan,nan
2086572000,6,1600.204,1654.429,1552.0924,1551.121,1500.0,1500.0,nan,nan,nan,nan,nan,nan,nan,nan,nan,nan
2086672000,6,1598.512,1650.7822,1551.4834,1553.0692,1500.0,1500.0,nan,nan,nan,nan,nan,nan,nan,nan,nan,nan
2086771999,6,1606.4097,1646.4951,1556.489,1556.9149,1500.0,1500.0,nan,nan,nan,nan,nan,nan,nan,nan,nan,nan
2086872000,6,1615.4146,1624.2155,1561.452,1552.8433,1500.0,1500.0,nan,nan,nan,nan,nan,nan,nan,nan,nan,nan
2086976000,6,1621.1353,1632.1991,1561.9513,1553.5886,1500.0,1500.0,nan,nan,nan,nan,nan,nan,nan,nan,nan,nan
2087072000,6,1625.9956,1625.708,1563.9208,1556.0446,1500.0,1500.0,nan,nan,nan,nan,nan,nan,nan,nan,nan,nan
2087175999,6,1630.6458,1626.4772,1567.6449,1554.0299,1500.0,1500.0,nan,nan,nan,nan,nan,nan,nan,nan,nan,nan
2087280000,6,1609.9795,1653.3354,1563.03,1580.8022,1500.0,1500.0,nan,nan,nan,nan,nan,nan,nan,nan,nan,nan
2087380000,6,1601.9067,1685.1256,1552.0732,1598.2621,1500.0,1500.0,nan,nan,nan,nan,nan,nan,nan,nan,nan,nan
2087476000,6,1592.6508,1636.2072,1589.3591,1618.7058,1500.0,1500.0,nan,nan,nan,nan,nan,nan,nan,nan,nan,nan
2087584000,6,1588.7463,1611.908,1612.3274,1619.716,1500.0,1500.0,nan,nan,nan,nan,nan,nan,nan,nan,nan,nan
2087680000,6,1591.2631,1622.9288,1609.744,1631.6467,1500.0,1500.0,nan,nan,nan,nan,nan,nan,nan,nan,nan,nan
2087780000,6,1581.9663,1656.0349,1597.4362,1662.6901,1500.0,1500.0,nan,nan,nan,nan,nan,nan,nan,nan,nan,nan
2087880000,6,1594.7468,1642.7312,1604.0314,1649.3453,1500.0,1500.0,nan,nan,nan,nan,nan,nan,nan,nan,nan,nan
2087988000,6,1613.8954,1627.9031,1620.7725,1629.6168,1500.0,1500.0,nan,nan,nan,nan,nan,nan,nan,nan,nan,nan
2088084000,6,1614.257,1639.8131,1619.1144,1645.3722,1500.0,1500.0,nan,nan,nan,nan,nan,nan,nan,nan,nan,nan
2088188000,6,1618.9388,1649.681,1619.3578,1653.6218,1500.0,1500.0,nan,nan,nan,nan,nan,nan,nan,nan,nan,nan
2088288000,6,1619.7272,1661.8325,1621.8566,1661.6754,1500.0,1500.0,nan,nan,nan,nan,nan,nan,nan,nan,nan,nan
2088387999,6,1624.3818,1665.7515,1622.541,1669.3573,1500.0,1500.0,nan,nan,nan,nan,nan,nan,nan,nan,nan,nan
2088488000,6,1633.8549,1652.5529,1631.0994,1657.2736,1500.0,1500.0,nan,nan,nan,nan,nan,nan,nan,nan,nan,nan
2088588000,6,1632.816,1677.8605,1633.1191,1675.8005,1500.0,1500.0,nan,nan,nan,nan,nan,nan,nan,nan,nan,nan
2088692000,6,1628.8901,1690.0553,1622.597,1688.7234,1500.0,1500.0,nan,nan,nan,nan,nan,nan,nan,nan,nan,nan
2088791999,6,1638.6616,1677.0483,1634.8173,1671.7107,1500.0,1500.0,nan,nan,nan,nan,nan,nan,nan,nan,nan,nan
2088892000,6,1644.4279,1669.9579,1639.2241,1660.148,1500.0,1500.0,nan,nan,nan,nan,nan,nan,nan,nan,nan,nan
2088996000,6,1634.6378,1691.7863,1625.6918,1683.3643,1500.0,1500.0,nan,nan,nan,nan,nan,nan,nan,nan,nan,nan
2089096000,6,1637.9735,1693.668,1619.727,1679.6001,1500.0,1500.0,nan,nan,nan,nan,nan,nan,nan,nan,nan,nan
2089195999,6,1638.0951,1691.3267,1619.6072,1676.7572,1500.0,1500.0,nan,nan,nan,nan,nan,nan,nan,nan,nan,nan
2089300000,6,1637.9135,1689.6062,1615.1035,1675.2727,1500.0,1500.0,nan,nan,nan,nan,nan,nan,nan,nan,nan,nan
2089396000,6,1642.2697,1702.2533,1613.3511,1673.0317,1500.0,1500.0,nan,nan,nan,nan,nan,nan,nan,nan,nan,nan
2089496000,6,1646.5721,1704.0916,1606.9929,1674.647,1500.0,1500.0,nan,nan,nan,nan,nan,nan,nan,nan,nan,nan
2089599999,6,1629.5682,1666.7261,1642.4092,1683.5896,1500.0,1500.0,nan,nan,nan,nan,nan,nan,nan,nan,nan,nan
2089700000,6,1596.1226,1648.1022,1666.6034,1716.0522,1500.0,1500.0,nan,nan,nan,nan,nan,nan,nan,nan,nan,nan
2089804000,6,1592.0471,1647.0206,1664.7363,1717.8556,1500.0,1500.0,nan,nan,nan,nan,nan,nan,nan,nan,nan,nan
2089900000,6,1604.3076,1645.6191,1659.8885,1718.3563,1500.0,1500.0,nan,nan,nan,nan,nan,nan,nan,nan,nan,nan
2090008000,6,1628.3064,1664.9684,1635.7351,1704.1132,1500.0,1500.0,nan,nan,nan,nan,nan,nan,nan,nan,nan,nan
2090104000,6,1635.9979,1683.5083,1622.7848,1695.5297,1500.0,1500.0,nan,nan,nan,nan,nan,nan,nan,nan,nan,nan
2090204000,6,1632.201,1688.8103,1623.3915,1697.3251,1500.0,1500.0,nan,nan,nan,nan,nan,nan,nan,nan,nan,nan
2090304000,6,1631.8491,1690.7837,1629.5084,1693.0615,1500.0,1500.0,nan,nan,nan,nan,nan,nan,nan,nan,nan,nan
2090412000,6,1630.6564,1695.2439,1631.5046,1692.2335,1500.0,1500.0,nan,nan,nan,nan,nan,nan,nan,nan,nan,nan
2090512000,6,1631.8257,1686.5623,1635.9211,1681.7123,1500.0,1500.0,nan,nan,nan,nan,nan,nan,nan,nan,nan,nan
2090608000,6,1631.2085,1686.7993,1633.2776,1685.623,1500.0,1500.0,nan,nan,nan,nan,nan,nan,nan,nan,nan,nan
2090708000,6,1633.812,1687.46,1636.2092,1686.3076,1500.0,1500.0,nan,nan,nan,nan,nan,nan,nan,nan,nan,nan
2090816000,6,1633.8899,1691.7683,1632.6469,1690.2518,1500.0,1500.0,nan,nan,nan,nan,nan,nan,nan,nan,nan,nan
2090916000,6,1626.778,1700.9885,1630.4094,1701.9863,1500.0,1500.0,nan,nan,nan,nan,nan,nan,nan,nan,nan,nan
2091016000,6,1635.5178,1685.9911,1638.5156,1687.5067,1500.0,1500.0,nan,nan,nan,nan,nan,nan,nan,nan,nan,nan
2091112000,6,1632.4136,1700.2883,1631.7765,1702.7139,1500.0,1500.0,nan,nan,nan,nan,nan,nan,nan,nan,nan,nan
2091215999,6,1637.2026,1688.5114,1636.8151,1690.1826,1500.0,1500.0,nan,nan,nan,nan,nan,nan,nan,nan,nan,nan
2091316000,6,1634.5023,1690.4352,1639.8779,1691.2618,1500.0,1500.0,nan,nan,nan,nan,nan,nan,nan,nan,nan,nan
2091420000,6,1636.2701,1692.1748,1636.6731,1693.7299,1500.0,1500.0,nan,nan,nan,nan,nan,nan,nan,nan,nan,nan
2091520000,6,1634.5739,1694.8458,1636.7427,1695.4608,1500.0,1500.0,nan,nan,nan,nan,nan,nan,nan,nan,nan,nan
2091619999,6,1639.5261,1689.4319,1640.9546,1687.1498,1500.0,1500.0,nan,nan,nan,nan,nan,nan,nan,nan,nan,nan
2091720000,6,1633.1461,1696.4072,1638.9452,1698.203,1500.0,1500.0,nan,nan,nan,nan,nan,nan,nan,nan,nan,nan
2091820000,6,1636.6847,1691.5673,1638.4357,1688.9622,1500.0,1500.0,nan,nan,nan,nan,nan,nan,nan,nan,nan,nan
2091920000,6,1632.0228,1700.7897,1635.9419,1704.0453,1500.0,1500.0,nan,nan,nan,nan,nan,nan,nan,nan,nan,nan
2092028000,6,1634.916,1698.9126,1636.4746,1700.6099,1500.0,1500.0,nan,nan,nan,nan,nan,nan,nan,nan,nan,nan
2092124000,6,1636.2981,1692.507,1637.489,1693.8395,1500.0,1500.0,nan,nan,nan,nan,nan,nan,nan,nan,nan,nan
2092228000,6,1635.9618,1691.5974,1642.1058,1688.8909,1500.0,1500.0,nan,nan,nan,nan,nan,nan,nan,nan,nan,nan
2092331999,6,1637.8925,1696.8542,1642.5917,1695.3967,1500.0,1500.0,nan,nan,nan,nan,nan,nan,nan,nan,nan,nan
2092427999,6,1638.7247,1693.2623,1640.3873,1696.3462,1500.0,1500.0,nan,nan,nan,nan,nan,nan,nan,nan,nan,nan
2092532000,6,1634.5685,1698.9995,1640.3069,1697.9673,1500.0,1500.0,nan,nan,nan,nan,nan,nan,nan,nan,nan,nan
2092628000,6,1637.0082,1703.9729,1637.8248,1704.0692,1500.0,1500.0,nan,nan,nan,nan,nan,nan,nan,nan,nan,nan
2092731999,6,1634.9093,1698.0845,1639.1626,1699.9976,1500.0,1500.0,nan,nan,nan,nan,nan,nan,nan,nan,nan,nan
2092831999,6,1642.2705,1693.7708,1643.528,1694.5052,1500.0,1500.0,nan,nan,nan,nan,nan,nan,nan,nan,nan,nan
2092932000,6,1635.2347,1707.3367,1636.9205,1706.7456,1500.0,1500.0,nan,nan,nan,nan,nan,nan,nan,nan,nan,nan
2093032000,6,1639.0571,1704.6206,1636.3169,1704.5802,1500.0,1500.0,nan,nan,nan,nan,nan,nan,nan,nan,nan,nan
2093135999,6,1638.1337,1706.8582,1638.5322,1705.8148,1500.0,1500.0,nan,nan,nan,nan,nan,nan,nan,nan,nan,nan
2093235999,6,1639.551,1693.892,1644.8296,1693.7788,1500.0,1500.0,nan,nan,nan,nan,nan,nan,nan,nan,nan,nan
2093340000,6,1640.3298,1697.3721,1640.2881,1695.2372,1500.0,1500.0,nan,nan,nan,nan,nan,nan,nan,nan,nan,nan
2093436000,6,1641.1229,1698.3499,1642.5486,1698.2899,1500.0,1500.0,nan,nan,nan,nan,nan,nan,nan,nan,nan,nan
2093539999,6,1639.366,1701.4668,1639.812,1701.6768,1500.0,1500.0,nan,nan,nan,nan,nan,nan,nan,nan,nan,nan
2093644000,6,1639.358,1704.7284,1637.5294,1701.7964,1500.0,1500.0,nan,nan,nan,nan,nan,nan,nan,nan,nan,nan
2093740000,6,1640.4319,1701.5305,1639.3806,1700.6023,1500.0,1500.0,nan,nan,nan,nan,nan,nan,nan,nan,nan,nan
2093840000,6,1637.2045,1705.7085,1636.8772,1707.3088,1500.0,1500.0,nan,nan,nan,nan,nan,nan,nan,nan,nan,nan
2093943999,6,1636.6444,1703.9138,1638.0907,1705.927,1500.0,1500.0,nan,nan,nan,nan,nan,nan,nan,nan,nan,nan
2094048000,6,1639.5231,1706.2529,1635.8612,1706.5618,1500.0,1500.0,nan,nan,nan,nan,nan,nan,nan,nan,nan,nan
2094148000,6,1638.0492,1704.7272,1637.1924,1704.1893,1500.0,1500.0,nan,nan,nan,nan,nan,nan,nan,nan,nan,nan
2094244000,6,1645.309,1700.1807,1642.7026,1702.522,1500.0,1500.0,nan,nan,nan,nan,nan,nan,nan,nan,nan,nan
2094347999,6,1641.0162,1700.4198,1640.2323,1696.5327,1500.0,1500.0,nan,nan,nan,nan,nan,nan,nan,nan,nan,nan
2094448000,6,1638.8427,1708.8356,1637.7314,1707.1917,1500.0,1500.0,nan,nan,nan,nan,nan,nan,nan,nan,nan,nan
2094552000,6,1638.1116,1707.3522,1634.4822,1705.6006,1500.0,1500.0,nan,nan,nan,nan,nan,nan,nan,nan,nan,nan
2094648000,6,1643.1396,1702.0905,1642.1302,1694.041,1500.0,1500.0,nan,nan,nan,nan,nan,nan,nan,nan,nan,nan
2094751999,6,1639.6366,1712.523,1635.5566,1707.5447,1500.0,1500.0,nan,nan,nan,nan,nan,nan,nan,nan,nan,nan
2094852000,6,1645.6924,1701.9087,1636.9681,1697.7242,1500.0,1500.0,nan,nan,nan,nan,nan,nan,nan,nan,nan,nan
2094952000,6,1644.6823,1708.3248,1635.5869,1703.5337,1500.0,1500.0,nan,nan,nan,nan,nan,nan,nan,nan,nan,nan
2095056000,6,1639.3284,1711.2849,1634.8616,1704.2571,1500.0,1500.0,nan,nan,nan,nan,nan,nan,nan,nan,nan,nan
2095155999,6,1646.2432,1709.6927,1634.981,1697.623,1500.0,1500.0,nan,nan,nan,nan,nan,nan,nan,nan,nan,nan
2095256000,6,1652.8717,1706.3053,1638.2722,1690.4713,1500.0,1500.0,nan,nan,nan,nan,nan,nan,nan,nan,nan,nan
2095360000,6,1650.9686,1715.1583,1629.9596,1692.1858,1500.0,1500.0,nan,nan,nan,nan,nan,nan,nan,nan,nan,nan
2095460000,6,1660.1572,1718.9,1624.3285,1687.8046,1500.0,1500.0,nan,nan,nan,nan,nan,nan,nan,nan,nan,nan
2095559999,6,1634.2943,1689.8757,1646.87,1715.4211,1500.0,1500.0,nan,nan,nan,nan,nan,nan,nan,nan,nan,nan
2095660000,6,1603.1005,1663.4784,1673.9103,1746.1774,1500.0,1500.0,nan,nan,nan,nan,nan,nan,nan,nan,nan,nan
2095764000,6,1607.3622,1661.7577,1674.1299,1738.4058,1500.0,1500.0,nan,nan,nan,nan,nan,nan,nan,nan,nan,nan
2095860000,6,1634.2936,1697.0464,1644.793,1716.7405,1500.0,1500.0,nan,nan,nan,nan,nan,nan,nan,nan,nan,nan
2095963999,6,1647.5227,1696.7874,1634.8159,1700.819,1500.0,1500.0,nan,nan,nan,nan,nan,nan,nan,nan,nan,nan
2096064000,6,1650.9745,1693.8524,1640.06,1696.094,1500.0,1500.0,nan,nan,nan,nan,nan,nan,nan,nan,nan,nan
2096168000,6,1642.6416,1701.224,1637.1426,1701.7849,1500.0,1500.0,nan,nan,nan,nan,nan,nan,nan,nan,nan,nan
2096268000,6,1640.9316,1690.2491,1636.8071,1683.6022,1500.0,1500.0,nan,nan,nan,nan,nan,nan,nan,nan,nan,nan
2096372000,6,1635.96,1687.769,1628.5355,1685.8728,1500.0,1500.0,nan,nan,nan,nan,nan,nan,nan,nan,nan,nan
2096468000,6,1621.5709,1695.7214,1619.6237,1689.7466,1500.0,1500.0,nan,nan,nan,nan,nan,nan,nan,nan,nan,nan
2096568000,6,1608.571,1692.9675,1602.1554,1690.9001,1500.0,1500.0,nan,nan,nan,nan,nan,nan,nan,nan,nan,nan
2096668000,6,1610.2998,1678.8628,1604.0173,1675.294,1500.0,1500.0,nan,nan,nan,nan,nan,nan,nan,nan,nan,nan
2096771999,6,1605.6974,1669.9479,1600.8115,1669.4517,1500.0,1500.0,nan,nan,nan,nan,nan,nan,nan,nan,nan,nan
2096872000,6,1606.8278,1660.2517,1603.0032,1655.9257,1500.0,1500.0,nan,nan,nan,nan,nan,nan,nan,nan,nan,nan
2096972000,6,1599.5219,1656.3348,1598.8461,1652.9777,1500.0,1500.0,nan,nan,nan,nan,nan,nan,nan,nan,nan,nan
2097072000,6,1594.2366,1656.477,1590.8969,1651.958,1500.0,1500.0,nan,nan,nan,nan,nan,nan,nan,nan,nan,nan
2097175999,6,1593.4236,1653.2311,1590.2246,1644.153,1500.0,1500.0,nan,nan,nan,nan,nan,nan,nan,nan,nan,nan
2097276000,6,1598.78,1642.6206,1591.4977,1635.2552,1500.0,1500.0,nan,nan,nan,nan,nan,nan,nan,nan,nan,nan
2097376000,6,1591.855,1635.77,1584.6833,1631.1775,1500.0,1500.0,nan,nan,nan,nan,nan,nan,nan,nan,nan,nan
2097476000,6,1587.2181,1631.6456,1582.5757,1626.5616,1500.0,1500.0,nan,nan,nan,nan,nan,nan,nan,nan,nan,nan
2097579999,6,1587.9268,1628.4568,1582.3329,1620.8779,1500.0,1500.0,nan,nan,nan,nan,nan,nan,nan,nan,nan,nan
2097680000,6,1586.5198,1624.5442,1580.4629,1620.1487,1500.0,1500.0,nan,nan,nan,nan,nan,nan,nan,nan,nan,nan
2097780000,6,1590.7666,1620.329,1578.4698,1614.5109,1500.0,1500.0,nan,nan,nan,nan,nan,nan,nan,nan,nan,nan
2097880000,6,1584.8092,1617.6588,1576.2015,1613.3232,1500.0,1500.0,nan,nan,nan,nan,nan,nan,nan,nan,nan,nan
2097983999,6,1583.3363,1617.445,1574.9795,1608.2262,1500.0,1500.0,nan,nan,nan,nan,nan,nan,nan,nan,nan,nan
2098088000,6,1581.7633,1617.4202,1571.7701,1610.2268,1500.0,1500.0,nan,nan,nan,nan,nan,nan,nan,nan,nan,nan
2098184000,6,1578.8743,1614.9319,1568.7441,1606.286,1500.0,1500.0,nan,nan,nan,nan,nan,nan,nan,nan,nan,nan
2098288000,6,1580.7579,1611.798,1571.9995,1598.9263,1500.0,1500.0,nan,nan,nan,nan,nan,nan,nan,nan,nan,nan
2098387999,6,1581.6107,1607.734,1570.875,1597.351,1500.0,1500.0,nan,nan,nan,nan,nan,nan,nan,nan,nan,nan
2098488000,6,1581.4512,1607.6296,1570.6398,1593.394,1500.0,1500.0,nan,nan,nan,nan,nan,nan,nan,nan,nan,nan
2098592000,6,1580.9755,1605.4169,1569.9054,1590.4604,1500.0,1500.0,nan,nan,nan,nan,nan,nan,nan,nan,nan,nan
2098688000,6,1579.2417,1605.0692,1568.5028,1587.6995,1500.0,1500.0,nan,nan,nan,nan,nan,nan,nan,nan,nan,nan
2098796000,6,1572.5916,1589.7092,1570.4243,1594.2993,1500.0,1500.0,nan,nan,nan,nan,nan,nan,nan,nan,nan,nan
2098892000,6,1580.7089,1620.4633,1551.49,1575.3624,1500.0,1500.0,nan,nan,nan,nan,nan,nan,nan,nan,nan,nan
2098992000,6,1594.7294,1648.2633,1523.1732,1561.4178,1500.0,1500.0,nan,nan,nan,nan,nan,nan,nan,nan,nan,nan
2099092000,6,1588.32,1618.4431,1541.1135,1577.6345,1500.0,1500.0,nan,nan,nan,nan,nan,nan,nan,nan,nan,nan
2099195999,6,1567.8177,1611.2976,1558.252,1608.2964,1500.0,1500.0,nan,nan,nan,nan,nan,nan,nan,nan,nan,nan
2099296000,6,1587.844,1594.3312,1581.4767,1605.516,1500.0,1500.0,nan,nan,nan,nan,nan,nan,nan,nan,nan,nan
2099396000,6,1591.8885,1604.0686,1591.9961,1615.2788,1500.0,1500.0,nan,nan,nan,nan,nan,nan,nan,nan,nan,nan
2099496000,6,1595.7913,1624.4464,1603.8533,1631.6886,1500.0,1500.0,nan,nan,nan,nan,nan,nan,nan,nan,nan,nan
2099604000,6,1625.1426,1587.0198,1634.8759,1590.4181,1500.0,1500.0,nan,nan,nan,nan,nan,nan,nan,nan,nan,nan
2099704000,6,1624.8429,1617.0646,1629.0308,1621.3165,1500.0,1500.0,nan,nan,nan,nan,nan,nan,nan,nan,nan,nan
2099800000,6,1617.3411,1640.533,1618.1141,1641.2457,1500.0,1500.0,nan,nan,nan,nan,nan,nan,nan,nan,nan,nan
2099900000,6,1614.5369,1649.5054,1617.3129,1652.8811,1500.0,1500.0,nan,nan,nan,nan,nan,nan,nan,nan,nan,nan
2100008000,6,1618.0514,1659.0183,1619.0729,1658.764,1500.0,1500.0,nan,nan,nan,nan,nan,nan,nan,nan,nan,nan
2100104000,6,1618.4698,1675.9015,1622.392,1675.6478,1500.0,1500.0,nan,nan,nan,nan,nan,nan,nan,nan,nan,nan
2100208000,6,1634.1715,1671.5148,1636.1605,1671.1028,1500.0,1500.0,nan,nan,nan,nan,nan,nan,nan,nan,nan,nan
2100308000,6,1637.9524,1680.6122,1643.0819,1675.5928,1500.0,1500.0,nan,nan,nan,nan,nan,nan,nan,nan,nan,nan
2100407999,6,1645.3207,1680.316,1648.4664,1677.4633,1500.0,1500.0,nan,nan,nan,nan,nan,nan,nan,nan,nan,nan
2100512000,6,1649.5208,1686.7943,1658.1458,1680.4653,1500.0,1500.0,nan,nan,nan,nan,nan,nan,nan,nan,nan,nan
2100612000,6,1658.6945,1684.9495,1664.2067,1682.5238,1500.0,1500.0,nan,nan,nan,nan,nan,nan,nan,nan,nan,nan
2100708000,6,1664.4016,1695.3398,1664.8904,1691.6306,1500.0,1500.0,nan,nan,nan,nan,nan,nan,nan,nan,nan,nan
2100816000,6,1660.8116,1703.5061,1661.8564,1703.2985,1500.0,1500.0,nan,nan,nan,nan,nan,nan,nan,nan,nan,nan
2100912000,6,1662.7659,1698.8345,1661.4866,1701.4847,1500.0,1500.0,nan,nan,nan,nan,nan,nan,nan,nan,nan,nan
2101012000,6,1651.4277,1704.49,1653.8065,1714.4777,1500.0,1500.0,nan,nan,nan,nan,nan,nan,nan,nan,nan,nan
2101112000,6,1640.0704,1730.0239,1650.4885,1731.3217,1500.0,1500.0,nan,nan,nan,nan,nan,nan,nan,nan,nan,nan
2101220000,6,1640.7649,1718.8229,1647.837,1715.7527,1500.0,1500.0,nan,nan,nan,nan,nan,nan,nan,nan,nan,nan
2101320000,6,1641.5515,1719.5613,1648.8292,1717.7438,1500.0,1500.0,nan,nan,nan,nan,nan,nan,nan,nan,nan,nan
2101416000,6,1645.3921,1717.9072,1649.7305,1718.4888,1500.0,1500.0,nan,nan,nan,nan,nan,nan,nan,nan,nan,nan
2101516000,6,1646.0972,1708.2098,1652.6045,1708.9587,1500.0,1500.0,nan,nan,nan,nan,nan,nan,nan,nan,nan,nan
2101619999,6,1652.4097,1710.2207,1658.44,1707.5471,1500.0,1500.0,nan,nan,nan,nan,nan,nan,nan,nan,nan,nan
2101724000,6,1643.1299,1724.2028,1649.655,1722.5056,1500.0,1500.0,nan,nan,nan,nan,nan,nan,nan,nan,nan,nan
2101820000,6,1648.2161,1712.3201,1654.7003,1714.2129,1500.0,1500.0,nan,nan,nan,nan,nan,nan,nan,nan,nan,nan
2101924000,6,1649.6852,1717.4437,1653.4846,1717.3687,1500.0,1500.0,nan,nan,nan,nan,nan,nan,nan,nan,nan,nan
2102028000,6,1644.7039,1722.8873,1651.9701,1723.1069,1500.0,1500.0,nan,nan,nan,nan,nan,nan,nan,nan,nan,nan
2102124000,6,1648.4602,1710.165,1656.2169,1707.0996,1500.0,1500.0,nan,nan,nan,nan,nan,nan,nan,nan,nan,nan
2102224000,6,1646.5493,1723.1243,1653.0892,1719.7279,1500.0,1500.0,nan,nan,nan,nan,nan,nan,nan,nan,nan,nan
2102327999,6,1643.3171,1724.4058,1653.181,1717.7693,1500.0,1500.0,nan,nan,nan,nan,nan,nan,nan,nan,nan,nan
2102427999,6,1651.0151,1724.0619,1651.4976,1723.4987,1500.0,1500.0,nan,nan,nan,nan,nan,nan,nan,nan,nan,nan
2102528000,6,1644.6023,1722.6384,1650.7256,1723.8313,1500.0,1500.0,nan,nan,nan,nan,nan,nan,nan,nan,nan,nan
2102628000,6,1648.2771,1721.613,1653.6074,1719.3147,1500.0,1500.0,nan,nan,nan,nan,nan,nan,nan,nan,nan,nan
2102731999,6,1645.9165,1725.878,1653.5742,1722.6613,1500.0,1500.0,nan,nan,nan,nan,nan,nan,nan,nan,nan,nan
2102836000,6,1648.0991,1722.0388,1654.6011,1718.4072,1500.0,1500.0,nan,nan,nan,nan,nan,nan,nan,nan,nan,nan
2102936000,6,1643.0175,1726.8578,1652.857,1721.7808,1500.0,1500.0,nan,nan,nan,nan,nan,nan,nan,nan,nan,nan
2103032000,6,1650.7415,1717.5333,1656.4802,1715.7349,1500.0,1500.0,nan,nan,nan,nan,nan,nan,nan,nan,nan,nan
2103139999,6,1646.5236,1726.8153,1654.2815,1723.0917,1500.0,1500.0,nan,nan,nan,nan,nan,nan,nan,nan,nan,nan
2103240000,6,1649.8198,1718.1497,1656.7217,1715.0963,1500.0,1500.0,nan,nan,nan,nan,nan,nan,nan,nan,nan,nan
2103340000,6,1653.0771,1710.2695,1657.8724,1708.4797,1500.0,1500.0,nan,nan,nan,nan,nan,nan,nan,nan,nan,nan
2103436000,6,1647.3536,1726.6718,1653.9565,1722.807,1500.0,1500.0,nan,nan,nan,nan,nan,nan,nan,nan,nan,nan
2103539999,6,1648.0641,1725.1173,1653.7623,1724.8235,1500.0,1500.0,nan,nan,nan,nan,nan,nan,nan,nan,nan,nan
2103644000,6,1649.2251,1721.166,1657.1208,1719.5236,1500.0,1500.0,nan,nan,nan,nan,nan,nan,nan,nan,nan,nan
2103740000,6,1648.3345,1721.7983,1654.1993,1723.0076,1500.0,1500.0,nan,nan,nan,nan,nan,nan,nan,nan,nan,nan
2103844000,6,1646.8754,1725.4017,1656.6316,1720.8624,1500.0,1500.0,nan,nan,nan,nan,nan,nan,nan,nan,nan,nan
2103943999,6,1649.3245,1728.593,1656.347,1725.6504,1500.0,1500.0,nan,nan,nan,nan,nan,nan,nan,nan,nan,nan
2104048000,6,1647.1259,1724.8145,1657.9768,1716.9254,1500.0,1500.0,nan,nan,nan,nan,nan,nan,nan,nan,nan,nan
2104144000,6,1651.3037,1726.2047,1651.8599,1726.8604,1500.0,1500.0,nan,nan,nan,nan,nan,nan,nan,nan,nan,nan
2104244000,6,1649.2354,1720.397,1656.6069,1720.3113,1500.0,1500.0,nan,nan,nan,nan,nan,nan,nan,nan,nan,nan
2104347999,6,1653.0944,1718.6884,1660.552,1715.5327,1500.0,1500.0,nan,nan,nan,nan,nan,nan,nan,nan,nan,nan
2104448000,6,1652.3794,1722.7013,1657.4014,1719.9685,1500.0,1500.0,nan,nan,nan,nan,nan,nan,nan,nan,nan,nan
2104552000,6,1645.8562,1729.3481,1655.2355,1725.9438,1500.0,1500.0,nan,nan,nan,nan,nan,nan,nan,nan,nan,nan
2104648000,6,1650.057,1726.9668,1657.4625,1723.2098,1500.0,1500.0,nan,nan,nan,nan,nan,nan,nan,nan,nan,nan
2104751999,6,1649.4775,1726.6028,1654.9224,1726.0216,1500.0,1500.0,nan,nan,nan,nan,nan,nan,nan,nan,nan,nan
2104852000,6,1644.825,1725.1793,1652.5862,1722.5479,1500.0,1500.0,nan,nan,nan,nan,nan,nan,nan,nan,nan,nan
2104952000,6,1655.3768,1714.7104,1662.4299,1713.6826,1500.0,1500.0,nan,nan,nan,nan,nan,nan,nan,nan,nan,nan
2105056000,6,1651.5367,1726.812,1657.9089,1725.0471,1500.0,1500.0,nan,nan,nan,nan,nan,nan,nan,nan,nan,nan
2105155999,6,1645.6362,1732.0435,1654.1144,1726.3789,1500.0,1500.0,nan,nan,nan,nan,nan,nan,nan,nan,nan,nan
2105256000,6,1652.9701,1724.3835,1660.7416,1722.0288,1500.0,1500.0,nan,nan,nan,nan,nan,nan,nan,nan,nan,nan
2105360000,6,1650.9097,1727.4797,1657.623,1723.6785,1500.0,1500.0,nan,nan,nan,nan,nan,nan,nan,nan,nan,nan
2105456000,6,1651.7982,1722.2141,1662.1302,1717.2523,1500.0,1500.0,nan,nan,nan,nan,nan,nan,nan,nan,nan,nan
2105559999,6,1654.1097,1726.5625,1658.6631,1725.088,1500.0,1500.0,nan,nan,nan,nan,nan,nan,nan,nan,nan,nan
2105664000,6,1651.5885,1728.5402,1659.9232,1726.8208,1500.0,1500.0,nan,nan,nan,nan,nan,nan,nan,nan,nan,nan
2105764000,6,1654.5791,1726.0691,1659.8977,1723.9597,1500.0,1500.0,nan,nan,nan,nan,nan,nan,nan,nan,nan,nan
2105864000,6,1651.9631,1726.947,1658.8763,1724.1819,1500.0,1500.0,nan,nan,nan,nan,nan,nan,nan,nan,nan,nan
2105968000,6,1653.6835,1730.5018,1657.8907,1727.8767,1500.0,1500.0,nan,nan,nan,nan,nan,nan,nan,nan,nan,nan
2106064000,6,1652.7327,1724.1946,1660.5398,1717.7202,1500.0,1500.0,nan,nan,nan,nan,nan,nan,nan,nan,nan,nan
2106164000,6,1651.1984,1725.7324,1657.6396,1722.0321,1500.0,1500.0,nan,nan,nan,nan,nan,nan,nan,nan,nan,nan
2106264000,6,1650.91,1730.1569,1658.2261,1725.643,1500.0,1500.0,nan,nan,nan,nan,nan,nan,nan,nan,nan,nan
2106367999,6,1650.7256,1731.7338,1659.5613,1726.9805,1500.0,1500.0,nan,nan,nan,nan,nan,nan,nan,nan,nan,nan
2106472000,6,1654.2991,1724.1252,1661.1195,1718.941,1500.0,1500.0,nan,nan,nan,nan,nan,nan,nan,nan,nan,nan
2106572000,6,1652.6505,1726.6564,1659.7719,1724.2583,1500.0,1500.0,nan,nan,nan,nan,nan,nan,nan,nan,nan,nan
2106668000,6,1651.6824,1733.7396,1660.3542,1727.3729,1500.0,1500.0,nan,nan,nan,nan,nan,nan,nan,nan,nan,nan
2106771999,6,1651.8922,1729.6354,1659.8066,1728.9764,1500.0,1500.0,nan,nan,nan,nan,nan,nan,nan,nan,nan,nan
2106876000,6,1651.7416,1731.8551,1655.3356,1728.9681,1500.0,1500.0,nan,nan,nan,nan,nan,nan,nan,nan,nan,nan
2106972000,6,1650.3779,1730.9885,1657.9792,1726.3694,1500.0,1500.0,nan,nan,nan,nan,nan,nan,nan,nan,nan,nan
2107072000,6,1657.672,1721.7494,1665.0043,1719.4231,1500.0,1500.0,nan,nan,nan,nan,nan,nan,nan,nan,nan,nan
2107175999,6,1657.1555,1717.5901,1666.5353,1716.9554,1500.0,1500.0,nan,nan,nan,nan,nan,nan,nan,nan,nan,nan
2107276000,6,1652.7231,1734.5996,1664.8328,1729.5681,1500.0,1500.0,nan,nan,nan,nan,nan,nan,nan,nan,nan,nan
2107376000,6,1649.2748,1736.603,1658.1165,1732.0786,1500.0,1500.0,nan,nan,nan,nan,nan,nan,nan,nan,nan,nan
2107480000,6,1653.0854,1724.6216,1662.197,1721.6829,1500.0,1500.0,nan,nan,nan,nan,nan,nan,nan,nan,nan,nan
2107579999,6,1652.1793,1730.5125,1659.6923,1727.936,1500.0,1500.0,nan,nan,nan,nan,nan,nan,nan,nan,nan,nan
2107680000,6,1652.1626,1731.4277,1660.0366,1727.286,1500.0,1500.0,nan,nan,nan,nan,nan,nan,nan,nan,nan,nan
2107784000,6,1653.2742,1731.1151,1659.9805,1732.2977,1500.0,1500.0,nan,nan,nan,nan,nan,nan,nan,nan,nan,nan
2107884000,6,1651.2225,1732.054,1658.6542,1730.8557,1500.0,1500.0,nan,nan,nan,nan,nan,nan,nan,nan,nan,nan
