timestamp,ref_timestamp,ref_lat,ref_lon,x,y,z,delta_xy[0],delta_xy[1],delta_z,vx,vy,vz,z_deriv,delta_vxy[0],delta_vxy[1],delta_vz,ax,ay,az,yaw,ref_alt,dist_bottom,dist_bottom_rate,eph,epv,evh,evv,vxy_max,vz_max,hagl_min,hagl_max,xy_valid,z_valid,v_xy_valid,v_z_valid,xy_reset_counter,z_reset_counter,vxy_reset_counter,vz_reset_counter,xy_global,z_global,dist_bottom_valid
2051220000,0,47.3977508,8.5456074,-0.033358477,0.037634194,0.72598267,0.0,0.0,0.0,0.0,0.0,0.0,0.0,0.0,0.0,0.0,0.0,0.0,0.0,0.42222804,488.83002,0.0,0.0,0.0,0.0,0.0,0.0,inf,inf,inf,inf,1,1,1,1,0,0,0,0,1,1,0
2051320000,0,47.3977508,8.5456074,-0.033358477,0.037634194,0.72598267,0.0,0.0,0.0,0.0,0.0,0.0,0.0,0.0,0.0,0.0,0.0,0.0,0.0,0.42222804,488.83002,0.0,0.0,0.0,0.0,0.0,0.0,inf,inf,inf,inf,1,1,1,1,0,0,0,0,1,1,0
2051420000,0,47.3977508,8.5456074,-0.033358477,0.037634194,0.72598267,0.0,0.0,0.0,0.0,0.0,0.0,0.0,0.0,0.0,0.0,0.0,0.0,0.0,0.42222804,488.83002,0.0,0.0,0.0,0.0,0.0,0.0,inf,inf,inf,inf,1,1,1,1,0,0,0,0,1,1,0
2051520000,0,47.3977508,8.5456074,-0.033358477,0.037634194,0.72598267,0.0,0.0,0.0,0.0,0.0,0.0,0.0,0.0,0.0,0.0,0.0,0.0,0.0,0.42222804,488.83002,0.0,0.0,0.0,0.0,0.0,0.0,inf,inf,inf,inf,1,1,1,1,0,0,0,0,1,1,0
2051624000,0,47.3977508,8.5456074,-0.033358477,0.037634194,0.72598267,0.0,0.0,0.0,0.0,0.0,0.0,0.0,0.0,0.0,0.0,0.0,0.0,0.0,0.42222804,488.83002,0.0,0.0,0.0,0.0,0.0,0.0,inf,inf,inf,inf,1,1,1,1,0,0,0,0,1,1,0
2051724000,0,47.3977508,8.5456074,-0.033358477,0.037634194,0.72598267,0.0,0.0,0.0,0.0,0.0,0.0,0.0,0.0,0.0,0.0,0.0,0.0,0.0,0.42222804,488.83002,0.0,0.0,0.0,0.0,0.0,0.0,inf,inf,inf,inf,1,1,1,1,0,0,0,0,1,1,0
2051820000,0,47.3977508,8.5456074,-0.033358477,0.037634194,0.72598267,0.0,0.0,0.0,0.0,0.0,0.0,0.0,0.0,0.0,0.0,0.0,0.0,0.0,0.42222804,488.83002,0.0,0.0,0.0,0.0,0.0,0.0,inf,inf,inf,inf,1,1,1,1,0,0,0,0,1,1,0
2051924000,0,47.3977508,8.5456074,-0.033358477,0.037634194,0.72598267,0.0,0.0,0.0,0.0,0.0,0.0,0.0,0.0,0.0,0.0,0.0,0.0,0.0,0.42222804,488.83002,0.0,0.0,0.0,0.0,0.0,0.0,inf,inf,inf,inf,1,1,1,1,0,0,0,0,1,1,0
2052028000,0,47.3977508,8.5456074,-0.033358477,0.037634194,0.72598267,0.0,0.0,0.0,0.0,0.0,0.0,0.0,0.0,0.0,0.0,0.0,0.0,0.0,0.42222804,488.83002,0.0,0.0,0.0,0.0,0.0,0.0,inf,inf,inf,inf,1,1,1,1,0,0,0,0,1,1,0
2052128000,0,47.3977508,8.5456074,-0.033358477,0.037634194,0.72598267,0.0,0.0,0.0,0.0,0.0,0.0,0.0,0.0,0.0,0.0,0.0,0.0,0.0,0.42222804,488.83002,0.0,0.0,0.0,0.0,0.0,0.0,inf,inf,inf,inf,1,1,1,1,0,0,0,0,1,1,0
2052228000,0,47.3977508,8.5456074,-0.033358477,0.037634194,0.72598267,0.0,0.0,0.0,0.0,0.0,0.0,0.0,0.0,0.0,0.0,0.0,0.0,0.0,0.42222804,488.83002,0.0,0.0,0.0,0.0,0.0,0.0,inf,inf,inf,inf,1,1,1,1,0,0,0,0,1,1,0
2052331999,0,47.3977508,8.5456074,-0.033358477,0.037634194,0.72598267,0.0,0.0,0.0,0.0,0.0,0.0,0.0,0.0,0.0,0.0,0.0,0.0,0.0,0.422228,488.83002,0.0,0.0,0.0,0.0,0.0,0.0,inf,inf,inf,inf,1,1,1,1,0,0,0,0,1,1,0
2052432000,0,47.3977508,8.5456074,-0.033358477,0.037634194,0.72598267,0.0,0.0,0.0,0.0,0.0,0.0,0.0,0.0,0.0,0.0,0.0,0.0,0.0,0.422228,488.83002,0.0,0.0,0.0,0.0,0.0,0.0,inf,inf,inf,inf,1,1,1,1,0,0,0,0,1,1,0
2052532000,0,47.3977508,8.5456074,-0.033358477,0.037634194,0.72598267,0.0,0.0,0.0,0.0,0.0,0.0,0.0,0.0,0.0,0.0,0.0,0.0,0.0,0.422228,488.83002,0.0,0.0,0.0,0.0,0.0,0.0,inf,inf,inf,inf,1,1,1,1,0,0,0,0,1,1,0
2052628000,0,47.3977508,8.5456074,-0.033358477,0.037634194,0.72598267,0.0,0.0,0.0,0.0,0.0,0.0,0.0,0.0,0.0,0.0,0.0,0.0,0.0,0.422228,488.83002,0.0,0.0,0.0,0.0,0.0,0.0,inf,inf,inf,inf,1,1,1,1,0,0,0,0,1,1,0
2052735999,0,47.3977508,8.5456074,-0.033358477,0.037634194,0.72598267,0.0,0.0,0.0,0.0,0.0,0.0,0.0,0.0,0.0,0.0,0.0,0.0,0.0,0.422228,488.83002,0.0,0.0,0.0,0.0,0.0,0.0,inf,inf,inf,inf,1,1,1,1,0,0,0,0,1,1,0
2052836000,0,47.3977508,8.5456074,-0.033358477,0.037634194,0.72598267,0.0,0.0,0.0,0.0,0.0,0.0,0.0,0.0,0.0,0.0,0.0,0.0,0.0,0.42222804,488.83002,0.0,0.0,0.0,0.0,0.0,0.0,inf,inf,inf,inf,1,1,1,1,0,0,0,0,1,1,0
2052936000,0,47.3977508,8.5456074,-0.033358477,0.037634194,0.72598267,0.0,0.0,0.0,0.0,0.0,0.0,0.0,0.0,0.0,0.0,0.0,0.0,0.0,0.422228,488.83002,0.0,0.0,0.0,0.0,0.0,0.0,inf,inf,inf,inf,1,1,1,1,0,0,0,0,1,1,0
2053036000,0,47.3977508,8.5456074,-0.033358477,0.037634194,0.7250061,0.0,0.0,0.0,0.0,0.0,-0.04,0.0,0.0,0.0,0.0,0.0,0.0,0.0,0.42220238,488.83002,0.0,0.0,0.0,0.0,0.0,0.0,inf,inf,inf,inf,1,1,1,1,0,0,0,0,1,1,0
2053139999,0,47.3977508,8.5456074,-0.033358477,0.037634194,0.71099854,0.0,0.0,0.0,0.0,0.02,-0.19999999,0.0,0.0,0.0,0.0,0.0,0.0,0.0,0.4219172,488.83002,0.0,0.0,0.0,0.0,0.0,0.0,inf,inf,inf,inf,1,1,1,1,0,0,0,0,1,1,0
2053240000,0,47.3977508,8.5456074,-0.033358477,0.037634194,0.6839905,0.0,0.0,0.0,0.01,0.04,-0.32999998,0.0,0.0,0.0,0.0,0.0,0.0,0.0,0.42177323,488.83002,0.0,0.0,0.0,0.0,0.0,0.0,inf,inf,inf,inf,1,1,1,1,0,0,0,0,1,1,0
2053340000,0,47.3977508,8.5456074,-0.033358477,0.04516103,0.64398193,0.0,0.0,0.0,0.02,0.049999997,-0.45999998,0.0,0.0,0.0,0.0,0.0,0.0,0.0,0.42179167,488.83002,0.0,0.0,0.0,0.0,0.0,0.0,inf,inf,inf,inf,1,1,1,1,0,0,0,0,1,1,0
2053436000,0,47.3977508,8.5456074,-0.033358477,0.052687872,0.59298706,0.0,0.0,0.0,0.02,0.06,-0.59,0.0,0.0,0.0,0.0,0.0,0.0,0.0,0.42181095,488.83002,0.0,0.0,0.0,0.0,0.0,0.0,inf,inf,inf,inf,1,1,1,1,0,0,0,0,1,1,0
2053539999,0,47.3977508,8.5456074,-0.022238985,0.06021471,0.5239868,0.0,0.0,0.0,0.02,0.06,-0.71999997,0.0,0.0,0.0,0.0,0.0,0.0,0.0,0.42171466,488.83002,0.0,0.0,0.0,0.0,0.0,0.0,inf,inf,inf,inf,1,1,1,1,0,0,0,0,1,1,0
2053644000,0,47.3977508,8.5456074,-0.022238985,0.06774155,0.440979,0.0,0.0,0.0,0.02,0.049999997,-0.85999995,0.0,0.0,0.0,0.0,0.0,0.0,0.0,0.42167345,488.83002,0.0,0.0,0.0,0.0,0.0,0.0,inf,inf,inf,inf,1,1,1,1,0,0,0,0,1,1,0
2053744000,0,47.3977508,8.5456074,-0.022238985,0.06774155,0.35198975,0.0,0.0,0.0,0.02,0.049999997,-1.0,0.0,0.0,0.0,0.0,0.0,0.0,0.0,0.421678,488.83002,0.0,0.0,0.0,0.0,0.0,0.0,inf,inf,inf,inf,1,1,1,1,0,0,0,0,1,1,0
2053840000,0,47.3977508,8.5456074,-0.022238985,0.07526839,0.24499512,0.0,0.0,0.0,0.02,0.049999997,-1.12,0.0,0.0,0.0,0.0,0.0,0.0,0.0,0.42164785,488.83002,0.0,0.0,0.0,0.0,0.0,0.0,inf,inf,inf,inf,1,1,1,1,0,0,0,0,1,1,0
2053948000,0,47.3977508,8.5456074,-0.011119491,0.082795225,0.115997314,0.0,0.0,0.0,0.02,0.04,-1.27,0.0,0.0,0.0,0.0,0.0,0.0,0.0,0.4216106,488.83002,0.0,0.0,0.0,0.0,0.0,0.0,inf,inf,inf,inf,1,1,1,1,0,0,0,0,1,1,0
2054048000,0,47.3977508,8.5456074,-0.011119491,0.082795225,-0.018005371,0.0,0.0,0.0,0.02,0.04,-1.39,0.0,0.0,0.0,0.0,0.0,0.0,0.0,0.42163396,488.83002,0.0,0.0,0.0,0.0,0.0,0.0,inf,inf,inf,inf,1,1,1,1,0,0,0,0,1,1,0
2054148000,0,47.3977508,8.5456074,-0.011119491,0.09032206,-0.16500854,0.0,0.0,0.0,0.02,0.03,-1.53,0.0,0.0,0.0,0.0,0.0,0.0,0.0,0.42159677,488.83002,0.0,0.0,0.0,0.0,0.0,0.0,inf,inf,inf,inf,1,1,1,1,0,0,0,0,1,1,0
2054248000,0,47.3977508,8.5456074,-0.011119491,0.09032206,-0.3250122,0.0,0.0,0.0,0.02,0.03,-1.66,0.0,0.0,0.0,0.0,0.0,0.0,0.0,0.4216711,488.83002,0.0,0.0,0.0,0.0,0.0,0.0,inf,inf,inf,inf,1,1,1,1,0,0,0,0,1,1,0
2054347999,0,47.3977508,8.5456074,7.073231e-10,0.0978489,-0.49700928,0.0,0.0,0.0,0.02,0.03,-1.78,0.0,0.0,0.0,0.0,0.0,0.0,0.0,0.42189187,488.83002,0.0,0.0,0.0,0.0,0.0,0.0,inf,inf,inf,inf,1,1,1,1,0,0,0,0,1,1,0
2054448000,0,47.3977508,8.5456074,7.073231e-10,0.0978489,-0.6750183,0.0,0.0,0.0,0.02,0.02,-1.91,0.0,0.0,0.0,0.0,0.0,0.0,0.0,0.4221527,488.83002,0.0,0.0,0.0,0.0,0.0,0.0,inf,inf,inf,inf,1,1,1,1,0,0,0,0,1,1,0
2054548000,0,47.3977508,8.5456074,1.0609846e-09,0.105375744,-0.88101196,0.0,0.0,0.0,0.02,0.02,-2.04,0.0,0.0,0.0,0.0,0.0,0.0,0.0,0.4222604,488.83002,0.0,0.0,0.0,0.0,0.0,0.0,inf,inf,inf,inf,1,1,1,1,0,0,0,0,1,1,0
2054652000,0,47.3977508,8.5456074,1.0609846e-09,0.105375744,-1.1010132,0.0,0.0,0.0,0.02,0.02,-2.1699998,0.0,0.0,0.0,0.0,0.0,0.0,0.0,0.422338,488.83002,0.0,0.0,0.0,0.0,0.0,0.0,inf,inf,inf,inf,1,1,1,1,0,0,0,0,1,1,0
2054751999,0,47.3977508,8.5456074,1.0609846e-09,0.105375744,-1.3250122,0.0,0.0,0.0,0.01,0.02,-2.3,0.0,0.0,0.0,0.0,0.0,0.0,0.0,0.42235863,488.83002,0.0,0.0,0.0,0.0,0.0,0.0,inf,inf,inf,inf,1,1,1,1,0,0,0,0,1,1,0
2054856000,0,47.3977508,8.5456074,0.011119494,0.105375744,-1.572998,0.0,0.0,0.0,0.01,0.01,-2.44,0.0,0.0,0.0,0.0,0.0,0.0,0.0,0.42314723,488.83002,0.0,0.0,0.0,0.0,0.0,0.0,inf,inf,inf,inf,1,1,1,1,0,0,0,0,1,1,0
2054956000,0,47.3977508,8.5456074,0.011119494,0.11290258,-1.822998,0.0,0.0,0.0,0.01,0.01,-2.5,0.0,0.0,0.0,0.0,0.0,0.0,0.0,0.4244238,488.83002,0.0,0.0,0.0,0.0,0.0,0.0,inf,inf,inf,inf,1,1,1,1,0,0,0,0,1,1,0
2055052000,0,47.3977508,8.5456074,0.011119494,0.11290258,-2.0549927,0.0,0.0,0.0,0.01,0.01,-2.31,0.0,0.0,0.0,0.0,0.0,0.0,0.0,0.42539942,488.83002,0.0,0.0,0.0,0.0,0.0,0.0,inf,inf,inf,inf,1,1,1,1,0,0,0,0,1,1,0
2055160000,0,47.3977508,8.5456074,0.011119494,0.11290258,-2.2950134,0.0,0.0,0.0,0.01,0.01,-2.1499999,0.0,0.0,0.0,0.0,0.0,0.0,0.0,0.42622283,488.83002,0.0,0.0,0.0,0.0,0.0,0.0,inf,inf,inf,inf,1,1,1,1,0,0,0,0,1,1,0
2055256000,0,47.3977508,8.5456074,0.011119494,0.11290258,-2.4960022,0.0,0.0,0.0,0.01,0.01,-2.04,0.0,0.0,0.0,0.0,0.0,0.0,0.0,0.42678,488.83002,0.0,0.0,0.0,0.0,0.0,0.0,inf,inf,inf,inf,1,1,1,1,0,0,0,0,1,1,0
2055360000,0,47.3977508,8.5456074,0.011119494,0.12042942,-2.7019958,0.0,0.0,0.0,0.01,0.01,-1.92,0.0,0.0,0.0,0.0,0.0,0.0,0.0,0.4271764,488.83002,0.0,0.0,0.0,0.0,0.0,0.0,inf,inf,inf,inf,1,1,1,1,0,0,0,0,1,1,0
2055460000,0,47.3977508,8.5456074,0.022238988,0.12042942,-2.881012,0.0,0.0,0.0,0.01,0.01,-1.81,0.0,0.0,0.0,0.0,0.0,0.0,0.0,0.4272468,488.83002,0.0,0.0,0.0,0.0,0.0,0.0,inf,inf,inf,inf,1,1,1,1,0,0,0,0,1,1,0
2055559999,0,47.3977508,8.5456074,0.022238988,0.12042942,-3.0650024,0.0,0.0,0.0,0.01,0.01,-1.7099999,0.0,0.0,0.0,0.0,0.0,0.0,0.0,0.42721793,488.83002,0.0,0.0,0.0,0.0,0.0,0.0,inf,inf,inf,inf,1,1,1,1,0,0,0,0,1,1,0
2055664000,0,47.3977508,8.5456074,0.022238988,0.12042942,-3.2380066,0.0,0.0,0.0,0.01,0.0,-1.61,0.0,0.0,0.0,0.0,0.0,0.0,0.0,0.42717198,488.83002,0.0,0.0,0.0,0.0,0.0,0.0,inf,inf,inf,inf,1,1,1,1,0,0,0,0,1,1,0
2055764000,0,47.3977508,8.5456074,0.022238988,0.12042942,-3.3950195,0.0,0.0,0.0,0.01,0.0,-1.52,0.0,0.0,0.0,0.0,0.0,0.0,0.0,0.4270841,488.83002,0.0,0.0,0.0,0.0,0.0,0.0,inf,inf,inf,inf,1,1,1,1,0,0,0,0,1,1,0
2055860000,0,47.3977508,8.5456074,0.022238988,0.12042942,-3.5379944,0.0,0.0,0.0,0.01,0.0,-1.4499999,0.0,0.0,0.0,0.0,0.0,0.0,0.0,0.42691,488.83002,0.0,0.0,0.0,0.0,0.0,0.0,inf,inf,inf,inf,1,1,1,1,0,0,0,0,1,1,0
2055963999,0,47.3977508,8.5456074,0.022238988,0.12042942,-3.6849976,0.0,0.0,0.0,0.01,0.0,-1.37,0.0,0.0,0.0,0.0,0.0,0.0,0.0,0.4267332,488.83002,0.0,0.0,0.0,0.0,0.0,0.0,inf,inf,inf,inf,1,1,1,1,0,0,0,0,1,1,0
2056064000,0,47.3977508,8.5456074,0.022238988,0.12042942,-3.8179932,0.0,0.0,0.0,0.01,0.0,-1.3,0.0,0.0,0.0,0.0,0.0,0.0,0.0,0.42649975,488.83002,0.0,0.0,0.0,0.0,0.0,0.0,inf,inf,inf,inf,1,1,1,1,0,0,0,0,1,1,0
2056168000,0,47.3977508,8.5456074,0.03335848,0.12042942,-3.9500122,0.0,0.0,0.0,0.01,0.0,-1.24,0.0,0.0,0.0,0.0,0.0,0.0,0.0,0.42629072,488.83002,0.0,0.0,0.0,0.0,0.0,0.0,inf,inf,inf,inf,1,1,1,1,0,0,0,0,1,1,0
2056268000,0,47.3977508,8.5456074,0.03335848,0.12042942,-4.0720215,0.0,0.0,0.0,0.01,0.0,-1.18,0.0,0.0,0.0,0.0,0.0,0.0,0.0,0.42607787,488.83002,0.0,0.0,0.0,0.0,0.0,0.0,inf,inf,inf,inf,1,1,1,1,0,0,0,0,1,1,0
2056372000,0,47.3977508,8.5456074,0.03335848,0.12042942,-4.1870117,0.0,0.0,0.0,0.01,0.0,-1.13,0.0,0.0,0.0,0.0,0.0,0.0,0.0,0.42591995,488.83002,0.0,0.0,0.0,0.0,0.0,0.0,inf,inf,inf,inf,1,1,1,1,0,0,0,0,1,1,0
2056472000,0,47.3977508,8.5456074,0.03335848,0.12042942,-4.303009,0.0,0.0,0.0,0.01,0.0,-1.0799999,0.0,0.0,0.0,0.0,0.0,0.0,0.0,0.4259007,488.83002,0.0,0.0,0.0,0.0,0.0,0.0,inf,inf,inf,inf,1,1,1,1,0,0,0,0,1,1,0
2056572000,0,47.3977508,8.5456074,0.03335848,0.12042942,-4.404999,0.0,0.0,0.0,0.01,0.0,-1.03,0.0,0.0,0.0,0.0,0.0,0.0,0.0,0.42601454,488.83002,0.0,0.0,0.0,0.0,0.0,0.0,inf,inf,inf,inf,1,1,1,1,0,0,0,0,1,1,0
2056672000,0,47.3977508,8.5456074,0.03335848,0.12042942,-4.511017,0.0,0.0,0.0,0.0,0.0,-0.98999995,0.0,0.0,0.0,0.0,0.0,0.0,0.0,0.42599908,488.83002,0.0,0.0,0.0,0.0,0.0,0.0,inf,inf,inf,inf,1,1,1,1,0,0,0,0,1,1,0
2056771999,0,47.3977508,8.5456074,0.03335848,0.12042942,-4.6080017,0.0,0.0,0.0,0.0,0.0,-0.95,0.0,0.0,0.0,0.0,0.0,0.0,0.0,0.4260512,488.83002,0.0,0.0,0.0,0.0,0.0,0.0,inf,inf,inf,inf,1,1,1,1,0,0,0,0,1,1,0
2056876000,0,47.3977508,8.5456074,0.03335848,0.12042942,-4.705017,0.0,0.0,0.0,0.0,0.0,-0.90999997,0.0,0.0,0.0,0.0,0.0,0.0,0.0,0.42614847,488.83002,0.0,0.0,0.0,0.0,0.0,0.0,inf,inf,inf,inf,1,1,1,1,0,0,0,0,1,1,0
2056972000,0,47.3977508,8.5456074,0.03335848,0.12042942,-4.791992,0.0,0.0,0.0,0.0,-0.01,-0.88,0.0,0.0,0.0,0.0,0.0,0.0,0.0,0.42618206,488.83002,0.0,0.0,0.0,0.0,0.0,0.0,inf,inf,inf,inf,1,1,1,1,0,0,0,0,1,1,0
2057076000,0,47.3977508,8.5456074,0.03335848,0.12042942,-4.8829956,0.0,0.0,0.0,0.0,-0.01,-0.84999996,0.0,0.0,0.0,0.0,0.0,0.0,0.0,0.42612457,488.83002,0.0,0.0,0.0,0.0,0.0,0.0,inf,inf,inf,inf,1,1,1,1,0,0,0,0,1,1,0
2057175999,0,47.3977508,8.5456074,0.03335848,0.12042942,-4.9670105,0.0,0.0,0.0,0.0,-0.01,-0.82,0.0,0.0,0.0,0.0,0.0,0.0,0.0,0.4260825,488.83002,0.0,0.0,0.0,0.0,0.0,0.0,inf,inf,inf,inf,1,1,1,1,0,0,0,0,1,1,0
2057280000,0,47.3977508,8.5456074,0.044477973,0.11290258,-5.050995,0.0,0.0,0.0,0.0,-0.01,-0.78999996,0.0,0.0,0.0,0.0,0.0,0.0,0.0,0.42618158,488.83002,0.0,0.0,0.0,0.0,0.0,0.0,inf,inf,inf,inf,1,1,1,1,0,0,0,0,1,1,0
2057380000,0,47.3977508,8.5456074,0.044477973,0.11290258,-5.130005,0.0,0.0,0.0,0.0,-0.01,-0.76,0.0,0.0,0.0,0.0,0.0,0.0,0.0,0.42617035,488.83002,0.0,0.0,0.0,0.0,0.0,0.0,inf,inf,inf,inf,1,1,1,1,0,0,0,0,1,1,0
2057476000,0,47.3977508,8.5456074,0.044477973,0.11290258,-5.201996,0.0,0.0,0.0,0.0,-0.01,-0.74,0.0,0.0,0.0,0.0,0.0,0.0,0.0,0.4261071,488.83002,0.0,0.0,0.0,0.0,0.0,0.0,inf,inf,inf,inf,1,1,1,1,0,0,0,0,1,1,0
2057579999,0,47.3977508,8.5456074,0.044477973,0.11290258,-5.278015,0.0,0.0,0.0,0.0,-0.01,-0.71,0.0,0.0,0.0,0.0,0.0,0.0,0.0,0.4260741,488.83002,0.0,0.0,0.0,0.0,0.0,0.0,inf,inf,inf,inf,1,1,1,1,0,0,0,0,1,1,0
2057680000,0,47.3977508,8.5456074,0.044477973,0.105375744,-5.347992,0.0,0.0,0.0,0.0,-0.01,-0.69,0.0,0.0,0.0,0.0,0.0,0.0,0.0,0.42600298,488.83002,0.0,0.0,0.0,0.0,0.0,0.0,inf,inf,inf,inf,1,1,1,1,0,0,0,0,1,1,0
2057784000,0,47.3977508,8.5456074,0.044477973,0.105375744,-5.4190063,0.0,0.0,0.0,0.0,-0.02,-0.65999997,0.0,0.0,0.0,0.0,0.0,0.0,0.0,0.42601883,488.83002,0.0,0.0,0.0,0.0,0.0,0.0,inf,inf,inf,inf,1,1,1,1,0,0,0,0,1,1,0
2057884000,0,47.3977508,8.5456074,0.044477973,0.105375744,-5.484009,0.0,0.0,0.0,0.0,-0.02,-0.64,0.0,0.0,0.0,0.0,0.0,0.0,0.0,0.42611054,488.83002,0.0,0.0,0.0,0.0,0.0,0.0,inf,inf,inf,inf,1,1,1,1,0,0,0,0,1,1,0
2057988000,0,47.3977508,8.5456074,0.044477973,0.105375744,-5.549011,0.0,0.0,0.0,0.0,-0.02,-0.61,0.0,0.0,0.0,0.0,0.0,0.0,0.0,0.42621568,488.83002,0.0,0.0,0.0,0.0,0.0,0.0,inf,inf,inf,inf,1,1,1,1,0,0,0,0,1,1,0
2058088000,0,47.3977508,8.5456074,0.04447797,0.0978489,-5.610016,0.0,0.0,0.0,0.0,-0.02,-0.59999996,0.0,0.0,0.0,0.0,0.0,0.0,0.0,0.42623428,488.83002,0.0,0.0,0.0,0.0,0.0,0.0,inf,inf,inf,inf,1,1,1,1,0,0,0,0,1,1,0
2058184000,0,47.3977508,8.5456074,0.04447797,0.0978489,-5.6679993,0.0,0.0,0.0,0.0,-0.02,-0.59,0.0,0.0,0.0,0.0,0.0,0.0,0.0,0.42622796,488.83002,0.0,0.0,0.0,0.0,0.0,0.0,inf,inf,inf,inf,1,1,1,1,0,0,0,0,1,1,0
2058288000,0,47.3977508,8.5456074,0.04447797,0.09032206,-5.727997,0.0,0.0,0.0,0.0,-0.03,-0.57,0.0,0.0,0.0,0.0,0.0,0.0,0.0,0.42623997,488.83002,0.0,0.0,0.0,0.0,0.0,0.0,inf,inf,inf,inf,1,1,1,1,0,0,0,0,1,1,0
2058387999,0,47.3977508,8.5456074,0.04447797,0.09032206,-5.7850037,0.0,0.0,0.0,0.0,-0.03,-0.55,0.0,0.0,0.0,0.0,0.0,0.0,0.0,0.42633256,488.83002,0.0,0.0,0.0,0.0,0.0,0.0,inf,inf,inf,inf,1,1,1,1,0,0,0,0,1,1,0
2058492000,0,47.3977508,8.5456074,0.04447797,0.09032206,-5.8420105,0.0,0.0,0.0,0.0,-0.03,-0.53999996,0.0,0.0,0.0,0.0,0.0,0.0,0.0,0.42632946,488.83002,0.0,0.0,0.0,0.0,0.0,0.0,inf,inf,inf,inf,1,1,1,1,0,0,0,0,1,1,0
2058588000,0,47.3977508,8.5456074,0.04447797,0.082795225,-5.8919983,0.0,0.0,0.0,0.0,-0.03,-0.53,0.0,0.0,0.0,0.0,0.0,0.0,0.0,0.42620566,488.83002,0.0,0.0,0.0,0.0,0.0,0.0,inf,inf,inf,inf,1,1,1,1,0,0,0,0,1,1,0
2058688000,0,47.3977508,8.5456074,0.04447797,0.082795225,-5.9460144,0.0,0.0,0.0,0.0,-0.03,-0.51,0.0,0.0,0.0,0.0,0.0,0.0,0.0,0.42614862,488.83002,0.0,0.0,0.0,0.0,0.0,0.0,inf,inf,inf,inf,1,1,1,1,0,0,0,0,1,1,0
2058796000,0,47.3977508,8.5456074,0.04447797,0.07526839,-6.001007,0.0,0.0,0.0,0.0,-0.03,-0.48999998,0.0,0.0,0.0,0.0,0.0,0.0,0.0,0.42622024,488.83002,0.0,0.0,0.0,0.0,0.0,0.0,inf,inf,inf,inf,1,1,1,1,0,0,0,0,1,1,0
2058892000,0,47.3977508,8.5456074,0.04447797,0.07526839,-6.048004,0.0,0.0,0.0,0.0,-0.02,-0.48,0.0,0.0,0.0,0.0,0.0,0.0,0.0,0.42623836,488.83002,0.0,0.0,0.0,0.0,0.0,0.0,inf,inf,inf,inf,1,1,1,1,0,0,0,0,1,1,0
2058996000,0,47.3977508,8.5456074,0.04447797,0.07526839,-6.0970154,0.0,0.0,0.0,-0.01,-0.02,-0.47,0.0,0.0,0.0,0.0,0.0,0.0,0.0,0.4261924,488.83002,0.0,0.0,0.0,0.0,0.0,0.0,inf,inf,inf,inf,1,1,1,1,0,0,0,0,1,1,0
2059092000,0,47.3977508,8.5456074,0.04447797,0.06774155,-6.1419983,0.0,0.0,0.0,-0.01,-0.02,-0.45,0.0,0.0,0.0,0.0,0.0,0.0,0.0,0.4262322,488.83002,0.0,0.0,0.0,0.0,0.0,0.0,inf,inf,inf,inf,1,1,1,1,0,0,0,0,1,1,0
2059195999,0,47.3977508,8.5456074,0.03335848,0.06774155,-6.1889954,0.0,0.0,0.0,-0.01,-0.02,-0.42999998,0.0,0.0,0.0,0.0,0.0,0.0,0.0,0.42615226,488.83002,0.0,0.0,0.0,0.0,0.0,0.0,inf,inf,inf,inf,1,1,1,1,0,0,0,0,1,1,0
2059300000,0,47.3977508,8.5456074,0.03335848,0.06021471,-6.234009,0.0,0.0,0.0,-0.01,-0.02,-0.42,0.0,0.0,0.0,0.0,0.0,0.0,0.0,0.42597872,488.83002,0.0,0.0,0.0,0.0,0.0,0.0,inf,inf,inf,inf,1,1,1,1,0,0,0,0,1,1,0
2059396000,0,47.3977508,8.5456074,0.03335848,0.06021471,-6.272003,0.0,0.0,0.0,-0.01,-0.02,-0.39999998,0.0,0.0,0.0,0.0,0.0,0.0,0.0,0.42589924,488.83002,0.0,0.0,0.0,0.0,0.0,0.0,inf,inf,inf,inf,1,1,1,1,0,0,0,0,1,1,0
2059500000,0,47.3977508,8.5456074,0.03335848,0.06021471,-6.3139954,0.0,0.0,0.0,-0.02,-0.02,-0.38,0.0,0.0,0.0,0.0,0.0,0.0,0.0,0.42592576,488.83002,0.0,0.0,0.0,0.0,0.0,0.0,inf,inf,inf,inf,1,1,1,1,0,0,0,0,1,1,0
2059604000,0,47.3977508,8.5456074,0.03335848,0.052687872,-6.354004,0.0,0.0,0.0,-0.02,-0.02,-0.37,0.0,0.0,0.0,0.0,0.0,0.0,0.0,0.4259386,488.83002,0.0,0.0,0.0,0.0,0.0,0.0,inf,inf,inf,inf,1,1,1,1,0,0,0,0,1,1,0
2059704000,0,47.3977508,8.5456074,0.03335848,0.052687872,-6.3900146,0.0,0.0,0.0,-0.02,-0.02,-0.35,0.0,0.0,0.0,0.0,0.0,0.0,0.0,0.42590842,488.83002,0.0,0.0,0.0,0.0,0.0,0.0,inf,inf,inf,inf,1,1,1,1,0,0,0,0,1,1,0
2059804000,0,47.3977508,8.5456074,0.022238987,0.052687872,-6.4250183,0.0,0.0,0.0,-0.02,-0.02,-0.34,0.0,0.0,0.0,0.0,0.0,0.0,0.0,0.42590576,488.83002,0.0,0.0,0.0,0.0,0.0,0.0,inf,inf,inf,inf,1,1,1,1,0,0,0,0,1,1,0
2059904000,0,47.3977508,8.5456074,0.022238987,0.04516103,-6.458008,0.0,0.0,0.0,-0.02,-0.02,-0.32,0.0,0.0,0.0,0.0,0.0,0.0,0.0,0.42587003,488.83002,0.0,0.0,0.0,0.0,0.0,0.0,inf,inf,inf,inf,1,1,1,1,0,0,0,0,1,1,0
2060008000,0,47.3977508,8.5456074,0.022238987,0.04516103,-6.4920044,0.0,0.0,0.0,-0.02,-0.02,-0.31,0.0,0.0,0.0,0.0,0.0,0.0,0.0,0.4258685,488.83002,0.0,0.0,0.0,0.0,0.0,0.0,inf,inf,inf,inf,1,1,1,1,0,0,0,0,1,1,0
2060108000,0,47.3977508,8.5456074,0.022238987,0.04516103,-6.522003,0.0,0.0,0.0,-0.02,-0.02,-0.29999998,0.0,0.0,0.0,0.0,0.0,0.0,0.0,0.42589003,488.83002,0.0,0.0,0.0,0.0,0.0,0.0,inf,inf,inf,inf,1,1,1,1,0,0,0,0,1,1,0
2060208000,0,47.3977508,8.5456074,0.011119493,0.037634194,-6.553009,0.0,0.0,0.0,-0.02,-0.01,-0.29,0.0,0.0,0.0,0.0,0.0,0.0,0.0,0.42592186,488.83002,0.0,0.0,0.0,0.0,0.0,0.0,inf,inf,inf,inf,1,1,1,1,0,0,0,0,1,1,0
2060308000,0,47.3977508,8.5456074,0.011119493,0.037634194,-6.5820007,0.0,0.0,0.0,-0.02,-0.01,-0.28,0.0,0.0,0.0,0.0,0.0,0.0,0.0,0.42594165,488.83002,0.0,0.0,0.0,0.0,0.0,0.0,inf,inf,inf,inf,1,1,1,1,0,0,0,0,1,1,0
2060412000,0,47.3977508,8.5456074,0.011119493,0.037634194,-6.6109924,0.0,0.0,0.0,-0.03,-0.01,-0.26999998,0.0,0.0,0.0,0.0,0.0,0.0,0.0,0.42608652,488.83002,0.0,0.0,0.0,0.0,0.0,0.0,inf,inf,inf,inf,1,1,1,1,0,0,0,0,1,1,0
2060512000,0,47.3977508,8.5456074,0.011119493,0.037634194,-6.6380005,0.0,0.0,0.0,-0.03,-0.01,-0.25,0.0,0.0,0.0,0.0,0.0,0.0,0.0,0.4262549,488.83002,0.0,0.0,0.0,0.0,0.0,0.0,inf,inf,inf,inf,1,1,1,1,0,0,0,0,1,1,0
2060612000,0,47.3977508,8.5456074,0.0,0.037634194,-6.6629944,0.0,0.0,0.0,-0.03,-0.01,-0.24,0.0,0.0,0.0,0.0,0.0,0.0,0.0,0.42651594,488.83002,0.0,0.0,0.0,0.0,0.0,0.0,inf,inf,inf,inf,1,1,1,1,0,0,0,0,1,1,0
2060712000,0,47.3977508,8.5456074,0.0,0.030107355,-6.688019,0.0,0.0,0.0,-0.03,-0.01,-0.24,0.0,0.0,0.0,0.0,0.0,0.0,0.0,0.426686,488.83002,0.0,0.0,0.0,0.0,0.0,0.0,inf,inf,inf,inf,1,1,1,1,0,0,0,0,1,1,0
2060816000,0,47.3977508,8.5456074,0.0,0.030107355,-6.7109985,0.0,0.0,0.0,-0.03,-0.01,-0.21,0.0,0.0,0.0,0.0,0.0,0.0,0.0,0.42561406,488.83002,0.0,0.0,0.0,0.0,0.0,0.0,inf,inf,inf,inf,1,1,1,1,0,0,0,0,1,1,0
2060916000,0,47.3977508,8.5456074,-0.011119492,0.030107355,-6.7330017,0.0,0.0,0.0,-0.02,-0.01,-0.21,0.0,0.0,0.0,0.0,0.0,0.0,0.0,0.41443467,488.83002,0.0,0.0,0.0,0.0,0.0,0.0,inf,inf,inf,inf,1,1,1,1,0,0,0,0,1,1,0
2061016000,0,47.3977508,8.5456074,-0.011119492,0.030107355,-6.753998,0.0,0.0,0.0,-0.03,-0.03,-0.21,0.0,0.0,0.0,0.0,0.0,0.0,0.0,0.38752797,488.83002,0.0,0.0,0.0,0.0,0.0,0.0,inf,inf,inf,inf,1,1,1,1,0,0,0,0,1,1,0
2061116000,0,47.3977508,8.5456074,-0.011119492,0.022580516,-6.774994,0.0,0.0,0.0,-0.049999997,-0.089999996,-0.21,0.0,0.0,0.0,0.0,0.0,0.0,0.0,0.34539074,488.83002,0.0,0.0,0.0,0.0,0.0,0.0,inf,inf,inf,inf,1,1,1,1,0,0,0,0,1,1,0
2061220000,0,47.3977508,8.5456074,-0.022238987,0.0075268387,-6.796997,0.0,0.0,0.0,-0.12,-0.21,-0.21,0.0,0.0,0.0,0.0,0.0,0.0,0.0,0.28744435,488.83002,0.0,0.0,0.0,0.0,0.0,0.0,inf,inf,inf,inf,1,1,1,1,0,0,0,0,1,1,0
2061320000,0,47.3977508,8.5456074,-0.04447797,-0.022580516,-6.817993,0.0,0.0,0.0,-0.22999999,-0.37,-0.19999999,0.0,0.0,0.0,0.0,0.0,0.0,0.0,0.22183746,488.83002,0.0,0.0,0.0,0.0,0.0,0.0,inf,inf,inf,inf,1,1,1,1,0,0,0,0,1,1,0
2061416000,0,47.3977508,8.5456074,-0.066716954,-0.06774155,-6.8370056,0.0,0.0,0.0,-0.35,-0.57,-0.17999999,0.0,0.0,0.0,0.0,0.0,0.0,0.0,0.15432961,488.83002,0.0,0.0,0.0,0.0,0.0,0.0,inf,inf,inf,inf,1,1,1,1,0,0,0,0,1,1,0
2061520000,0,47.3977508,8.5456074,-0.11119492,-0.1354831,-6.854004,0.0,0.0,0.0,-0.48999998,-0.79999995,-0.16,0.0,0.0,0.0,0.0,0.0,0.0,0.0,0.079471074,488.83002,0.0,0.0,0.0,0.0,0.0,0.0,inf,inf,inf,inf,1,1,1,1,0,0,0,0,1,1,0
2061624000,0,47.3977508,8.5456074,-0.16679238,-0.24085884,-6.8720093,0.0,0.0,0.0,-0.63,-1.04,-0.14999999,0.0,0.0,0.0,0.0,0.0,0.0,0.0,0.0035008246,488.83002,0.0,0.0,0.0,0.0,0.0,0.0,inf,inf,inf,inf,1,1,1,1,0,0,0,0,1,1,0
2061724000,0,47.3977508,8.5456074,-0.24462883,-0.35376143,-6.886017,0.0,0.0,0.0,-0.76,-1.26,-0.13,0.0,0.0,0.0,0.0,0.0,0.0,0.0,-0.07061395,488.83002,0.0,0.0,0.0,0.0,0.0,0.0,inf,inf,inf,inf,1,1,1,1,0,0,0,0,1,1,0
2061820000,0,47.3977508,8.5456074,-0.32246527,-0.48924455,-6.8990173,0.0,0.0,0.0,-0.88,-1.4699999,-0.12,0.0,0.0,0.0,0.0,0.0,0.0,0.0,-0.1426599,488.83002,0.0,0.0,0.0,0.0,0.0,0.0,inf,inf,inf,inf,1,1,1,1,0,0,0,0,1,1,0
2061920000,0,47.3977508,8.5456074,-0.4225407,-0.6473082,-6.9110107,0.0,0.0,0.0,-1.0,-1.68,-0.11,0.0,0.0,0.0,0.0,0.0,0.0,0.0,-0.21887672,488.83002,0.0,0.0,0.0,0.0,0.0,0.0,inf,inf,inf,inf,1,1,1,1,0,0,0,0,1,1,0
2062023999,0,47.3977508,8.5456074,-0.5337356,-0.8354792,-6.923004,0.0,0.0,0.0,-1.12,-1.89,-0.099999994,0.0,0.0,0.0,0.0,0.0,0.0,0.0,-0.29947057,488.83002,0.0,0.0,0.0,0.0,0.0,0.0,inf,inf,inf,inf,1,1,1,1,0,0,0,0,1,1,0
2062128000,0,47.3977508,8.5456074,-0.65604997,-1.0387038,-6.933014,0.0,0.0,0.0,-1.24,-2.09,-0.089999996,0.0,0.0,0.0,0.0,0.0,0.0,0.0,-0.38052866,488.83002,0.0,0.0,0.0,0.0,0.0,0.0,inf,inf,inf,inf,1,1,1,1,0,0,0,0,1,1,0
2062228000,0,47.3977508,8.5456074,-0.77836436,-1.2569822,-6.9420166,0.0,0.0,0.0,-1.3399999,-2.27,-0.08,0.0,0.0,0.0,0.0,0.0,0.0,0.0,-0.45853844,488.83002,0.0,0.0,0.0,0.0,0.0,0.0,inf,inf,inf,inf,1,1,1,1,0,0,0,0,1,1,0
2062331999,0,47.3977508,8.5456074,-0.9340372,-1.505368,-6.9510193,0.0,0.0,0.0,-1.4499999,-2.46,-0.08,0.0,0.0,0.0,0.0,0.0,0.0,0.0,-0.5397011,488.83002,0.0,0.0,0.0,0.0,0.0,0.0,inf,inf,inf,inf,1,1,1,1,0,0,0,0,1,1,0
2062432000,0,47.3977508,8.5456074,-1.0785905,-1.7612805,-6.959015,0.0,0.0,0.0,-1.55,-2.6299999,-0.07,0.0,0.0,0.0,0.0,0.0,0.0,0.0,-0.61785865,488.83002,0.0,0.0,0.0,0.0,0.0,0.0,inf,inf,inf,inf,1,1,1,1,0,0,0,0,1,1,0
2062528000,0,47.3977508,8.5456074,-1.2342633,-2.02472,-6.9660034,0.0,0.0,0.0,-1.65,-2.79,-0.07,0.0,0.0,0.0,0.0,0.0,0.0,0.0,-0.6929791,488.83002,0.0,0.0,0.0,0.0,0.0,0.0,inf,inf,inf,inf,1,1,1,1,0,0,0,0,1,1,0
2062628000,0,47.3977508,8.5456074,-1.4010556,-2.3182669,-6.973999,0.0,0.0,0.0,-1.74,-2.95,-0.06,0.0,0.0,0.0,0.0,0.0,0.0,0.0,-0.77161527,488.83002,0.0,0.0,0.0,0.0,0.0,0.0,inf,inf,inf,inf,1,1,1,1,0,0,0,0,1,1,0
2062731999,0,47.3977508,8.5456074,-1.5900868,-2.6343942,-6.980011,0.0,0.0,0.0,-1.8399999,-3.11,-0.049999997,0.0,0.0,0.0,0.0,0.0,0.0,0.0,-0.8554697,488.83002,0.0,0.0,0.0,0.0,0.0,0.0,inf,inf,inf,inf,1,1,1,1,0,0,0,0,1,1,0
2062836000,0,47.3977508,8.5456074,-1.7902375,-2.9655755,-6.985016,0.0,0.0,0.0,-1.93,-3.24,-0.04,0.0,0.0,0.0,0.0,0.0,0.0,0.0,-0.94128263,488.83002,0.0,0.0,0.0,0.0,0.0,0.0,inf,inf,inf,inf,1,1,1,1,0,0,0,0,1,1,0
2062936000,0,47.3977508,8.5456074,-1.9903883,-3.2967565,-6.9890137,0.0,0.0,0.0,-2.02,-3.34,-0.03,0.0,0.0,0.0,0.0,0.0,0.0,0.0,-1.0241475,488.83002,0.0,0.0,0.0,0.0,0.0,0.0,inf,inf,inf,inf,1,1,1,1,0,0,0,0,1,1,0
2063036000,0,47.3977508,8.5456074,-2.2016585,-3.6354644,-6.9920044,0.0,0.0,0.0,-2.09,-3.3999999,-0.02,0.0,0.0,0.0,0.0,0.0,0.0,0.0,-1.1062884,488.83002,0.0,0.0,0.0,0.0,0.0,0.0,inf,inf,inf,inf,1,1,1,1,0,0,0,0,1,1,0
2063139999,0,47.3977508,8.5456074,-2.4129286,-3.989226,-6.9940186,0.0,0.0,0.0,-2.1399999,-3.4299998,-0.01,0.0,0.0,0.0,0.0,0.0,0.0,0.0,-1.190762,488.83002,0.0,0.0,0.0,0.0,0.0,0.0,inf,inf,inf,inf,1,1,1,1,0,0,0,0,1,1,0
2063240000,0,47.3977508,8.5456074,-2.635318,-4.335461,-6.996002,0.0,0.0,0.0,-2.1699998,-3.4499998,-0.02,0.0,0.0,0.0,0.0,0.0,0.0,0.0,-1.2704637,488.83002,0.0,0.0,0.0,0.0,0.0,0.0,inf,inf,inf,inf,1,1,1,1,0,0,0,0,1,1,0
2063340000,0,47.3977508,8.5456074,-2.8577077,-4.681696,-6.998993,0.0,0.0,0.0,-2.18,-3.4499998,-0.03,0.0,0.0,0.0,0.0,0.0,0.0,0.0,-1.3486931,488.83002,0.0,0.0,0.0,0.0,0.0,0.0,inf,inf,inf,inf,1,1,1,1,0,0,0,0,1,1,0
2063440000,0,47.3977508,8.5456074,-3.0689778,-5.0279307,-7.0030212,0.0,0.0,0.0,-2.18,-3.4499998,-0.03,0.0,0.0,0.0,0.0,0.0,0.0,0.0,-1.4260604,488.83002,0.0,0.0,0.0,0.0,0.0,0.0,inf,inf,inf,inf,1,1,1,1,0,0,0,0,1,1,0
2063543999,0,47.3977508,8.5456074,-3.302487,-5.3892198,-7.007019,0.0,0.0,0.0,-2.18,-3.4499998,-0.03,0.0,0.0,0.0,0.0,0.0,0.0,0.0,-1.5071589,488.83002,0.0,0.0,0.0,0.0,0.0,0.0,inf,inf,inf,inf,1,1,1,1,0,0,0,0,1,1,0
2063644000,0,47.3977508,8.5456074,-3.5248764,-5.7354546,-7.011017,0.0,0.0,0.0,-2.18,-3.4499998,-0.03,0.0,0.0,0.0,0.0,0.0,0.0,0.0,-1.5862212,488.83002,0.0,0.0,0.0,0.0,0.0,0.0,inf,inf,inf,inf,1,1,1,1,0,0,0,0,1,1,0
2063740000,0,47.3977508,8.5456074,-3.7250268,-6.0666356,-7.0140076,0.0,0.0,0.0,-2.18,-3.4499998,-0.03,0.0,0.0,0.0,0.0,0.0,0.0,0.0,-1.662566,488.83002,0.0,0.0,0.0,0.0,0.0,0.0,inf,inf,inf,inf,1,1,1,1,0,0,0,0,1,1,0
2063844000,0,47.3977508,8.5456074,-3.9474163,-6.412871,-7.0180054,0.0,0.0,0.0,-2.18,-3.4499998,-0.03,0.0,0.0,0.0,0.0,0.0,0.0,0.0,-1.7452445,488.83002,0.0,0.0,0.0,0.0,0.0,0.0,inf,inf,inf,inf,1,1,1,1,0,0,0,0,1,1,0
2063948000,0,47.3977508,8.5456074,-4.1809254,-6.789213,-7.022003,0.0,0.0,0.0,-2.18,-3.4499998,-0.03,0.0,0.0,0.0,0.0,0.0,0.0,0.0,-1.8278624,488.83002,0.0,0.0,0.0,0.0,0.0,0.0,inf,inf,inf,inf,1,1,1,1,0,0,0,0,1,1,0
2064048000,0,47.3977508,8.5456074,-4.392195,-7.1203947,-7.026001,0.0,0.0,0.0,-2.18,-3.4499998,-0.04,0.0,0.0,0.0,0.0,0.0,0.0,0.0,-1.9067014,488.83002,0.0,0.0,0.0,0.0,0.0,0.0,inf,inf,inf,inf,1,1,1,1,0,0,0,0,1,1,0
2064144000,0,47.3977508,8.5456074,-4.614585,-7.474157,-7.031006,0.0,0.0,0.0,-2.18,-3.46,-0.04,0.0,0.0,0.0,0.0,0.0,0.0,0.0,-1.9758343,488.83002,0.0,0.0,0.0,0.0,0.0,0.0,inf,inf,inf,inf,1,1,1,1,0,0,0,0,1,1,0
2064244000,0,47.3977508,8.5456074,-4.836974,-7.8203917,-7.0350037,0.0,0.0,0.0,-2.18,-3.46,-0.04,0.0,0.0,0.0,0.0,0.0,0.0,0.0,-2.0316987,488.83002,0.0,0.0,0.0,0.0,0.0,0.0,inf,inf,inf,inf,1,1,1,1,0,0,0,0,1,1,0
2064352000,0,47.3977508,8.5456074,-5.0704827,-8.196734,-7.0410156,0.0,0.0,0.0,-2.18,-3.46,-0.04,0.0,0.0,0.0,0.0,0.0,0.0,0.0,-2.0749261,488.83002,0.0,0.0,0.0,0.0,0.0,0.0,inf,inf,inf,inf,1,1,1,1,0,0,0,0,1,1,0
2064448000,0,47.3977508,8.5456074,-5.2817526,-8.527916,-7.0450134,0.0,0.0,0.0,-2.18,-3.47,-0.04,0.0,0.0,0.0,0.0,0.0,0.0,0.0,-2.1029892,488.83002,0.0,0.0,0.0,0.0,0.0,0.0,inf,inf,inf,inf,1,1,1,1,0,0,0,0,1,1,0
2064552000,0,47.3977508,8.5456074,-5.5152617,-8.889205,-7.0500183,0.0,0.0,0.0,-2.19,-3.47,-0.04,0.0,0.0,0.0,0.0,0.0,0.0,0.0,-2.1251817,488.83002,0.0,0.0,0.0,0.0,0.0,0.0,inf,inf,inf,inf,1,1,1,1,0,0,0,0,1,1,0
2064652000,0,47.3977508,8.5456074,-5.7265315,-9.23544,-7.054016,0.0,0.0,0.0,-2.2,-3.48,-0.04,0.0,0.0,0.0,0.0,0.0,0.0,0.0,-2.14011,488.83002,0.0,0.0,0.0,0.0,0.0,0.0,inf,inf,inf,inf,1,1,1,1,0,0,0,0,1,1,0
2064756000,0,47.3977508,8.5456074,-5.96004,-9.604256,-7.058014,0.0,0.0,0.0,-2.2,-3.48,-0.03,0.0,0.0,0.0,0.0,0.0,0.0,0.0,-2.1510148,488.83002,0.0,0.0,0.0,0.0,0.0,0.0,inf,inf,inf,inf,1,1,1,1,0,0,0,0,1,1,0
2064856000,0,47.3977508,8.5456074,-6.17131,-9.935437,-7.0620117,0.0,0.0,0.0,-2.21,-3.49,-0.03,0.0,0.0,0.0,0.0,0.0,0.0,0.0,-2.1580207,488.83002,0.0,0.0,0.0,0.0,0.0,0.0,inf,inf,inf,inf,1,1,1,1,0,0,0,0,1,1,0
2064956000,0,47.3977508,8.5456074,-6.4048185,-10.304254,-7.0650024,0.0,0.0,0.0,-2.21,-3.49,-0.03,0.0,0.0,0.0,0.0,0.0,0.0,0.0,-2.1625443,488.83002,0.0,0.0,0.0,0.0,0.0,0.0,inf,inf,inf,inf,1,1,1,1,0,0,0,0,1,1,0
2065056000,0,47.3977508,8.5456074,-6.6272078,-10.658015,-7.067993,0.0,0.0,0.0,-2.21,-3.5,-0.02,0.0,0.0,0.0,0.0,0.0,0.0,0.0,-2.16545,488.83002,0.0,0.0,0.0,0.0,0.0,0.0,inf,inf,inf,inf,1,1,1,1,0,0,0,0,1,1,0
2065160000,0,47.3977508,8.5456074,-6.849597,-11.0042515,-7.0710144,0.0,0.0,0.0,-2.21,-3.51,-0.02,0.0,0.0,0.0,0.0,0.0,0.0,0.0,-2.1670809,488.83002,0.0,0.0,0.0,0.0,0.0,0.0,inf,inf,inf,inf,1,1,1,1,0,0,0,0,1,1,0
2065260000,0,47.3977508,8.5456074,-7.0831056,-11.373067,-7.074005,0.0,0.0,0.0,-2.22,-3.51,-0.02,0.0,0.0,0.0,0.0,0.0,0.0,0.0,-2.1679513,488.83002,0.0,0.0,0.0,0.0,0.0,0.0,inf,inf,inf,inf,1,1,1,1,0,0,0,0,1,1,0
2065360000,0,47.3977508,8.5456074,-7.305495,-11.72683,-7.076996,0.0,0.0,0.0,-2.22,-3.51,-0.02,0.0,0.0,0.0,0.0,0.0,0.0,0.0,-2.1681738,488.83002,0.0,0.0,0.0,0.0,0.0,0.0,inf,inf,inf,inf,1,1,1,1,0,0,0,0,1,1,0
2065456000,0,47.3977508,8.5456074,-7.5056453,-12.050484,-7.07901,0.0,0.0,0.0,-2.22,-3.52,-0.02,0.0,0.0,0.0,0.0,0.0,0.0,0.0,-2.1677966,488.83002,0.0,0.0,0.0,0.0,0.0,0.0,inf,inf,inf,inf,1,1,1,1,0,0,0,0,1,1,0
2065564000,0,47.3977508,8.5456074,-7.750273,-12.434354,-7.0809937,0.0,0.0,0.0,-2.22,-3.53,-0.02,0.0,0.0,0.0,0.0,0.0,0.0,0.0,-2.1671505,488.83002,0.0,0.0,0.0,0.0,0.0,0.0,inf,inf,inf,inf,1,1,1,1,0,0,0,0,1,1,0
2065664000,0,47.3977508,8.5456074,-7.9726624,-12.788116,-7.084015,0.0,0.0,0.0,-2.22,-3.53,-0.02,0.0,0.0,0.0,0.0,0.0,0.0,0.0,-2.1664498,488.83002,0.0,0.0,0.0,0.0,0.0,0.0,inf,inf,inf,inf,1,1,1,1,0,0,0,0,1,1,0
2065764000,0,47.3977508,8.5456074,-8.206171,-13.156933,-7.0859985,0.0,0.0,0.0,-2.23,-3.54,-0.02,0.0,0.0,0.0,0.0,0.0,0.0,0.0,-2.1652684,488.83002,0.0,0.0,0.0,0.0,0.0,0.0,inf,inf,inf,inf,1,1,1,1,0,0,0,0,1,1,0
2065864000,0,47.3977508,8.5456074,-8.41744,-13.495641,-7.0880127,0.0,0.0,0.0,-2.23,-3.54,-0.02,0.0,0.0,0.0,0.0,0.0,0.0,0.0,-2.1640697,488.83002,0.0,0.0,0.0,0.0,0.0,0.0,inf,inf,inf,inf,1,1,1,1,0,0,0,0,1,1,0
2065968000,0,47.3977508,8.5456074,-8.662068,-13.879511,-7.0910034,0.0,0.0,0.0,-2.23,-3.54,-0.02,0.0,0.0,0.0,0.0,0.0,0.0,0.0,-2.1630812,488.83002,0.0,0.0,0.0,0.0,0.0,0.0,inf,inf,inf,inf,1,1,1,1,0,0,0,0,1,1,0
2066068000,0,47.3977508,8.5456074,-8.884458,-14.240801,-7.0930176,0.0,0.0,0.0,-2.23,-3.55,-0.02,0.0,0.0,0.0,0.0,0.0,0.0,0.0,-2.162044,488.83002,0.0,0.0,0.0,0.0,0.0,0.0,inf,inf,inf,inf,1,1,1,1,0,0,0,0,1,1,0
2066164000,0,47.3977508,8.5456074,-9.106847,-14.579509,-7.095001,0.0,0.0,0.0,-2.23,-3.55,-0.02,0.0,0.0,0.0,0.0,0.0,0.0,0.0,-2.1609955,488.83002,0.0,0.0,0.0,0.0,0.0,0.0,inf,inf,inf,inf,1,1,1,1,0,0,0,0,1,1,0
2066268000,0,47.3977508,8.5456074,-9.340355,-14.948325,-7.0970154,0.0,0.0,0.0,-2.24,-3.55,-0.02,0.0,0.0,0.0,0.0,0.0,0.0,0.0,-2.1597366,488.83002,0.0,0.0,0.0,0.0,0.0,0.0,inf,inf,inf,inf,1,1,1,1,0,0,0,0,1,1,0
2066372000,0,47.3977508,8.5456074,-9.573863,-15.324669,-7.098999,0.0,0.0,0.0,-2.24,-3.56,-0.02,0.0,0.0,0.0,0.0,0.0,0.0,0.0,-2.1584244,488.83002,0.0,0.0,0.0,0.0,0.0,0.0,inf,inf,inf,inf,1,1,1,1,0,0,0,0,1,1,0
2066472000,0,47.3977508,8.5456074,-9.796252,-15.6784315,-7.101013,0.0,0.0,0.0,-2.25,-3.56,-0.02,0.0,0.0,0.0,0.0,0.0,0.0,0.0,-2.1573265,488.83002,0.0,0.0,0.0,0.0,0.0,0.0,inf,inf,inf,inf,1,1,1,1,0,0,0,0,1,1,0
2066572000,0,47.3977508,8.5456074,-10.007522,-16.024668,-7.104004,0.0,0.0,0.0,-2.25,-3.57,-0.02,0.0,0.0,0.0,0.0,0.0,0.0,0.0,-2.1562989,488.83002,0.0,0.0,0.0,0.0,0.0,0.0,inf,inf,inf,inf,1,1,1,1,0,0,0,0,1,1,0
2066668000,0,47.3977508,8.5456074,-10.24103,-16.37843,-7.1069946,0.0,0.0,0.0,-2.25,-3.57,-0.02,0.0,0.0,0.0,0.0,0.0,0.0,0.0,-2.1555655,488.83002,0.0,0.0,0.0,0.0,0.0,0.0,inf,inf,inf,inf,1,1,1,1,0,0,0,0,1,1,0
2066776000,0,47.3977508,8.5456074,-10.474538,-16.754772,-7.109009,0.0,0.0,0.0,-2.26,-3.57,-0.02,0.0,0.0,0.0,0.0,0.0,0.0,0.0,-2.1546519,488.83002,0.0,0.0,0.0,0.0,0.0,0.0,inf,inf,inf,inf,1,1,1,1,0,0,0,0,1,1,0
2066876000,0,47.3977508,8.5456074,-10.708046,-17.123589,-7.1130066,0.0,0.0,0.0,-2.26,-3.58,-0.03,0.0,0.0,0.0,0.0,0.0,0.0,0.0,-2.1538439,488.83002,0.0,0.0,0.0,0.0,0.0,0.0,inf,inf,inf,inf,1,1,1,1,0,0,0,0,1,1,0
2066976000,0,47.3977508,8.5456074,-10.941555,-17.484879,-7.1159973,0.0,0.0,0.0,-2.26,-3.58,-0.03,0.0,0.0,0.0,0.0,0.0,0.0,0.0,-2.1528826,488.83002,0.0,0.0,0.0,0.0,0.0,0.0,inf,inf,inf,inf,1,1,1,1,0,0,0,0,1,1,0
2067076000,0,47.3977508,8.5456074,-11.163943,-17.846169,-7.1190186,0.0,0.0,0.0,-2.26,-3.58,-0.02,0.0,0.0,0.0,0.0,0.0,0.0,0.0,-2.1520019,488.83002,0.0,0.0,0.0,0.0,0.0,0.0,inf,inf,inf,inf,1,1,1,1,0,0,0,0,1,1,0
2067180000,0,47.3977508,8.5456074,-11.397451,-18.222511,-7.121002,0.0,0.0,0.0,-2.27,-3.59,-0.02,0.0,0.0,0.0,0.0,0.0,0.0,0.0,-2.1511357,488.83002,0.0,0.0,0.0,0.0,0.0,0.0,inf,inf,inf,inf,1,1,1,1,0,0,0,0,1,1,0
2067280000,0,47.3977508,8.5456074,-11.6309595,-18.583801,-7.1230164,0.0,0.0,0.0,-2.27,-3.59,-0.02,0.0,0.0,0.0,0.0,0.0,0.0,0.0,-2.1502702,488.83002,0.0,0.0,0.0,0.0,0.0,0.0,inf,inf,inf,inf,1,1,1,1,0,0,0,0,1,1,0
2067380000,0,47.3977508,8.5456074,-11.853349,-18.945091,-7.126007,0.0,0.0,0.0,-2.27,-3.59,-0.02,0.0,0.0,0.0,0.0,0.0,0.0,0.0,-2.1493793,488.83002,0.0,0.0,0.0,0.0,0.0,0.0,inf,inf,inf,inf,1,1,1,1,0,0,0,0,1,1,0
2067480000,0,47.3977508,8.5456074,-12.086857,-19.298855,-7.1280212,0.0,0.0,0.0,-2.28,-3.59,-0.02,0.0,0.0,0.0,0.0,0.0,0.0,0.0,-2.1488135,488.83002,0.0,0.0,0.0,0.0,0.0,0.0,inf,inf,inf,inf,1,1,1,1,0,0,0,0,1,1,0
2067584000,0,47.3977508,8.5456074,-12.320365,-19.675198,-7.130005,0.0,0.0,0.0,-2.28,-3.6,-0.02,0.0,0.0,0.0,0.0,0.0,0.0,0.0,-2.148266,488.83002,0.0,0.0,0.0,0.0,0.0,0.0,inf,inf,inf,inf,1,1,1,1,0,0,0,0,1,1,0
2067680000,0,47.3977508,8.5456074,-12.531634,-20.013906,-7.1329956,0.0,0.0,0.0,-2.28,-3.6,-0.02,0.0,0.0,0.0,0.0,0.0,0.0,0.0,-2.1475005,488.83002,0.0,0.0,0.0,0.0,0.0,0.0,inf,inf,inf,inf,1,1,1,1,0,0,0,0,1,1,0
2067780000,0,47.3977508,8.5456074,-12.776261,-20.390251,-7.1340027,0.0,0.0,0.0,-2.29,-3.61,-0.01,0.0,0.0,0.0,0.0,0.0,0.0,0.0,-2.1468253,488.83002,0.0,0.0,0.0,0.0,0.0,0.0,inf,inf,inf,inf,1,1,1,1,0,0,0,0,1,1,0
2067880000,0,47.3977508,8.5456074,-13.009769,-20.751541,-7.136017,0.0,0.0,0.0,-2.29,-3.61,0.0,0.0,0.0,0.0,0.0,0.0,0.0,0.0,-2.1464372,488.83002,0.0,0.0,0.0,0.0,0.0,0.0,inf,inf,inf,inf,1,1,1,1,0,0,0,0,1,1,0
2067983999,0,47.3977508,8.5456074,-13.243278,-21.127884,-7.1369934,0.0,0.0,0.0,-2.3,-3.62,0.0,0.0,0.0,0.0,0.0,0.0,0.0,0.0,-2.145865,488.83002,0.0,0.0,0.0,0.0,0.0,0.0,inf,inf,inf,inf,1,1,1,1,0,0,0,0,1,1,0
2068088000,0,47.3977508,8.5456074,-13.4879055,-21.504227,-7.1369934,0.0,0.0,0.0,-2.3,-3.62,0.0,0.0,0.0,0.0,0.0,0.0,0.0,0.0,-2.1453981,488.83002,0.0,0.0,0.0,0.0,0.0,0.0,inf,inf,inf,inf,1,1,1,1,0,0,0,0,1,1,0
2068188000,0,47.3977508,8.5456074,-13.721414,-21.865517,-7.1380005,0.0,0.0,0.0,-2.3,-3.62,0.0,0.0,0.0,0.0,0.0,0.0,0.0,0.0,-2.1448224,488.83002,0.0,0.0,0.0,0.0,0.0,0.0,inf,inf,inf,inf,1,1,1,1,0,0,0,0,1,1,0
2068288000,0,47.3977508,8.5456074,-13.943802,-22.234335,-7.1390076,0.0,0.0,0.0,-2.31,-3.62,0.0,0.0,0.0,0.0,0.0,0.0,0.0,0.0,-2.144473,488.83002,0.0,0.0,0.0,0.0,0.0,0.0,inf,inf,inf,inf,1,1,1,1,0,0,0,0,1,1,0
2068392000,0,47.3977508,8.5456074,-14.188429,-22.610678,-7.1400146,0.0,0.0,0.0,-2.31,-3.62,0.0,0.0,0.0,0.0,0.0,0.0,0.0,0.0,-2.1439085,488.83002,0.0,0.0,0.0,0.0,0.0,0.0,inf,inf,inf,inf,1,1,1,1,0,0,0,0,1,1,0
2068492000,0,47.3977508,8.5456074,-14.410817,-22.956915,-7.1400146,0.0,0.0,0.0,-2.32,-3.6299999,0.0,0.0,0.0,0.0,0.0,0.0,0.0,0.0,-2.1433604,488.83002,0.0,0.0,0.0,0.0,0.0,0.0,inf,inf,inf,inf,1,1,1,1,0,0,0,0,1,1,0
2068592000,0,47.3977508,8.5456074,-14.655445,-23.340786,-7.140991,0.0,0.0,0.0,-2.32,-3.6299999,0.0,0.0,0.0,0.0,0.0,0.0,0.0,0.0,-2.14306,488.83002,0.0,0.0,0.0,0.0,0.0,0.0,inf,inf,inf,inf,1,1,1,1,0,0,0,0,1,1,0
2068692000,0,47.3977508,8.5456074,-14.877833,-23.687021,-7.140991,0.0,0.0,0.0,-2.33,-3.6299999,0.0,0.0,0.0,0.0,0.0,0.0,0.0,0.0,-2.1428592,488.83002,0.0,0.0,0.0,0.0,0.0,0.0,inf,inf,inf,inf,1,1,1,1,0,0,0,0,1,1,0
2068796000,0,47.3977508,8.5456074,-15.13358,-24.078419,-7.140991,0.0,0.0,0.0,-2.33,-3.6299999,0.0,0.0,0.0,0.0,0.0,0.0,0.0,0.0,-2.1427476,488.83002,0.0,0.0,0.0,0.0,0.0,0.0,inf,inf,inf,inf,1,1,1,1,0,0,0,0,1,1,0
2068896000,0,47.3977508,8.5456074,-15.355968,-24.432182,-7.140991,0.0,0.0,0.0,-2.33,-3.6399999,0.0,0.0,0.0,0.0,0.0,0.0,0.0,0.0,-2.1423345,488.83002,0.0,0.0,0.0,0.0,0.0,0.0,inf,inf,inf,inf,1,1,1,1,0,0,0,0,1,1,0
2068996000,0,47.3977508,8.5456074,-15.600595,-24.816053,-7.1419983,0.0,0.0,0.0,-2.33,-3.6399999,0.0,0.0,0.0,0.0,0.0,0.0,0.0,0.0,-2.1418014,488.83002,0.0,0.0,0.0,0.0,0.0,0.0,inf,inf,inf,inf,1,1,1,1,0,0,0,0,1,1,0
2069092000,0,47.3977508,8.5456074,-15.822984,-25.16229,-7.1419983,0.0,0.0,0.0,-2.34,-3.6399999,0.0,0.0,0.0,0.0,0.0,0.0,0.0,0.0,-2.1415253,488.83002,0.0,0.0,0.0,0.0,0.0,0.0,inf,inf,inf,inf,1,1,1,1,0,0,0,0,1,1,0
2069195999,0,47.3977508,8.5456074,-16.067612,-25.54616,-7.1419983,0.0,0.0,0.0,-2.34,-3.6499999,0.0,0.0,0.0,0.0,0.0,0.0,0.0,0.0,-2.141471,488.83002,0.0,0.0,0.0,0.0,0.0,0.0,inf,inf,inf,inf,1,1,1,1,0,0,0,0,1,1,0
2069296000,0,47.3977508,8.5456074,-16.301119,-25.907452,-7.1419983,0.0,0.0,0.0,-2.34,-3.6499999,0.0,0.0,0.0,0.0,0.0,0.0,0.0,0.0,-2.1412742,488.83002,0.0,0.0,0.0,0.0,0.0,0.0,inf,inf,inf,inf,1,1,1,1,0,0,0,0,1,1,0
2069400000,0,47.3977508,8.5456074,-16.545746,-26.291323,-7.1419983,0.0,0.0,0.0,-2.34,-3.6599998,0.0,0.0,0.0,0.0,0.0,0.0,0.0,0.0,-2.1408882,488.83002,0.0,0.0,0.0,0.0,0.0,0.0,inf,inf,inf,inf,1,1,1,1,0,0,0,0,1,1,0
2069500000,0,47.3977508,8.5456074,-16.779253,-26.645084,-7.1419983,0.0,0.0,0.0,-2.35,-3.6699998,0.0,0.0,0.0,0.0,0.0,0.0,0.0,0.0,-2.14045,488.83002,0.0,0.0,0.0,0.0,0.0,0.0,inf,inf,inf,inf,1,1,1,1,0,0,0,0,1,1,0
2069604000,0,47.3977508,8.5456074,-17.035,-27.04401,-7.1430054,0.0,0.0,0.0,-2.35,-3.6899998,0.0,0.0,0.0,0.0,0.0,0.0,0.0,0.0,-2.1403205,488.83002,0.0,0.0,0.0,0.0,0.0,0.0,inf,inf,inf,inf,1,1,1,1,0,0,0,0,1,1,0
2069700000,0,47.3977508,8.5456074,-17.25739,-27.4053,-7.1440125,0.0,0.0,0.0,-2.36,-3.6999998,0.0,0.0,0.0,0.0,0.0,0.0,0.0,0.0,-2.1403341,488.83002,0.0,0.0,0.0,0.0,0.0,0.0,inf,inf,inf,inf,1,1,1,1,0,0,0,0,1,1,0
2069804000,0,47.3977508,8.5456074,-17.502016,-27.789171,-7.1450195,0.0,0.0,0.0,-2.36,-3.7099998,-0.01,0.0,0.0,0.0,0.0,0.0,0.0,0.0,-2.140294,488.83002,0.0,0.0,0.0,0.0,0.0,0.0,inf,inf,inf,inf,1,1,1,1,0,0,0,0,1,1,0
2069904000,0,47.3977508,8.5456074,-17.746643,-28.15799,-7.145996,0.0,0.0,0.0,-2.37,-3.72,-0.01,0.0,0.0,0.0,0.0,0.0,0.0,0.0,-2.1399884,488.83002,0.0,0.0,0.0,0.0,0.0,0.0,inf,inf,inf,inf,1,1,1,1,0,0,0,0,1,1,0
2070008000,0,47.3977508,8.5456074,-17.98015,-28.534332,-7.1480103,0.0,0.0,0.0,-2.3799999,-3.73,-0.01,0.0,0.0,0.0,0.0,0.0,0.0,0.0,-2.139718,488.83002,0.0,0.0,0.0,0.0,0.0,0.0,inf,inf,inf,inf,1,1,1,1,0,0,0,0,1,1,0
2070108000,0,47.3977508,8.5456074,-18.235897,-28.925732,-7.1490173,0.0,0.0,0.0,-2.3799999,-3.74,-0.01,0.0,0.0,0.0,0.0,0.0,0.0,0.0,-2.1394253,488.83002,0.0,0.0,0.0,0.0,0.0,0.0,inf,inf,inf,inf,1,1,1,1,0,0,0,0,1,1,0
2070208000,0,47.3977508,8.5456074,-18.458284,-29.287022,-7.151001,0.0,0.0,0.0,-2.3899999,-3.74,-0.01,0.0,0.0,0.0,0.0,0.0,0.0,0.0,-2.1392455,488.83002,0.0,0.0,0.0,0.0,0.0,0.0,inf,inf,inf,inf,1,1,1,1,0,0,0,0,1,1,0
2070308000,0,47.3977508,8.5456074,-18.714031,-29.663366,-7.152008,0.0,0.0,0.0,-2.3899999,-3.75,-0.01,0.0,0.0,0.0,0.0,0.0,0.0,0.0,-2.1389737,488.83002,0.0,0.0,0.0,0.0,0.0,0.0,inf,inf,inf,inf,1,1,1,1,0,0,0,0,1,1,0
2070412000,0,47.3977508,8.5456074,-18.958658,-30.069818,-7.153015,0.0,0.0,0.0,-2.3999999,-3.76,-0.01,0.0,0.0,0.0,0.0,0.0,0.0,0.0,-2.1387453,488.83002,0.0,0.0,0.0,0.0,0.0,0.0,inf,inf,inf,inf,1,1,1,1,0,0,0,0,1,1,0
2070512000,0,47.3977508,8.5456074,-19.203285,-30.446163,-7.154999,0.0,0.0,0.0,-2.3999999,-3.76,-0.01,0.0,0.0,0.0,0.0,0.0,0.0,0.0,-2.13871,488.83002,0.0,0.0,0.0,0.0,0.0,0.0,inf,inf,inf,inf,1,1,1,1,0,0,0,0,1,1,0
2070608000,0,47.3977508,8.5456074,-19.425673,-30.792398,-7.157013,0.0,0.0,0.0,-2.4099998,-3.77,-0.01,0.0,0.0,0.0,0.0,0.0,0.0,0.0,-2.13868,488.83002,0.0,0.0,0.0,0.0,0.0,0.0,inf,inf,inf,inf,1,1,1,1,0,0,0,0,1,1,0
2070712000,0,47.3977508,8.5456074,-19.69254,-31.206379,-7.15802,0.0,0.0,0.0,-2.4099998,-3.78,-0.01,0.0,0.0,0.0,0.0,0.0,0.0,0.0,-2.1386995,488.83002,0.0,0.0,0.0,0.0,0.0,0.0,inf,inf,inf,inf,1,1,1,1,0,0,0,0,1,1,0
2070811999,0,47.3977508,8.5456074,-19.926046,-31.582722,-7.1600037,0.0,0.0,0.0,-2.4199998,-3.78,-0.01,0.0,0.0,0.0,0.0,0.0,0.0,0.0,-2.1387224,488.83002,0.0,0.0,0.0,0.0,0.0,0.0,inf,inf,inf,inf,1,1,1,1,0,0,0,0,1,1,0
2070916000,0,47.3977508,8.5456074,-20.181791,-31.981647,-7.1610107,0.0,0.0,0.0,-2.4199998,-3.79,-0.01,0.0,0.0,0.0,0.0,0.0,0.0,0.0,-2.1386094,488.83002,0.0,0.0,0.0,0.0,0.0,0.0,inf,inf,inf,inf,1,1,1,1,0,0,0,0,1,1,0
2071016000,0,47.3977508,8.5456074,-20.415298,-32.342937,-7.162018,0.0,0.0,0.0,-2.4299998,-3.79,0.0,0.0,0.0,0.0,0.0,0.0,0.0,0.0,-2.1386247,488.83002,0.0,0.0,0.0,0.0,0.0,0.0,inf,inf,inf,inf,1,1,1,1,0,0,0,0,1,1,0
2071116000,0,47.3977508,8.5456074,-20.659925,-32.72681,-7.1629944,0.0,0.0,0.0,-2.4299998,-3.79,0.0,0.0,0.0,0.0,0.0,0.0,0.0,0.0,-2.1386108,488.83002,0.0,0.0,0.0,0.0,0.0,0.0,inf,inf,inf,inf,1,1,1,1,0,0,0,0,1,1,0
2071220000,0,47.3977508,8.5456074,-20.915672,-33.11821,-7.1640015,0.0,0.0,0.0,-2.4299998,-3.79,0.0,0.0,0.0,0.0,0.0,0.0,0.0,0.0,-2.1385908,488.83002,0.0,0.0,0.0,0.0,0.0,0.0,inf,inf,inf,inf,1,1,1,1,0,0,0,0,1,1,0
2071320000,0,47.3977508,8.5456074,-21.171417,-33.517136,-7.1640015,0.0,0.0,0.0,-2.44,-3.8,0.0,0.0,0.0,0.0,0.0,0.0,0.0,0.0,-2.138523,488.83002,0.0,0.0,0.0,0.0,0.0,0.0,inf,inf,inf,inf,1,1,1,1,0,0,0,0,1,1,0
2071416000,0,47.3977508,8.5456074,-21.404926,-33.885952,-7.1640015,0.0,0.0,0.0,-2.44,-3.8,0.0,0.0,0.0,0.0,0.0,0.0,0.0,0.0,-2.1386936,488.83002,0.0,0.0,0.0,0.0,0.0,0.0,inf,inf,inf,inf,1,1,1,1,0,0,0,0,1,1,0
2071516000,0,47.3977508,8.5456074,-21.649551,-34.269825,-7.1640015,0.0,0.0,0.0,-2.45,-3.81,0.0,0.0,0.0,0.0,0.0,0.0,0.0,0.0,-2.1390076,488.83002,0.0,0.0,0.0,0.0,0.0,0.0,inf,inf,inf,inf,1,1,1,1,0,0,0,0,1,1,0
2071624000,0,47.3977508,8.5456074,-21.916418,-34.676277,-7.1640015,0.0,0.0,0.0,-2.45,-3.81,0.0,0.0,0.0,0.0,0.0,0.0,0.0,0.0,-2.139082,488.83002,0.0,0.0,0.0,0.0,0.0,0.0,inf,inf,inf,inf,1,1,1,1,0,0,0,0,1,1,0
2071724000,0,47.3977508,8.5456074,-22.161043,-35.060146,-7.1650085,0.0,0.0,0.0,-2.45,-3.81,0.0,0.0,0.0,0.0,0.0,0.0,0.0,0.0,-2.1389956,488.83002,0.0,0.0,0.0,0.0,0.0,0.0,inf,inf,inf,inf,1,1,1,1,0,0,0,0,1,1,0
2071824000,0,47.3977508,8.5456074,-22.40567,-35.44402,-7.1660156,0.0,0.0,0.0,-2.45,-3.82,-0.01,0.0,0.0,0.0,0.0,0.0,0.0,0.0,-2.1389613,488.83002,0.0,0.0,0.0,0.0,0.0,0.0,inf,inf,inf,inf,1,1,1,1,0,0,0,0,1,1,0
2071924000,0,47.3977508,8.5456074,-22.661417,-35.827892,-7.166992,0.0,0.0,0.0,-2.46,-3.82,0.0,0.0,0.0,0.0,0.0,0.0,0.0,0.0,-2.1389718,488.83002,0.0,0.0,0.0,0.0,0.0,0.0,inf,inf,inf,inf,1,1,1,1,0,0,0,0,1,1,0
2072028000,0,47.3977508,8.5456074,-22.917162,-36.226818,-7.1679993,0.0,0.0,0.0,-2.46,-3.83,-0.01,0.0,0.0,0.0,0.0,0.0,0.0,0.0,-2.139079,488.83002,0.0,0.0,0.0,0.0,0.0,0.0,inf,inf,inf,inf,1,1,1,1,0,0,0,0,1,1,0
2072128000,0,47.3977508,8.5456074,-23.161789,-36.610687,-7.1690063,0.0,0.0,0.0,-2.46,-3.83,-0.01,0.0,0.0,0.0,0.0,0.0,0.0,0.0,-2.1388488,488.83002,0.0,0.0,0.0,0.0,0.0,0.0,inf,inf,inf,inf,1,1,1,1,0,0,0,0,1,1,0
2072228000,0,47.3977508,8.5456074,-23.395296,-36.979507,-7.1710205,0.0,0.0,0.0,-2.46,-3.83,-0.01,0.0,0.0,0.0,0.0,0.0,0.0,0.0,-2.1386034,488.83002,0.0,0.0,0.0,0.0,0.0,0.0,inf,inf,inf,inf,1,1,1,1,0,0,0,0,1,1,0
2072331999,0,47.3977508,8.5456074,-23.66216,-37.401012,-7.171997,0.0,0.0,0.0,-2.47,-3.83,-0.01,0.0,0.0,0.0,0.0,0.0,0.0,0.0,-2.1383877,488.83002,0.0,0.0,0.0,0.0,0.0,0.0,inf,inf,inf,inf,1,1,1,1,0,0,0,0,1,1,0
2072432000,0,47.3977508,8.5456074,-23.917908,-37.784885,-7.174011,0.0,0.0,0.0,-2.47,-3.83,-0.02,0.0,0.0,0.0,0.0,0.0,0.0,0.0,-2.1385102,488.83002,0.0,0.0,0.0,0.0,0.0,0.0,inf,inf,inf,inf,1,1,1,1,0,0,0,0,1,1,0
2072528000,0,47.3977508,8.5456074,-24.140295,-38.13865,-7.175995,0.0,0.0,0.0,-2.47,-3.83,-0.02,0.0,0.0,0.0,0.0,0.0,0.0,0.0,-2.1385565,488.83002,0.0,0.0,0.0,0.0,0.0,0.0,inf,inf,inf,inf,1,1,1,1,0,0,0,0,1,1,0
2072632000,0,47.3977508,8.5456074,-24.40716,-38.552628,-7.179016,0.0,0.0,0.0,-2.48,-3.84,-0.02,0.0,0.0,0.0,0.0,0.0,0.0,0.0,-2.1384041,488.83002,0.0,0.0,0.0,0.0,0.0,0.0,inf,inf,inf,inf,1,1,1,1,0,0,0,0,1,1,0
2072735999,0,47.3977508,8.5456074,-24.674025,-38.951553,-7.1809998,0.0,0.0,0.0,-2.48,-3.84,-0.02,0.0,0.0,0.0,0.0,0.0,0.0,0.0,-2.1382551,488.83002,0.0,0.0,0.0,0.0,0.0,0.0,inf,inf,inf,inf,1,1,1,1,0,0,0,0,1,1,0
2072831999,0,47.3977508,8.5456074,-24.907532,-39.320374,-7.183014,0.0,0.0,0.0,-2.49,-3.84,-0.02,0.0,0.0,0.0,0.0,0.0,0.0,0.0,-2.1383114,488.83002,0.0,0.0,0.0,0.0,0.0,0.0,inf,inf,inf,inf,1,1,1,1,0,0,0,0,1,1,0
2072936000,0,47.3977508,8.5456074,-25.174397,-39.726826,-7.1849976,0.0,0.0,0.0,-2.49,-3.84,-0.02,0.0,0.0,0.0,0.0,0.0,0.0,0.0,-2.1384044,488.83002,0.0,0.0,0.0,0.0,0.0,0.0,inf,inf,inf,inf,1,1,1,1,0,0,0,0,1,1,0
2073036000,0,47.3977508,8.5456074,-25.419024,-40.1107,-7.188019,0.0,0.0,0.0,-2.49,-3.84,-0.02,0.0,0.0,0.0,0.0,0.0,0.0,0.0,-2.1383185,488.83002,0.0,0.0,0.0,0.0,0.0,0.0,inf,inf,inf,inf,1,1,1,1,0,0,0,0,1,1,0
2073139999,0,47.3977508,8.5456074,-25.674768,-40.509624,-7.1910095,0.0,0.0,0.0,-2.49,-3.84,-0.02,0.0,0.0,0.0,0.0,0.0,0.0,0.0,-2.138308,488.83002,0.0,0.0,0.0,0.0,0.0,0.0,inf,inf,inf,inf,1,1,1,1,0,0,0,0,1,1,0
2073240000,0,47.3977508,8.5456074,-25.919395,-40.87844,-7.192993,0.0,0.0,0.0,-2.5,-3.84,-0.02,0.0,0.0,0.0,0.0,0.0,0.0,0.0,-2.1381423,488.83002,0.0,0.0,0.0,0.0,0.0,0.0,inf,inf,inf,inf,1,1,1,1,0,0,0,0,1,1,0
2073340000,0,47.3977508,8.5456074,-26.18626,-41.284893,-7.1960144,0.0,0.0,0.0,-2.5,-3.84,-0.02,0.0,0.0,0.0,0.0,0.0,0.0,0.0,-2.1378796,488.83002,0.0,0.0,0.0,0.0,0.0,0.0,inf,inf,inf,inf,1,1,1,1,0,0,0,0,1,1,0
2073440000,0,47.3977508,8.5456074,-26.419767,-41.653713,-7.197998,0.0,0.0,0.0,-2.5,-3.84,-0.02,0.0,0.0,0.0,0.0,0.0,0.0,0.0,-2.1377883,488.83002,0.0,0.0,0.0,0.0,0.0,0.0,inf,inf,inf,inf,1,1,1,1,0,0,0,0,1,1,0
2073543999,0,47.3977508,8.5456074,-26.69775,-42.06769,-7.2010193,0.0,0.0,0.0,-2.5,-3.84,-0.02,0.0,0.0,0.0,0.0,0.0,0.0,0.0,-2.1374695,488.83002,0.0,0.0,0.0,0.0,0.0,0.0,inf,inf,inf,inf,1,1,1,1,0,0,0,0,1,1,0
2073644000,0,47.3977508,8.5456074,-26.942377,-42.45909,-7.20401,0.0,0.0,0.0,-2.5,-3.84,-0.02,0.0,0.0,0.0,0.0,0.0,0.0,0.0,-2.1372666,488.83002,0.0,0.0,0.0,0.0,0.0,0.0,inf,inf,inf,inf,1,1,1,1,0,0,0,0,1,1,0
2073744000,0,47.3977508,8.5456074,-27.198122,-42.842964,-7.2059937,0.0,0.0,0.0,-2.5,-3.84,-0.02,0.0,0.0,0.0,0.0,0.0,0.0,0.0,-2.1370902,488.83002,0.0,0.0,0.0,0.0,0.0,0.0,inf,inf,inf,inf,1,1,1,1,0,0,0,0,1,1,0
2073844000,0,47.3977508,8.5456074,-27.442749,-43.226837,-7.209015,0.0,0.0,0.0,-2.5,-3.85,-0.02,0.0,0.0,0.0,0.0,0.0,0.0,0.0,-2.1369467,488.83002,0.0,0.0,0.0,0.0,0.0,0.0,inf,inf,inf,inf,1,1,1,1,0,0,0,0,1,1,0
2073948000,0,47.3977508,8.5456074,-27.709614,-43.63329,-7.2109985,0.0,0.0,0.0,-2.51,-3.85,-0.02,0.0,0.0,0.0,0.0,0.0,0.0,0.0,-2.1365948,488.83002,0.0,0.0,0.0,0.0,0.0,0.0,inf,inf,inf,inf,1,1,1,1,0,0,0,0,1,1,0
2074048000,0,47.3977508,8.5456074,-27.965359,-44.017162,-7.21402,0.0,0.0,0.0,-2.51,-3.85,-0.02,0.0,0.0,0.0,0.0,0.0,0.0,0.0,-2.136675,488.83002,0.0,0.0,0.0,0.0,0.0,0.0,inf,inf,inf,inf,1,1,1,1,0,0,0,0,1,1,0
2074148000,0,47.3977508,8.5456074,-28.198866,-44.385983,-7.2160034,0.0,0.0,0.0,-2.51,-3.85,-0.02,0.0,0.0,0.0,0.0,0.0,0.0,0.0,-2.136921,488.83002,0.0,0.0,0.0,0.0,0.0,0.0,inf,inf,inf,inf,1,1,1,1,0,0,0,0,1,1,0
2074248000,0,47.3977508,8.5456074,-28.45461,-44.77738,-7.2180176,0.0,0.0,0.0,-2.51,-3.85,-0.02,0.0,0.0,0.0,0.0,0.0,0.0,0.0,-2.1368945,488.83002,0.0,0.0,0.0,0.0,0.0,0.0,inf,inf,inf,inf,1,1,1,1,0,0,0,0,1,1,0
2074347999,0,47.3977508,8.5456074,-28.721476,-45.176308,-7.2210083,0.0,0.0,0.0,-2.51,-3.86,-0.02,0.0,0.0,0.0,0.0,0.0,0.0,0.0,-2.1368494,488.83002,0.0,0.0,0.0,0.0,0.0,0.0,inf,inf,inf,inf,1,1,1,1,0,0,0,0,1,1,0
2074452000,0,47.3977508,8.5456074,-28.97722,-45.58276,-7.222992,0.0,0.0,0.0,-2.51,-3.86,-0.02,0.0,0.0,0.0,0.0,0.0,0.0,0.0,-2.1369023,488.83002,0.0,0.0,0.0,0.0,0.0,0.0,inf,inf,inf,inf,1,1,1,1,0,0,0,0,1,1,0
2074552000,0,47.3977508,8.5456074,-29.232965,-45.966633,-7.226013,0.0,0.0,0.0,-2.51,-3.86,-0.02,0.0,0.0,0.0,0.0,0.0,0.0,0.0,-2.136702,488.83002,0.0,0.0,0.0,0.0,0.0,0.0,inf,inf,inf,inf,1,1,1,1,0,0,0,0,1,1,0
2074652000,0,47.3977508,8.5456074,-29.48871,-46.358032,-7.227997,0.0,0.0,0.0,-2.52,-3.86,-0.02,0.0,0.0,0.0,0.0,0.0,0.0,0.0,-2.1365519,488.83002,0.0,0.0,0.0,0.0,0.0,0.0,inf,inf,inf,inf,1,1,1,1,0,0,0,0,1,1,0
2074751999,0,47.3977508,8.5456074,-29.733337,-46.741905,-7.231018,0.0,0.0,0.0,-2.52,-3.86,-0.02,0.0,0.0,0.0,0.0,0.0,0.0,0.0,-2.1366684,488.83002,0.0,0.0,0.0,0.0,0.0,0.0,inf,inf,inf,inf,1,1,1,1,0,0,0,0,1,1,0
2074856000,0,47.3977508,8.5456074,-29.989082,-47.133305,-7.234009,0.0,0.0,0.0,-2.52,-3.86,-0.02,0.0,0.0,0.0,0.0,0.0,0.0,0.0,-2.1368222,488.83002,0.0,0.0,0.0,0.0,0.0,0.0,inf,inf,inf,inf,1,1,1,1,0,0,0,0,1,1,0
2074952000,0,47.3977508,8.5456074,-30.244827,-47.517178,-7.2359924,0.0,0.0,0.0,-2.52,-3.86,-0.02,0.0,0.0,0.0,0.0,0.0,0.0,0.0,-2.1368062,488.83002,0.0,0.0,0.0,0.0,0.0,0.0,inf,inf,inf,inf,1,1,1,1,0,0,0,0,1,1,0
2075056000,0,47.3977508,8.5456074,-30.511692,-47.92363,-7.2390137,0.0,0.0,0.0,-2.52,-3.86,-0.02,0.0,0.0,0.0,0.0,0.0,0.0,0.0,-2.136618,488.83002,0.0,0.0,0.0,0.0,0.0,0.0,inf,inf,inf,inf,1,1,1,1,0,0,0,0,1,1,0
2075155999,0,47.3977508,8.5456074,-30.756317,-48.307503,-7.2420044,0.0,0.0,0.0,-2.52,-3.87,-0.02,0.0,0.0,0.0,0.0,0.0,0.0,0.0,-2.1366637,488.83002,0.0,0.0,0.0,0.0,0.0,0.0,inf,inf,inf,inf,1,1,1,1,0,0,0,0,1,1,0
2075260000,0,47.3977508,8.5456074,-31.023182,-48.71396,-7.244995,0.0,0.0,0.0,-2.52,-3.87,-0.03,0.0,0.0,0.0,0.0,0.0,0.0,0.0,-2.1366568,488.83002,0.0,0.0,0.0,0.0,0.0,0.0,inf,inf,inf,inf,1,1,1,1,0,0,0,0,1,1,0
2075356000,0,47.3977508,8.5456074,-31.267807,-49.090305,-7.2480164,0.0,0.0,0.0,-2.52,-3.87,-0.03,0.0,0.0,0.0,0.0,0.0,0.0,0.0,-2.1362638,488.83002,0.0,0.0,0.0,0.0,0.0,0.0,inf,inf,inf,inf,1,1,1,1,0,0,0,0,1,1,0
2075460000,0,47.3977508,8.5456074,-31.534672,-49.48923,-7.251007,0.0,0.0,0.0,-2.52,-3.87,-0.02,0.0,0.0,0.0,0.0,0.0,0.0,0.0,-2.1359506,488.83002,0.0,0.0,0.0,0.0,0.0,0.0,inf,inf,inf,inf,1,1,1,1,0,0,0,0,1,1,0
2075564000,0,47.3977508,8.5456074,-31.790417,-49.895683,-7.253998,0.0,0.0,0.0,-2.52,-3.8799999,-0.02,0.0,0.0,0.0,0.0,0.0,0.0,0.0,-2.1360137,488.83002,0.0,0.0,0.0,0.0,0.0,0.0,inf,inf,inf,inf,1,1,1,1,0,0,0,0,1,1,0
2075664000,0,47.3977508,8.5456074,-32.03504,-50.27203,-7.256012,0.0,0.0,0.0,-2.53,-3.8799999,-0.02,0.0,0.0,0.0,0.0,0.0,0.0,0.0,-2.1361213,488.83002,0.0,0.0,0.0,0.0,0.0,0.0,inf,inf,inf,inf,1,1,1,1,0,0,0,0,1,1,0
2075764000,0,47.3977508,8.5456074,-32.290787,-50.655903,-7.2590027,0.0,0.0,0.0,-2.53,-3.8799999,-0.02,0.0,0.0,0.0,0.0,0.0,0.0,0.0,-2.1360745,488.83002,0.0,0.0,0.0,0.0,0.0,0.0,inf,inf,inf,inf,1,1,1,1,0,0,0,0,1,1,0
2075864000,0,47.3977508,8.5456074,-32.54653,-51.047302,-7.261017,0.0,0.0,0.0,-2.53,-3.8799999,-0.02,0.0,0.0,0.0,0.0,0.0,0.0,0.0,-2.135838,488.83002,0.0,0.0,0.0,0.0,0.0,0.0,inf,inf,inf,inf,1,1,1,1,0,0,0,0,1,1,0
2075963999,0,47.3977508,8.5456074,-32.813396,-51.45376,-7.2640076,0.0,0.0,0.0,-2.53,-3.8799999,-0.02,0.0,0.0,0.0,0.0,0.0,0.0,0.0,-2.1355786,488.83002,0.0,0.0,0.0,0.0,0.0,0.0,inf,inf,inf,inf,1,1,1,1,0,0,0,0,1,1,0
2076068000,0,47.3977508,8.5456074,-33.08026,-51.86021,-7.2660217,0.0,0.0,0.0,-2.53,-3.8799999,-0.02,0.0,0.0,0.0,0.0,0.0,0.0,0.0,-2.135519,488.83002,0.0,0.0,0.0,0.0,0.0,0.0,inf,inf,inf,inf,1,1,1,1,0,0,0,0,1,1,0
2076168000,0,47.3977508,8.5456074,-33.324886,-52.236557,-7.2680054,0.0,0.0,0.0,-2.53,-3.8799999,-0.02,0.0,0.0,0.0,0.0,0.0,0.0,0.0,-2.1354218,488.83002,0.0,0.0,0.0,0.0,0.0,0.0,inf,inf,inf,inf,1,1,1,1,0,0,0,0,1,1,0
2076268000,0,47.3977508,8.5456074,-33.58063,-52.643013,-7.2700195,0.0,0.0,0.0,-2.53,-3.8899999,-0.02,0.0,0.0,0.0,0.0,0.0,0.0,0.0,-2.1352744,488.83002,0.0,0.0,0.0,0.0,0.0,0.0,inf,inf,inf,inf,1,1,1,1,0,0,0,0,1,1,0
2076372000,0,47.3977508,8.5456074,-33.847496,-53.049465,-7.2730103,0.0,0.0,0.0,-2.53,-3.8899999,-0.02,0.0,0.0,0.0,0.0,0.0,0.0,0.0,-2.1349106,488.83002,0.0,0.0,0.0,0.0,0.0,0.0,inf,inf,inf,inf,1,1,1,1,0,0,0,0,1,1,0
2076472000,0,47.3977508,8.5456074,-34.10324,-53.440865,-7.274994,0.0,0.0,0.0,-2.54,-3.8899999,-0.02,0.0,0.0,0.0,0.0,0.0,0.0,0.0,-2.1347613,488.83002,0.0,0.0,0.0,0.0,0.0,0.0,inf,inf,inf,inf,1,1,1,1,0,0,0,0,1,1,0
2076572000,0,47.3977508,8.5456074,-34.358986,-53.824738,-7.278015,0.0,0.0,0.0,-2.54,-3.8899999,-0.02,0.0,0.0,0.0,0.0,0.0,0.0,0.0,-2.134744,488.83002,0.0,0.0,0.0,0.0,0.0,0.0,inf,inf,inf,inf,1,1,1,1,0,0,0,0,1,1,0
2076668000,0,47.3977508,8.5456074,-34.60361,-54.201084,-7.279999,0.0,0.0,0.0,-2.54,-3.8899999,-0.02,0.0,0.0,0.0,0.0,0.0,0.0,0.0,-2.1347373,488.83002,0.0,0.0,0.0,0.0,0.0,0.0,inf,inf,inf,inf,1,1,1,1,0,0,0,0,1,1,0
2076776000,0,47.3977508,8.5456074,-34.881596,-54.622593,-7.282013,0.0,0.0,0.0,-2.54,-3.8899999,-0.02,0.0,0.0,0.0,0.0,0.0,0.0,0.0,-2.1347432,488.83002,0.0,0.0,0.0,0.0,0.0,0.0,inf,inf,inf,inf,1,1,1,1,0,0,0,0,1,1,0
2076872000,0,47.3977508,8.5456074,-35.12622,-54.99894,-7.2839966,0.0,0.0,0.0,-2.54,-3.8899999,-0.02,0.0,0.0,0.0,0.0,0.0,0.0,0.0,-2.1347275,488.83002,0.0,0.0,0.0,0.0,0.0,0.0,inf,inf,inf,inf,1,1,1,1,0,0,0,0,1,1,0
2076972000,0,47.3977508,8.5456074,-35.381966,-55.39034,-7.2860107,0.0,0.0,0.0,-2.54,-3.8899999,-0.02,0.0,0.0,0.0,0.0,0.0,0.0,0.0,-2.1344886,488.83002,0.0,0.0,0.0,0.0,0.0,0.0,inf,inf,inf,inf,1,1,1,1,0,0,0,0,1,1,0
2077072000,0,47.3977508,8.5456074,-35.637707,-55.781742,-7.2890015,0.0,0.0,0.0,-2.54,-3.8999999,-0.02,0.0,0.0,0.0,0.0,0.0,0.0,0.0,-2.1342835,488.83002,0.0,0.0,0.0,0.0,0.0,0.0,inf,inf,inf,inf,1,1,1,1,0,0,0,0,1,1,0
2077180000,0,47.3977508,8.5456074,-35.90457,-56.203247,-7.2910156,0.0,0.0,0.0,-2.54,-3.8999999,-0.01,0.0,0.0,0.0,0.0,0.0,0.0,0.0,-2.1340537,488.83002,0.0,0.0,0.0,0.0,0.0,0.0,inf,inf,inf,inf,1,1,1,1,0,0,0,0,1,1,0
2077276000,0,47.3977508,8.5456074,-36.149197,-56.56454,-7.291992,0.0,0.0,0.0,-2.54,-3.8999999,-0.01,0.0,0.0,0.0,0.0,0.0,0.0,0.0,-2.1340566,488.83002,0.0,0.0,0.0,0.0,0.0,0.0,inf,inf,inf,inf,1,1,1,1,0,0,0,0,1,1,0
2077380000,0,47.3977508,8.5456074,-36.41606,-56.98605,-7.2940063,0.0,0.0,0.0,-2.54,-3.8999999,-0.01,0.0,0.0,0.0,0.0,0.0,0.0,0.0,-2.1340165,488.83002,0.0,0.0,0.0,0.0,0.0,0.0,inf,inf,inf,inf,1,1,1,1,0,0,0,0,1,1,0
2077480000,0,47.3977508,8.5456074,-36.671806,-57.37745,-7.2950134,0.0,0.0,0.0,-2.54,-3.8999999,-0.01,0.0,0.0,0.0,0.0,0.0,0.0,0.0,-2.133926,488.83002,0.0,0.0,0.0,0.0,0.0,0.0,inf,inf,inf,inf,1,1,1,1,0,0,0,0,1,1,0
2077579999,0,47.3977508,8.5456074,-36.92755,-57.768852,-7.296997,0.0,0.0,0.0,-2.54,-3.8999999,-0.01,0.0,0.0,0.0,0.0,0.0,0.0,0.0,-2.1339104,488.83002,0.0,0.0,0.0,0.0,0.0,0.0,inf,inf,inf,inf,1,1,1,1,0,0,0,0,1,1,0
2077680000,0,47.3977508,8.5456074,-37.183296,-58.16025,-7.299011,0.0,0.0,0.0,-2.54,-3.9099998,-0.01,0.0,0.0,0.0,0.0,0.0,0.0,0.0,-2.1339889,488.83002,0.0,0.0,0.0,0.0,0.0,0.0,inf,inf,inf,inf,1,1,1,1,0,0,0,0,1,1,0
2077784000,0,47.3977508,8.5456074,-37.439037,-58.559177,-7.300995,0.0,0.0,0.0,-2.55,-3.9099998,-0.01,0.0,0.0,0.0,0.0,0.0,0.0,0.0,-2.1341825,488.83002,0.0,0.0,0.0,0.0,0.0,0.0,inf,inf,inf,inf,1,1,1,1,0,0,0,0,1,1,0
2077884000,0,47.3977508,8.5456074,-37.705902,-58.965633,-7.302002,0.0,0.0,0.0,-2.55,-3.9199998,0.0,0.0,0.0,0.0,0.0,0.0,0.0,0.0,-2.1340826,488.83002,0.0,0.0,0.0,0.0,0.0,0.0,inf,inf,inf,inf,1,1,1,1,0,0,0,0,1,1,0
2077988000,0,47.3977508,8.5456074,-37.972767,-59.37209,-7.302002,0.0,0.0,0.0,-2.55,-3.9299998,0.0,0.0,0.0,0.0,0.0,0.0,0.0,0.0,-2.1338916,488.83002,0.0,0.0,0.0,0.0,0.0,0.0,inf,inf,inf,inf,1,1,1,1,0,0,0,0,1,1,0
2078088000,0,47.3977508,8.5456074,-38.217392,-59.755962,-7.302002,0.0,0.0,0.0,-2.55,-3.9299998,0.0,0.0,0.0,0.0,0.0,0.0,0.0,0.0,-2.1339402,488.83002,0.0,0.0,0.0,0.0,0.0,0.0,inf,inf,inf,inf,1,1,1,1,0,0,0,0,1,1,0
2078184000,0,47.3977508,8.5456074,-38.473137,-60.14736,-7.300995,0.0,0.0,0.0,-2.55,-3.9299998,0.0,0.0,0.0,0.0,0.0,0.0,0.0,0.0,-2.1341102,488.83002,0.0,0.0,0.0,0.0,0.0,0.0,inf,inf,inf,inf,1,1,1,1,0,0,0,0,1,1,0
2078288000,0,47.3977508,8.5456074,-38.72888,-60.54629,-7.300995,0.0,0.0,0.0,-2.55,-3.9199998,0.0,0.0,0.0,0.0,0.0,0.0,0.0,0.0,-2.1341782,488.83002,0.0,0.0,0.0,0.0,0.0,0.0,inf,inf,inf,inf,1,1,1,1,0,0,0,0,1,1,0
2078392000,0,47.3977508,8.5456074,-38.995743,-60.952744,-7.300995,0.0,0.0,0.0,-2.55,-3.9199998,0.0,0.0,0.0,0.0,0.0,0.0,0.0,0.0,-2.1341224,488.83002,0.0,0.0,0.0,0.0,0.0,0.0,inf,inf,inf,inf,1,1,1,1,0,0,0,0,1,1,0
2078492000,0,47.3977508,8.5456074,-39.251488,-61.344147,-7.302002,0.0,0.0,0.0,-2.55,-3.9199998,0.0,0.0,0.0,0.0,0.0,0.0,0.0,0.0,-2.134089,488.83002,0.0,0.0,0.0,0.0,0.0,0.0,inf,inf,inf,inf,1,1,1,1,0,0,0,0,1,1,0
2078588000,0,47.3977508,8.5456074,-39.507233,-61.735546,-7.302002,0.0,0.0,0.0,-2.55,-3.9199998,0.0,0.0,0.0,0.0,0.0,0.0,0.0,0.0,-2.1338415,488.83002,0.0,0.0,0.0,0.0,0.0,0.0,inf,inf,inf,inf,1,1,1,1,0,0,0,0,1,1,0
2078692000,0,47.3977508,8.5456074,-39.774097,-62.14953,-7.300995,0.0,0.0,0.0,-2.55,-3.9299998,0.0,0.0,0.0,0.0,0.0,0.0,0.0,0.0,-2.1336515,488.83002,0.0,0.0,0.0,0.0,0.0,0.0,inf,inf,inf,inf,1,1,1,1,0,0,0,0,1,1,0
2078796000,0,47.3977508,8.5456074,-40.04096,-62.555984,-7.300995,0.0,0.0,0.0,-2.55,-3.9299998,0.0,0.0,0.0,0.0,0.0,0.0,0.0,0.0,-2.1337748,488.83002,0.0,0.0,0.0,0.0,0.0,0.0,inf,inf,inf,inf,1,1,1,1,0,0,0,0,1,1,0
2078896000,0,47.3977508,8.5456074,-40.296703,-62.95491,-7.300995,0.0,0.0,0.0,-2.55,-3.9299998,0.0,0.0,0.0,0.0,0.0,0.0,0.0,0.0,-2.1337523,488.83002,0.0,0.0,0.0,0.0,0.0,0.0,inf,inf,inf,inf,1,1,1,1,0,0,0,0,1,1,0
2078996000,0,47.3977508,8.5456074,-40.55245,-63.346313,-7.3000183,0.0,0.0,0.0,-2.55,-3.9399998,0.0,0.0,0.0,0.0,0.0,0.0,0.0,0.0,-2.1337194,488.83002,0.0,0.0,0.0,0.0,0.0,0.0,inf,inf,inf,inf,1,1,1,1,0,0,0,0,1,1,0
2079092000,0,47.3977508,8.5456074,-40.797073,-63.730186,-7.3000183,0.0,0.0,0.0,-2.55,-3.9399998,0.0,0.0,0.0,0.0,0.0,0.0,0.0,0.0,-2.133638,488.83002,0.0,0.0,0.0,0.0,0.0,0.0,inf,inf,inf,inf,1,1,1,1,0,0,0,0,1,1,0
2079200000,0,47.3977508,8.5456074,-41.075054,-64.159225,-7.298004,0.0,0.0,0.0,-2.56,-3.9599998,0.01,0.0,0.0,0.0,0.0,0.0,0.0,0.0,-2.1335533,488.83002,0.0,0.0,0.0,0.0,0.0,0.0,inf,inf,inf,inf,1,1,1,1,0,0,0,0,1,1,0
2079300000,0,47.3977508,8.5456074,-41.3308,-64.53557,-7.2960205,0.0,0.0,0.0,-2.56,-3.9599998,0.01,0.0,0.0,0.0,0.0,0.0,0.0,0.0,-2.1334114,488.83002,0.0,0.0,0.0,0.0,0.0,0.0,inf,inf,inf,inf,1,1,1,1,0,0,0,0,1,1,0
2079396000,0,47.3977508,8.5456074,-41.575424,-64.91944,-7.2940063,0.0,0.0,0.0,-2.56,-3.9599998,0.02,0.0,0.0,0.0,0.0,0.0,0.0,0.0,-2.1335711,488.83002,0.0,0.0,0.0,0.0,0.0,0.0,inf,inf,inf,inf,1,1,1,1,0,0,0,0,1,1,0
2079496000,0,47.3977508,8.5456074,-41.842285,-65.33343,-7.291992,0.0,0.0,0.0,-2.56,-3.9599998,0.02,0.0,0.0,0.0,0.0,0.0,0.0,0.0,-2.1335864,488.83002,0.0,0.0,0.0,0.0,0.0,0.0,inf,inf,inf,inf,1,1,1,1,0,0,0,0,1,1,0
2079599999,0,47.3977508,8.5456074,-42.10915,-65.747406,-7.2900085,0.0,0.0,0.0,-2.56,-3.9599998,0.02,0.0,0.0,0.0,0.0,0.0,0.0,0.0,-2.1336453,488.83002,0.0,0.0,0.0,0.0,0.0,0.0,inf,inf,inf,inf,1,1,1,1,0,0,0,0,1,1,0
2079700000,0,47.3977508,8.5456074,-42.364895,-66.14634,-7.287018,0.0,0.0,0.0,-2.57,-3.97,0.02,0.0,0.0,0.0,0.0,0.0,0.0,0.0,-2.1336532,488.83002,0.0,0.0,0.0,0.0,0.0,0.0,inf,inf,inf,inf,1,1,1,1,0,0,0,0,1,1,0
2079800000,0,47.3977508,8.5456074,-42.620636,-66.545265,-7.2850037,0.0,0.0,0.0,-2.57,-3.97,0.02,0.0,0.0,0.0,0.0,0.0,0.0,0.0,-2.133599,488.83002,0.0,0.0,0.0,0.0,0.0,0.0,inf,inf,inf,inf,1,1,1,1,0,0,0,0,1,1,0
2079904000,0,47.3977508,8.5456074,-42.8875,-66.94419,-7.282013,0.0,0.0,0.0,-2.57,-3.98,0.02,0.0,0.0,0.0,0.0,0.0,0.0,0.0,-2.1334138,488.83002,0.0,0.0,0.0,0.0,0.0,0.0,inf,inf,inf,inf,1,1,1,1,0,0,0,0,1,1,0
