timestamp,timestamp_sample,xyz[0],xyz[1],xyz[2]
2051220000,2051220000,0.002130466,0.00077353325,-0.00052921625
2051231999,2051231999,0.0034475494,0.0037121703,0.0036385094
2051244000,2051244000,-0.00015865976,0.00034615956,-0.0048061484
2051256000,2051256000,0.0012719338,-0.0006850958,-0.004168912
2051264000,2051264000,-0.0020532417,-0.0015721563,-0.004183595
2051280000,2051280000,0.005423688,-0.0021969127,0.0027542668
2051291999,2051291999,0.005141936,-2.6682392e-06,9.536196e-05
2051304000,2051304000,-0.0049114977,4.619686e-05,-0.0033629648
2051316000,2051316000,0.0032300302,-0.0015986082,0.0016173199
2051327999,2051327999,-0.0012910108,0.00506522,0.0024448042
2051340000,2051340000,-0.00034342648,0.00546118,-0.0007932519
2051352000,2051352000,0.0007454923,0.004858408,0.0005455553
2051364000,2051364000,0.002082409,0.00427256,0.001952396
2051376000,2051376000,0.00074347307,-0.0036892854,0.0036349546
2051387999,2051387999,0.0017772538,0.0011771647,0.0054876683
2051400000,2051400000,-0.0005518936,0.0001961221,0.006753456
2051407999,2051407999,0.001212032,0.0036852797,0.0046602804
2051420000,2051420000,0.0018062496,2.1266285e-05,-0.00047494422
2051436000,2051436000,-0.005180553,-0.00092447223,0.0018195068
2051448000,2051448000,-0.003968375,-0.0012600776,-0.00038647663
2051456000,2051456000,-0.0053671836,0.004202159,0.0011624116
2051472000,2051472000,8.3251856e-05,-0.0012934799,-0.00033360938
2051483999,2051483999,-0.0003113906,-0.00031482102,0.004031085
2051492000,2051492000,0.0020330378,-0.0022287848,-0.0010730599
2051508000,2051508000,-0.002071796,-0.0003697141,0.00022254518
2051520000,2051520000,-0.002586936,0.0026112585,0.003594621
2051532000,2051532000,-0.0017925801,0.004807625,0.005353629
2051543999,2051543999,5.8827107e-05,0.004521381,0.004517445
2051556000,2051556000,-0.001306011,4.8410147e-06,0.0025930186
2051568000,2051568000,-0.000975415,0.0014046882,0.0002622325
2051579999,2051579999,-0.0023025372,-0.00062965974,-0.0035026586
2051592000,2051592000,0.0014812443,0.0027585537,-0.0012203332
2051604000,2051604000,-0.00030314573,0.003978694,-0.0014300579
2051616000,2051616000,-0.00053714006,0.0023152544,0.0033670487
2051628000,2051628000,-0.0010653514,0.0034688225,0.004685055
2051639999,2051639999,-0.0042191152,5.4067932e-05,0.001467391
2051652000,2051652000,0.0021317159,0.0049190624,0.0040273606
2051664000,2051664000,-0.0051636505,0.0013181069,0.004143546
2051675999,2051675999,-0.0050412095,-0.0036909562,8.2582e-05
2051688000,2051688000,0.00088630884,-0.0019964185,0.0019367263
2051695999,2051695999,0.00043858844,-4.5970548e-05,0.004373999
2051712000,2051712000,-0.0020068125,0.0015677796,0.0024832238
2051720000,2051720000,-0.00023448991,0.00097571313,0.0027606087
2051735999,2051735999,-0.00013636437,-0.001994472,0.0030607933
2051744000,2051744000,-0.0014268074,-0.00035376986,0.0024563037
2051760000,2051760000,0.002167283,-0.0028825328,0.0032735732
2051768000,2051768000,-0.0033426667,0.000735512,-0.00074742455
2051784000,2051784000,-0.0024524205,-0.000106991734,0.0010553398
2051796000,2051796000,0.0028631764,0.0049411156,-0.0007460225
2051808000,2051808000,-0.0047958544,-5.6512654e-06,-0.0067744288
2051820000,2051820000,-0.0017781287,0.003070461,-0.0029688117
2051827999,2051827999,-0.0020125965,0.0015233695,0.00066543755
2051844000,2051844000,-0.0016098174,0.00071296934,0.0035221796
2051856000,2051856000,0.00094531593,-0.0003604181,0.0036551002
2051867999,2051867999,0.0017937775,0.0007896391,0.0014919223
2051880000,2051880000,-0.00402545,-0.0013614986,-0.0017718312
2051892000,2051892000,-0.00040721777,-0.002468618,0.0014198378
2051904000,2051904000,-0.0063431407,-0.002976337,-0.00069224776
2051916000,2051916000,-0.0033301713,-0.003093713,-0.0021831673
2051927999,2051927999,-0.0013838718,-0.001104869,0.0009679515
2051936000,2051936000,0.0007455342,0.00028626528,0.00081109034
2051952000,2051952000,0.0005900492,-0.0012722337,-0.002772545
2051963999,2051963999,-0.00090022327,0.0031769215,0.0002581532
2051972000,2051972000,-0.002094681,0.0064819255,0.00026189222
2051983999,2051983999,0.0034585022,0.003117599,0.0021163258
2052000000,2052000000,-0.0017981514,0.0002801884,-0.00200367
2052012000,2052012000,-0.00038300408,-6.130943e-05,0.0013752601
2052023999,2052023999,0.0018335745,-0.0024158875,0.0011700398
2052036000,2052036000,-0.00034662732,-0.0019409447,-0.0007401878
2052048000,2052048000,-0.0013444492,0.0040921466,0.0012415971
2052059999,2052059999,-0.00015967444,0.0018047495,0.0014116401
2052072000,2052072000,0.0034507203,0.0028728093,-0.00057179626
2052084000,2052084000,0.0041506463,0.0032873442,0.003946914
2052096000,2052096000,0.0014928461,0.0014409958,0.0016413797
2052108000,2052108000,0.0023419412,0.0051367693,-0.00096527586
2052116000,2052116000,0.0016959151,0.0042879665,-0.005925294
2052132000,2052132000,0.0018882272,-0.0005377312,0.0046553127
2052144000,2052144000,0.008487991,0.0027442835,0.0015518662
2052155999,2052155999,0.001489512,7.7402685e-05,-0.00041954184
2052168000,2052168000,-0.001264737,0.0010223263,0.00091584615
2052180000,2052180000,-0.0021715933,0.00014558295,0.0023756751
2052192000,2052192000,-0.0013327433,-0.0006277687,-0.00021424881
2052204000,2052204000,-0.006815096,-0.00014086161,-0.0021781835
2052215999,2052215999,-0.0012015307,0.0037033549,0.0036483854
2052228000,2052228000,0.0014248397,0.0005973559,-0.0015300418
2052240000,2052240000,0.003365649,0.0019937712,-0.0025409795
2052251999,2052251999,-0.00034787075,0.00079560466,0.0020103392
2052264000,2052264000,0.0016523695,0.0010495554,0.002406594
2052276000,2052276000,-0.0018279047,-0.0019144006,6.8885565e-05
2052288000,2052288000,-0.0019806721,0.0022788383,-0.004768013
2052300000,2052300000,-0.0033209207,0.0044503645,0.0028207176
2052311999,2052311999,0.00029003317,0.0037322347,0.002553351
2052320000,2052320000,0.0009276841,0.0024993885,-0.0009860467
2052336000,2052336000,0.0050728163,-0.0060578836,-0.0015088622
2052344000,2052344000,-0.00015542877,-0.0018427842,-0.0005409537
2052356000,2052356000,-0.0008616244,-0.0025545587,0.0004557604
2052372000,2052372000,-0.0069790967,0.001475797,-0.0005055097
2052384000,2052384000,-0.0026004124,0.004284907,0.0043914677
2052396000,2052396000,0.0033061597,-0.0035678665,0.0012465443
2052407999,2052407999,0.0015890822,0.00015495159,0.0010557063
2052420000,2052420000,-0.0012838284,0.00021066237,0.0025772047
2052432000,2052432000,-0.0033313646,-0.0029803272,0.003964111
2052443999,2052443999,-0.0028220024,0.0041532726,0.003912155
2052456000,2052456000,0.00069549493,0.0056372792,0.0040305997
2052463999,2052463999,7.932773e-06,0.0012458079,0.0016077182
2052480000,2052480000,0.0010162799,-0.0057278397,0.0022391556
2052492000,2052492000,0.00020191667,-0.0015225662,-0.0031489187
2052503999,2052503999,0.0019870987,-0.0013771071,0.0010201256
2052516000,2052516000,0.005977029,0.002728608,-0.0014322011
2052528000,2052528000,-0.001559912,0.0013409494,-0.00534868
2052536000,2052536000,0.00012748025,0.0004267497,-0.004330706
2052552000,2052552000,-0.0017170988,0.0014261287,-0.0033133044
2052564000,2052564000,-0.0021216434,0.000462431,0.0006666582
2052576000,2052576000,-0.00025063707,0.0021026903,0.0012752048
2052588000,2052588000,0.0045333174,-0.0032995879,-0.0048412834
2052599999,2052599999,-0.0018791017,-0.0012712884,0.001969643
2052612000,2052612000,-0.0019822873,0.0014393167,0.0017594112
2052619999,2052619999,0.001969212,-0.00292067,-0.00128718
2052635999,2052635999,-0.0022209804,-0.0028381315,0.00021992857
2052644000,2052644000,0.0034025388,-0.0006990894,0.0053405967
2052655999,2052655999,-0.00043038395,-0.0010283268,0.0018268541
2052672000,2052672000,0.0023931493,0.002429932,-0.0007340867
2052684000,2052684000,0.0012220787,-7.11903e-05,-0.00035802711
2052695999,2052695999,-0.0006348769,0.0011610342,0.00097156805
2052708000,2052708000,0.0020973173,0.0035265118,0.0010540979
2052720000,2052720000,-0.0027165688,8.0212485e-05,-0.004419816
2052731999,2052731999,-0.00023364299,-0.0010041348,0.0025517517
2052744000,2052744000,-0.005483606,0.0014332198,0.001543503
2052756000,2052756000,-0.0017934736,0.0008068043,0.004393515
2052768000,2052768000,0.002949844,-0.0007840153,-0.00096845475
2052780000,2052780000,0.0005796782,-0.00020624138,-0.0015392745
2052791999,2052791999,-0.0006118999,0.002342483,0.0020921663
2052800000,2052800000,-0.002047813,-0.0019667414,0.0022824397
2052816000,2052816000,-0.003486793,0.0008352781,0.0016088893
2052827999,2052827999,-0.004322508,-0.0022618328,0.006064627
2052840000,2052840000,-0.0029883073,-0.000722785,0.0017077241
2052852000,2052852000,0.0025581275,0.00172948,0.0012405093
2052860000,2052860000,0.0024019298,0.0031119895,-0.0016740708
2052872000,2052872000,-0.004784542,0.001990965,0.0020385473
2052887999,2052887999,-0.0007738648,0.00024264818,-0.0061887414
2052900000,2052900000,8.514873e-05,-0.001729941,-0.0019696658
2052912000,2052912000,0.0016577467,0.0009386139,-0.0024389243
2052924000,2052924000,0.00048607145,0.0031033498,-0.002382177
2052936000,2052936000,0.00054451684,0.0037349844,-0.0041434374
2052948000,2052948000,-0.0018928098,0.004842761,0.00015190098
2052956000,2052956000,-0.0033678177,0.0014255126,0.0015365784
2052972000,2052972000,0.0009239762,-0.0020414758,-0.00062426284
2052983999,2052983999,0.006505207,-0.0029236637,-0.00441546
2052996000,2052996000,0.019748129,-0.0060586846,0.0019028669
2053003999,2053003999,0.028614268,-0.011535525,0.00150935
2053020000,2053020000,0.052980196,-0.037310515,-0.003955694
2053032000,2053032000,0.07470498,-0.067883834,-0.004480567
2053043999,2053043999,0.09291271,-0.09998975,-0.0045894803
2053056000,2053056000,0.11966159,-0.12878633,0.002184876
2053068000,2053068000,0.12763663,-0.14448194,-0.0056297965
2053076000,2053076000,0.13308285,-0.14439397,-0.0074087153
2053092000,2053092000,0.116074316,-0.13150738,-7.864169e-05
2053104000,2053104000,0.10645563,-0.11798253,-0.00035144473
2053116000,2053116000,0.09053328,-0.11210681,-0.0009452641
2053128000,2053128000,0.07807136,-0.097552724,0.0009435784
2053139999,2053139999,0.06642877,-0.08106943,-0.0011111537
2053152000,2053152000,0.056676626,-0.07223382,-0.0038145026
2053164000,2053164000,0.04371551,-0.06640406,-0.0013214722
2053175999,2053175999,0.035139307,-0.047233604,-0.00319742
2053188000,2053188000,0.021773398,-0.03355993,-0.005236823
2053200000,2053200000,0.0046737595,-0.022287255,-0.003173424
2053212000,2053212000,-0.0043277913,-0.01583437,-0.00020378054
2053224000,2053224000,-0.008270105,-0.009294657,0.0017698731
2053235999,2053235999,-0.019573718,0.002701202,-0.0036533743
2053248000,2053248000,-0.028150175,0.015705252,-0.002964706
2053256000,2053256000,-0.034258578,0.017691601,-0.0018267836
2053271999,2053271999,-0.043739013,0.02004824,-0.0015256581
2053284000,2053284000,-0.039010417,0.029073268,-0.006062957
2053291999,2053291999,-0.03750316,0.03308036,-0.0045994706
2053308000,2053308000,-0.042804748,0.03496591,-0.0035528291
2053320000,2053320000,-0.041713666,0.03743138,-0.00021627446
2053331999,2053331999,-0.048177276,0.040745385,0.0023858598
2053340000,2053340000,-0.050149214,0.042235553,0.0056799175
2053352000,2053352000,-0.052332878,0.04307629,-0.00030263548
2053364000,2053364000,-0.054663174,0.037294727,-0.0015276149
2053380000,2053380000,-0.04963454,0.03706227,0.0043458175
2053392000,2053392000,-0.041839086,0.042239085,0.0011207571
2053404000,2053404000,-0.040150296,0.042163778,0.0014555501
2053416000,2053416000,-0.03835995,0.037619486,6.033975e-05
2053427999,2053427999,-0.0399886,0.04007984,-0.0032578022
2053436000,2053436000,-0.04043361,0.040338647,0.0004172885
2053452000,2053452000,-0.03993497,0.040357538,0.0024331268
2053463999,2053463999,-0.034449812,0.04277825,-0.0017324272
2053476000,2053476000,-0.03300369,0.04210677,-0.0024045939
2053488000,2053488000,-0.023653893,0.03958904,-0.0013965042
2053500000,2053500000,-0.023462728,0.04161399,0.0022033309
2053508000,2053508000,-0.028012497,0.044337332,0.0009801597
2053523999,2053523999,-0.022260211,0.034895796,-0.008214719
2053536000,2053536000,-0.02247991,0.034528352,0.003475777
2053548000,2053548000,-0.02096891,0.03181719,0.0019656455
2053556000,2053556000,-0.018164592,0.030134916,-7.255265e-05
2053572000,2053572000,-0.018741375,0.023499748,-0.00172447
2053584000,2053584000,-0.015983073,0.020822883,-0.0019404441
2053596000,2053596000,-0.016194746,0.018222015,-0.0060412763
2053608000,2053608000,-0.014954325,0.012896185,0.0003620822
2053619999,2053619999,-0.015178064,0.011731329,4.5501103e-05
2053628000,2053628000,-0.011113804,0.007974013,0.00013311021
2053644000,2053644000,-0.0155347735,0.0024078297,-0.00013594117
2053652000,2053652000,-0.015600523,0.0036087777,-0.0032820865
2053668000,2053668000,-0.012476404,0.007034578,0.0009084674
2053680000,2053680000,-0.010980014,0.0033049225,0.00035413034
2053688000,2053688000,-0.017974863,0.002925957,0.00092018524
2053704000,2053704000,-0.023692183,0.0020015435,0.0045622992
2053715999,2053715999,-0.017288145,-0.0013276786,-0.0033512493
2053728000,2053728000,-0.010596302,-0.0022100112,-0.0043305205
2053740000,2053740000,-0.0062205987,0.001454046,0.004960296
2053751999,2053751999,-0.0072394344,0.006591489,0.0029885625
2053764000,2053764000,0.0039583286,-0.00034676027,-0.0035745925
2053776000,2053776000,-0.00039964798,0.0018077474,0.002685011
2053788000,2053788000,-0.0008562503,0.006457768,0.00051682873
2053796000,2053796000,-0.0018877895,0.0047298362,-8.667426e-05
2053811999,2053811999,0.0018936077,0.0058922693,0.0019398773
2053824000,2053824000,-0.0015442839,0.0037324943,0.0028421527
2053836000,2053836000,-0.003585868,0.00036805915,0.0009628093
2053847999,2053847999,0.0035759094,0.006712521,-0.0029904996
2053860000,2053860000,0.0012118595,0.0076701986,-0.0029991572
2053872000,2053872000,0.0008166892,0.010162753,-0.007786342
2053884000,2053884000,0.00913039,0.011969369,-0.00059693446
2053892000,2053892000,0.007909097,0.008713447,0.0015012899
2053907999,2053907999,-0.0013838146,0.011019452,0.0032587624
2053920000,2053920000,0.0018581841,0.009327037,0.0005013862
2053932000,2053932000,0.0014921058,0.008634656,-0.0005434619
2053943999,2053943999,-0.0012878621,0.013543058,-0.004000784
2053956000,2053956000,-0.004300131,0.011102751,0.0018213142
2053968000,2053968000,-0.003004985,0.010292305,0.0031292893
2053980000,2053980000,-0.003865614,0.0057009533,0.0033759377
2053988000,2053988000,-0.0008417015,-0.00060612755,0.0034006685
2054003999,2054003999,1.3048411e-05,0.0034265881,-0.0041724285
2054016000,2054016000,-0.002421967,0.003542592,0.0005723111
2054028000,2054028000,-0.005873817,5.6196004e-06,0.0034312808
2054039999,2054039999,-0.0058662305,0.004519658,0.0031923254
2054052000,2054052000,-0.011260993,0.0046543395,0.0029955367
2054064000,2054064000,-0.006273899,0.0069718543,0.00040468195
2054076000,2054076000,-0.011558714,0.0025458015,-0.0035639296
2054088000,2054088000,-0.0092190895,0.0057225544,-0.0008594461
2054099999,2054099999,-0.010412266,0.0027892157,0.0034983375
2054112000,2054112000,-0.011064171,-5.608145e-05,-0.0004602024
2054124000,2054124000,-0.010673321,0.0037310924,-0.0030437482
2054135999,2054135999,-0.0048799547,0.0017463923,-0.0041628215
2054148000,2054148000,-0.010346492,0.007505466,-0.0034773587
2054160000,2054160000,-0.008633145,0.0063612936,0.00046182994
2054172000,2054172000,-0.0009981489,0.0071444735,0.0014224974
2054180000,2054180000,-0.0015186626,0.0070955106,-0.00206448
2054195999,2054195999,-0.0056520524,-0.00026168674,-0.0045215143
2054208000,2054208000,-0.007768271,-0.00046335394,-0.0022007152
2054215999,2054215999,-0.0068342555,-0.00082214037,0.000140407
2054231999,2054231999,-0.0032664256,-0.004198842,-0.0038267435
2054244000,2054244000,0.0013903461,0.0005089687,0.0021524862
2054256000,2054256000,0.0025412417,0.002010455,0.0031352767
2054268000,2054268000,0.0054707523,-4.636962e-05,-0.0028047492
2054280000,2054280000,0.0031381315,0.008874424,-0.0025921338
2054288000,2054288000,0.0065494664,0.005907148,0.002642797
2054300000,2054300000,0.007103631,-0.00058576046,-0.00037717604
2054311999,2054311999,0.0060181576,-0.0018257471,-0.00031742427
2054327999,2054327999,0.008005387,-0.004150537,-0.00027698543
2054340000,2054340000,0.012442535,-0.006764157,-0.0025442129
2054347999,2054347999,0.0070724776,-0.0033509736,0.0028439048
2054360000,2054360000,0.0059596435,0.0032991157,0.005419644
2054376000,2054376000,-0.0011179869,0.00426046,0.0013632218
2054384000,2054384000,-0.005631255,0.0066102287,-0.0011591553
2054400000,2054400000,-0.010462357,0.010252776,0.0006066
2054412000,2054412000,-0.015403706,0.01139125,0.0025394035
2054424000,2054424000,-0.0092812795,0.008425381,0.0061516
2054432000,2054432000,-0.0019529207,0.007384802,0.0011756496
2054448000,2054448000,-0.0028678807,-0.0013899007,0.007160064
2054460000,2054460000,-0.0021189544,0.0037430704,0.00724262
2054472000,2054472000,-0.006154377,0.0067111976,0.0036404019
2054483999,2054483999,-0.0021698447,0.0056714006,-0.0012950161
2054496000,2054496000,-0.010687184,0.0036057164,0.00012468244
2054508000,2054508000,-0.0118862055,-0.0021651294,0.0044324724
2054516000,2054516000,-0.009155485,-0.0052768826,0.0031340104
2054532000,2054532000,0.00042295002,0.00078948494,-0.003465926
2054543999,2054543999,-0.00035923836,0.0007060277,-0.0012255574
2054556000,2054556000,0.0019765047,0.0005461159,-0.004585192
2054564000,2054564000,0.0012162335,-0.0020918213,-0.0002854897
2054579999,2054579999,0.0022752543,0.0017194119,-0.0021246236
2054592000,2054592000,0.00398253,-0.006173366,0.0054860176
2054604000,2054604000,0.00065907,-0.008384734,0.0035471434
2054612000,2054612000,-0.0006418271,-0.006327619,0.00070985284
2054624000,2054624000,0.0028428957,-0.008452865,0.000779596
2054639999,2054639999,0.00024489034,-0.004673881,0.0029320866
2054652000,2054652000,-0.0022462418,0.0030327886,-0.0064410684
2054664000,2054664000,0.001649695,0.003130745,0.003086365
2054675999,2054675999,-0.00035018555,0.0025575068,0.0026774667
2054688000,2054688000,-0.004679565,0.007475973,9.778101e-05
2054700000,2054700000,-0.0013834111,0.0070043243,-0.0015977747
2054708000,2054708000,-0.006701443,0.005451321,-0.0011113698
2054720000,2054720000,-0.0024678241,-0.0013941531,0.0017539889
2054735999,2054735999,-0.004667966,0.0064534354,-0.0021967222
2054748000,2054748000,-0.002703067,0.004323299,0.0012259096
2054760000,2054760000,0.00074043486,-0.0020370581,-0.004449137
2054771999,2054771999,0.0053387666,-0.007893684,0.008079321
2054784000,2054784000,0.0023745275,-0.008517104,0.008613676
2054791999,2054791999,0.0062886607,-0.0069392063,0.00705865
2054808000,2054808000,0.016261548,-0.010093178,0.0047984836
2054816000,2054816000,0.011739062,-0.009194998,0.006545734
2054831999,2054831999,0.011480977,-0.008194643,0.011519981
2054844000,2054844000,0.0020757674,-0.008716385,0.011100688
2054856000,2054856000,0.0051169097,-0.0065500624,0.010585094
2054867999,2054867999,0.007866823,-0.0056841657,0.016751627
2054880000,2054880000,0.0033733041,-0.006162863,0.01292211
2054892000,2054892000,-0.00030351826,-0.0033291345,0.01096386
2054904000,2054904000,-0.0050526587,-0.0026893076,0.013990479
2054916000,2054916000,-0.003367722,-0.0060179597,0.014990641
2054927999,2054927999,-0.0030771843,0.0029527056,0.018146962
2054936000,2054936000,0.0010457564,0.0031833714,0.01715204
2054952000,2054952000,0.00015378057,-0.0016410388,0.010142593
2054963999,2054963999,0.0015304419,0.002720499,0.010701548
2054976000,2054976000,0.0045724465,0.0050836145,0.01009109
2054988000,2054988000,0.0060336962,0.012608776,0.017027114
2055000000,2055000000,0.0022181317,0.007551249,0.010120387
2055012000,2055012000,-0.0027495031,-0.0004575639,0.009539266
2055023999,2055023999,-0.0030368022,0.0006636474,0.0073962985
2055036000,2055036000,-0.0041327747,0.002268149,0.00934491
2055048000,2055048000,0.0010781131,0.0007466539,0.005696325
2055059999,2055059999,-0.0026196372,-0.0023481618,0.008568029
2055072000,2055072000,-0.0014252728,-0.0024452237,0.0102635445
2055084000,2055084000,-0.0019996858,-0.0015187785,0.010170347
2055096000,2055096000,0.0017021404,0.002841321,0.007834395
2055108000,2055108000,-0.002699728,-0.0007399013,0.008548996
2055119999,2055119999,-0.01122901,-0.0080662165,0.007549486
2055128000,2055128000,-0.011002967,-0.004914037,0.008064837
2055144000,2055144000,-0.007494796,0.006439489,0.0010684452
2055152000,2055152000,-0.0063108876,0.0034475578,0.0061620846
2055168000,2055168000,-0.0036040067,0.0062706326,0.005948348
2055180000,2055180000,6.2860665e-05,0.0055966196,0.0045865867
2055192000,2055192000,0.0051251203,0.002081925,0.008299664
2055200000,2055200000,0.0066236136,-0.0016351226,0.007572723
2055212000,2055212000,0.009074107,0.0026028194,0.0039286236
2055228000,2055228000,0.00060349994,0.003191539,-0.0018714598
2055240000,2055240000,0.0011246689,0.0025776788,0.0035795192
2055251999,2055251999,0.005103208,0.008545626,0.007361136
2055264000,2055264000,-0.0028808957,0.008676973,0.0059394003
2055276000,2055276000,-0.005995037,0.008676982,0.009175174
2055288000,2055288000,-0.009153791,0.009933381,0.00617025
2055300000,2055300000,-0.006091459,0.0075946557,0.0021302514
2055311999,2055311999,-0.00808811,0.0037881227,0.0048114606
2055324000,2055324000,-0.007831669,0.008483596,0.0072022956
2055336000,2055336000,-0.008733015,0.014087476,0.005729381
2055347999,2055347999,-0.009082685,0.010141146,0.004911312
2055360000,2055360000,-0.007772332,0.010744998,0.006561971
2055372000,2055372000,-0.008957695,0.00833743,0.0058130063
2055380000,2055380000,-0.007966501,0.007288119,0.0032217395
2055396000,2055396000,-0.010797797,0.0043943,-0.0021128051
2055407999,2055407999,-0.004498683,0.006922397,-0.00201696
2055420000,2055420000,-0.0043399725,0.0048025907,0.0024856143
2055432000,2055432000,-0.007273152,-0.0010786639,0.0012050862
2055443999,2055443999,-0.0012963242,-0.00030239066,0.00047861983
2055456000,2055456000,-0.0013663141,0.0064618792,0.0048909187
2055468000,2055468000,-0.0043982863,0.004125205,0.0011432031
2055480000,2055480000,-0.0059564817,0.0071019907,-0.0010850155
2055492000,2055492000,-0.0055081635,0.0036788636,0.001480327
2055503999,2055503999,-0.0030822135,0.00386699,-0.0019844696
2055516000,2055516000,-0.00016959605,0.002997046,6.2590116e-05
2055528000,2055528000,-0.0015620018,0.005196808,-0.00016368629
2055539999,2055539999,-0.0017806275,0.0075640874,-0.0026243092
2055552000,2055552000,0.0026898761,0.0010594954,0.002807754
2055559999,2055559999,6.255065e-05,-0.0016764067,-0.0010016736
2055572000,2055572000,-0.009274287,-0.0052865352,0.0007456535
2055584000,2055584000,-0.008691095,-0.002715006,-0.001825251
2055596000,2055596000,-0.0065543232,-0.0046184584,0.0007726629
2055612000,2055612000,0.0039874827,-0.004271061,-0.0007857018
2055624000,2055624000,-0.0010600628,-0.0062593943,-0.0038613481
2055635999,2055635999,-0.008167828,-0.0020891177,0.0001659817
2055644000,2055644000,-0.007297379,-0.0028832625,-0.003662663
2055660000,2055660000,-0.0021972675,-0.0099189365,0.0023261162
2055672000,2055672000,-0.0064854505,-0.013312314,0.0032413653
2055680000,2055680000,-0.01194223,-0.010270979,0.00069901056
2055695999,2055695999,-0.007959336,-0.0017213398,0.0012065131
2055704000,2055704000,-0.010911683,0.00036872318,-0.0012533327
2055720000,2055720000,-0.0066866106,0.0037393845,-0.0019770788
2055728000,2055728000,-0.00563655,0.0011719889,0.00040873332
2055744000,2055744000,-0.00584709,0.005380162,0.0027972711
2055756000,2055756000,-0.002890938,0.005960543,0.002588027
2055768000,2055768000,0.0066810963,0.009067424,-0.0020927214
2055776000,2055776000,0.008394995,0.008965755,-0.0017994033
2055791999,2055791999,0.006514852,0.003017732,1.6234117e-06
2055800000,2055800000,0.002160103,-0.0008014948,-0.0036494841
2055816000,2055816000,-0.00039179658,-0.000107661355,-0.0093249
2055831999,2055831999,0.0011998303,-0.0031933486,-0.0031270953
2055840000,2055840000,-0.004009183,-0.00012035109,-0.002567539
2055852000,2055852000,-0.0015165114,0.0037419207,-0.0022188558
2055867999,2055867999,-7.634633e-06,0.00051857065,-0.00081335555
2055880000,2055880000,0.00036217854,0.00782323,0.0031742658
2055892000,2055892000,-0.007959111,0.0064713717,0.0025722475
2055904000,2055904000,-0.0069428273,0.001383876,0.0013166205
2055916000,2055916000,-0.00387096,0.0069863116,0.001619386
2055924000,2055924000,-0.007730593,0.0049788584,-0.00096925255
2055940000,2055940000,0.0010881411,0.002649786,-0.0031880436
2055952000,2055952000,-0.0040539657,0.007216859,-0.0029107495
2055960000,2055960000,-0.007914931,0.0036775444,-0.0029379241
2055972000,2055972000,-0.01162104,0.007149826,-0.0012762288
2055988000,2055988000,-0.014817563,0.0031148698,-0.00409768
2056000000,2056000000,-0.010909457,-0.0019664108,-0.00067227054
2056012000,2056012000,-0.0060819206,-0.0046455087,-0.0064380486
2056023999,2056023999,-0.00043844618,-0.0030558947,-0.0021141781
2056036000,2056036000,0.0009910766,-0.0050113327,-0.0036237626
2056048000,2056048000,0.004183275,-0.0077973274,0.0016484759
2056056000,2056056000,0.004977041,-0.0060063857,-0.0011817089
2056072000,2056072000,0.009425386,-0.0023629535,-0.0039222627
2056079999,2056079999,0.013050162,-0.001369542,-0.0012621882
2056096000,2056096000,0.012328556,0.002980825,-0.002967517
2056104000,2056104000,0.0073953676,0.00073790085,0.00011469133
2056119999,2056119999,0.007842526,-0.005826733,-7.827947e-05
2056132000,2056132000,-0.00025926554,-0.001216054,0.00023646979
2056144000,2056144000,0.0009748157,-0.0028534206,-0.002222328
2056155999,2056155999,0.0019580717,-0.0057722097,-0.00038072513
2056164000,2056164000,0.0028667431,-0.00913793,-0.00060179946
2056180000,2056180000,0.002567192,-0.0018435842,-0.003378259
2056192000,2056192000,0.00603217,0.006839091,-0.0015625496
2056204000,2056204000,0.0040451614,0.002039723,-0.0049407324
2056215999,2056215999,0.0034754234,-0.00013288064,-0.0038561022
2056224000,2056224000,0.0070129493,0.0010386906,-0.00020668007
2056235999,2056235999,0.0083579905,8.495385e-05,0.0029355371
2056251999,2056251999,-0.0023320904,-0.007010151,-0.0066109574
2056264000,2056264000,-0.00030991388,-0.005741514,0.00038867537
2056276000,2056276000,-0.002070173,-0.0029618014,-0.004340075
2056284000,2056284000,0.0026093312,-0.0026541557,-0.0016234396
2056300000,2056300000,0.0015129021,0.0023075026,-0.0003008933
2056311999,2056311999,0.0020982977,0.00547055,-0.00048239614
2056320000,2056320000,0.0027896524,0.009684843,0.0019257353
2056336000,2056336000,0.00015580538,0.010823697,-0.0003288861
2056344000,2056344000,0.0061031654,0.0024484317,-0.002486693
2056360000,2056360000,0.005316844,-0.0025081695,-0.002690114
2056372000,2056372000,0.0030104625,0.001816859,-0.0027489853
2056380000,2056380000,-0.0016306104,0.0067768088,-0.0048575504
2056392000,2056392000,-0.0004427965,0.012293798,-0.0028035175
2056407999,2056407999,0.006518062,0.008452465,0.0023002324
2056420000,2056420000,0.008142274,-0.001572662,-0.00349413
2056427999,2056427999,0.008878274,-0.005269488,-0.0015694932
2056443999,2056443999,-0.0014118014,-0.0047003026,-0.0037001616
2056456000,2056456000,-0.0022825017,-0.004153841,0.00016566698
2056468000,2056468000,-0.004006207,0.0056464737,0.0023891658
2056480000,2056480000,-0.00818426,0.007742932,-0.0013856277
2056492000,2056492000,-0.009058466,0.0018446869,0.0015433526
2056503999,2056503999,-0.009791287,0.010082444,-9.571671e-05
2056516000,2056516000,-0.0063925404,0.0154420575,0.00020942307
2056528000,2056528000,-0.011294952,0.012128222,0.00057442504
2056539999,2056539999,-0.010863552,0.012370754,0.0029315224
2056548000,2056548000,-0.0094794,0.0149709955,0.0039372705
2056559999,2056559999,-0.008582265,0.011421919,0.004874766
2056576000,2056576000,-0.010135322,0.009093368,0.0031821511
2056588000,2056588000,-0.007779774,0.0018420513,0.00032034982
2056596000,2056596000,-0.008363859,0.006290672,0.0011861539
2056612000,2056612000,-0.003554292,0.0063821753,0.0033965036
2056624000,2056624000,0.001829235,0.014118062,0.00035439926
2056635999,2056635999,0.0011928356,0.009829143,-0.0030704373
2056648000,2056648000,-0.0027559628,0.010438205,-0.0031358455
2056660000,2056660000,0.0036886455,0.007755302,-0.0016067394
2056672000,2056672000,0.0044927625,0.0033431475,-0.001146796
2056684000,2056684000,-1.33203575e-05,0.004138887,-0.0013195728
2056692000,2056692000,-0.0055261874,-0.00218728,0.0013280178
2056708000,2056708000,-0.0021387576,-0.0045272326,0.0023766456
2056715999,2056715999,-0.004059882,-0.008488474,0.003189395
2056731999,2056731999,-0.0026403645,-0.00080179516,-0.0018677707
2056748000,2056748000,-0.0004569298,-0.005923654,0.00014769501
2056756000,2056756000,-1.7040875e-06,-0.0057594934,0.0005105263
2056768000,2056768000,-0.0044532097,0.0005887314,0.004570176
2056780000,2056780000,-0.0007574209,-0.0050451243,0.0022005194
2056791999,2056791999,0.000108934124,-0.006194493,0.0014588041
2056808000,2056808000,-0.004288776,0.0018273182,-0.00030172546
2056816000,2056816000,-0.003595063,-0.00104257,0.0012264779
2056831999,2056831999,0.008190983,-0.00552941,0.0029359981
2056844000,2056844000,0.0012031982,-0.0038548312,0.00088916917
2056852000,2056852000,-0.0025245333,-0.0025306563,0.0017401676
2056867999,2056867999,-0.010079757,-0.0045971526,-0.00024890702
2056880000,2056880000,-0.014574381,-0.0035134233,0.005013602
2056887999,2056887999,-0.016721444,-0.0041860756,0.004213682
2056904000,2056904000,-0.00530463,-0.0052059083,0.0036051655
2056912000,2056912000,-0.0003588592,-0.002428542,0.008683065
2056927999,2056927999,-0.003959467,-0.0030449433,0.0030475988
2056940000,2056940000,-0.011884663,-0.0040886845,0.0024219633
2056952000,2056952000,-0.009976578,-0.0017246171,-9.136135e-05
2056960000,2056960000,-0.007987838,-6.7593064e-05,-0.0023708947
2056976000,2056976000,-0.0044324743,-0.0005698884,-0.00528519
2056983999,2056983999,0.0004140878,0.0024842904,-0.00012921615
2056996000,2056996000,0.0075826906,0.0024588523,0.0057391003
2057012000,2057012000,0.0055721905,0.0014664307,-0.0025660892
2057020000,2057020000,0.0012852654,0.0042426735,0.00230072
2057036000,2057036000,0.0071729817,0.0036273217,0.003267039
2057048000,2057048000,0.009968341,0.005800229,0.000542052
2057059999,2057059999,0.0058498564,0.0037050897,-0.0006722831
2057072000,2057072000,0.005254748,0.0036259172,0.0034425613
2057084000,2057084000,0.0043789763,0.009181403,-0.0021916584
2057092000,2057092000,0.0015372836,0.0062021227,-0.001208011
2057104000,2057104000,-0.006930776,0.00049801404,-0.0013893298
2057116000,2057116000,-0.011756107,0.0019277707,-0.0021313336
2057132000,2057132000,-0.009894287,0.0072587,-0.0036152648
2057144000,2057144000,-0.007556906,0.00092517585,-0.0017598139
2057155999,2057155999,-0.005393816,-0.00241323,-0.0022642764
2057164000,2057164000,-0.0037488847,-0.002181734,0.0010052763
2057180000,2057180000,0.00028472557,-0.008359395,-0.0014684065
2057192000,2057192000,-0.007923757,-0.008902956,-0.0032392675
2057200000,2057200000,-0.0046445974,-0.014856484,-0.0015653956
2057212000,2057212000,-0.0031355685,-0.016136164,0.0040625865
2057228000,2057228000,-0.0013282285,-0.00873789,0.0038466472
2057235999,2057235999,0.0019799867,-0.00778084,-0.001010925
2057248000,2057248000,0.003438328,-0.004979255,0.0011798228
2057264000,2057264000,0.002916336,0.0005593123,0.0012272324
2057276000,2057276000,-0.00033089833,-0.00089445664,0.0031669196
2057288000,2057288000,-0.0012189582,8.667633e-05,0.0015367125
2057300000,2057300000,-0.0019577933,0.0011832644,-0.002127277
2057311999,2057311999,0.0035571554,0.0012461981,0.010103135
2057324000,2057324000,0.00022759836,-0.00034232112,0.003906911
2057331999,2057331999,-0.0028110864,-0.0009666062,-0.00027207765
2057344000,2057344000,-0.0047428273,7.374864e-05,0.00036064116
2057360000,2057360000,-0.005544233,-0.00018432876,0.0049482156
2057372000,2057372000,-0.0041226307,-0.003413036,-0.0012712122
2057384000,2057384000,-0.0060356287,-0.0035214345,-0.0049274513
2057396000,2057396000,-0.005972025,0.0017236783,-0.0012975184
2057407999,2057407999,-0.0037967598,-0.00033284165,-0.00020252075
2057416000,2057416000,-0.008263339,-0.0023451396,-0.0008974535
2057427999,2057427999,-0.007998411,-0.005581618,0.0001726459
2057443999,2057443999,-0.004497542,-0.0048284763,-0.0014564826
2057456000,2057456000,-0.0060005905,-0.0053168,-0.0028875424
2057468000,2057468000,-0.0045113554,-0.0058578746,-0.0028437392
2057476000,2057476000,-0.0020314245,-0.0032521728,-0.00017388287
2057488000,2057488000,2.1317508e-05,0.0028932341,0.0024143734
2057503999,2057503999,-0.012623011,0.0073917042,0.0049678585
2057512000,2057512000,-0.01229524,0.004741041,0.0016993962
2057528000,2057528000,-0.003689581,0.005148093,-0.0012671757
2057539999,2057539999,-0.0049435794,0.0029081618,0.0028190468
2057552000,2057552000,-0.0064010457,0.004505624,0.0018776398
2057559999,2057559999,-0.006555769,0.00574777,0.0041295127
2057576000,2057576000,-0.0068747117,0.019941973,0.00044584292
2057584000,2057584000,-0.008105328,0.01946558,-0.0011647784
2057596000,2057596000,-0.0025858353,0.015159212,-0.002367924
2057612000,2057612000,0.0013311467,0.008909397,-0.004486015
2057624000,2057624000,-0.001212952,0.00990084,-0.002049841
2057635999,2057635999,-0.0044498807,0.010285891,-0.0015901373
2057648000,2057648000,9.443797e-05,0.011949669,0.0031715198
2057660000,2057660000,0.0026385076,0.009553281,-0.00030034903
2057668000,2057668000,0.002492792,0.011055943,0.00086587627
2057680000,2057680000,0.0019307747,0.010197095,0.00037585478
2057695999,2057695999,-0.0028736377,0.017253686,-0.0009641762
2057708000,2057708000,0.0007785313,0.00992511,-0.00026765245
2057715999,2057715999,0.005671891,0.007853838,-0.004261625
2057731999,2057731999,0.0078030275,0.011923324,-0.0040612454
2057744000,2057744000,0.0037233364,0.012488311,0.0016823881
2057751999,2057751999,0.0036556895,0.008168986,-0.0016690709
2057764000,2057764000,0.0051870183,0.005962938,-0.0009722186
2057776000,2057776000,-0.0012763336,0.005251552,-0.0020237602
2057788000,2057788000,-1.7349957e-05,0.004101057,0.0059259413
2057804000,2057804000,0.005515225,0.0032896216,-0.0010260676
2057811999,2057811999,0.0063590286,-0.0022870814,-0.0023252934
2057827999,2057827999,-0.0063273017,-0.0012678872,-0.00057370093
2057840000,2057840000,-0.0048224255,-0.0007665241,-0.0014557728
2057847999,2057847999,-0.004517068,-0.0020136484,-0.0010967695
2057860000,2057860000,-0.0058412515,-0.0003150124,-0.0014359206
2057876000,2057876000,-0.0019595183,-0.00060623325,-0.0016123551
2057887999,2057887999,0.0038993878,0.00039439788,0.003070012
2057900000,2057900000,0.0010245775,-0.0059886277,0.00045382237
2057912000,2057912000,-0.0017767964,-0.0015374855,-0.0016073571
2057920000,2057920000,-0.0026521913,-0.0044195964,0.0005051173
2057932000,2057932000,-0.002948275,-0.00013744831,0.006782569
2057948000,2057948000,-0.011702661,-0.0010286602,0.0011778693
2057960000,2057960000,-0.014586559,-0.0026761815,0.00050788495
2057972000,2057972000,-0.0064766384,0.00036879024,-0.0013511945
2057983999,2057983999,0.0022166674,0.006022019,0.001639575
2057996000,2057996000,-0.0025993271,0.0069581857,0.0003438617
2058008000,2058008000,-0.0017671611,0.0028391522,-0.001868805
2058020000,2058020000,-0.0024157015,0.0010642647,-0.00044362788
2058032000,2058032000,-0.0008180939,0.0014027548,0.00020794367
2058043999,2058043999,-0.0015490087,-0.002618942,0.0015587886
2058056000,2058056000,0.002026786,0.0027267146,0.0027167988
2058068000,2058068000,-0.0005324058,0.005013396,0.004064128
2058079999,2058079999,0.00088443304,0.0032891647,-0.00113414
2058088000,2058088000,0.00032431644,0.0029471158,0.0009910746
2058104000,2058104000,0.0030940028,0.0029063162,-0.00084450183
2058116000,2058116000,0.0008443536,0.0008018948,0.0032229852
2058128000,2058128000,-0.0049653277,0.008656204,0.00072785566
2058139999,2058139999,-0.0009282939,0.008976931,0.0025320495
2058152000,2058152000,0.00042914716,0.010390619,0.0013514205
2058164000,2058164000,0.0016056065,0.005914947,0.0034526496
2058175999,2058175999,0.0055810413,0.0039003901,-0.0032798653
2058184000,2058184000,0.0058210203,0.0019022729,-0.0009150283
2058195999,2058195999,0.005586505,0.0050774715,-0.0006987609
2058212000,2058212000,0.006400816,0.01043894,0.0007340906
2058220000,2058220000,0.007596379,0.0057777804,-0.0003096793
2058235999,2058235999,0.0025650486,0.0035373985,-0.006475404
2058248000,2058248000,0.0038597567,0.0073821046,0.00016023207
2058256000,2058256000,0.0011853313,0.0027973596,-1.52283465e-05
2058271999,2058271999,-0.00040928158,0.0046285503,0.0022906598
2058284000,2058284000,0.0041294983,0.0077282605,0.0011750648
2058296000,2058296000,0.00093408336,0.006588857,-0.0025633008
2058308000,2058308000,0.0059539457,0.005989165,0.002150704
2058316000,2058316000,0.010174171,0.002247665,-0.0021360114
2058331999,2058331999,0.0067513804,0.005793598,-0.001122301
2058344000,2058344000,0.0058847847,0.0050876657,0.0043302104
2058356000,2058356000,0.006025667,0.0007876074,0.0015291913
2058364000,2058364000,0.0053900275,0.0013854173,0.001122797
2058380000,2058380000,0.0065556136,0.002050756,0.0027505362
2058387999,2058387999,0.0049169776,0.0011000009,0.0012922708
2058400000,2058400000,0.00463042,0.0017504967,0.0016545455
2058416000,2058416000,0.0023838617,-0.0024795434,0.0012741745
2058424000,2058424000,0.0029718769,0.0035404644,0.0015345647
2058436000,2058436000,0.008066323,0.006457457,0.0024813092
2058452000,2058452000,0.007102854,0.004340086,0.0043924237
2058463999,2058463999,0.008258924,0.0032698554,0.00032049319
2058476000,2058476000,0.00716468,-0.0023543597,0.0014719347
2058488000,2058488000,0.011028655,-0.0014458662,0.0003512508
2058500000,2058500000,0.008624017,-0.00075177755,-0.0012608435
2058512000,2058512000,0.0031881253,-0.0004130397,-0.0020038197
2058523999,2058523999,0.00024179812,0.008390826,0.0040027527
2058536000,2058536000,0.0009018362,0.0077785314,-0.0015553252
2058548000,2058548000,0.0007081281,0.004932342,-0.008218976
2058559999,2058559999,0.00096272456,0.0026117726,-0.003596966
2058568000,2058568000,0.0013009872,0.0040586516,-0.0020385953
2058579999,2058579999,-0.0036779772,0.0066836653,0.0016640862
2058592000,2058592000,-0.013773345,0.006454615,0.0030894096
2058608000,2058608000,-0.004282879,0.003661642,0.00035132305
2058619999,2058619999,-0.0029822201,0.0035570515,-0.0031696116
2058632000,2058632000,-0.0023233057,0.00013504131,0.00057677174
2058644000,2058644000,-0.0065459693,0.0017693588,-0.001163522
2058652000,2058652000,-0.005075683,0.0047929473,-0.0033097542
2058668000,2058668000,-0.00043711648,-0.0015706755,0.00089653744
2058680000,2058680000,0.0010533284,-0.012509419,-0.0016486242
2058692000,2058692000,0.012967268,-0.018602094,-0.0050546434
2058704000,2058704000,0.010420541,-0.020165585,-0.0027304993
2058715999,2058715999,0.0023013512,-0.015858134,0.00089046545
2058724000,2058724000,0.0019920648,-0.0138612855,-0.002568821
2058740000,2058740000,0.0023762113,-0.007232557,0.0011605065
2058751999,2058751999,-0.00041423005,-0.0028489018,0.005194811
2058764000,2058764000,0.000438918,0.002975796,0.0014327675
2058771999,2058771999,0.0011641795,0.0023341975,0.000664105
2058788000,2058788000,0.005543848,0.0070573953,0.0025031995
2058800000,2058800000,0.013951702,0.0022417596,0.0018685285
2058811999,2058811999,0.011831699,0.0049862005,0.0002809448
2058824000,2058824000,0.006908213,0.007394125,0.0012308874
2058831999,2058831999,0.0054722587,0.008109676,7.347937e-05
2058844000,2058844000,0.007851966,0.0043773293,-0.00060790026
2058860000,2058860000,0.0028123537,0.0037500896,0.00063729886
2058867999,2058867999,0.0065817703,0.0012375489,0.0006191762
2058884000,2058884000,0.008573778,0.0056398045,0.0013768051
2058896000,2058896000,0.013210713,0.0060336115,0.0015359386
2058904000,2058904000,0.009084127,0.009864036,0.0007384148
2058920000,2058920000,-0.00091874984,0.0055420995,0.001979292
2058932000,2058932000,-0.0074095763,-0.00093186134,-0.00044856517
2058940000,2058940000,-0.0057314616,-0.0033062855,0.00047475123
2058952000,2058952000,-0.0017814378,-0.0031685801,0.00070833485
2058968000,2058968000,0.0016324585,0.0032552995,-0.0031639123
2058980000,2058980000,-0.0057822876,0.0017127134,-0.0021053846
2058992000,2058992000,-0.0035308923,0.0038586555,-0.0028340446
2059000000,2059000000,-0.003255904,0.00050067203,-0.004382408
2059016000,2059016000,0.0066016493,-0.003263201,-0.005619398
2059028000,2059028000,-0.0016843622,-0.0040557235,-0.0019311248
2059036000,2059036000,-0.0044577965,0.0013045897,-0.0017068579
2059052000,2059052000,-0.007296867,0.006959267,0.0058977506
2059059999,2059059999,-0.008557327,0.007906088,0.008104181
2059072000,2059072000,-0.010232688,0.009439973,0.007832333
2059088000,2059088000,-0.01756445,0.0053257514,-0.00022686689
2059099999,2059099999,-0.012852278,0.0005120924,-0.002913213
2059112000,2059112000,-0.010128191,0.0007331902,0.002684219
2059124000,2059124000,-0.004838634,0.000572504,0.0025814804
2059135999,2059135999,-0.010576959,0.0046758857,0.002063106
2059148000,2059148000,-0.011335899,0.003133115,0.0032254022
2059160000,2059160000,-0.0041773687,0.00521907,0.0017121746
2059172000,2059172000,-0.0052943574,0.0061815185,-0.0011596587
2059180000,2059180000,-0.0017561365,0.002418166,-0.0007020956
2059192000,2059192000,-0.0021915527,0.0033147316,-0.0022341628
2059208000,2059208000,0.0034589907,0.0011597108,0.0009784041
2059220000,2059220000,0.0039223693,0.010841761,0.0037822584
2059231999,2059231999,0.008521024,0.011802891,0.0024388381
2059240000,2059240000,0.0061252103,0.0090570655,-0.00022153131
2059251999,2059251999,0.0033013434,0.009019036,-0.0006355235
2059268000,2059268000,0.0060413964,0.0026170593,-0.0028245752
2059276000,2059276000,0.005796357,0.0028477,-0.0011795593
2059296000,2059296000,0.0037324089,-0.0028510913,-0.0073950565
2059304000,2059304000,0.005392664,9.387033e-05,-0.006919806
2059320000,2059320000,0.0086204,0.0025357022,0.0037909008
2059327999,2059327999,0.009591696,0.00023977226,0.0010537972
2059344000,2059344000,0.016009709,-0.0010201978,-0.004051178
2059356000,2059356000,0.014621346,0.00013978733,-0.0033043113
2059364000,2059364000,0.012546598,0.0021872055,-0.0019096495
2059380000,2059380000,0.0074096643,-0.002256841,0.0013942318
2059387999,2059387999,0.0012606101,-0.004957175,-0.0015495822
2059404000,2059404000,-0.0037222928,-0.003878592,-0.0018146262
2059416000,2059416000,-0.0019162047,0.0044870796,-8.65676e-06
2059424000,2059424000,0.0071926853,0.0028029657,-0.0028296458
2059440000,2059440000,0.00423485,-0.004596044,0.0011160201
2059452000,2059452000,0.0037642615,-0.0006288523,0.0028919114
2059463999,2059463999,0.003160277,-0.0038480489,0.0022825971
2059476000,2059476000,0.008445009,-0.003039558,0.00012793468
2059488000,2059488000,0.011375699,0.0009078197,-0.002900758
2059500000,2059500000,0.007994018,0.0035470882,0.0036251047
2059512000,2059512000,0.0072477357,0.0047664093,0.00046083803
2059523999,2059523999,0.009057045,-0.0061841025,0.00044065196
2059536000,2059536000,0.010567273,-0.0032947701,0.001163261
2059548000,2059548000,0.0073847068,-0.004659401,-0.00011552713
2059559999,2059559999,0.008194372,-0.0044428017,0.0034073105
2059572000,2059572000,0.010522279,-0.0054418873,0.0046847556
2059584000,2059584000,0.014147446,-0.0017977152,9.830354e-05
2059596000,2059596000,0.01325552,-0.004687436,0.0011346526
2059608000,2059608000,0.0031044018,-0.008148694,-0.0032355112
2059619999,2059619999,0.0076168226,-0.0030041472,0.002014185
2059632000,2059632000,0.006042394,-0.0061321673,0.001384652
2059644000,2059644000,0.003389086,-0.0028865375,-0.005804913
2059655999,2059655999,0.00018278102,-0.00025315396,-0.0027965757
2059668000,2059668000,0.0014662638,0.0015654955,-0.0014026839
2059680000,2059680000,-0.0031589388,0.0017186403,0.002826278
2059688000,2059688000,-0.002055748,-0.0003968682,0.0041696513
2059704000,2059704000,-0.0006127319,0.00026433636,-0.00066718657
2059715999,2059715999,0.0026308913,0.00062446436,0.00074619736
2059728000,2059728000,0.0025689001,-0.0011114418,0.0027306804
2059740000,2059740000,0.0045914035,-0.00111316,0.00067302823
2059748000,2059748000,-0.0061112875,-0.0021157865,-0.0006568656
2059764000,2059764000,-0.0040812194,-0.00062741525,0.0014990943
2059776000,2059776000,-0.00026938552,0.002046632,0.002281608
2059788000,2059788000,-0.0022873478,0.005013339,-0.0015370131
2059800000,2059800000,-0.00835392,0.00250739,-0.0042144875
2059811999,2059811999,-0.006782028,0.0036790331,-0.0026537324
2059824000,2059824000,-0.008563223,0.0007449691,0.0038341852
2059836000,2059836000,-0.010559106,0.004563326,0.002967944
2059847999,2059847999,-0.010912006,0.004039636,-0.0042545637
2059860000,2059860000,-0.0062044514,0.004836089,0.0028969985
2059872000,2059872000,-0.0005593569,0.0032748682,0.0019954739
2059880000,2059880000,0.0027059615,0.009627995,-0.0030285404
2059892000,2059892000,0.002602086,0.0093068555,-0.0017856187
2059904000,2059904000,0.010881435,0.0011533774,-0.0035963145
2059920000,2059920000,0.0047750906,-0.0015127608,0.0011608632
2059932000,2059932000,0.0024936316,-0.007681811,0.0043909084
2059943999,2059943999,-0.0041916664,-0.0055898363,0.00084175926
2059952000,2059952000,-0.008113513,-0.0071520954,-0.0018935008
2059968000,2059968000,-0.003006501,-0.0061399834,-0.0023838347
2059980000,2059980000,-0.002698789,-0.0028446992,-0.0012802482
2059992000,2059992000,0.005263416,-0.0014092592,0.00042332464
2060003999,2060003999,0.0010107183,-0.005114589,-0.001917195
2060016000,2060016000,0.0010793774,-0.0031919312,-0.00034331082
2060028000,2060028000,0.0055279015,0.0014909818,0.0006218974
2060039999,2060039999,0.00868718,-0.0047690165,0.002819193
2060052000,2060052000,0.0029601573,-0.0018421025,0.0027951626
2060064000,2060064000,0.0063472167,0.010695806,0.0013662569
2060076000,2060076000,0.012189102,0.0059088776,0.0016116304
2060084000,2060084000,0.014720828,0.003195488,0.0033058142
2060099999,2060099999,0.00961177,0.005030847,-0.0035243586
2060112000,2060112000,0.0052617975,-0.00048815366,-0.0036437153
2060124000,2060124000,0.0014663823,0.0011307257,-0.0008498802
2060135999,2060135999,0.010244241,0.006728114,0.00092395773
2060148000,2060148000,0.007278267,0.0021443833,-0.0014690881
2060160000,2060160000,0.0014288207,0.0007633073,-0.001692118
2060172000,2060172000,0.0017781901,0.00068466226,0.0028538867
2060184000,2060184000,0.0016660306,0.00069966353,0.0005496495
2060195999,2060195999,0.0027282678,-0.0042167427,0.004334067
2060208000,2060208000,0.0024020658,-0.0029910235,0.001963319
2060220000,2060220000,0.0013209882,-0.005783133,0.002453858
2060231999,2060231999,0.006918931,-0.0017195158,-0.0028302302
2060244000,2060244000,0.008048446,-0.0037019695,-0.00056625623
2060256000,2060256000,0.00013302092,-0.005143967,0.00079428754
2060268000,2060268000,0.0021571615,-0.003448316,-0.006925063
2060276000,2060276000,0.0030835073,0.0019273842,-0.006163058
2060288000,2060288000,0.0025231414,-0.0015430548,0.0019306695
2060304000,2060304000,-0.005911303,0.0049743573,0.0020305994
2060311999,2060311999,-0.0056188647,0.0095052915,-0.0018609167
2060324000,2060324000,-0.008317401,0.005679366,-0.0014994424
2060340000,2060340000,-0.011472182,-0.0012988653,-0.0030107615
2060347999,2060347999,-0.009161628,-0.002841136,-0.0021415204
2060364000,2060364000,-0.009416954,0.0016511162,-0.0041900454
2060376000,2060376000,-0.011345218,-0.00044220733,0.006155317
2060387999,2060387999,-0.008510479,-0.002163588,0.006276212
2060400000,2060400000,-0.005619021,0.00024293968,-0.00051188126
2060412000,2060412000,-0.0004506897,0.0057322816,-0.0016546159
2060420000,2060420000,-0.0017020929,0.0070924684,0.0010523491
2060436000,2060436000,-0.0021872032,0.004373833,0.0007828896
2060448000,2060448000,0.0001397999,-0.0018529729,-0.002869272
2060460000,2060460000,0.0004417356,-0.004091167,0.001327124
2060468000,2060468000,0.0027318543,-0.008645707,0.003394036
2060480000,2060480000,0.007946149,-0.01254533,-0.00048788404
2060496000,2060496000,0.012894426,-0.008923063,0.00088190683
2060508000,2060508000,0.007990851,-0.003503413,0.00033729261
2060520000,2060520000,0.008499064,-0.005805902,-0.0026855688
2060532000,2060532000,0.0063706143,-0.0065550623,-0.0015200893
2060543999,2060543999,0.005846339,-0.0065944656,0.00029930007
2060556000,2060556000,0.0027194207,-0.0052900426,-0.0033966298
2060568000,2060568000,0.0076481993,-0.0058873957,-0.0010288489
2060579999,2060579999,0.007007087,-0.0059508104,0.0065303077
2060592000,2060592000,0.011423743,0.0019682213,8.345983e-05
2060599999,2060599999,0.009513855,0.0035575987,0.002550824
2060616000,2060616000,0.007143286,0.0010225144,0.00521456
2060628000,2060628000,0.010888636,-0.0008646208,0.003981572
2060639999,2060639999,0.008232871,-0.0018233517,0.002050817
2060652000,2060652000,0.002955122,0.0032060992,0.003587212
2060664000,2060664000,0.0023688565,0.0035598453,0.0057033207
2060672000,2060672000,-0.0012792725,0.0034526612,0.00083582586
2060688000,2060688000,-0.0030842512,0.003497611,-0.00083629444
2060700000,2060700000,0.0057413923,0.008668261,-0.0009662893
2060712000,2060712000,0.009113729,0.005467854,0.0014166869
2060724000,2060724000,0.005293877,0.009440439,0.00060827
2060735999,2060735999,-0.0002121533,0.004824907,-0.0019132828
2060748000,2060748000,0.0022120539,0.002059185,0.0033227964
2060760000,2060760000,-0.0044919145,-0.009100696,0.0060859676
2060768000,2060768000,-0.0040714443,-0.018131912,-0.00038695408
2060784000,2060784000,-0.014658284,-0.029835096,-0.0072592837
2060796000,2060796000,-0.029114269,-0.035456516,-0.012663153
2060808000,2060808000,-0.036350276,-0.03925834,-0.025637493
2060820000,2060820000,-0.05254922,-0.041382078,-0.041614816
2060831999,2060831999,-0.055694796,-0.040046893,-0.054806914
2060844000,2060844000,-0.071683206,-0.025414176,-0.06553179
2060856000,2060856000,-0.08459297,-0.015787663,-0.08385969
2060867999,2060867999,-0.09505596,0.0017957878,-0.09940812
2060880000,2060880000,-0.11201958,0.024418408,-0.11751484
2060892000,2060892000,-0.12173246,0.046437252,-0.13494922
2060904000,2060904000,-0.13580033,0.06770917,-0.1512323
2060916000,2060916000,-0.15438436,0.10054254,-0.17201793
2060924000,2060924000,-0.16436587,0.118121274,-0.1882064
2060940000,2060940000,-0.18238595,0.1576622,-0.21197996
2060952000,2060952000,-0.20009038,0.19459653,-0.22463402
2060960000,2060960000,-0.21552676,0.22548002,-0.2387423
2060976000,2060976000,-0.24124818,0.27860123,-0.2718893
2060988000,2060988000,-0.25258145,0.31641403,-0.2872385
2061000000,2061000000,-0.26230952,0.35331565,-0.29918268
2061012000,2061012000,-0.27711868,0.39535674,-0.3157939
2061023999,2061023999,-0.28632852,0.43105045,-0.3355563
2061036000,2061036000,-0.30095667,0.4573325,-0.34696078
2061048000,2061048000,-0.3107809,0.48590907,-0.36735582
2061056000,2061056000,-0.32338065,0.50350046,-0.37631714
2061072000,2061072000,-0.3436527,0.5472802,-0.3875098
2061084000,2061084000,-0.3581957,0.57864344,-0.4004518
2061096000,2061096000,-0.3758043,0.60527307,-0.4174694
2061108000,2061108000,-0.3927612,0.6284198,-0.42948756
2061119999,2061119999,-0.41584054,0.6538089,-0.4385021
2061132000,2061132000,-0.43489572,0.67870545,-0.45142576
2061144000,2061144000,-0.45205122,0.68428963,-0.4642374
2061152000,2061152000,-0.46509063,0.683465,-0.4672978
2061168000,2061168000,-0.4879291,0.68738216,-0.4807092
2061180000,2061180000,-0.5012853,0.6948864,-0.48860353
2061192000,2061192000,-0.51319015,0.69382596,-0.49773553
2061204000,2061204000,-0.52254575,0.6867901,-0.5068396
2061215999,2061215999,-0.5330673,0.6916439,-0.5193416
2061228000,2061228000,-0.5374734,0.68903106,-0.52671915
2061240000,2061240000,-0.543659,0.6635569,-0.5350461
2061251999,2061251999,-0.5450514,0.6391504,-0.53834045
2061264000,2061264000,-0.54152864,0.6183316,-0.54664814
2061276000,2061276000,-0.5366292,0.60468495,-0.5549982
2061288000,2061288000,-0.53373563,0.57490426,-0.55861926
2061300000,2061300000,-0.5252632,0.5518496,-0.57273364
2061311999,2061311999,-0.5231004,0.5396095,-0.5795157
2061324000,2061324000,-0.518912,0.52330744,-0.58603585
2061336000,2061336000,-0.4961355,0.4891031,-0.5925651
2061347999,2061347999,-0.48812956,0.4640138,-0.5982236
2061356000,2061356000,-0.47957632,0.4484513,-0.5985306
2061372000,2061372000,-0.46187192,0.42579845,-0.60492575
2061384000,2061384000,-0.4338873,0.39843893,-0.61299604
2061396000,2061396000,-0.42423725,0.3792626,-0.6210825
2061407999,2061407999,-0.42198706,0.36812854,-0.62116736
2061416000,2061416000,-0.42012835,0.36237526,-0.62065434
2061432000,2061432000,-0.39840433,0.33623117,-0.63121736
2061443999,2061443999,-0.3772233,0.31400764,-0.6342982
2061452000,2061452000,-0.36610514,0.30162266,-0.6363209
2061468000,2061468000,-0.34099174,0.27923426,-0.6469321
2061480000,2061480000,-0.32590082,0.25644138,-0.6530162
2061492000,2061492000,-0.31827426,0.23872077,-0.6544728
2061503999,2061503999,-0.30933842,0.22658616,-0.6660101
2061516000,2061516000,-0.29682046,0.22039156,-0.669664
2061528000,2061528000,-0.28470838,0.2098325,-0.6752569
2061536000,2061536000,-0.28056046,0.20207967,-0.6779874
2061548000,2061548000,-0.28681606,0.19801652,-0.6828069
2061559999,2061559999,-0.2816291,0.19023871,-0.68861413
2061576000,2061576000,-0.25656867,0.1641671,-0.69380724
2061588000,2061588000,-0.24840066,0.15985571,-0.69633275
2061599999,2061599999,-0.23910756,0.15590556,-0.7019772
2061612000,2061612000,-0.22797224,0.13826479,-0.7087322
2061624000,2061624000,-0.21669728,0.13889256,-0.7106216
2061635999,2061635999,-0.21658735,0.13397408,-0.71715987
2061644000,2061644000,-0.22234926,0.1336178,-0.71861005
2061660000,2061660000,-0.22002596,0.12817974,-0.7189187
2061672000,2061672000,-0.20308006,0.12443771,-0.72489345
2061684000,2061684000,-0.19365337,0.1268158,-0.7328831
2061692000,2061692000,-0.18630649,0.12471767,-0.73364615
2061708000,2061708000,-0.17810874,0.11774875,-0.73534846
2061715999,2061715999,-0.17620577,0.112145446,-0.73670065
2061731999,2061731999,-0.17923841,0.10457507,-0.74137205
2061744000,2061744000,-0.1926117,0.1051378,-0.74387145
2061756000,2061756000,-0.18331347,0.09736423,-0.7486586
2061768000,2061768000,-0.17015497,0.09571789,-0.7519815
2061780000,2061780000,-0.16676061,0.09582384,-0.7622946
2061791999,2061791999,-0.1637181,0.090374686,-0.76740456
2061804000,2061804000,-0.15569195,0.083990395,-0.7661059
2061816000,2061816000,-0.14842449,0.07516229,-0.7718015
2061827999,2061827999,-0.15065087,0.07402649,-0.77703047
2061840000,2061840000,-0.16020064,0.07682375,-0.7808084
2061852000,2061852000,-0.15909475,0.07693742,-0.780086
2061864000,2061864000,-0.15084413,0.075679205,-0.7859085
2061876000,2061876000,-0.15065573,0.077266954,-0.7909989
2061884000,2061884000,-0.15250835,0.079499066,-0.7910353
2061900000,2061900000,-0.1482563,0.07469691,-0.79676545
2061912000,2061912000,-0.15076548,0.07054702,-0.7956389
2061920000,2061920000,-0.16068938,0.072946995,-0.79663366
2061936000,2061936000,-0.16966012,0.08233251,-0.8094206
2061948000,2061948000,-0.16366035,0.07936298,-0.8083252
2061956000,2061956000,-0.15835963,0.07850992,-0.81124383
2061972000,2061972000,-0.14731291,0.06948448,-0.821832
2061980000,2061980000,-0.14357764,0.06749544,-0.81909305
2061996000,2061996000,-0.1272765,0.06997302,-0.82115036
2062008000,2062008000,-0.12807101,0.06590338,-0.82406867
2062020000,2062020000,-0.14382277,0.06716196,-0.8260117
2062032000,2062032000,-0.15897872,0.07549081,-0.8321846
2062039999,2062039999,-0.16865253,0.06916993,-0.8319022
2062056000,2062056000,-0.16472526,0.06479393,-0.8299401
2062068000,2062068000,-0.1613589,0.0628433,-0.8385169
2062076000,2062076000,-0.156075,0.0614498,-0.84065217
2062088000,2062088000,-0.15260616,0.0630327,-0.8387402
2062104000,2062104000,-0.1488598,0.049652375,-0.84261
2062112000,2062112000,-0.1570071,0.049946055,-0.8461506
2062128000,2062128000,-0.17667532,0.054667745,-0.8572474
2062139999,2062139999,-0.18194996,0.051569764,-0.85914445
2062152000,2062152000,-0.17615247,0.048647467,-0.863796
2062164000,2062164000,-0.17190361,0.044091575,-0.8729526
2062175999,2062175999,-0.16550654,0.042654637,-0.8721872
2062188000,2062188000,-0.15095927,0.036128182,-0.8712412
2062200000,2062200000,-0.14374547,0.040907316,-0.8670396
2062212000,2062212000,-0.14755878,0.033756476,-0.8709145
2062224000,2062224000,-0.1658713,0.027493693,-0.8732971
2062235999,2062235999,-0.17046922,0.028439576,-0.87574303
2062248000,2062248000,-0.1561822,0.030965235,-0.8810111
2062260000,2062260000,-0.1574379,0.030469174,-0.88386786
2062271999,2062271999,-0.14018741,0.03339608,-0.88693297
2062284000,2062284000,-0.12722372,0.03265204,-0.88539904
2062296000,2062296000,-0.1346553,0.029262641,-0.88403285
2062308000,2062308000,-0.13988219,0.029448459,-0.8858912
2062316000,2062316000,-0.14992008,0.031094514,-0.88769406
2062331999,2062331999,-0.15445295,0.023829522,-0.8915259
2062344000,2062344000,-0.14844328,0.021263625,-0.8960501
2062356000,2062356000,-0.1417787,0.025855904,-0.89963496
2062367999,2062367999,-0.13059892,0.02741332,-0.89935285
2062380000,2062380000,-0.121497735,0.029094614,-0.9042526
2062392000,2062392000,-0.11869249,0.019545147,-0.89952546
2062404000,2062404000,-0.13199012,0.011633879,-0.9015189
2062416000,2062416000,-0.14953078,0.009270363,-0.9087231
2062427999,2062427999,-0.15856962,0.0033256656,-0.91233313
2062440000,2062440000,-0.15587531,0.005431396,-0.9162841
2062452000,2062452000,-0.15291922,0.0057138144,-0.91496515
2062463999,2062463999,-0.16170469,0.0071009,-0.9183935
2062476000,2062476000,-0.16652724,0.0072161322,-0.91657984
2062483999,2062483999,-0.16646552,0.0026425146,-0.92067647
2062500000,2062500000,-0.1579383,-0.0014491617,-0.927805
2062508000,2062508000,-0.15724507,-0.0019740826,-0.9251324
2062523999,2062523999,-0.15879574,-0.0069807256,-0.92422
2062532000,2062532000,-0.15873775,-0.008492795,-0.926217
2062548000,2062548000,-0.15456681,-0.0030979025,-0.9297657
2062559999,2062559999,-0.15099813,-0.0041481415,-0.92664635
2062572000,2062572000,-0.1559974,-0.0057227295,-0.9299283
2062579999,2062579999,-0.1573483,-0.0023800996,-0.9286658
2062592000,2062592000,-0.15461916,-0.0017472631,-0.926623
2062604000,2062604000,-0.14724591,0.0028791192,-0.9244813
2062619999,2062619999,-0.13874316,0.012359839,-0.9291751
2062632000,2062632000,-0.1343217,0.015544131,-0.9276071
2062644000,2062644000,-0.12948142,0.021520993,-0.9269839
2062655999,2062655999,-0.12274675,0.028100975,-0.92142576
2062668000,2062668000,-0.11957021,0.032874152,-0.9251842
2062680000,2062680000,-0.11145773,0.03661069,-0.9195812
2062692000,2062692000,-0.11469086,0.038649578,-0.9203626
2062704000,2062704000,-0.104308054,0.047138315,-0.9220316
2062715999,2062715999,-0.094747804,0.05231626,-0.91973525
2062728000,2062728000,-0.08272524,0.0639389,-0.9163025
2062735999,2062735999,-0.078894265,0.071808934,-0.91529
2062751999,2062751999,-0.07239044,0.07903756,-0.9170474
2062764000,2062764000,-0.071194395,0.08539926,-0.90323293
2062776000,2062776000,-0.055639,0.09082102,-0.8965502
2062788000,2062788000,-0.038852468,0.08990651,-0.8921359
2062796000,2062796000,-0.034743592,0.09178105,-0.89220506
2062811999,2062811999,-0.03071862,0.101143345,-0.89529645
2062824000,2062824000,-0.018316735,0.106005974,-0.8931806
2062836000,2062836000,-0.009739594,0.10845138,-0.88982195
2062847999,2062847999,0.006260075,0.11507524,-0.8854595
2062860000,2062860000,0.010931435,0.111459374,-0.8815016
2062872000,2062872000,0.02045719,0.11696963,-0.8780174
2062884000,2062884000,0.028261919,0.11755265,-0.87820953
2062896000,2062896000,0.041514747,0.115216814,-0.8735661
2062907999,2062907999,0.053084023,0.11107905,-0.87258774
2062920000,2062920000,0.05125043,0.10974729,-0.86724734
2062932000,2062932000,0.04930133,0.11399846,-0.8665412
2062943999,2062943999,0.06604389,0.11655099,-0.8605939
2062956000,2062956000,0.074737564,0.109593645,-0.8591242
2062968000,2062968000,0.07558542,0.10760799,-0.8551431
2062980000,2062980000,0.0809065,0.1062626,-0.84966075
2062992000,2062992000,0.091312796,0.10674198,-0.85363126
2063003999,2063003999,0.10533663,0.10420163,-0.8549574
2063016000,2063016000,0.10959507,0.10324382,-0.84704614
2063028000,2063028000,0.116255045,0.09793577,-0.85011053
2063039999,2063039999,0.12222845,0.09494525,-0.84665513
2063052000,2063052000,0.135132,0.098099306,-0.8413111
2063064000,2063064000,0.14358324,0.096703015,-0.8441614
2063076000,2063076000,0.15856804,0.090857536,-0.83663577
2063088000,2063088000,0.16936319,0.09126876,-0.83255965
2063099999,2063099999,0.17450245,0.087040976,-0.8264043
2063108000,2063108000,0.17570554,0.08818572,-0.8256963
