timestamp,q[0],q[1],q[2],q[3],delta_q_reset[0],delta_q_reset[1],delta_q_reset[2],delta_q_reset[3],quat_reset_counter
2051220000,-0.9778023,-0.00066357665,-0.00014225839,-0.20955023,0.0,0.0,0.0,0.0,0
2051231999,-0.9778023,-0.00066365267,-0.00014227467,-0.20955023,0.0,0.0,0.0,0.0,0
2051240000,-0.9778023,-0.0006636938,-0.00014228377,-0.20955023,0.0,0.0,0.0,0.0,0
2051256000,-0.9778023,-0.00066379266,-0.00014230664,-0.20955023,0.0,0.0,0.0,0.0,0
2051264000,-0.9778023,-0.0006638382,-0.00014230836,-0.20955023,0.0,0.0,0.0,0.0,0
2051280000,-0.9778023,-0.00066393695,-0.00014231027,-0.20955023,0.0,0.0,0.0,0.0,0
2051288000,-0.9778023,-0.0006639873,-0.00014231307,-0.20955023,0.0,0.0,0.0,0.0,0
2051300000,-0.9778023,-0.00066406536,-0.00014232034,-0.20955023,0.0,0.0,0.0,0.0,0
2051316000,-0.9778023,-0.0006641772,-0.00014233353,-0.20955023,0.0,0.0,0.0,0.0,0
2051327999,-0.9778023,-0.0006642548,-0.00014233988,-0.20955023,0.0,0.0,0.0,0.0,0
2051340000,-0.9778023,-0.0006643378,-0.00014234737,-0.20955023,0.0,0.0,0.0,0.0,0
2051352000,-0.9778023,-0.000664426,-0.00014235983,-0.20955023,0.0,0.0,0.0,0.0,0
2051364000,-0.9778023,-0.00066451373,-0.00014237475,-0.20955023,0.0,0.0,0.0,0.0,0
2051376000,-0.9778023,-0.0006645843,-0.00014239503,-0.20955023,0.0,0.0,0.0,0.0,0
2051387999,-0.9778023,-0.0006646491,-0.00014241978,-0.20955023,0.0,0.0,0.0,0.0,0
2051396000,-0.9778023,-0.0006647071,-0.00014243061,-0.20955023,0.0,0.0,0.0,0.0,0
2051407999,-0.9778023,-0.0006647701,-0.0001424381,-0.20955023,0.0,0.0,0.0,0.0,0
2051424000,-0.9778023,-0.00066487724,-0.00014248023,-0.20955023,0.0,0.0,0.0,0.0,0
2051436000,-0.9778023,-0.00066494703,-0.00014250429,-0.20955023,0.0,0.0,0.0,0.0,0
2051448000,-0.9778023,-0.00066501927,-0.0001425206,-0.20955023,0.0,0.0,0.0,0.0,0
2051460000,-0.9778023,-0.00066509465,-0.0001425387,-0.20955023,0.0,0.0,0.0,0.0,0
2051472000,-0.9778023,-0.0006651719,-0.00014256474,-0.20955023,0.0,0.0,0.0,0.0,0
2051483999,-0.9778023,-0.0006652365,-0.00014258212,-0.20955023,0.0,0.0,0.0,0.0,0
2051496000,-0.9778023,-0.00066529965,-0.00014258598,-0.20955023,0.0,0.0,0.0,0.0,0
2051508000,-0.9778023,-0.0006653599,-0.00014261603,-0.20955023,0.0,0.0,0.0,0.0,0
2051520000,-0.9778023,-0.0006654163,-0.00014266414,-0.20955023,0.0,0.0,0.0,0.0,0
2051532000,-0.9778023,-0.0006654848,-0.00014268853,-0.20955023,0.0,0.0,0.0,0.0,0
2051539999,-0.9778023,-0.0006655328,-0.00014266785,-0.20955023,0.0,0.0,0.0,0.0,0
2051552000,-0.9778023,-0.0006656142,-0.00014266907,-0.20955023,0.0,0.0,0.0,0.0,0
2051564000,-0.9778023,-0.0006657058,-0.000142695,-0.20955023,0.0,0.0,0.0,0.0,0
2051576000,-0.9778023,-0.000665787,-0.00014271539,-0.20955023,0.0,0.0,0.0,0.0,0
2051592000,-0.9778023,-0.00066588586,-0.00014272318,-0.20955023,0.0,0.0,0.0,0.0,0
2051604000,-0.9778023,-0.00066596037,-0.0001427296,-0.20955023,0.0,0.0,0.0,0.0,0
2051612000,-0.9778023,-0.00066600327,-0.00014273365,-0.20955023,0.0,0.0,0.0,0.0,0
2051628000,-0.9778023,-0.0006661221,-0.00014274972,-0.20955023,0.0,0.0,0.0,0.0,0
2051639999,-0.9778023,-0.00066619157,-0.00014275487,-0.20955023,0.0,0.0,0.0,0.0,0
2051652000,-0.9778023,-0.0006662947,-0.00014276497,-0.20955023,0.0,0.0,0.0,0.0,0
2051664000,-0.9778023,-0.00066637836,-0.00014277783,-0.20955023,0.0,0.0,0.0,0.0,0
2051675999,-0.9778023,-0.0006664654,-0.00014279262,-0.20955023,0.0,0.0,0.0,0.0,0
2051688000,-0.9778023,-0.0006665375,-0.00014281149,-0.20955023,0.0,0.0,0.0,0.0,0
2051695999,-0.9778023,-0.00066658866,-0.00014282792,-0.20955023,0.0,0.0,0.0,0.0,0
2051712000,-0.9778023,-0.000666669,-0.00014285109,-0.20955023,0.0,0.0,0.0,0.0,0
2051724000,-0.9778023,-0.0006667549,-0.00014285884,-0.20955023,0.0,0.0,0.0,0.0,0
2051735999,-0.9778023,-0.00066681113,-0.00014288908,-0.20955023,0.0,0.0,0.0,0.0,0
2051748000,-0.9778023,-0.00066688267,-0.00014291744,-0.20955023,0.0,0.0,0.0,0.0,0
2051760000,-0.9778023,-0.0006669557,-0.00014293513,-0.20955023,0.0,0.0,0.0,0.0,0
2051768000,-0.9778023,-0.0006670061,-0.00014294652,-0.20955023,0.0,0.0,0.0,0.0,0
2051784000,-0.9778023,-0.0006671098,-0.00014297749,-0.20955023,0.0,0.0,0.0,0.0,0
2051796000,-0.9778023,-0.0006671791,-0.00014299984,-0.20955023,0.0,0.0,0.0,0.0,0
2051808000,-0.9778023,-0.0006672406,-0.0001430004,-0.20955023,0.0,0.0,0.0,0.0,0
2051820000,-0.9778023,-0.0006673036,-0.00014302689,-0.20955023,0.0,0.0,0.0,0.0,0
2051831999,-0.9778023,-0.0006673596,-0.00014307472,-0.20955023,0.0,0.0,0.0,0.0,0
2051840000,-0.9778023,-0.00066740287,-0.00014309886,-0.20955023,0.0,0.0,0.0,0.0,0
2051852000,-0.9778023,-0.0006674759,-0.00014309722,-0.20955023,0.0,0.0,0.0,0.0,0
2051864000,-0.9778023,-0.0006675541,-0.00014307865,-0.20955023,0.0,0.0,0.0,0.0,0
2051880000,-0.9778023,-0.0006676746,-0.00014311579,-0.20955023,0.0,0.0,0.0,0.0,0
2051892000,-0.9778023,-0.00066774624,-0.00014313249,-0.20955023,0.0,0.0,0.0,0.0,0
2051904000,-0.9778023,-0.00066782517,-0.00014313987,-0.20955023,0.0,0.0,0.0,0.0,0
2051916000,-0.9778023,-0.00066789944,-0.00014314627,-0.20955023,0.0,0.0,0.0,0.0,0
2051927999,-0.9778023,-0.00066797045,-0.00014315394,-0.20955023,0.0,0.0,0.0,0.0,0
2051940000,-0.9778023,-0.0006680593,-0.00014316615,-0.20955023,0.0,0.0,0.0,0.0,0
2051952000,-0.9778023,-0.00066814397,-0.00014317513,-0.20955023,0.0,0.0,0.0,0.0,0
2051960000,-0.9778023,-0.00066820334,-0.00014318194,-0.20955023,0.0,0.0,0.0,0.0,0
2051972000,-0.9778023,-0.0006682833,-0.00014318974,-0.20955023,0.0,0.0,0.0,0.0,0
2051988000,-0.9778023,-0.0006683892,-0.00014320567,-0.20955023,0.0,0.0,0.0,0.0,0
2051996000,-0.9778023,-0.0006684524,-0.00014321906,-0.20955023,0.0,0.0,0.0,0.0,0
2052012000,-0.9778023,-0.00066855643,-0.0001432535,-0.20955023,0.0,0.0,0.0,0.0,0
2052020000,-0.9778023,-0.0006685777,-0.00014326097,-0.20955023,0.0,0.0,0.0,0.0,0
2052036000,-0.9778023,-0.00066869275,-0.0001432801,-0.20955023,0.0,0.0,0.0,0.0,0
2052048000,-0.9778023,-0.0006687514,-0.00014330397,-0.20955023,0.0,0.0,0.0,0.0,0
2052059999,-0.9778023,-0.00066882314,-0.00014333383,-0.20955023,0.0,0.0,0.0,0.0,0
2052072000,-0.9778023,-0.0006688958,-0.00014335167,-0.20955023,0.0,0.0,0.0,0.0,0
2052084000,-0.9778023,-0.00066897174,-0.00014336854,-0.20955023,0.0,0.0,0.0,0.0,0
2052096000,-0.9778023,-0.0006690499,-0.0001433913,-0.20955023,0.0,0.0,0.0,0.0,0
2052108000,-0.9778023,-0.0006691236,-0.00014341784,-0.20955023,0.0,0.0,0.0,0.0,0
2052119999,-0.9778023,-0.0006691832,-0.00014341957,-0.20955023,0.0,0.0,0.0,0.0,0
2052132000,-0.9778023,-0.00066924747,-0.00014343503,-0.20955023,0.0,0.0,0.0,0.0,0
2052144000,-0.9778023,-0.0006693043,-0.00014348321,-0.20955023,0.0,0.0,0.0,0.0,0
2052155999,-0.9778023,-0.00066936814,-0.00014351941,-0.20955023,0.0,0.0,0.0,0.0,0
2052168000,-0.9778023,-0.00066943927,-0.00014350482,-0.20955023,0.0,0.0,0.0,0.0,0
2052175999,-0.9778023,-0.0006694886,-0.00014349695,-0.20955023,0.0,0.0,0.0,0.0,0
2052192000,-0.9778023,-0.0006696129,-0.00014353095,-0.20955023,0.0,0.0,0.0,0.0,0
2052204000,-0.9778023,-0.000669694,-0.00014355248,-0.20955023,0.0,0.0,0.0,0.0,0
2052215999,-0.9778023,-0.0006697641,-0.00014355806,-0.20955023,0.0,0.0,0.0,0.0,0
2052228000,-0.9778023,-0.0006698392,-0.00014356399,-0.20955023,0.0,0.0,0.0,0.0,0
2052240000,-0.9778023,-0.0006699243,-0.00014357414,-0.20955023,0.0,0.0,0.0,0.0,0
2052251999,-0.9778023,-0.00066999946,-0.00014358062,-0.20955023,0.0,0.0,0.0,0.0,0
2052260000,-0.9778023,-0.00067005726,-0.0001435845,-0.20955022,0.0,0.0,0.0,0.0,0
2052276000,-0.9778023,-0.00067016983,-0.00014358926,-0.20955022,0.0,0.0,0.0,0.0,0
2052288000,-0.9778023,-0.00067022606,-0.00014359246,-0.20955022,0.0,0.0,0.0,0.0,0
2052300000,-0.9778023,-0.0006703073,-0.00014361476,-0.20955022,0.0,0.0,0.0,0.0,0
2052308000,-0.9778023,-0.000670347,-0.00014362033,-0.20955022,0.0,0.0,0.0,0.0,0
2052324000,-0.9778023,-0.00067043403,-0.00014365398,-0.20955022,0.0,0.0,0.0,0.0,0
2052336000,-0.9778023,-0.0006704977,-0.0001436815,-0.20955022,0.0,0.0,0.0,0.0,0
2052344000,-0.9778023,-0.00067054515,-0.00014368618,-0.20955022,0.0,0.0,0.0,0.0,0
2052356000,-0.9778023,-0.0006706141,-0.00014370384,-0.20955022,0.0,0.0,0.0,0.0,0
2052372000,-0.9778023,-0.0006706898,-0.00014372665,-0.20955022,0.0,0.0,0.0,0.0,0
2052384000,-0.9778023,-0.0006707735,-0.00014373913,-0.20955022,0.0,0.0,0.0,0.0,0
2052392000,-0.9778023,-0.0006708414,-0.00014373142,-0.20955022,0.0,0.0,0.0,0.0,0
2052407999,-0.9778023,-0.00067095144,-0.00014375114,-0.20955022,0.0,0.0,0.0,0.0,0
2052420000,-0.9778023,-0.0006710209,-0.00014375709,-0.20955022,0.0,0.0,0.0,0.0,0
2052432000,-0.9778023,-0.00067109393,-0.00014377196,-0.20955022,0.0,0.0,0.0,0.0,0
2052440000,-0.9778023,-0.0006711371,-0.00014379458,-0.20955022,0.0,0.0,0.0,0.0,0
2052456000,-0.9778023,-0.000671232,-0.000143823,-0.20955022,0.0,0.0,0.0,0.0,0
2052463999,-0.9778023,-0.00067126646,-0.00014382813,-0.20955022,0.0,0.0,0.0,0.0,0
2052480000,-0.9778023,-0.0006713819,-0.00014383234,-0.20955022,0.0,0.0,0.0,0.0,0
2052492000,-0.9778023,-0.0006714418,-0.00014383088,-0.20955022,0.0,0.0,0.0,0.0,0
2052503999,-0.9778023,-0.0006714943,-0.00014382949,-0.20955022,0.0,0.0,0.0,0.0,0
2052516000,-0.9778023,-0.00067159854,-0.00014384369,-0.20955022,0.0,0.0,0.0,0.0,0
2052528000,-0.9778023,-0.00067165296,-0.0001438548,-0.20955022,0.0,0.0,0.0,0.0,0
2052536000,-0.9778023,-0.0006716857,-0.00014387514,-0.20955022,0.0,0.0,0.0,0.0,0
2052552000,-0.9778023,-0.00067176035,-0.00014390152,-0.20955022,0.0,0.0,0.0,0.0,0
2052564000,-0.9778023,-0.0006718268,-0.00014390866,-0.20955022,0.0,0.0,0.0,0.0,0
2052576000,-0.9778023,-0.0006719052,-0.0001439094,-0.20955022,0.0,0.0,0.0,0.0,0
2052584000,-0.9778023,-0.0006719246,-0.00014390322,-0.20955022,0.0,0.0,0.0,0.0,0
2052599999,-0.9778023,-0.00067201705,-0.00014390597,-0.20955022,0.0,0.0,0.0,0.0,0
2052612000,-0.9778023,-0.00067207526,-0.00014391627,-0.20955022,0.0,0.0,0.0,0.0,0
2052619999,-0.9778023,-0.0006720971,-0.00014392522,-0.20955022,0.0,0.0,0.0,0.0,0
2052635999,-0.9778023,-0.00067220355,-0.00014395449,-0.20955022,0.0,0.0,0.0,0.0,0
2052644000,-0.9778023,-0.0006722351,-0.000143959,-0.20955022,0.0,0.0,0.0,0.0,0
2052660000,-0.9778023,-0.00067229476,-0.00014395498,-0.20955022,0.0,0.0,0.0,0.0,0
2052672000,-0.9778023,-0.0006723525,-0.00014395284,-0.20955022,0.0,0.0,0.0,0.0,0
2052684000,-0.9778023,-0.00067241094,-0.00014395655,-0.20955022,0.0,0.0,0.0,0.0,0
2052692000,-0.9778023,-0.0006724274,-0.00014395727,-0.20955022,0.0,0.0,0.0,0.0,0
2052708000,-0.9778023,-0.0006725331,-0.00014398716,-0.20955022,0.0,0.0,0.0,0.0,0
2052720000,-0.9778023,-0.0006725429,-0.00014398921,-0.20955022,0.0,0.0,0.0,0.0,0
2052731999,-0.9778023,-0.00067259965,-0.00014398608,-0.20955022,0.0,0.0,0.0,0.0,0
2052744000,-0.9778023,-0.0006726576,-0.00014398576,-0.20955022,0.0,0.0,0.0,0.0,0
2052756000,-0.9778023,-0.00067271735,-0.00014398928,-0.20955022,0.0,0.0,0.0,0.0,0
2052768000,-0.9778023,-0.0006727785,-0.00014399868,-0.20955022,0.0,0.0,0.0,0.0,0
2052780000,-0.9778023,-0.00067277334,-0.00014399335,-0.20955022,0.0,0.0,0.0,0.0,0
2052791999,-0.9778023,-0.0006728385,-0.00014400069,-0.20955022,0.0,0.0,0.0,0.0,0
2052804000,-0.9778023,-0.000672891,-0.0001440035,-0.20955022,0.0,0.0,0.0,0.0,0
2052816000,-0.9778023,-0.0006729519,-0.00014400872,-0.20955022,0.0,0.0,0.0,0.0,0
2052827999,-0.9778023,-0.00067292637,-0.00014399042,-0.20955022,0.0,0.0,0.0,0.0,0
2052840000,-0.9778023,-0.00067299523,-0.00014399848,-0.20955022,0.0,0.0,0.0,0.0,0
2052852000,-0.9778023,-0.0006730467,-0.00014400386,-0.20955022,0.0,0.0,0.0,0.0,0
2052864000,-0.9778023,-0.0006729951,-0.00014399004,-0.20955022,0.0,0.0,0.0,0.0,0
2052876000,-0.9778023,-0.00067304436,-0.00014399253,-0.2095502,0.0,0.0,0.0,0.0,0
2052887999,-0.9778023,-0.00067310414,-0.00014399603,-0.2095502,0.0,0.0,0.0,0.0,0
2052900000,-0.9778023,-0.00067305326,-0.00014397308,-0.2095502,0.0,0.0,0.0,0.0,0
2052912000,-0.9778023,-0.00067308964,-0.00014397506,-0.2095502,0.0,0.0,0.0,0.0,0
2052924000,-0.9778023,-0.00067313097,-0.00014398272,-0.2095502,0.0,0.0,0.0,0.0,0
2052936000,-0.9778023,-0.0006731852,-0.00014398473,-0.2095502,0.0,0.0,0.0,0.0,0
2052943999,-0.9778023,-0.0006731895,-0.00014397594,-0.2095502,0.0,0.0,0.0,0.0,0
2052956000,-0.9778023,-0.0006731187,-0.00014396079,-0.2095502,0.0,0.0,0.0,0.0,0
2052972000,-0.9778023,-0.0006802623,-0.00014557615,-0.2095503,0.0,0.0,0.0,0.0,0
2052980000,-0.97780204,-0.0007079754,-0.0001485406,-0.20955122,0.0,0.0,0.0,0.0,0
2052992000,-0.9778014,-0.00082042796,-0.00013045761,-0.20955385,0.0,0.0,0.0,0.0,0
2053008000,-0.97780037,-0.0011395547,-1.6567825e-05,-0.20955716,0.0,0.0,0.0,0.0,0
2053016000,-0.9778001,-0.001389672,0.00010609551,-0.20955707,0.0,0.0,0.0,0.0,0
2053032000,-0.97780114,-0.0021040172,0.0005362534,-0.20954561,0.0,0.0,0.0,0.0,0
2053043999,-0.9778029,-0.0028462554,0.0010340897,-0.20952667,0.0,0.0,0.0,0.0,0
2053056000,-0.9778028,-0.003732162,0.0016585892,-0.2095091,0.0,0.0,0.0,0.0,0
2053068000,-0.97780067,-0.0046770843,0.0023417254,-0.2094938,0.0,0.0,0.0,0.0,0
2053076000,-0.97779834,-0.005296499,0.0027917223,-0.20948425,0.0,0.0,0.0,0.0,0
2053088000,-0.97779375,-0.006175095,0.0034296275,-0.2094721,0.0,0.0,0.0,0.0,0
2053099999,-0.977788,-0.006962145,0.0040241713,-0.20946392,0.0,0.0,0.0,0.0,0
2053116000,-0.9777798,-0.007856999,0.0047384873,-0.20945536,0.0,0.0,0.0,0.0,0
2053128000,-0.9777744,-0.008416189,0.005201559,-0.209448,0.0,0.0,0.0,0.0,0
2053139999,-0.97776955,-0.008892558,0.005599308,-0.20944071,0.0,0.0,0.0,0.0,0
2053152000,-0.9777655,-0.009284916,0.0059435996,-0.20943308,0.0,0.0,0.0,0.0,0
2053160000,-0.9777634,-0.009500156,0.0061414964,-0.2094273,0.0,0.0,0.0,0.0,0
2053172000,-0.9777613,-0.009750397,0.006387761,-0.20941816,0.0,0.0,0.0,0.0,0
2053188000,-0.9777602,-0.009953393,0.0066220243,-0.20940682,0.0,0.0,0.0,0.0,0
2053200000,-0.9777604,-0.0100126825,0.006744335,-0.20939918,0.0,0.0,0.0,0.0,0
2053212000,-0.9777614,-0.009996738,0.0068272054,-0.20939262,0.0,0.0,0.0,0.0,0
2053220000,-0.97776234,-0.0099507235,0.006863478,-0.2093892,0.0,0.0,0.0,0.0,0
2053231999,-0.9777642,-0.009837251,0.0068889884,-0.20938504,0.0,0.0,0.0,0.0,0
2053244000,-0.9777668,-0.009669746,0.0068807644,-0.2093808,0.0,0.0,0.0,0.0,0
2053256000,-0.9777702,-0.009451445,0.006840268,-0.20937628,0.0,0.0,0.0,0.0,0
2053271999,-0.97777516,-0.009106242,0.0067490907,-0.20937133,0.0,0.0,0.0,0.0,0
2053280000,-0.9777777,-0.008923324,0.0066835424,-0.20936927,0.0,0.0,0.0,0.0,0
2053291999,-0.9777816,-0.008646346,0.00655775,-0.20936681,0.0,0.0,0.0,0.0,0
2053308000,-0.9777864,-0.008258627,0.0063722352,-0.20936564,0.0,0.0,0.0,0.0,0
2053320000,-0.9777899,-0.007941548,0.006224115,-0.2093664,0.0,0.0,0.0,0.0,0
2053331999,-0.97779304,-0.007609229,0.006063075,-0.2093685,0.0,0.0,0.0,0.0,0
2053344000,-0.977796,-0.007259524,0.0058994656,-0.20937166,0.0,0.0,0.0,0.0,0
2053352000,-0.9777979,-0.0070231,0.005792152,-0.20937383,0.0,0.0,0.0,0.0,0
2053364000,-0.97780097,-0.006672151,0.0056294734,-0.20937572,0.0,0.0,0.0,0.0,0
2053380000,-0.9778051,-0.0062277867,0.005397825,-0.20937629,0.0,0.0,0.0,0.0,0
2053392000,-0.97780794,-0.0059169675,0.0052094823,-0.20937671,0.0,0.0,0.0,0.0,0
2053404000,-0.977811,-0.005621536,0.0050114337,-0.20937556,0.0,0.0,0.0,0.0,0
2053416000,-0.9778144,-0.005335012,0.004813606,-0.20937172,0.0,0.0,0.0,0.0,0
2053427999,-0.97781795,-0.0050545703,0.0046223104,-0.20936622,0.0,0.0,0.0,0.0,0
2053436000,-0.9778204,-0.004868619,0.0044958973,-0.20936199,0.0,0.0,0.0,0.0,0
2053452000,-0.97782516,-0.0045067007,0.004238413,-0.2093531,0.0,0.0,0.0,0.0,0
2053463999,-0.9778286,-0.004257297,0.004032985,-0.20934632,0.0,0.0,0.0,0.0,0
2053476000,-0.9778319,-0.0040312647,0.003820791,-0.20933947,0.0,0.0,0.0,0.0,0
2053488000,-0.9778351,-0.0038238661,0.003605526,-0.2093322,0.0,0.0,0.0,0.0,0
2053500000,-0.9778381,-0.0036303045,0.0033881685,-0.20932522,0.0,0.0,0.0,0.0,0
2053512000,-0.9778409,-0.0034360979,0.0031753758,-0.20931888,0.0,0.0,0.0,0.0,0
2053523999,-0.9778434,-0.0032466608,0.0029850951,-0.2093129,0.0,0.0,0.0,0.0,0
2053532000,-0.977845,-0.0031304918,0.002873981,-0.20930882,0.0,0.0,0.0,0.0,0
2053543999,-0.97784704,-0.0029670256,0.0027205683,-0.20930383,0.0,0.0,0.0,0.0,0
2053559999,-0.9778492,-0.002769377,0.0025408352,-0.20929882,0.0,0.0,0.0,0.0,0
2053572000,-0.97785074,-0.00263757,0.0024307282,-0.20929457,0.0,0.0,0.0,0.0,0
2053584000,-0.9778523,-0.0025196273,0.0023429596,-0.20928983,0.0,0.0,0.0,0.0,0
2053596000,-0.97785366,-0.002413219,0.002272695,-0.20928538,0.0,0.0,0.0,0.0,0
2053608000,-0.9778547,-0.0023144402,0.0022239732,-0.20928195,0.0,0.0,0.0,0.0,0
2053619999,-0.9778553,-0.0022231555,0.0021925739,-0.20928048,0.0,0.0,0.0,0.0,0
2053632000,-0.9778555,-0.0021346195,0.0021713749,-0.20928073,0.0,0.0,0.0,0.0,0
2053644000,-0.97785544,-0.0020461096,0.0021618162,-0.20928204,0.0,0.0,0.0,0.0,0
2053655999,-0.9778553,-0.0019488686,0.0021575557,-0.20928365,0.0,0.0,0.0,0.0,0
2053668000,-0.9778553,-0.001849359,0.0021527447,-0.20928453,0.0,0.0,0.0,0.0,0
2053680000,-0.9778553,-0.0017501443,0.0021536164,-0.20928545,0.0,0.0,0.0,0.0,0
2053688000,-0.97785527,-0.0016814979,0.0021618002,-0.20928617,0.0,0.0,0.0,0.0,0
2053704000,-0.9778552,-0.0015352721,0.0021897885,-0.20928736,0.0,0.0,0.0,0.0,0
2053715999,-0.97785527,-0.0014495325,0.0022126029,-0.20928739,0.0,0.0,0.0,0.0,0
2053728000,-0.9778556,-0.0013980179,0.0022313087,-0.20928569,0.0,0.0,0.0,0.0,0
2053740000,-0.9778562,-0.0013688938,0.0022404518,-0.20928326,0.0,0.0,0.0,0.0,0
2053751999,-0.9778565,-0.0013508544,0.0022357395,-0.20928201,0.0,0.0,0.0,0.0,0
2053764000,-0.9778568,-0.0013409635,0.0022240016,-0.2092806,0.0,0.0,0.0,0.0,0
2053771999,-0.9778572,-0.0013395423,0.0022161053,-0.2092791,0.0,0.0,0.0,0.0,0
2053788000,-0.97785777,-0.0013245761,0.002197107,-0.20927657,0.0,0.0,0.0,0.0,0
2053800000,-0.9778581,-0.0013094002,0.002182233,-0.20927516,0.0,0.0,0.0,0.0,0
2053811999,-0.97785854,-0.0012988561,0.0021731313,-0.20927338,0.0,0.0,0.0,0.0,0
2053824000,-0.977859,-0.0012930738,0.0021610751,-0.20927143,0.0,0.0,0.0,0.0,0
2053836000,-0.97785956,-0.0012874951,0.0021441383,-0.20926897,0.0,0.0,0.0,0.0,0
2053847999,-0.9778605,-0.0012882396,0.002112843,-0.20926486,0.0,0.0,0.0,0.0,0
2053860000,-0.9778619,-0.0012978745,0.0020597586,-0.20925903,0.0,0.0,0.0,0.0,0
2053872000,-0.9778633,-0.0013095107,0.0019955845,-0.20925286,0.0,0.0,0.0,0.0,0
2053884000,-0.9778645,-0.0013227949,0.0019245176,-0.20924778,0.0,0.0,0.0,0.0,0
2053892000,-0.97786504,-0.0013315919,0.0018755933,-0.20924586,0.0,0.0,0.0,0.0,0
2053907999,-0.97786516,-0.001329309,0.0017830813,-0.20924588,0.0,0.0,0.0,0.0,0
2053920000,-0.977865,-0.0013113975,0.0017165559,-0.2092474,0.0,0.0,0.0,0.0,0
2053932000,-0.97786486,-0.0012919471,0.0016523483,-0.20924875,0.0,0.0,0.0,0.0,0
2053943999,-0.97786486,-0.0012701817,0.0015915477,-0.20924942,0.0,0.0,0.0,0.0,0
2053956000,-0.97786486,-0.0012472087,0.0015393466,-0.20924993,0.0,0.0,0.0,0.0,0
2053968000,-0.9778646,-0.0012289345,0.0015062902,-0.20925131,0.0,0.0,0.0,0.0,0
2053980000,-0.9778642,-0.0012155633,0.0014920672,-0.2092535,0.0,0.0,0.0,0.0,0
2053992000,-0.9778638,-0.0012055105,0.0014924749,-0.20925543,0.0,0.0,0.0,0.0,0
2054000000,-0.9778636,-0.0011995634,0.0014955086,-0.20925635,0.0,0.0,0.0,0.0,0
2054016000,-0.9778635,-0.0011688384,0.0014932392,-0.20925699,0.0,0.0,0.0,0.0,0
2054028000,-0.9778634,-0.0011271881,0.0014888188,-0.20925792,0.0,0.0,0.0,0.0,0
2054036000,-0.97786313,-0.0010909098,0.0014846664,-0.20925908,0.0,0.0,0.0,0.0,0
2054052000,-0.9778629,-0.0010032046,0.001467303,-0.20926088,0.0,0.0,0.0,0.0,0
2054064000,-0.9778631,-0.00092799444,0.0014544767,-0.20926055,0.0,0.0,0.0,0.0,0
2054076000,-0.97786355,-0.0008575813,0.0014460552,-0.20925853,0.0,0.0,0.0,0.0,0
2054088000,-0.9778643,-0.0007879026,0.0014472564,-0.20925534,0.0,0.0,0.0,0.0,0
2054099999,-0.97786504,-0.00072339596,0.0014504511,-0.20925222,0.0,0.0,0.0,0.0,0
2054112000,-0.9778656,-0.0006649233,0.0014544963,-0.20924973,0.0,0.0,0.0,0.0,0
2054124000,-0.9778662,-0.0006143709,0.0014519631,-0.20924704,0.0,0.0,0.0,0.0,0
2054135999,-0.9778669,-0.00057249033,0.0014338106,-0.20924415,0.0,0.0,0.0,0.0,0
2054148000,-0.9778674,-0.0005396818,0.0014051491,-0.20924173,0.0,0.0,0.0,0.0,0
2054160000,-0.97786766,-0.0005079034,0.0013717308,-0.20924094,0.0,0.0,0.0,0.0,0
2054168000,-0.97786754,-0.0004923071,0.0013524645,-0.20924182,0.0,0.0,0.0,0.0,0
2054180000,-0.97786695,-0.0004773223,0.0013335515,-0.20924467,0.0,0.0,0.0,0.0,0
2054192000,-0.97786623,-0.0004573582,0.001332453,-0.20924807,0.0,0.0,0.0,0.0,0
2054204000,-0.9778654,-0.00043027924,0.0013476574,-0.20925193,0.0,0.0,0.0,0.0,0
2054220000,-0.9778639,-0.0004003106,0.0013696447,-0.20925882,0.0,0.0,0.0,0.0,0
2054228000,-0.9778629,-0.00039543203,0.0013757449,-0.20926352,0.0,0.0,0.0,0.0,0
2054244000,-0.9778605,-0.00040426725,0.0013733733,-0.20927472,0.0,0.0,0.0,0.0,0
2054251999,-0.9778591,-0.00041582415,0.0013633434,-0.20928134,0.0,0.0,0.0,0.0,0
2054268000,-0.9778559,-0.00045147596,0.0013380435,-0.20929618,0.0,0.0,0.0,0.0,0
2054280000,-0.9778536,-0.00048462747,0.001319816,-0.20930722,0.0,0.0,0.0,0.0,0
2054288000,-0.9778519,-0.0005063129,0.0013077917,-0.20931481,0.0,0.0,0.0,0.0,0
2054300000,-0.97784925,-0.00054393255,0.0012980347,-0.20932744,0.0,0.0,0.0,0.0,0
2054311999,-0.97784626,-0.0005877582,0.0012988794,-0.20934127,0.0,0.0,0.0,0.0,0
2054327999,-0.97784203,-0.0006484971,0.0013021464,-0.20936085,0.0,0.0,0.0,0.0,0
2054340000,-0.9778387,-0.0006912374,0.001299006,-0.20937616,0.0,0.0,0.0,0.0,0
2054347999,-0.97783655,-0.00071169564,0.0012936423,-0.20938627,0.0,0.0,0.0,0.0,0
2054360000,-0.9778331,-0.00071537594,0.0012795285,-0.20940235,0.0,0.0,0.0,0.0,0
2054376000,-0.97782844,-0.00067493704,0.001251365,-0.20942451,0.0,0.0,0.0,0.0,0
2054387999,-0.9778252,-0.0006160575,0.0012280113,-0.2094398,0.0,0.0,0.0,0.0,0
2054400000,-0.97782224,-0.0005454684,0.0012036425,-0.20945412,0.0,0.0,0.0,0.0,0
2054407999,-0.9778202,-0.00050112733,0.0011867883,-0.20946373,0.0,0.0,0.0,0.0,0
2054424000,-0.9778159,-0.00043194735,0.0011553795,-0.20948407,0.0,0.0,0.0,0.0,0
2054436000,-0.9778127,-0.0004028234,0.0011413821,-0.2094994,0.0,0.0,0.0,0.0,0
2054448000,-0.97780967,-0.0003799241,0.0011359431,-0.20951341,0.0,0.0,0.0,0.0,0
2054460000,-0.977807,-0.0003472013,0.0011361797,-0.20952624,0.0,0.0,0.0,0.0,0
2054472000,-0.97780466,-0.0003038837,0.0011307816,-0.20953703,0.0,0.0,0.0,0.0,0
2054483999,-0.97780305,-0.00024920484,0.0011265122,-0.20954476,0.0,0.0,0.0,0.0,0
2054496000,-0.9778019,-0.00019193772,0.0011291447,-0.20955001,0.0,0.0,0.0,0.0,0
2054508000,-0.97780097,-0.00013428395,0.0011396654,-0.20955436,0.0,0.0,0.0,0.0,0
2054520000,-0.9778001,-9.456783e-05,0.0011507665,-0.20955853,0.0,0.0,0.0,0.0,0
2054532000,-0.9777993,-7.660834e-05,0.001151682,-0.20956217,0.0,0.0,0.0,0.0,0
2054543999,-0.9777987,-7.577084e-05,0.0011446838,-0.20956488,0.0,0.0,0.0,0.0,0
2054556000,-0.9777981,-8.299265e-05,0.0011434032,-0.20956773,0.0,0.0,0.0,0.0,0
2054568000,-0.9777973,-9.64007e-05,0.001150697,-0.20957136,0.0,0.0,0.0,0.0,0
2054579999,-0.97779626,-0.00011326292,0.001166277,-0.20957631,0.0,0.0,0.0,0.0,0
2054592000,-0.97779495,-0.00013770393,0.0011881872,-0.20958221,0.0,0.0,0.0,0.0,0
2054604000,-0.97779346,-0.000163691,0.0012192422,-0.20958892,0.0,0.0,0.0,0.0,0
2054612000,-0.97779256,-0.00017583446,0.0012370168,-0.20959312,0.0,0.0,0.0,0.0,0
2054624000,-0.9777915,-0.00018842302,0.0012538357,-0.20959786,0.0,0.0,0.0,0.0,0
2054639999,-0.97779065,-0.0001938386,0.0012540766,-0.2096019,0.0,0.0,0.0,0.0,0
2054652000,-0.97779024,-0.00018356908,0.0012357035,-0.20960377,0.0,0.0,0.0,0.0,0
2054664000,-0.9777902,-0.00016729302,0.0012031628,-0.2096045,0.0,0.0,0.0,0.0,0
2054672000,-0.97779006,-0.00015710996,0.0011786841,-0.20960511,0.0,0.0,0.0,0.0,0
2054688000,-0.9777897,-0.00013123847,0.0011310637,-0.20960708,0.0,0.0,0.0,0.0,0
2054700000,-0.9777896,-0.00010867564,0.0010999731,-0.20960777,0.0,0.0,0.0,0.0,0
2054708000,-0.9777895,-9.6345466e-05,0.0010858646,-0.20960812,0.0,0.0,0.0,0.0,0
2054724000,-0.9777893,-7.331605e-05,0.001074346,-0.20960936,0.0,0.0,0.0,0.0,0
2054735999,-0.977789,-6.66177e-05,0.0010718434,-0.20961061,0.0,0.0,0.0,0.0,0
2054744000,-0.97778887,-6.4497195e-05,0.0010706712,-0.20961142,0.0,0.0,0.0,0.0,0
2054760000,-0.977787,-8.742662e-05,0.001086193,-0.20961982,0.0,0.0,0.0,0.0,0
2054768000,-0.9777848,-0.000114437295,0.0011038104,-0.20963012,0.0,0.0,0.0,0.0,0
2054780000,-0.97777945,-0.00017007516,0.0011370521,-0.20965466,0.0,0.0,0.0,0.0,0
2054796000,-0.97776884,-0.00026471788,0.001183713,-0.20970389,0.0,0.0,0.0,0.0,0
2054808000,-0.9777589,-0.00034907027,0.0012219725,-0.20975009,0.0,0.0,0.0,0.0,0
2054816000,-0.9777514,-0.000405675,0.0012499467,-0.20978463,0.0,0.0,0.0,0.0,0
2054831999,-0.9777345,-0.0004949928,0.0013041879,-0.2098628,0.0,0.0,0.0,0.0,0
2054844000,-0.97772026,-0.0005424774,0.0013438318,-0.20992889,0.0,0.0,0.0,0.0,0
2054856000,-0.97770494,-0.00057872606,0.0013831076,-0.20999981,0.0,0.0,0.0,0.0,0
2054867999,-0.9776889,-0.0006169865,0.0014163816,-0.21007411,0.0,0.0,0.0,0.0,0
2054880000,-0.97767246,-0.00064791023,0.0014452087,-0.21015045,0.0,0.0,0.0,0.0,0
2054892000,-0.9776558,-0.0006643442,0.0014718076,-0.21022739,0.0,0.0,0.0,0.0,0
2054904000,-0.9776393,-0.0006698049,0.0014923045,-0.21030393,0.0,0.0,0.0,0.0,0
2054912000,-0.9776284,-0.0006697969,0.0015026875,-0.2103548,0.0,0.0,0.0,0.0,0
2054924000,-0.9776121,-0.00066954474,0.0015127081,-0.2104306,0.0,0.0,0.0,0.0,0
2054936000,-0.97759604,-0.00067283056,0.0015079367,-0.21050502,0.0,0.0,0.0,0.0,0
2054952000,-0.9775754,-0.00068391237,0.0014875053,-0.21060082,0.0,0.0,0.0,0.0,0
2054963999,-0.97756076,-0.00069271727,0.0014677948,-0.21066909,0.0,0.0,0.0,0.0,0
2054976000,-0.97754663,-0.0007018763,0.0014425803,-0.21073462,0.0,0.0,0.0,0.0,0
2054988000,-0.977533,-0.00071074296,0.001417086,-0.21079807,0.0,0.0,0.0,0.0,0
2055000000,-0.9775197,-0.0007162778,0.0013975976,-0.21085979,0.0,0.0,0.0,0.0,0
2055012000,-0.97750694,-0.00071574876,0.0013917312,-0.21091904,0.0,0.0,0.0,0.0,0
2055023999,-0.9774947,-0.0007116601,0.0013958192,-0.21097574,0.0,0.0,0.0,0.0,0
2055032000,-0.9774868,-0.00070845726,0.0013997416,-0.21101235,0.0,0.0,0.0,0.0,0
2055048000,-0.9774714,-0.0007004812,0.0014099625,-0.21108347,0.0,0.0,0.0,0.0,0
2055059999,-0.97746027,-0.0006925992,0.0014224367,-0.21113504,0.0,0.0,0.0,0.0,0
2055072000,-0.9774493,-0.0006750516,0.001439524,-0.21118571,0.0,0.0,0.0,0.0,0
2055084000,-0.97743857,-0.00065236195,0.0014557502,-0.21123528,0.0,0.0,0.0,0.0,0
2055096000,-0.9774283,-0.0006213957,0.001469734,-0.21128298,0.0,0.0,0.0,0.0,0
2055104000,-0.9774217,-0.00059554906,0.0014774431,-0.21131349,0.0,0.0,0.0,0.0,0
2055119999,-0.9774092,-0.00053085195,0.0014997766,-0.21137148,0.0,0.0,0.0,0.0,0
2055132000,-0.97740024,-0.0004823855,0.0015129442,-0.2114127,0.0,0.0,0.0,0.0,0
2055139999,-0.9773945,-0.00045734222,0.0015088322,-0.21143916,0.0,0.0,0.0,0.0,0
2055152000,-0.9773863,-0.00043200172,0.0014905395,-0.21147743,0.0,0.0,0.0,0.0,0
2055168000,-0.9773753,-0.00042272592,0.0014696893,-0.21152824,0.0,0.0,0.0,0.0,0
2055180000,-0.9773672,-0.00043362664,0.001455108,-0.21156599,0.0,0.0,0.0,0.0,0
2055192000,-0.97735924,-0.0004574772,0.0014452372,-0.21160273,0.0,0.0,0.0,0.0,0
2055200000,-0.97735405,-0.00047695148,0.0014404657,-0.21162665,0.0,0.0,0.0,0.0,0
2055212000,-0.97734654,-0.00050165475,0.0014303257,-0.21166131,0.0,0.0,0.0,0.0,0
2055224000,-0.9773395,-0.00051448366,0.0014111698,-0.21169388,0.0,0.0,0.0,0.0,0
2055240000,-0.97733074,-0.00050688593,0.0013746746,-0.21173479,0.0,0.0,0.0,0.0,0
2055251999,-0.9773242,-0.0004901455,0.0013385314,-0.2117651,0.0,0.0,0.0,0.0,0
2055264000,-0.97731775,-0.000461263,0.0012937238,-0.21179534,0.0,0.0,0.0,0.0,0
2055276000,-0.97731143,-0.00041749413,0.0012461514,-0.21182466,0.0,0.0,0.0,0.0,0
2055284000,-0.97730744,-0.000384045,0.0012126237,-0.21184336,0.0,0.0,0.0,0.0,0
2055296000,-0.97730184,-0.0003308293,0.0011582258,-0.21186979,0.0,0.0,0.0,0.0,0
2055311999,-0.9772953,-0.00025933082,0.0010790894,-0.21190043,0.0,0.0,0.0,0.0,0
2055320000,-0.97729236,-0.00022087533,0.0010363663,-0.21191415,0.0,0.0,0.0,0.0,0
2055336000,-0.97728705,-0.00014070074,0.0009436414,-0.21193922,0.0,0.0,0.0,0.0,0
2055347999,-0.9772836,-8.311873e-05,0.00088166643,-0.21195526,0.0,0.0,0.0,0.0,0
2055360000,-0.97728074,-2.9637122e-05,0.00083708856,-0.21196869,0.0,0.0,0.0,0.0,0
2055372000,-0.9772785,2.1334297e-05,0.00080382795,-0.21197948,0.0,0.0,0.0,0.0,0
2055380000,-0.9772772,5.3747786e-05,0.00078838784,-0.21198519,0.0,0.0,0.0,0.0,0
2055396000,-0.9772756,0.00011144218,0.00077113457,-0.21199256,0.0,0.0,0.0,0.0,0
2055407999,-0.977275,0.00014726618,0.0007674279,-0.21199545,0.0,0.0,0.0,0.0,0
2055420000,-0.97727454,0.00017369837,0.00076890294,-0.21199748,0.0,0.0,0.0,0.0,0
2055432000,-0.97727406,0.00019667139,0.00077952986,-0.21199957,0.0,0.0,0.0,0.0,0
2055443999,-0.9772737,0.00021749765,0.0007934159,-0.21200137,0.0,0.0,0.0,0.0,0
2055456000,-0.9772734,0.00023576959,0.00079597754,-0.21200265,0.0,0.0,0.0,0.0,0
2055468000,-0.9772733,0.00026152874,0.00078935875,-0.21200316,0.0,0.0,0.0,0.0,0
2055480000,-0.97727346,0.00029601424,0.0007807466,-0.2120024,0.0,0.0,0.0,0.0,0
2055492000,-0.9772738,0.00033120325,0.0007700439,-0.21200061,0.0,0.0,0.0,0.0,0
2055503999,-0.97727424,0.0003566821,0.0007596168,-0.21199867,0.0,0.0,0.0,0.0,0
2055516000,-0.9772748,0.00037297214,0.0007478691,-0.21199624,0.0,0.0,0.0,0.0,0
2055528000,-0.9772753,0.00038360417,0.0007384703,-0.21199395,0.0,0.0,0.0,0.0,0
2055539999,-0.9772757,0.00039310328,0.0007357213,-0.21199189,0.0,0.0,0.0,0.0,0
2055552000,-0.97727615,0.00040195664,0.00074446853,-0.21198979,0.0,0.0,0.0,0.0,0
2055559999,-0.9772764,0.00040640598,0.0007585341,-0.21198873,0.0,0.0,0.0,0.0,0
2055576000,-0.97727686,0.00042115804,0.0007961152,-0.21198648,0.0,0.0,0.0,0.0,0
2055584000,-0.9772771,0.00043172756,0.0008143897,-0.21198516,0.0,0.0,0.0,0.0,0
2055596000,-0.9772776,0.0004431774,0.00083713856,-0.21198292,0.0,0.0,0.0,0.0,0
2055612000,-0.97727823,0.0004453361,0.00086648756,-0.21197966,0.0,0.0,0.0,0.0,0
2055624000,-0.9772789,0.0004488788,0.00089403515,-0.2119766,0.0,0.0,0.0,0.0,0
2055632000,-0.97727937,0.00045943304,0.00091655133,-0.21197425,0.0,0.0,0.0,0.0,0
2055644000,-0.97728,0.0004854781,0.0009528389,-0.21197091,0.0,0.0,0.0,0.0,0
2055660000,-0.97728086,0.00052413996,0.0010041595,-0.21196681,0.0,0.0,0.0,0.0,0
2055668000,-0.97728115,0.00054609735,0.0010310528,-0.2119652,0.0,0.0,0.0,0.0,0
2055680000,-0.97728163,0.00058810425,0.0010658038,-0.21196295,0.0,0.0,0.0,0.0,0
2055692000,-0.9772822,0.00063812063,0.0010849941,-0.2119598,0.0,0.0,0.0,0.0,0
2055708000,-0.97728354,0.00069688907,0.0010825145,-0.21195355,0.0,0.0,0.0,0.0,0
2055720000,-0.97728485,0.00072998815,0.0010662754,-0.2119476,0.0,0.0,0.0,0.0,0
2055728000,-0.97728574,0.0007431843,0.001050441,-0.21194339,0.0,0.0,0.0,0.0,0
2055744000,-0.97728765,0.0007500789,0.0010129317,-0.21193495,0.0,0.0,0.0,0.0,0
2055756000,-0.97728914,0.00074198167,0.0009759848,-0.21192814,0.0,0.0,0.0,0.0,0
2055764000,-0.97729033,0.0007285773,0.0009494705,-0.21192294,0.0,0.0,0.0,0.0,0
2055776000,-0.97729236,0.00069625705,0.0009116486,-0.21191387,0.0,0.0,0.0,0.0,0
2055788000,-0.9772947,0.00066618534,0.0008836599,-0.21190327,0.0,0.0,0.0,0.0,0
2055800000,-0.9772972,0.00064600626,0.00086945225,-0.21189187,0.0,0.0,0.0,0.0,0
2055816000,-0.9773008,0.00063369994,0.00086412195,-0.21187507,0.0,0.0,0.0,0.0,0
2055827999,-0.97730356,0.0006262774,0.0008601192,-0.2118624,0.0,0.0,0.0,0.0,0
2055840000,-0.9773059,0.0006212449,0.00085242954,-0.21185178,0.0,0.0,0.0,0.0,0
2055852000,-0.9773078,0.0006278135,0.0008379022,-0.21184312,0.0,0.0,0.0,0.0,0
2055864000,-0.9773094,0.00063720584,0.0008162618,-0.2118357,0.0,0.0,0.0,0.0,0
2055880000,-0.9773113,0.0006584036,0.00078320457,-0.21182707,0.0,0.0,0.0,0.0,0
2055892000,-0.97731256,0.00068805827,0.0007517437,-0.2118211,0.0,0.0,0.0,0.0,0
2055904000,-0.97731405,0.0007279085,0.0007242551,-0.2118142,0.0,0.0,0.0,0.0,0
2055916000,-0.977316,0.00076340605,0.0006974273,-0.2118052,0.0,0.0,0.0,0.0,0
2055924000,-0.9773176,0.00078511855,0.0006772286,-0.21179809,0.0,0.0,0.0,0.0,0
2055940000,-0.97732127,0.0008323381,0.0006434294,-0.21178097,0.0,0.0,0.0,0.0,0
2055952000,-0.97732437,0.000876339,0.00062573294,-0.21176638,0.0,0.0,0.0,0.0,0
2055960000,-0.97732645,0.0009183532,0.0006193595,-0.21175659,0.0,0.0,0.0,0.0,0
2055972000,-0.9773295,0.0009932596,0.0006221541,-0.21174225,0.0,0.0,0.0,0.0,0
2055988000,-0.9773334,0.0010912295,0.0006369335,-0.21172361,0.0,0.0,0.0,0.0,0
2056000000,-0.9773364,0.0011412696,0.00065349817,-0.21170947,0.0,0.0,0.0,0.0,0
2056012000,-0.9773395,0.0011635108,0.00066983316,-0.21169506,0.0,0.0,0.0,0.0,0
2056023999,-0.97734255,0.00116379,0.0006828945,-0.21168086,0.0,0.0,0.0,0.0,0
2056036000,-0.9773456,0.0011433364,0.0006909882,-0.21166709,0.0,0.0,0.0,0.0,0
2056043999,-0.9773475,0.0011193445,0.00069499493,-0.21165828,0.0,0.0,0.0,0.0,0
2056056000,-0.9773503,0.0010667581,0.0006997146,-0.2116457,0.0,0.0,0.0,0.0,0
2056072000,-0.97735393,0.0009763961,0.0006965051,-0.21162936,0.0,0.0,0.0,0.0,0
2056079999,-0.9773558,0.00092848466,0.0006913773,-0.21162112,0.0,0.0,0.0,0.0,0
2056092000,-0.97735834,0.00086218317,0.00068320363,-0.21160936,0.0,0.0,0.0,0.0,0
2056104000,-0.97736084,0.0008137671,0.00067829486,-0.21159808,0.0,0.0,0.0,0.0,0
2056116000,-0.9773632,0.0007836986,0.0006858685,-0.21158724,0.0,0.0,0.0,0.0,0
2056132000,-0.9773664,0.00075137644,0.0007072313,-0.21157272,0.0,0.0,0.0,0.0,0
2056144000,-0.97736895,0.0007319312,0.0007204826,-0.2115609,0.0,0.0,0.0,0.0,0
2056155999,-0.9773717,0.00070682226,0.0007321694,-0.21154833,0.0,0.0,0.0,0.0,0
2056168000,-0.97737443,0.00067910686,0.000739438,-0.21153551,0.0,0.0,0.0,0.0,0
2056180000,-0.9773773,0.0006542204,0.00073492486,-0.2115226,0.0,0.0,0.0,0.0,0
2056192000,-0.97738016,0.0006329728,0.00071133266,-0.21150929,0.0,0.0,0.0,0.0,0
2056204000,-0.9773831,0.0006111416,0.0006803139,-0.21149595,0.0,0.0,0.0,0.0,0
2056215999,-0.977386,0.0005920429,0.0006635766,-0.21148282,0.0,0.0,0.0,0.0,0
2056224000,-0.97738785,0.00058070745,0.000660064,-0.21147431,0.0,0.0,0.0,0.0,0
2056235999,-0.9773904,0.00056159263,0.0006628225,-0.21146244,0.0,0.0,0.0,0.0,0
2056251999,-0.9773936,0.00054553914,0.00068273756,-0.21144742,0.0,0.0,0.0,0.0,0
2056264000,-0.9773962,0.0005431724,0.00070087233,-0.21143556,0.0,0.0,0.0,0.0,0
2056276000,-0.9773987,0.0005440491,0.00070648064,-0.21142393,0.0,0.0,0.0,0.0,0
2056284000,-0.97740036,0.0005469491,0.000702196,-0.21141641,0.0,0.0,0.0,0.0,0
2056300000,-0.97740334,0.0005513375,0.00067597243,-0.21140262,0.0,0.0,0.0,0.0,0
2056311999,-0.97740525,0.000552441,0.00064473005,-0.21139374,0.0,0.0,0.0,0.0,0
2056320000,-0.97740644,0.00054969644,0.0006208573,-0.21138833,0.0,0.0,0.0,0.0,0
2056336000,-0.9774087,0.00053928315,0.0005714449,-0.21137817,0.0,0.0,0.0,0.0,0
2056347999,-0.97741044,0.0005269906,0.00054516725,-0.21137029,0.0,0.0,0.0,0.0,0
2056360000,-0.97741216,0.00051018246,0.0005265331,-0.21136218,0.0,0.0,0.0,0.0,0
2056372000,-0.97741383,0.0005027428,0.0005013498,-0.21135463,0.0,0.0,0.0,0.0,0
2056380000,-0.97741485,0.0005020111,0.00047899148,-0.21135002,0.0,0.0,0.0,0.0,0
2056392000,-0.9774162,0.0005031335,0.00044213692,-0.21134388,0.0,0.0,0.0,0.0,0
2056407999,-0.97741735,0.00048665033,0.00040741416,-0.21133871,0.0,0.0,0.0,0.0,0
2056420000,-0.9774177,0.0004654282,0.00040598094,-0.21133699,0.0,0.0,0.0,0.0,0
2056432000,-0.9774179,0.00045220996,0.00042134707,-0.21133631,0.0,0.0,0.0,0.0,0
2056440000,-0.9774178,0.00045389464,0.0004338295,-0.21133655,0.0,0.0,0.0,0.0,0
2056456000,-0.97741723,0.0004894026,0.00044678175,-0.21133915,0.0,0.0,0.0,0.0,0
2056468000,-0.9774163,0.00053393573,0.000440463,-0.21134344,0.0,0.0,0.0,0.0,0
2056480000,-0.977415,0.0005919906,0.00041733653,-0.21134922,0.0,0.0,0.0,0.0,0
2056492000,-0.9774136,0.00066081365,0.00038434158,-0.21135561,0.0,0.0,0.0,0.0,0
2056503999,-0.97741205,0.0007360649,0.00034229012,-0.2113627,0.0,0.0,0.0,0.0,0
2056516000,-0.9774104,0.0008191748,0.0002831798,-0.21137007,0.0,0.0,0.0,0.0,0
2056528000,-0.9774087,0.00090591615,0.00021708684,-0.21137743,0.0,0.0,0.0,0.0,0
2056536000,-0.97740763,0.00096596807,0.0001751796,-0.21138239,0.0,0.0,0.0,0.0,0
2056548000,-0.97740597,0.0010535566,0.00011717359,-0.21138963,0.0,0.0,0.0,0.0,0
2056564000,-0.977404,0.0011598149,4.5857523e-05,-0.21139808,0.0,0.0,0.0,0.0,0
2056576000,-0.977403,0.001232655,-1.9582778e-06,-0.2114025,0.0,0.0,0.0,0.0,0
2056584000,-0.9774025,0.00127758,-3.396718e-05,-0.21140437,0.0,0.0,0.0,0.0,0
2056596000,-0.9774021,0.0013361191,-8.358806e-05,-0.21140595,0.0,0.0,0.0,0.0,0
2056612000,-0.977402,0.0013939923,-0.00016156276,-0.21140613,0.0,0.0,0.0,0.0,0
2056619999,-0.97740203,0.0014134975,-0.00020096656,-0.2114056,0.0,0.0,0.0,0.0,0
2056635999,-0.97740257,0.0014429161,-0.00027150344,-0.21140291,0.0,0.0,0.0,0.0,0
2056648000,-0.9774032,0.0014615153,-0.0003053383,-0.21139961,0.0,0.0,0.0,0.0,0
2056660000,-0.97740394,0.0014750924,-0.00032398282,-0.21139635,0.0,0.0,0.0,0.0,0
2056672000,-0.97740436,0.0014767784,-0.0003273753,-0.21139415,0.0,0.0,0.0,0.0,0
2056684000,-0.9774045,0.0014773078,-0.0003151097,-0.21139367,0.0,0.0,0.0,0.0,0
2056692000,-0.97740436,0.0014806878,-0.00029984256,-0.21139441,0.0,0.0,0.0,0.0,0
2056704000,-0.97740376,0.0014871723,-0.00026586762,-0.21139699,0.0,0.0,0.0,0.0,0
2056715999,-0.977403,0.0014884569,-0.00022843103,-0.21140061,0.0,0.0,0.0,0.0,0
2056731999,-0.97740185,0.0014910583,-0.00018251414,-0.21140602,0.0,0.0,0.0,0.0,0
2056748000,-0.9774008,0.001490657,-0.00014826807,-0.2114109,0.0,0.0,0.0,0.0,0
2056756000,-0.97740024,0.0014887375,-0.0001327752,-0.21141341,0.0,0.0,0.0,0.0,0
2056771999,-0.97739893,0.0014870419,-0.00011207107,-0.21141939,0.0,0.0,0.0,0.0,0
2056780000,-0.9773982,0.0014862446,-0.000105311294,-0.21142286,0.0,0.0,0.0,0.0,0
2056791999,-0.9773971,0.0014785087,-9.29023e-05,-0.21142806,0.0,0.0,0.0,0.0,0
2056808000,-0.97739565,0.0014656921,-8.1269936e-05,-0.21143475,0.0,0.0,0.0,0.0,0
2056816000,-0.977395,0.0014589939,-7.3726005e-05,-0.21143803,0.0,0.0,0.0,0.0,0
2056831999,-0.97739345,0.0014363672,-4.0998963e-05,-0.21144517,0.0,0.0,0.0,0.0,0
2056844000,-0.97739226,0.0014237599,-6.6273305e-06,-0.21145096,0.0,0.0,0.0,0.0,0
2056856000,-0.97739094,0.0014343823,3.3411583e-05,-0.21145682,0.0,0.0,0.0,0.0,0
2056867999,-0.97738963,0.0014619043,7.948032e-05,-0.21146266,0.0,0.0,0.0,0.0,0
2056880000,-0.97738826,0.0015006437,0.00012553504,-0.21146877,0.0,0.0,0.0,0.0,0
2056887999,-0.97738725,0.0015270084,0.0001522456,-0.21147332,0.0,0.0,0.0,0.0,0
2056900000,-0.97738576,0.0015581143,0.00018604481,-0.21147996,0.0,0.0,0.0,0.0,0
2056916000,-0.97738415,0.0015813523,0.00021763728,-0.2114871,0.0,0.0,0.0,0.0,0
2056927999,-0.9773832,0.0016019857,0.00023311663,-0.21149123,0.0,0.0,0.0,0.0,0
2056940000,-0.9773829,0.0016361075,0.00024965862,-0.21149252,0.0,0.0,0.0,0.0,0
2056952000,-0.97738326,0.0016750807,0.0002615728,-0.2114905,0.0,0.0,0.0,0.0,0
2056960000,-0.9773838,0.0016938953,0.00026315215,-0.21148787,0.0,0.0,0.0,0.0,0
2056972000,-0.97738487,0.0017084585,0.00025776587,-0.21148285,0.0,0.0,0.0,0.0,0
2056988000,-0.9773863,0.0017006454,0.00023932377,-0.21147625,0.0,0.0,0.0,0.0,0
2056996000,-0.9773868,0.0016845773,0.00022506817,-0.21147417,0.0,0.0,0.0,0.0,0
2057012000,-0.97738737,0.0016409185,0.00019378435,-0.21147169,0.0,0.0,0.0,0.0,0
2057020000,-0.9773877,0.0016174809,0.00017584351,-0.2114703,0.0,0.0,0.0,0.0,0
2057036000,-0.97738844,0.0015649175,0.00013002982,-0.21146737,0.0,0.0,0.0,0.0,0
2057048000,-0.9773891,0.0015199261,9.041113e-05,-0.21146473,0.0,0.0,0.0,0.0,0
2057059999,-0.97739,0.0014825319,4.9666538e-05,-0.21146102,0.0,0.0,0.0,0.0,0
2057068000,-0.9773906,0.0014660556,2.435127e-05,-0.21145816,0.0,0.0,0.0,0.0,0
2057084000,-0.97739196,0.001455484,-2.036844e-05,-0.21145196,0.0,0.0,0.0,0.0,0
2057092000,-0.9773927,0.0014629855,-3.997239e-05,-0.21144861,0.0,0.0,0.0,0.0,0
2057104000,-0.97739375,0.0014871737,-5.927224e-05,-0.21144362,0.0,0.0,0.0,0.0,0
2057116000,-0.97739464,0.0015221552,-6.9355585e-05,-0.21143924,0.0,0.0,0.0,0.0,0
2057132000,-0.97739553,0.001568344,-7.842327e-05,-0.2114347,0.0,0.0,0.0,0.0,0
2057139999,-0.97739583,0.0015880291,-7.76628e-05,-0.21143313,0.0,0.0,0.0,0.0,0
2057155999,-0.9773961,0.0016181477,-4.8726804e-05,-0.21143179,0.0,0.0,0.0,0.0,0
2057164000,-0.97739595,0.0016297109,-2.263746e-05,-0.21143232,0.0,0.0,0.0,0.0,0
2057175999,-0.9773954,0.0016449519,2.4170626e-05,-0.21143453,0.0,0.0,0.0,0.0,0
2057188000,-0.9773947,0.0016575737,8.066961e-05,-0.21143782,0.0,0.0,0.0,0.0,0
2057200000,-0.9773938,0.0016689536,0.00014042603,-0.21144189,0.0,0.0,0.0,0.0,0
2057215999,-0.9773921,0.0016651094,0.00021764859,-0.21144974,0.0,0.0,0.0,0.0,0
2057228000,-0.97739047,0.0016486373,0.00025746814,-0.21145743,0.0,0.0,0.0,0.0,0
2057235999,-0.97738934,0.0016335496,0.00027572692,-0.21146263,0.0,0.0,0.0,0.0,0
2057251999,-0.9773876,0.0016047786,0.0003018729,-0.21147089,0.0,0.0,0.0,0.0,0
2057264000,-0.9773865,0.0015946287,0.00031136163,-0.21147616,0.0,0.0,0.0,0.0,0
2057271999,-0.97738576,0.0015943127,0.00031502655,-0.21147949,0.0,0.0,0.0,0.0,0
2057288000,-0.9773845,0.0016065569,0.00032317813,-0.21148516,0.0,0.0,0.0,0.0,0
2057300000,-0.9773838,0.0016215394,0.0003275126,-0.21148829,0.0,0.0,0.0,0.0,0
2057311999,-0.97738326,0.0016348847,0.00033029565,-0.21149059,0.0,0.0,0.0,0.0,0
2057324000,-0.97738284,0.0016464009,0.00033129053,-0.21149243,0.0,0.0,0.0,0.0,0
2057331999,-0.9773827,0.0016590545,0.00033293336,-0.21149293,0.0,0.0,0.0,0.0,0
2057344000,-0.9773831,0.0016864438,0.0003375694,-0.21149117,0.0,0.0,0.0,0.0,0
2057360000,-0.97738415,0.0017252988,0.00034672304,-0.21148583,0.0,0.0,0.0,0.0,0
2057372000,-0.97738516,0.0017529738,0.0003610832,-0.21148074,0.0,0.0,0.0,0.0,0
2057384000,-0.9773864,0.0017776899,0.0003822166,-0.2114748,0.0,0.0,0.0,0.0,0
2057392000,-0.97738737,0.0017941821,0.00039777215,-0.21147035,0.0,0.0,0.0,0.0,0
2057407999,-0.9773889,0.0018231734,0.00043153032,-0.21146269,0.0,0.0,0.0,0.0,0
2057420000,-0.97738975,0.0018386325,0.00046459743,-0.21145858,0.0,0.0,0.0,0.0,0
2057427999,-0.9773902,0.0018470732,0.0004899983,-0.21145634,0.0,0.0,0.0,0.0,0
2057443999,-0.977391,0.0018541659,0.0005361618,-0.21145256,0.0,0.0,0.0,0.0,0
2057456000,-0.9773916,0.0018576456,0.0005590933,-0.21144989,0.0,0.0,0.0,0.0,0
2057468000,-0.97739214,0.0018660597,0.00057199475,-0.21144712,0.0,0.0,0.0,0.0,0
2057476000,-0.97739244,0.0018758358,0.000573335,-0.21144564,0.0,0.0,0.0,0.0,0
2057492000,-0.9773927,0.0019134897,0.00055223727,-0.2114444,0.0,0.0,0.0,0.0,0
2057503999,-0.97739255,0.0019642352,0.00052310096,-0.21144438,0.0,0.0,0.0,0.0,0
2057512000,-0.9773925,0.0020071412,0.0005025478,-0.21144433,0.0,0.0,0.0,0.0,0
2057528000,-0.9773926,0.0020881288,0.00045846732,-0.21144326,0.0,0.0,0.0,0.0,0
2057539999,-0.9773929,0.0021452925,0.00041988413,-0.21144135,0.0,0.0,0.0,0.0,0
2057548000,-0.97739315,0.0021859498,0.0003916291,-0.21143991,0.0,0.0,0.0,0.0,0
2057564000,-0.9773938,0.002268199,0.00032107544,-0.21143605,0.0,0.0,0.0,0.0,0
2057572000,-0.9773943,0.0023053929,0.0002783929,-0.21143349,0.0,0.0,0.0,0.0,0
2057584000,-0.9773953,0.0023540312,0.00020576493,-0.21142839,0.0,0.0,0.0,0.0,0
2057596000,-0.9773966,0.0023909805,0.00013833241,-0.21142207,0.0,0.0,0.0,0.0,0
2057612000,-0.97739846,0.002420009,6.144046e-05,-0.21141301,0.0,0.0,0.0,0.0,0
2057624000,-0.9773997,0.002443739,5.9591707e-06,-0.21140707,0.0,0.0,0.0,0.0,0
2057635999,-0.97740054,0.0024728717,-5.3852e-05,-0.21140288,0.0,0.0,0.0,0.0,0
2057648000,-0.977401,0.0024999108,-0.0001211322,-0.2114004,0.0,0.0,0.0,0.0,0
2057660000,-0.97740126,0.002519959,-0.00019500236,-0.21139902,0.0,0.0,0.0,0.0,0
2057672000,-0.97740144,0.0025364335,-0.0002703743,-0.21139774,0.0,0.0,0.0,0.0,0
2057680000,-0.9774016,0.002546259,-0.00032181505,-0.2113968,0.0,0.0,0.0,0.0,0
2057695999,-0.977402,0.0025585014,-0.00042276314,-0.21139471,0.0,0.0,0.0,0.0,0
2057704000,-0.9774022,0.0025593457,-0.0004710967,-0.21139356,0.0,0.0,0.0,0.0,0
2057720000,-0.97740257,0.0025403837,-0.00055562117,-0.21139196,0.0,0.0,0.0,0.0,0
2057731999,-0.9774027,0.0025160743,-0.0006145196,-0.2113915,0.0,0.0,0.0,0.0,0
2057740000,-0.9774026,0.002502465,-0.0006504271,-0.21139194,0.0,0.0,0.0,0.0,0
2057756000,-0.9774019,0.0024870166,-0.0007044838,-0.21139506,0.0,0.0,0.0,0.0,0
2057764000,-0.97740144,0.0024816596,-0.0007222777,-0.21139745,0.0,0.0,0.0,0.0,0
2057780000,-0.9774001,0.002476033,-0.0007464063,-0.21140349,0.0,0.0,0.0,0.0,0
2057788000,-0.9773993,0.0024747115,-0.00075327995,-0.21140723,0.0,0.0,0.0,0.0,0
2057804000,-0.9773975,0.0024640763,-0.0007548214,-0.21141565,0.0,0.0,0.0,0.0,0
2057811999,-0.9773967,0.0024612646,-0.00074744,-0.21141937,0.0,0.0,0.0,0.0,0
2057827999,-0.97739536,0.0024772491,-0.0007165448,-0.2114256,0.0,0.0,0.0,0.0,0
2057840000,-0.97739434,0.0025086913,-0.0006968716,-0.21143004,0.0,0.0,0.0,0.0,0
2057847999,-0.9773936,0.002528009,-0.0006868629,-0.2114331,0.0,0.0,0.0,0.0,0
2057860000,-0.9773925,0.0025496893,-0.0006735564,-0.21143803,0.0,0.0,0.0,0.0,0
2057876000,-0.9773908,0.0025653183,-0.0006594749,-0.21144561,0.0,0.0,0.0,0.0,0
2057887999,-0.9773894,0.0025672254,-0.0006480694,-0.21145238,0.0,0.0,0.0,0.0,0
2057896000,-0.97738826,0.0025661746,-0.0006387078,-0.21145743,0.0,0.0,0.0,0.0,0
2057912000,-0.97738606,0.0025693127,-0.0006134688,-0.21146779,0.0,0.0,0.0,0.0,0
2057924000,-0.97738445,0.0025830592,-0.0005963405,-0.21147521,0.0,0.0,0.0,0.0,0
2057932000,-0.9773833,0.0025974433,-0.00058583426,-0.21148013,0.0,0.0,0.0,0.0,0
2057948000,-0.97738117,0.0026438606,-0.0005700528,-0.21148957,0.0,0.0,0.0,0.0,0
2057960000,-0.9773799,0.0026859064,-0.00055947347,-0.21149485,0.0,0.0,0.0,0.0,0
2057972000,-0.977379,0.0027197434,-0.0005562501,-0.21149847,0.0,0.0,0.0,0.0,0
2057980000,-0.9773786,0.002734981,-0.00056025863,-0.2115002,0.0,0.0,0.0,0.0,0
2057996000,-0.9773781,0.0027566273,-0.00057669875,-0.21150245,0.0,0.0,0.0,0.0,0
2058003999,-0.9773779,0.0027691452,-0.0005826214,-0.21150315,0.0,0.0,0.0,0.0,0
2058020000,-0.9773777,0.0027878762,-0.00058899354,-0.21150371,0.0,0.0,0.0,0.0,0
2058032000,-0.9773775,0.002795245,-0.00059485243,-0.21150464,0.0,0.0,0.0,0.0,0
2058043999,-0.9773771,0.0027990865,-0.00060463074,-0.2115062,0.0,0.0,0.0,0.0,0
2058056000,-0.9773767,0.0028022379,-0.0006189247,-0.21150811,0.0,0.0,0.0,0.0,0
2058068000,-0.9773763,0.0028056062,-0.00064379844,-0.2115099,0.0,0.0,0.0,0.0,0
2058079999,-0.977376,0.002812596,-0.00067407376,-0.21151091,0.0,0.0,0.0,0.0,0
2058088000,-0.977376,0.0028177055,-0.00069505954,-0.21151084,0.0,0.0,0.0,0.0,0
2058104000,-0.97737616,0.0028283484,-0.000741647,-0.21150975,0.0,0.0,0.0,0.0,0
2058112000,-0.9773763,0.0028338814,-0.0007679651,-0.21150921,0.0,0.0,0.0,0.0,0
2058128000,-0.97737616,0.002850783,-0.0008266338,-0.21150929,0.0,0.0,0.0,0.0,0
2058139999,-0.97737604,0.0028643776,-0.00087998214,-0.21150945,0.0,0.0,0.0,0.0,0
2058148000,-0.9773759,0.0028661117,-0.0009163144,-0.2115096,0.0,0.0,0.0,0.0,0
2058164000,-0.9773759,0.0028525242,-0.0009840245,-0.21150969,0.0,0.0,0.0,0.0,0
2058175999,-0.97737604,0.0028268406,-0.0010256126,-0.21150923,0.0,0.0,0.0,0.0,0
2058184000,-0.9773762,0.002804124,-0.0010506592,-0.21150845,0.0,0.0,0.0,0.0,0
2058200000,-0.9773767,0.002757485,-0.0010994491,-0.21150659,0.0,0.0,0.0,0.0,0
2058212000,-0.97737694,0.00272556,-0.0011383583,-0.21150567,0.0,0.0,0.0,0.0,0
2058224000,-0.9773771,0.0026952813,-0.0011768551,-0.21150512,0.0,0.0,0.0,0.0,0
2058235999,-0.9773773,0.002670982,-0.0012070573,-0.21150455,0.0,0.0,0.0,0.0,0
2058248000,-0.9773773,0.0026568216,-0.0012363049,-0.21150436,0.0,0.0,0.0,0.0,0
2058256000,-0.9773772,0.0026487573,-0.0012562656,-0.21150512,0.0,0.0,0.0,0.0,0
2058271999,-0.9773763,0.002627191,-0.0012943738,-0.2115091,0.0,0.0,0.0,0.0,0
2058284000,-0.97737545,0.0025974642,-0.0013310694,-0.21151309,0.0,0.0,0.0,0.0,0
2058296000,-0.9773747,0.002553031,-0.0013724609,-0.21151713,0.0,0.0,0.0,0.0,0
2058304000,-0.9773742,0.0025177891,-0.0013987992,-0.21151961,0.0,0.0,0.0,0.0,0
2058320000,-0.9773731,0.0024325019,-0.0014493051,-0.21152498,0.0,0.0,0.0,0.0,0
2058331999,-0.9773723,0.0023718723,-0.0014848377,-0.21152948,0.0,0.0,0.0,0.0,0
2058344000,-0.97737116,0.002326015,-0.0015189226,-0.21153495,0.0,0.0,0.0,0.0,0
2058356000,-0.9773697,0.0022848437,-0.001546764,-0.21154182,0.0,0.0,0.0,0.0,0
2058364000,-0.9773687,0.0022583501,-0.0015619702,-0.21154663,0.0,0.0,0.0,0.0,0
2058380000,-0.97736686,0.0022111994,-0.0015918472,-0.21155548,0.0,0.0,0.0,0.0,0
2058387999,-0.97736603,0.0021905603,-0.0016069177,-0.21155934,0.0,0.0,0.0,0.0,0
2058404000,-0.97736484,0.002155832,-0.0016329007,-0.21156499,0.0,0.0,0.0,0.0,0
2058416000,-0.9773643,0.002128735,-0.0016507755,-0.21156771,0.0,0.0,0.0,0.0,0
2058424000,-0.97736406,0.002108917,-0.0016629305,-0.2115689,0.0,0.0,0.0,0.0,0
2058436000,-0.9773639,0.0020718344,-0.0016873658,-0.21156998,0.0,0.0,0.0,0.0,0
2058452000,-0.97736394,0.0020031785,-0.0017163707,-0.21156989,0.0,0.0,0.0,0.0,0
2058463999,-0.9773644,0.001950515,-0.001729505,-0.2115682,0.0,0.0,0.0,0.0,0
2058472000,-0.97736496,0.001916325,-0.0017360675,-0.21156599,0.0,0.0,0.0,0.0,0
2058488000,-0.9773665,0.0018520643,-0.0017487489,-0.21155928,0.0,0.0,0.0,0.0,0
2058500000,-0.97736794,0.0018107656,-0.0017648762,-0.21155287,0.0,0.0,0.0,0.0,0
2058512000,-0.97736955,0.0017839683,-0.0017867272,-0.21154541,0.0,0.0,0.0,0.0,0
2058520000,-0.97737074,0.0017736118,-0.0018044045,-0.21154006,0.0,0.0,0.0,0.0,0
2058536000,-0.97737294,0.0017663228,-0.0018506346,-0.21152927,0.0,0.0,0.0,0.0,0
2058548000,-0.9773748,0.0017697115,-0.0018800774,-0.21152048,0.0,0.0,0.0,0.0,0
2058559999,-0.9773767,0.0017845182,-0.0019018175,-0.21151136,0.0,0.0,0.0,0.0,0
2058568000,-0.97737783,0.0018006406,-0.0019147664,-0.21150601,0.0,0.0,0.0,0.0,0
2058579999,-0.9773791,0.0018322751,-0.001933669,-0.21149985,0.0,0.0,0.0,0.0,0
2058592000,-0.97737986,0.0018728509,-0.0019517523,-0.21149571,0.0,0.0,0.0,0.0,0
2058604000,-0.9773804,0.0019118674,-0.0019677936,-0.21149255,0.0,0.0,0.0,0.0,0
2058619999,-0.9773814,0.0019385576,-0.0019874796,-0.21148749,0.0,0.0,0.0,0.0,0
2058632000,-0.97738236,0.0019521933,-0.0019937211,-0.21148287,0.0,0.0,0.0,0.0,0
2058644000,-0.9773833,0.001959232,-0.001986779,-0.21147853,0.0,0.0,0.0,0.0,0
2058652000,-0.9773839,0.0019582638,-0.0019740139,-0.21147585,0.0,0.0,0.0,0.0,0
2058668000,-0.97738504,0.0019303304,-0.0019225018,-0.21147148,0.0,0.0,0.0,0.0,0
2058680000,-0.9773857,0.001882823,-0.0018514171,-0.21146955,0.0,0.0,0.0,0.0,0
2058688000,-0.977386,0.00184315,-0.0017921091,-0.21146894,0.0,0.0,0.0,0.0,0
2058704000,-0.97738636,0.0017560096,-0.0016724992,-0.21146886,0.0,0.0,0.0,0.0,0
2058712000,-0.9773863,0.0017212637,-0.0016212963,-0.21147004,0.0,0.0,0.0,0.0,0
2058728000,-0.9773854,0.0016824479,-0.0015516209,-0.2114749,0.0,0.0,0.0,0.0,0
2058740000,-0.97738445,0.001663407,-0.0015371185,-0.21147966,0.0,0.0,0.0,0.0,0
2058751999,-0.97738326,0.001648144,-0.0015506455,-0.21148524,0.0,0.0,0.0,0.0,0
2058764000,-0.9773819,0.0016319485,-0.0015869975,-0.21149126,0.0,0.0,0.0,0.0,0
2058771999,-0.9773811,0.0016153408,-0.0016210497,-0.21149488,0.0,0.0,0.0,0.0,0
2058788000,-0.97737974,0.0015607193,-0.0016964573,-0.21150088,0.0,0.0,0.0,0.0,0
2058796000,-0.9773792,0.0015231398,-0.001737102,-0.2115033,0.0,0.0,0.0,0.0,0
2058811999,-0.9773784,0.001441409,-0.0018148519,-0.21150674,0.0,0.0,0.0,0.0,0
2058824000,-0.9773781,0.0013962559,-0.0018700062,-0.21150824,0.0,0.0,0.0,0.0,0
2058831999,-0.9773779,0.0013744242,-0.0019050549,-0.21150889,0.0,0.0,0.0,0.0,0
2058844000,-0.9773777,0.001346637,-0.0019526694,-0.2115096,0.0,0.0,0.0,0.0,0
2058860000,-0.9773775,0.0013121321,-0.002006502,-0.21151024,0.0,0.0,0.0,0.0,0
2058867999,-0.97737736,0.0012967316,-0.0020329831,-0.21151067,0.0,0.0,0.0,0.0,0
2058884000,-0.9773772,0.0012612545,-0.002085445,-0.21151139,0.0,0.0,0.0,0.0,0
2058892000,-0.97737706,0.001245948,-0.0021109905,-0.21151163,0.0,0.0,0.0,0.0,0
2058904000,-0.977377,0.0012288663,-0.0021433092,-0.21151175,0.0,0.0,0.0,0.0,0
2058920000,-0.9773771,0.0012295065,-0.0021667616,-0.21151085,0.0,0.0,0.0,0.0,0
2058932000,-0.9773774,0.0012470074,-0.0021648547,-0.21150944,0.0,0.0,0.0,0.0,0
2058940000,-0.9773778,0.0012617428,-0.002158125,-0.2115079,0.0,0.0,0.0,0.0,0
2058952000,-0.9773784,0.0012779232,-0.0021495172,-0.21150471,0.0,0.0,0.0,0.0,0
2058968000,-0.97737956,0.0012954936,-0.0021472583,-0.21149945,0.0,0.0,0.0,0.0,0
2058980000,-0.9773805,0.0013128724,-0.0021513654,-0.21149488,0.0,0.0,0.0,0.0,0
2058992000,-0.9773814,0.001333545,-0.002154891,-0.2114906,0.0,0.0,0.0,0.0,0
2059003999,-0.9773821,0.0013443312,-0.0021570371,-0.21148716,0.0,0.0,0.0,0.0,0
2059016000,-0.97738266,0.00134487,-0.0021559023,-0.21148482,0.0,0.0,0.0,0.0,0
2059028000,-0.9773827,0.0013478878,-0.0021551703,-0.21148437,0.0,0.0,0.0,0.0,0
2059039999,-0.97738224,0.0013730162,-0.002158383,-0.21148653,0.0,0.0,0.0,0.0,0
2059052000,-0.97738117,0.001416917,-0.002168972,-0.21149096,0.0,0.0,0.0,0.0,0
2059059999,-0.9773802,0.0014540436,-0.0021765046,-0.21149498,0.0,0.0,0.0,0.0,0
2059072000,-0.97737867,0.0015199229,-0.0021854874,-0.21150179,0.0,0.0,0.0,0.0,0
2059088000,-0.977377,0.001620683,-0.0021917496,-0.21150862,0.0,0.0,0.0,0.0,0
2059099999,-0.9773766,0.001697752,-0.002189761,-0.21150996,0.0,0.0,0.0,0.0,0
2059112000,-0.97737676,0.0017642422,-0.0021892462,-0.21150857,0.0,0.0,0.0,0.0,0
2059124000,-0.97737706,0.0018248932,-0.0021976347,-0.21150644,0.0,0.0,0.0,0.0,0
2059132000,-0.9773774,0.001863047,-0.0022074082,-0.21150462,0.0,0.0,0.0,0.0,0
2059148000,-0.9773783,0.0019373816,-0.0022324915,-0.21149953,0.0,0.0,0.0,0.0,0
2059155999,-0.9773789,0.0019659256,-0.0022462164,-0.21149631,0.0,0.0,0.0,0.0,0
2059172000,-0.9773806,0.0019952096,-0.0022787142,-0.21148792,0.0,0.0,0.0,0.0,0
2059180000,-0.97738165,0.0019999829,-0.0022971714,-0.21148275,0.0,0.0,0.0,0.0,0
2059192000,-0.97738343,0.0019948562,-0.002329537,-0.2114742,0.0,0.0,0.0,0.0,0
2059208000,-0.97738576,0.0019742812,-0.0023891814,-0.21146287,0.0,0.0,0.0,0.0,0
2059220000,-0.9773874,0.0019527958,-0.0024413548,-0.21145491,0.0,0.0,0.0,0.0,0
2059231999,-0.97738904,0.0019338991,-0.0024980463,-0.21144696,0.0,0.0,0.0,0.0,0
2059240000,-0.9773902,0.0019212028,-0.0025308228,-0.21144119,0.0,0.0,0.0,0.0,0
2059256000,-0.9773931,0.0018951013,-0.0025731388,-0.21142761,0.0,0.0,0.0,0.0,0
2059268000,-0.9773956,0.0018657087,-0.0025890148,-0.21141608,0.0,0.0,0.0,0.0,0
2059280000,-0.9773982,0.0018271044,-0.0025959767,-0.21140435,0.0,0.0,0.0,0.0,0
2059296000,-0.9774015,0.0017637247,-0.0026018282,-0.21138942,0.0,0.0,0.0,0.0,0
2059304000,-0.9774031,0.0017271664,-0.002607702,-0.21138237,0.0,0.0,0.0,0.0,0
2059320000,-0.9774058,0.001643737,-0.0026305618,-0.21137027,0.0,0.0,0.0,0.0,0
2059327999,-0.9774068,0.0015978602,-0.0026436327,-0.21136576,0.0,0.0,0.0,0.0,0
2059340000,-0.9774081,0.0015293666,-0.0026600198,-0.21136008,0.0,0.0,0.0,0.0,0
2059356000,-0.97740966,0.0014476818,-0.0026786497,-0.2113532,0.0,0.0,0.0,0.0,0
2059364000,-0.9774103,0.0014165727,-0.002685319,-0.21135044,0.0,0.0,0.0,0.0,0
2059380000,-0.9774111,0.0013764224,-0.0026883408,-0.21134697,0.0,0.0,0.0,0.0,0
2059392000,-0.9774113,0.0013597794,-0.0026789177,-0.21134609,0.0,0.0,0.0,0.0,0
2059404000,-0.97741145,0.0013475087,-0.0026679963,-0.2113457,0.0,0.0,0.0,0.0,0
2059416000,-0.9774115,0.0013302787,-0.0026627555,-0.21134558,0.0,0.0,0.0,0.0,0
2059424000,-0.9774115,0.0013119326,-0.002661052,-0.21134588,0.0,0.0,0.0,0.0,0
2059440000,-0.97741127,0.0012582229,-0.002646813,-0.21134739,0.0,0.0,0.0,0.0,0
2059452000,-0.97741085,0.0012183449,-0.0026315884,-0.21134974,0.0,0.0,0.0,0.0,0
2059463999,-0.9774103,0.0011752432,-0.0026215108,-0.21135262,0.0,0.0,0.0,0.0,0
2059472000,-0.97741,0.0011426732,-0.0026145938,-0.21135435,0.0,0.0,0.0,0.0,0
2059488000,-0.9774096,0.0010653227,-0.0026045672,-0.21135677,0.0,0.0,0.0,0.0,0
2059500000,-0.97740936,0.0010035797,-0.002602019,-0.21135806,0.0,0.0,0.0,0.0,0
2059512000,-0.97740906,0.0009421811,-0.0025970074,-0.21135984,0.0,0.0,0.0,0.0,0
2059523999,-0.97740877,0.00087330566,-0.0025824686,-0.21136169,0.0,0.0,0.0,0.0,0
2059536000,-0.9774086,0.0007962588,-0.0025596567,-0.21136308,0.0,0.0,0.0,0.0,0
2059548000,-0.9774084,0.0007192681,-0.0025419272,-0.21136434,0.0,0.0,0.0,0.0,0
2059559999,-0.97740835,0.00064709387,-0.0025258297,-0.21136513,0.0,0.0,0.0,0.0,0
2059572000,-0.97740835,0.0005779854,-0.0025098394,-0.21136566,0.0,0.0,0.0,0.0,0
2059584000,-0.9774084,0.0005146185,-0.0024939366,-0.2113657,0.0,0.0,0.0,0.0,0
2059592000,-0.9774086,0.00047689618,-0.0024841381,-0.21136506,0.0,0.0,0.0,0.0,0
2059608000,-0.97740924,0.0004211589,-0.0024612315,-0.21136221,0.0,0.0,0.0,0.0,0
2059616000,-0.9774098,0.0004047729,-0.0024491642,-0.21136014,0.0,0.0,0.0,0.0,0
2059632000,-0.97741073,0.0003792201,-0.0024350155,-0.21135579,0.0,0.0,0.0,0.0,0
2059644000,-0.9774115,0.00036736997,-0.0024300534,-0.21135241,0.0,0.0,0.0,0.0,0
2059652000,-0.97741205,0.00036566856,-0.0024317433,-0.21134995,0.0,0.0,0.0,0.0,0
2059668000,-0.9774128,0.00036606137,-0.002444246,-0.21134605,0.0,0.0,0.0,0.0,0
2059680000,-0.97741294,0.00036477827,-0.0024574697,-0.21134537,0.0,0.0,0.0,0.0,0
2059692000,-0.9774127,0.00036363644,-0.0024684689,-0.2113465,0.0,0.0,0.0,0.0,0
2059704000,-0.9774123,0.00035517474,-0.0024769674,-0.21134816,0.0,0.0,0.0,0.0,0
2059715999,-0.97741205,0.00034467326,-0.0024845295,-0.21134926,0.0,0.0,0.0,0.0,0
2059728000,-0.97741187,0.0003325323,-0.0024873696,-0.21135011,0.0,0.0,0.0,0.0,0
2059735999,-0.97741175,0.00032704577,-0.0024857842,-0.21135078,0.0,0.0,0.0,0.0,0
2059751999,-0.97741157,0.00033386072,-0.002481728,-0.21135165,0.0,0.0,0.0,0.0,0
2059764000,-0.97741157,0.00035804382,-0.002481581,-0.21135145,0.0,0.0,0.0,0.0,0
2059776000,-0.9774117,0.0003819877,-0.002490387,-0.21135089,0.0,0.0,0.0,0.0,0
2059788000,-0.9774118,0.00040965475,-0.0025062796,-0.21134995,0.0,0.0,0.0,0.0,0
2059800000,-0.97741216,0.00044924588,-0.0025222464,-0.21134794,0.0,0.0,0.0,0.0,0
2059811999,-0.9774127,0.00049941154,-0.002534881,-0.21134518,0.0,0.0,0.0,0.0,0
2059820000,-0.97741306,0.0005350641,-0.0025442734,-0.21134354,0.0,0.0,0.0,0.0,0
2059836000,-0.9774133,0.0006078096,-0.002565641,-0.21134187,0.0,0.0,0.0,0.0,0
2059847999,-0.9774135,0.0006591436,-0.0025892504,-0.21134071,0.0,0.0,0.0,0.0,0
2059860000,-0.97741383,0.00069624966,-0.002615751,-0.2113385,0.0,0.0,0.0,0.0,0
2059872000,-0.9774142,0.0007110832,-0.0026428595,-0.21133646,0.0,0.0,0.0,0.0,0
2059880000,-0.9774144,0.0007102138,-0.0026602347,-0.2113353,0.0,0.0,0.0,0.0,0
2059896000,-0.9774151,0.000693183,-0.0026899897,-0.21133184,0.0,0.0,0.0,0.0,0
2059904000,-0.9774155,0.00068007404,-0.002691204,-0.21132995,0.0,0.0,0.0,0.0,0
2059920000,-0.97741604,0.0006568087,-0.002663656,-0.21132787,0.0,0.0,0.0,0.0,0
2059932000,-0.97741604,0.00065861,-0.002624101,-0.21132843,0.0,0.0,0.0,0.0,0
2059940000,-0.9774159,0.00066570245,-0.0025908032,-0.21132925,0.0,0.0,0.0,0.0,0
2059952000,-0.9774159,0.0006803827,-0.0025382908,-0.21132989,0.0,0.0,0.0,0.0,0
2059968000,-0.97741616,0.0006883953,-0.0024726621,-0.21132945,0.0,0.0,0.0,0.0,0
2059976000,-0.97741634,0.0006802032,-0.0024480252,-0.21132903,0.0,0.0,0.0,0.0,0
2059992000,-0.9774165,0.0006439959,-0.0024161462,-0.2113286,0.0,0.0,0.0,0.0,0
2060003999,-0.9774165,0.00060250564,-0.0023998588,-0.21132901,0.0,0.0,0.0,0.0,0
2060016000,-0.97741634,0.0005592372,-0.0023880089,-0.21132994,0.0,0.0,0.0,0.0,0
2060028000,-0.9774161,0.0005102415,-0.0023877872,-0.21133137,0.0,0.0,0.0,0.0,0
2060039999,-0.9774156,0.00045479994,-0.0023979796,-0.21133342,0.0,0.0,0.0,0.0,0
2060052000,-0.97741514,0.00039854547,-0.0024128272,-0.2113358,0.0,0.0,0.0,0.0,0
2060059999,-0.9774148,0.0003635472,-0.0024298893,-0.21133725,0.0,0.0,0.0,0.0,0
2060076000,-0.97741425,0.00028935526,-0.00248135,-0.21133916,0.0,0.0,0.0,0.0,0
2060084000,-0.97741413,0.00025039236,-0.0025044265,-0.21133947,0.0,0.0,0.0,0.0,0
2060099999,-0.9774141,0.00018685995,-0.002544158,-0.21133925,0.0,0.0,0.0,0.0,0
2060112000,-0.97741425,0.00015811824,-0.002569771,-0.21133825,0.0,0.0,0.0,0.0,0
2060124000,-0.97741437,0.00013465999,-0.0025889522,-0.21133749,0.0,0.0,0.0,0.0,0
2060132000,-0.9774143,0.0001171903,-0.002600776,-0.21133763,0.0,0.0,0.0,0.0,0
2060148000,-0.9774139,7.065673e-05,-0.0026193461,-0.21133938,0.0,0.0,0.0,0.0,0
2060160000,-0.9774135,3.9027243e-05,-0.0026150052,-0.21134134,0.0,0.0,0.0,0.0,0
2060172000,-0.97741294,1.4073666e-05,-0.0026019197,-0.21134391,0.0,0.0,0.0,0.0,0
2060184000,-0.9774123,-1.0839874e-05,-0.0025836665,-0.21134725,0.0,0.0,0.0,0.0,0
2060195999,-0.97741157,-3.4447043e-05,-0.002557569,-0.21135072,0.0,0.0,0.0,0.0,0
2060208000,-0.97741103,-5.8660044e-05,-0.00252851,-0.21135373,0.0,0.0,0.0,0.0,0
2060220000,-0.9774106,-8.335875e-05,-0.0025068438,-0.21135585,0.0,0.0,0.0,0.0,0
2060231999,-0.97741044,-0.00010951898,-0.00249271,-0.21135682,0.0,0.0,0.0,0.0,0
2060244000,-0.9774105,-0.0001343329,-0.0024878192,-0.21135676,0.0,0.0,0.0,0.0,0
2060251999,-0.97741055,-0.00014556239,-0.002486214,-0.21135648,0.0,0.0,0.0,0.0,0
