timestamp,q[0],q[1],q[2],q[3],delta_q_reset[0],delta_q_reset[1],delta_q_reset[2],delta_q_reset[3],quat_reset_counter
2051220000,-0.9776222,-0.00034875175,0.0003338111,-0.21036781,0.9999548,-4.6566134e-10,-1.1641534e-10,0.00951025,3
2051268000,-0.977636,-0.00035962768,0.00033052775,-0.210304,0.9999548,-4.6566134e-10,-1.1641534e-10,0.00951025,3
2051324000,-0.97763544,-0.00041297122,0.0003169328,-0.21030633,0.9999548,-4.6566134e-10,-1.1641534e-10,0.00951025,3
2051372000,-0.9776301,-0.00041780938,0.00025277774,-0.21033119,0.9999548,-4.6566134e-10,-1.1641534e-10,0.00951025,3
2051424000,-0.9776126,-0.00044043615,0.0002215436,-0.21041225,0.9999548,-4.6566134e-10,-1.1641534e-10,0.00951025,3
2051476000,-0.9776102,-0.00035712874,0.00023370952,-0.21042408,0.9999548,-4.6566134e-10,-1.1641534e-10,0.00951025,3
2051528000,-0.9776042,-0.00033410007,0.00023007885,-0.21045199,0.9999548,-4.6566134e-10,-1.1641534e-10,0.00951025,3
2051579999,-0.97759867,-0.00031015143,0.00019540923,-0.21047734,0.9999548,-4.6566134e-10,-1.1641534e-10,0.00951025,3
2051632000,-0.9775953,-0.000285059,0.00012316338,-0.21049331,0.9999548,-4.6566134e-10,-1.1641534e-10,0.00951025,3
2051688000,-0.97758245,-0.00024089395,0.00013131388,-0.2105532,0.9999548,-4.6566134e-10,-1.1641534e-10,0.00951025,3
2051735999,-0.9775694,-0.0002167092,0.00011914417,-0.21061362,0.9999548,-4.6566134e-10,-1.1641534e-10,0.00951025,3
2051788000,-0.9775677,-0.00019240416,0.00013763124,-0.21062179,0.9999548,-4.6566134e-10,-1.1641534e-10,0.00951025,3
2051840000,-0.97757673,-0.00013737597,9.703103e-05,-0.21057941,0.9999548,-4.6566134e-10,-1.1641534e-10,0.00951025,3
2051896000,-0.97757286,-0.00013563478,0.00012517205,-0.2105975,0.9999548,-4.6566134e-10,-1.1641534e-10,0.00951025,3
2051948000,-0.97757936,-9.7013486e-05,0.00017762196,-0.21056718,0.9999548,-4.6566134e-10,-1.1641534e-10,0.00951025,3
2051996000,-0.9775797,-9.9759876e-05,0.00010637439,-0.21056575,0.9999548,-4.6566134e-10,-1.1641534e-10,0.00951025,3
2052052000,-0.97757703,-9.965358e-05,0.00010996801,-0.21057855,0.9999548,-4.6566134e-10,-1.1641534e-10,0.00951025,3
2052099999,-0.9775723,-0.00015006277,4.460904e-05,-0.21060039,0.9999548,-4.6566134e-10,-1.1641534e-10,0.00951025,3
2052152000,-0.9775749,-0.00022734478,-2.3117595e-05,-0.21058816,0.9999548,-4.6566134e-10,-1.1641534e-10,0.00951025,3
2052208000,-0.9775727,-0.00016770264,-7.075574e-06,-0.2105984,0.9999548,-4.6566134e-10,-1.1641534e-10,0.00951025,3
2052260000,-0.97757274,-0.00019894693,-5.684071e-05,-0.21059822,0.9999548,-4.6566134e-10,-1.1641534e-10,0.00951025,3
2052308000,-0.9775722,-0.0001558433,-8.733454e-05,-0.21060063,0.9999548,-4.6566134e-10,-1.1641534e-10,0.00951025,3
2052360000,-0.97758174,-0.00017883294,-4.6091023e-05,-0.2105561,0.9999548,-4.6566134e-10,-1.1641534e-10,0.00951025,3
2052416000,-0.9775734,-0.000150776,-5.2833464e-05,-0.21059486,0.9999548,-4.6566134e-10,-1.1641534e-10,0.00951025,3
2052463999,-0.9775599,-0.00012071848,-6.871753e-05,-0.21065757,0.9999548,-4.6566134e-10,-1.1641534e-10,0.00951025,3
2052516000,-0.9775633,-0.00019761133,-4.0110466e-05,-0.21064144,0.9999548,-4.6566134e-10,-1.1641534e-10,0.00951025,3
2052572000,-0.9775762,-0.0001723837,-6.684631e-05,-0.21058196,0.9999548,-4.6566134e-10,-1.1641534e-10,0.00951025,3
2052619999,-0.97758055,-0.00019670522,-2.5632593e-05,-0.210562,0.9999548,-4.6566134e-10,-1.1641534e-10,0.00951025,3
2052672000,-0.9775731,-0.00022315899,-1.792963e-05,-0.21059644,0.9999548,-4.6566134e-10,-1.1641534e-10,0.00951025,3
2052724000,-0.977576,-0.00022792954,-3.292765e-05,-0.21058306,0.9999548,-4.6566134e-10,-1.1641534e-10,0.00951025,3
2052780000,-0.9775701,-0.00020389116,-1.6892585e-05,-0.21061005,0.9999548,-4.6566134e-10,-1.1641534e-10,0.00951025,3
2052827999,-0.9775565,-0.00015171268,6.5683735e-06,-0.21067353,0.9999548,-4.6566134e-10,-1.1641534e-10,0.00951025,3
2052880000,-0.9775585,-0.000117727934,-1.3464215e-05,-0.21066456,0.9999548,-4.6566134e-10,-1.1641534e-10,0.00951025,3
2052932000,-0.9775767,-0.00013794369,-4.4141223e-05,-0.21057995,0.9999548,-4.6566134e-10,-1.1641534e-10,0.00951025,3
2052983999,-0.9775799,-0.00016831259,-3.6483234e-05,-0.21056491,0.9999548,-4.6566134e-10,-1.1641534e-10,0.00951025,3
2053036000,-0.9775904,-0.0016577109,0.00068083295,-0.21050863,0.9999548,-4.6566134e-10,-1.1641534e-10,0.00951025,3
2053088000,-0.9775866,-0.005465277,0.003405534,-0.21043536,0.9999548,-4.6566134e-10,-1.1641534e-10,0.00951025,3
2053139999,-0.97756296,-0.008234945,0.0055490467,-0.2104091,0.9999548,-4.6566134e-10,-1.1641534e-10,0.00951025,3
2053192000,-0.97756875,-0.009431333,0.006655884,-0.21029988,0.9999548,-4.6566134e-10,-1.1641534e-10,0.00951025,3
2053244000,-0.9775841,-0.009169774,0.0068707424,-0.21023335,0.9999548,-4.6566134e-10,-1.1641534e-10,0.00951025,3
2053300000,-0.97762084,-0.007948975,0.006408635,-0.21012715,0.9999548,-4.6566134e-10,-1.1641534e-10,0.00951025,3
2053347999,-0.97763395,-0.006662504,0.0057134684,-0.21013056,0.9999548,-4.6566134e-10,-1.1641534e-10,0.00951025,3
2053400000,-0.97764385,-0.0052437135,0.0049788095,-0.21014357,0.9999548,-4.6566134e-10,-1.1641534e-10,0.00951025,3
2053452000,-0.9776569,-0.0040269345,0.0041873287,-0.21012682,0.9999548,-4.6566134e-10,-1.1641534e-10,0.00951025,3
2053503999,-0.9776702,-0.0030847816,0.0032912833,-0.21009676,0.9999548,-4.6566134e-10,-1.1641534e-10,0.00951025,3
2053556000,-0.977684,-0.0023379745,0.0025495396,-0.21005253,0.9999548,-4.6566134e-10,-1.1641534e-10,0.00951025,3
2053612000,-0.9776984,-0.0017779159,0.002135002,-0.2099957,0.9999548,-4.6566134e-10,-1.1641534e-10,0.00951025,3
2053660000,-0.9777014,-0.0014288039,0.0020859118,-0.20998472,0.9999548,-4.6566134e-10,-1.1641534e-10,0.00951025,3
2053712000,-0.97769374,-0.0009732673,0.002109006,-0.21002291,0.9999548,-4.6566134e-10,-1.1641534e-10,0.00951025,3
2053768000,-0.977696,-0.0008368932,0.0021206415,-0.21001294,0.9999548,-4.6566134e-10,-1.1641534e-10,0.00951025,3
2053816000,-0.9776891,-0.000809349,0.002017368,-0.21004623,0.9999548,-4.6566134e-10,-1.1641534e-10,0.00951025,3
2053867999,-0.9777051,-0.00078058196,0.0018800151,-0.20997319,0.9999548,-4.6566134e-10,-1.1641534e-10,0.00951025,3
2053920000,-0.97770464,-0.00082657347,0.0015984868,-0.20997736,0.9999548,-4.6566134e-10,-1.1641534e-10,0.00951025,3
2053972000,-0.9777078,-0.0007155725,0.0013579869,-0.20996441,0.9999548,-4.6566134e-10,-1.1641534e-10,0.00951025,3
2054028000,-0.9777063,-0.0006635299,0.0013322982,-0.20997185,0.9999548,-4.6566134e-10,-1.1641534e-10,0.00951025,3
2054079999,-0.9777084,-0.00041573256,0.0012688562,-0.20996313,0.9999548,-4.6566134e-10,-1.1641534e-10,0.00951025,3
2054128000,-0.9777132,-0.00018220034,0.001265707,-0.20994107,0.9999548,-4.6566134e-10,-1.1641534e-10,0.00951025,3
2054180000,-0.97772396,-2.3335984e-05,0.001131726,-0.20989217,0.9999548,-4.6566134e-10,-1.1641534e-10,0.00951025,3
2054235999,-0.97773856,9.0031295e-05,0.0012011759,-0.20982356,0.9999548,-4.6566134e-10,-1.1641534e-10,0.00951025,3
2054284000,-0.97773826,4.774042e-07,0.001123145,-0.20982549,0.9999548,-4.6566134e-10,-1.1641534e-10,0.00951025,3
2054340000,-0.9777422,-0.00024985388,0.0011757208,-0.20980644,0.9999548,-4.6566134e-10,-1.1641534e-10,0.00951025,3
2054387999,-0.9777374,-0.0002395649,0.0011085662,-0.20982954,0.9999548,-4.6566134e-10,-1.1641534e-10,0.00951025,3
2054440000,-0.9777255,-5.761731e-07,0.00096425746,-0.20988561,0.9999548,-4.6566134e-10,-1.1641534e-10,0.00951025,3
2054492000,-0.97770953,0.0001302028,0.0008863453,-0.20996006,0.9999548,-4.6566134e-10,-1.1641534e-10,0.00951025,3
2054548000,-0.977715,0.00022817886,0.000939941,-0.2099341,0.9999548,-4.6566134e-10,-1.1641534e-10,0.00951025,3
2054599999,-0.9777105,0.00016152489,0.0010226542,-0.20995519,0.9999548,-4.6566134e-10,-1.1641534e-10,0.00951025,3
2054648000,-0.97771096,0.000114135044,0.0011409912,-0.20995218,0.9999548,-4.6566134e-10,-1.1641534e-10,0.00951025,3
2054700000,-0.97770774,0.0001635338,0.0010154063,-0.20996824,0.9999548,-4.6566134e-10,-1.1641534e-10,0.00951025,3
2054751999,0.9783943,-0.00026075318,-0.0009709839,0.20674554,-0.99999464,1.45519135e-11,1.8189892e-11,0.0032733525,4
2054808000,0.9783383,-1.6030917e-05,-0.0011461765,0.20700921,-0.99999464,1.45519135e-11,1.8189892e-11,0.0032733525,4
2054860000,0.97825396,0.00021741111,-0.0013097351,0.20740663,-0.99999464,1.45519135e-11,1.8189892e-11,0.0032733525,4
2054907999,0.9781673,0.0002413837,-0.0014292456,0.20781416,-0.99999464,1.45519135e-11,1.8189892e-11,0.0032733525,4
2054960000,0.9780765,0.00023164263,-0.0014170535,0.20824075,-0.99999464,1.45519135e-11,1.8189892e-11,0.0032733525,4
2055016000,0.9780003,0.0002608015,-0.0012546302,0.20860007,-0.99999464,1.45519135e-11,1.8189892e-11,0.0032733525,4
2055064000,0.97794944,0.00019917487,-0.001277529,0.20883787,-0.99999464,1.45519135e-11,1.8189892e-11,0.0032733525,4
2055116000,0.97788924,0.00014706276,-0.0013376673,0.20911942,-0.99999464,1.45519135e-11,1.8189892e-11,0.0032733525,4
2055168000,0.97785,-4.4431228e-05,-0.0013084332,0.20930311,-0.99999464,1.45519135e-11,1.8189892e-11,0.0032733525,4
2055220000,0.97781456,6.839615e-05,-0.0012225006,0.20946921,-0.99999464,1.45519135e-11,1.8189892e-11,0.0032733525,4
2055271999,0.97777385,3.3888686e-05,-0.0010602648,0.20965989,-0.99999464,1.45519135e-11,1.8189892e-11,0.0032733525,4
2055324000,0.9777328,-0.00020314306,-0.0009066733,0.20985176,-0.99999464,1.45519135e-11,1.8189892e-11,0.0032733525,4
2055376000,0.97768843,-0.00047896395,-0.00068946474,0.21005863,-0.99999464,1.45519135e-11,1.8189892e-11,0.0032733525,4
2055427999,0.977682,-0.00067018555,-0.0006212031,0.2100883,-0.99999464,1.45519135e-11,1.8189892e-11,0.0032733525,4
2055483999,0.9776602,-0.0007935362,-0.0005274329,0.21018937,-0.99999464,1.45519135e-11,1.8189892e-11,0.0032733525,4
2055532000,0.97765803,-0.0008581947,-0.00044733274,0.21020006,-0.99999464,1.45519135e-11,1.8189892e-11,0.0032733525,4
2055584000,0.97764623,-0.0009509375,-0.00049555104,0.21025439,-0.99999464,1.45519135e-11,1.8189892e-11,0.0032733525,4
2055635999,0.97763866,-0.0009869677,-0.00061079394,0.21028857,-0.99999464,1.45519135e-11,1.8189892e-11,0.0032733525,4
2055688000,0.9776195,-0.001094311,-0.0008608286,0.21037665,-0.99999464,1.45519135e-11,1.8189892e-11,0.0032733525,4
2055740000,0.9776013,-0.0012786984,-0.0008532071,0.21046036,-0.99999464,1.45519135e-11,1.8189892e-11,0.0032733525,4
2055791999,0.9775847,-0.0012095446,-0.0006778109,0.21053815,-0.99999464,1.45519135e-11,1.8189892e-11,0.0032733525,4
2055847999,0.97759753,-0.0012140584,-0.0006817761,0.2104786,-0.99999464,1.45519135e-11,1.8189892e-11,0.0032733525,4
2055900000,0.9775829,-0.0012969895,-0.00060892006,0.21054646,-0.99999464,1.45519135e-11,1.8189892e-11,0.0032733525,4
2055948000,0.9775817,-0.0014009466,-0.0005027422,0.21055117,-0.99999464,1.45519135e-11,1.8189892e-11,0.0032733525,4
2056000000,0.97757745,-0.0017134337,-0.00050324533,0.21056908,-0.99999464,1.45519135e-11,1.8189892e-11,0.0032733525,4
2056052000,0.97758275,-0.0016735623,-0.0006418325,0.21054398,-0.99999464,1.45519135e-11,1.8189892e-11,0.0032733525,4
2056104000,0.9775941,-0.00138625,-0.000613095,0.21049377,-0.99999464,1.45519135e-11,1.8189892e-11,0.0032733525,4
2056155999,0.9775986,-0.0012845736,-0.0007072151,0.21047287,-0.99999464,1.45519135e-11,1.8189892e-11,0.0032733525,4
2056208000,0.9776231,-0.0011736806,-0.000706977,0.21036005,-0.99999464,1.45519135e-11,1.8189892e-11,0.0032733525,4
2056264000,0.97763675,-0.0010677606,-0.00077445497,0.21029702,-0.99999464,1.45519135e-11,1.8189892e-11,0.0032733525,4
2056311999,0.9776516,-0.0010557515,-0.000743679,0.21022786,-0.99999464,1.45519135e-11,1.8189892e-11,0.0032733525,4
2056364000,0.9776617,-0.0009751901,-0.00060907734,0.21018168,-0.99999464,1.45519135e-11,1.8189892e-11,0.0032733525,4
2056416000,0.97768337,-0.0009420168,-0.00041193326,0.21008165,-0.99999464,1.45519135e-11,1.8189892e-11,0.0032733525,4
2056472000,0.9776985,-0.0009453817,-0.00046624598,0.21001065,-0.99999464,1.45519135e-11,1.8189892e-11,0.0032733525,4
2056520000,0.97770476,-0.0011823784,-0.0002930329,0.20998088,-0.99999464,1.45519135e-11,1.8189892e-11,0.0032733525,4
2056576000,0.9776998,-0.001517339,-5.3818614e-05,0.21000175,-0.99999464,1.45519135e-11,1.8189892e-11,0.0032733525,4
2056624000,0.977705,-0.0016418879,0.00010223772,0.2099771,-0.99999464,1.45519135e-11,1.8189892e-11,0.0032733525,4
2056680000,0.97773397,-0.0016358212,0.00029995426,0.20984176,-0.99999464,1.45519135e-11,1.8189892e-11,0.0032733525,4
2056731999,0.9777402,-0.0016892012,0.00017984788,0.20981234,-0.99999464,1.45519135e-11,1.8189892e-11,0.0032733525,4
2056780000,0.9777376,-0.0017085961,7.031241e-05,0.20982474,-0.99999464,1.45519135e-11,1.8189892e-11,0.0032733525,4
2056831999,0.97773457,-0.0016672629,3.7231018e-06,0.20983918,-0.99999464,1.45519135e-11,1.8189892e-11,0.0032733525,4
2056884000,0.97772723,-0.0018452404,-0.00016008165,0.2098717,-0.99999464,1.45519135e-11,1.8189892e-11,0.0032733525,4
2056936000,0.9777026,-0.0019731116,-0.00028040755,0.20998542,-0.99999464,1.45519135e-11,1.8189892e-11,0.0032733525,4
2056988000,0.9777111,-0.0020747008,-0.00030079688,0.20994423,-0.99999464,1.45519135e-11,1.8189892e-11,0.0032733525,4
2057043999,0.97769916,-0.0019276204,-0.00017581823,0.21000153,-0.99999464,1.45519135e-11,1.8189892e-11,0.0032733525,4
2057092000,0.97769934,-0.0018462634,-3.3825483e-05,0.21000177,-0.99999464,1.45519135e-11,1.8189892e-11,0.0032733525,4
2057144000,0.9777072,-0.0020866154,-2.2592696e-05,0.20996284,-0.99999464,1.45519135e-11,1.8189892e-11,0.0032733525,4
2057195999,0.977713,-0.002150737,-0.0002186771,0.20993522,-0.99999464,1.45519135e-11,1.8189892e-11,0.0032733525,4
2057248000,0.9776989,-0.0020874855,-0.0004799014,0.21000093,-0.99999464,1.45519135e-11,1.8189892e-11,0.0032733525,4
2057304000,0.9776923,-0.0020705387,-0.00048080395,0.21003163,-0.99999464,1.45519135e-11,1.8189892e-11,0.0032733525,4
2057352000,0.9776798,-0.0021225996,-0.00048759452,0.21008939,-0.99999464,1.45519135e-11,1.8189892e-11,0.0032733525,4
2057404000,0.9776822,-0.002239273,-0.0005667496,0.2100767,-0.99999464,1.45519135e-11,1.8189892e-11,0.0032733525,4
2057456000,0.977684,-0.002372885,-0.00073935767,0.2100662,-0.99999464,1.45519135e-11,1.8189892e-11,0.0032733525,4
2057508000,0.9776749,-0.002521587,-0.00074300164,0.21010676,-0.99999464,1.45519135e-11,1.8189892e-11,0.0032733525,4
2057559999,0.9776623,-0.002673326,-0.0006545973,0.21016409,-0.99999464,1.45519135e-11,1.8189892e-11,0.0032733525,4
2057612000,0.97766864,-0.0028332437,-0.00029937123,0.21013293,-0.99999464,1.45519135e-11,1.8189892e-11,0.0032733525,4
2057664000,0.97766584,-0.0028908195,-4.0310915e-05,0.21014582,-0.99999464,1.45519135e-11,1.8189892e-11,0.0032733525,4
2057720000,0.9776773,-0.0028949108,0.00028771046,0.21009254,-0.99999464,1.45519135e-11,1.8189892e-11,0.0032733525,4
2057768000,0.977686,-0.0028239104,0.00051002466,0.21005239,-0.99999464,1.45519135e-11,1.8189892e-11,0.0032733525,4
2057820000,0.977681,-0.0027800992,0.00054086687,0.210076,-0.99999464,1.45519135e-11,1.8189892e-11,0.0032733525,4
2057872000,0.977693,-0.0028949573,0.0004897783,0.21001875,-0.99999464,1.45519135e-11,1.8189892e-11,0.0032733525,4
2057924000,0.9776897,-0.0028684118,0.000418595,0.21003447,-0.99999464,1.45519135e-11,1.8189892e-11,0.0032733525,4
2057976000,0.97768694,-0.0030951083,0.00036212162,0.21004458,-0.99999464,1.45519135e-11,1.8189892e-11,0.0032733525,4
2058028000,0.9776923,-0.0031468987,0.00043119493,0.21001855,-0.99999464,1.45519135e-11,1.8189892e-11,0.0032733525,4
2058079999,0.97768676,-0.0031450302,0.0004673417,0.2100439,-0.99999464,1.45519135e-11,1.8189892e-11,0.0032733525,4
2058132000,0.9776868,-0.0031568927,0.00056668295,0.21004371,-0.99999464,1.45519135e-11,1.8189892e-11,0.0032733525,4
2058184000,0.9776871,-0.00311893,0.0007326147,0.21004237,-0.99999464,1.45519135e-11,1.8189892e-11,0.0032733525,4
2058235999,0.97770196,-0.0030127561,0.0008860702,0.20997392,-0.99999464,1.45519135e-11,1.8189892e-11,0.0032733525,4
2058288000,0.977701,-0.0030000217,0.0010219457,0.20997816,-0.99999464,1.45519135e-11,1.8189892e-11,0.0032733525,4
2058340000,0.9776978,-0.002853684,0.0011760766,0.20999438,-0.99999464,1.45519135e-11,1.8189892e-11,0.0032733525,4
2058396000,0.97767794,-0.0027050213,0.0012542324,0.21008822,-0.99999464,1.45519135e-11,1.8189892e-11,0.0032733525,4
2058448000,0.9776601,-0.0025721625,0.001351627,0.2101723,-0.99999464,1.45519135e-11,1.8189892e-11,0.0032733525,4
2058496000,0.9776543,-0.0023625733,0.0013928119,0.21020165,-0.99999464,1.45519135e-11,1.8189892e-11,0.0032733525,4
2058548000,0.9776625,-0.0023458656,0.0015086207,0.21016239,-0.99999464,1.45519135e-11,1.8189892e-11,0.0032733525,4
2058604000,0.977658,-0.0025061758,0.0016128233,0.21018068,-0.99999464,1.45519135e-11,1.8189892e-11,0.0032733525,4
2058652000,0.9776699,-0.0026104508,0.0016468406,0.21012409,-0.99999464,1.45519135e-11,1.8189892e-11,0.0032733525,4
2058704000,0.97768056,-0.0024137509,0.0013636436,0.2100787,-0.99999464,1.45519135e-11,1.8189892e-11,0.0032733525,4
2058756000,0.9776779,-0.0023253504,0.0011764403,0.21009335,-0.99999464,1.45519135e-11,1.8189892e-11,0.0032733525,4
2058808000,0.9776688,-0.0021678219,0.0012991366,0.21013682,-0.99999464,1.45519135e-11,1.8189892e-11,0.0032733525,4
2058860000,0.97766757,-0.0020446987,0.0014566585,0.21014278,-0.99999464,1.45519135e-11,1.8189892e-11,0.0032733525,4
2058916000,0.9776607,-0.0018603336,0.0016528959,0.21017447,-0.99999464,1.45519135e-11,1.8189892e-11,0.0032733525,4
2058963999,0.9776633,-0.0019282862,0.0016129838,0.2101622,-0.99999464,1.45519135e-11,1.8189892e-11,0.0032733525,4
2059016000,0.97768205,-0.0019494237,0.0016093708,0.2100748,-0.99999464,1.45519135e-11,1.8189892e-11,0.0032733525,4
2059068000,0.9776654,-0.0021366514,0.0016782035,0.21014982,-0.99999464,1.45519135e-11,1.8189892e-11,0.0032733525,4
2059119999,0.97765934,-0.0024372698,0.0016806596,0.21017492,-0.99999464,1.45519135e-11,1.8189892e-11,0.0032733525,4
2059172000,0.9776516,-0.0026554689,0.0017450347,0.21020819,-0.99999464,1.45519135e-11,1.8189892e-11,0.0032733525,4
2059224000,0.97765106,-0.0026294147,0.0018852797,0.2102092,-0.99999464,1.45519135e-11,1.8189892e-11,0.0032733525,4
2059276000,0.9776594,-0.0025147598,0.0020584674,0.21017054,-0.99999464,1.45519135e-11,1.8189892e-11,0.0032733525,4
2059327999,0.97767395,-0.0023380297,0.0020912914,0.2101047,-0.99999464,1.45519135e-11,1.8189892e-11,0.0032733525,4
2059384000,0.9776871,-0.002027993,0.0021186713,0.21004628,-0.99999464,1.45519135e-11,1.8189892e-11,0.0032733525,4
2059432000,0.97769505,-0.0019999226,0.0020809046,0.2100099,-0.99999464,1.45519135e-11,1.8189892e-11,0.0032733525,4
2059488000,0.9776907,-0.0018148208,0.0020721573,0.21003185,-0.99999464,1.45519135e-11,1.8189892e-11,0.0032733525,4
2059536000,0.9776851,-0.0016116961,0.0021003336,0.21005945,-0.99999464,1.45519135e-11,1.8189892e-11,0.0032733525,4
2059588000,0.9776735,-0.0013315463,0.0020529097,0.21011588,-0.99999464,1.45519135e-11,1.8189892e-11,0.0032733525,4
2059639999,0.9776792,-0.0011311151,0.0019325681,0.21009178,-0.99999464,1.45519135e-11,1.8189892e-11,0.0032733525,4
2059695999,0.9776821,-0.001133835,0.0019298494,0.21007791,-0.99999464,1.45519135e-11,1.8189892e-11,0.0032733525,4
2059748000,0.97767866,-0.001117272,0.0019195038,0.21009415,-0.99999464,1.45519135e-11,1.8189892e-11,0.0032733525,4
2059796000,0.977681,-0.0012046893,0.0019476013,0.21008307,-0.99999464,1.45519135e-11,1.8189892e-11,0.0032733525,4
2059847999,0.97768587,-0.0014536921,0.0019800365,0.21005806,-0.99999464,1.45519135e-11,1.8189892e-11,0.0032733525,4
2059900000,0.9776917,-0.0014494454,0.0021278518,0.21002923,-0.99999464,1.45519135e-11,1.8189892e-11,0.0032733525,4
2059952000,0.9776889,-0.0014216063,0.0019901,0.21004428,-0.99999464,1.45519135e-11,1.8189892e-11,0.0032733525,4
2060003999,0.97769994,-0.0014078731,0.0018605997,0.20999432,-0.99999464,1.45519135e-11,1.8189892e-11,0.0032733525,4
2060056000,0.97769505,-0.0012859832,0.0018742952,0.21001764,-0.99999464,1.45519135e-11,1.8189892e-11,0.0032733525,4
2060112000,0.9777018,-0.0010374689,0.0020300117,0.20998603,-0.99999464,1.45519135e-11,1.8189892e-11,0.0032733525,4
2060160000,0.9777103,-0.0009256004,0.0021181435,0.20994583,-0.99999464,1.45519135e-11,1.8189892e-11,0.0032733525,4
2060212000,0.97769946,-0.00085534656,0.0020658313,0.20999719,-0.99999464,1.45519135e-11,1.8189892e-11,0.0032733525,4
2060264000,0.9777121,-0.0007343423,0.0019817692,0.20993997,-0.99999464,1.45519135e-11,1.8189892e-11,0.0032733525,4
2060316000,0.9777159,-0.0007934872,0.0020608557,0.20992124,-0.99999464,1.45519135e-11,1.8189892e-11,0.0032733525,4
2060367999,0.9777282,-0.0010667795,0.0020236804,0.20986275,-0.99999464,1.45519135e-11,1.8189892e-11,0.0032733525,4
2060420000,0.97771865,-0.0012059095,0.002057693,0.20990641,-0.99999464,1.45519135e-11,1.8189892e-11,0.0032733525,4
2060472000,0.9777216,-0.0011699942,0.001991938,0.20989318,-0.99999464,1.45519135e-11,1.8189892e-11,0.0032733525,4
2060523999,0.97772753,-0.00088973687,0.001842962,0.20986854,-0.99999464,1.45519135e-11,1.8189892e-11,0.0032733525,4
2060579999,0.9777278,-0.0006898557,0.0017117677,0.20986949,-0.99999464,1.45519135e-11,1.8189892e-11,0.0032733525,4
2060628000,0.97771204,-0.00046784247,0.0017845662,0.2099424,-0.99999464,1.45519135e-11,1.8189892e-11,0.0032733525,4
2060680000,0.9776985,-0.00041777187,0.0018440166,0.21000494,-0.99999464,1.45519135e-11,1.8189892e-11,0.0032733525,4
2060731999,0.9777015,-0.0003553907,0.0020341482,0.20998985,-0.99999464,1.45519135e-11,1.8189892e-11,0.0032733525,4
2060788000,0.97770894,-0.0004643341,0.0015684577,0.20995866,-0.99999464,1.45519135e-11,1.8189892e-11,0.0032733525,4
2060836000,0.97790676,-0.0013993626,0.0004342554,0.20903654,-0.99999464,1.45519135e-11,1.8189892e-11,0.0032733525,4
2060892000,0.97850525,-0.0042066723,0.00012390225,0.20617925,-0.99999464,1.45519135e-11,1.8189892e-11,0.0032733525,4
2060940000,0.9793782,-0.008581138,0.0020373615,0.20184295,-0.99999464,1.45519135e-11,1.8189892e-11,0.0032733525,4
2060992000,0.9806239,-0.015931882,0.0075628124,0.19510439,-0.99999464,1.45519135e-11,1.8189892e-11,0.0032733525,4
2061048000,0.98209757,-0.026353097,0.017725479,0.18567671,-0.99999464,1.45519135e-11,1.8189892e-11,0.0032733525,4
2061099999,0.98331535,-0.038363494,0.030244108,0.17522742,-0.99999464,1.45519135e-11,1.8189892e-11,0.0032733525,4
2061148000,0.984087,-0.051690012,0.043753065,0.16427669,-0.99999464,1.45519135e-11,1.8189892e-11,0.0032733525,4
2061204000,0.9843988,-0.06929432,0.05972511,0.15030046,-0.99999464,1.45519135e-11,1.8189892e-11,0.0032733525,4
2061256000,0.98412794,-0.08653199,0.073669575,0.13629887,-0.99999464,1.45519135e-11,1.8189892e-11,0.0032733525,4
2061304000,0.9835718,-0.101961106,0.084433705,0.12272481,-0.99999464,1.45519135e-11,1.8189892e-11,0.0032733525,4
2061360000,0.982713,-0.11871039,0.09439823,0.10616967,-0.99999464,1.45519135e-11,1.8189892e-11,0.0032733525,4
2061407999,0.9819575,-0.13130747,0.10074381,0.09148052,-0.99999464,1.45519135e-11,1.8189892e-11,0.0032733525,4
2061460000,0.9810999,-0.14349368,0.10583644,0.07517453,-0.99999464,1.45519135e-11,1.8189892e-11,0.0032733525,4
2061512000,0.9803454,-0.1538115,0.10892825,0.058306254,-0.99999464,1.45519135e-11,1.8189892e-11,0.0032733525,4
2061564000,0.9795018,-0.16318282,0.11079926,0.040880878,-0.99999464,1.45519135e-11,1.8189892e-11,0.0032733525,4
2061616000,0.9786021,-0.17142761,0.1114462,0.023030091,-0.99999464,1.45519135e-11,1.8189892e-11,0.0032733525,4
2061668000,0.97749597,-0.17904319,0.11145571,0.004775304,-0.99999464,1.45519135e-11,1.8189892e-11,0.0032733525,4
2061720000,0.9761976,-0.1857785,0.111041486,-0.013949061,-0.99999464,1.45519135e-11,1.8189892e-11,0.0032733525,4
2061771999,0.97457165,-0.19240291,0.11003424,-0.032919265,-0.99999464,1.45519135e-11,1.8189892e-11,0.0032733525,4
2061824000,0.9726922,-0.19843109,0.108403705,-0.0523794,-0.99999464,1.45519135e-11,1.8189892e-11,0.0032733525,4
2061880000,0.9702055,-0.20484228,0.106342226,-0.07370471,-0.99999464,1.45519135e-11,1.8189892e-11,0.0032733525,4
2061932000,0.9674156,-0.2107891,0.1042836,-0.093809254,-0.99999464,1.45519135e-11,1.8189892e-11,0.0032733525,4
2061980000,0.96442825,-0.21616748,0.10220991,-0.11270712,-0.99999464,1.45519135e-11,1.8189892e-11,0.0032733525,4
2062036000,0.96050113,-0.22206411,0.099500276,-0.1349995,-0.99999464,1.45519135e-11,1.8189892e-11,0.0032733525,4
2062084000,0.9565922,-0.22747031,0.09702557,-0.15419032,-0.99999464,1.45519135e-11,1.8189892e-11,0.0032733525,4
2062139999,0.95144403,-0.2338956,0.09369815,-0.17682703,-0.99999464,1.45519135e-11,1.8189892e-11,0.0032733525,4
2062188000,0.9465204,-0.23936468,0.090458095,-0.19652238,-0.99999464,1.45519135e-11,1.8189892e-11,0.0032733525,4
2062240000,0.94076145,-0.24502432,0.08660303,-0.21778636,-0.99999464,1.45519135e-11,1.8189892e-11,0.0032733525,4
2062291999,0.9345258,-0.25023395,0.08251207,-0.23924144,-0.99999464,1.45519135e-11,1.8189892e-11,0.0032733525,4
2062344000,0.9277061,-0.25549975,0.07826018,-0.26068482,-0.99999464,1.45519135e-11,1.8189892e-11,0.0032733525,4
2062396000,0.9204487,-0.26015466,0.07370632,-0.28224295,-0.99999464,1.45519135e-11,1.8189892e-11,0.0032733525,4
2062448000,0.9124604,-0.2653856,0.06880055,-0.3037322,-0.99999464,1.45519135e-11,1.8189892e-11,0.0032733525,4
2062500000,0.9037916,-0.2707499,0.06379561,-0.32524693,-0.99999464,1.45519135e-11,1.8189892e-11,0.0032733525,4
2062552000,0.89459497,-0.27591515,0.058482967,-0.3466275,-0.99999464,1.45519135e-11,1.8189892e-11,0.0032733525,4
2062604000,0.88487834,-0.2808028,0.05316849,-0.3678497,-0.99999464,1.45519135e-11,1.8189892e-11,0.0032733525,4
2062655999,0.8747688,-0.28483397,0.048093174,-0.38901973,-0.99999464,1.45519135e-11,1.8189892e-11,0.0032733525,4
2062708000,0.8643231,-0.28799686,0.043312218,-0.41003367,-0.99999464,1.45519135e-11,1.8189892e-11,0.0032733525,4
2062760000,0.85364825,-0.28993976,0.03892155,-0.4309348,-0.99999464,1.45519135e-11,1.8189892e-11,0.0032733525,4
2062811999,0.84299046,-0.29060867,0.034715846,-0.451341,-0.99999464,1.45519135e-11,1.8189892e-11,0.0032733525,4
2062864000,0.8322649,-0.29002365,0.030453704,-0.4714807,-0.99999464,1.45519135e-11,1.8189892e-11,0.0032733525,4
2062916000,0.821547,-0.2883606,0.025838746,-0.49116307,-0.99999464,1.45519135e-11,1.8189892e-11,0.0032733525,4
2062968000,0.8107689,-0.28602958,0.020931963,-0.5102968,-0.99999464,1.45519135e-11,1.8189892e-11,0.0032733525,4
2063020000,0.79995954,-0.28292915,0.015483196,-0.5289387,-0.99999464,1.45519135e-11,1.8189892e-11,0.0032733525,4
2063072000,0.78911775,-0.27905962,0.009392044,-0.5471113,-0.99999464,1.45519135e-11,1.8189892e-11,0.0032733525,4
2063128000,0.77755105,-0.27406883,0.0021287124,-0.5659471,-0.99999464,1.45519135e-11,1.8189892e-11,0.0032733525,4
2063175999,0.7674995,-0.269752,-0.0044228607,-0.58151424,-0.99999464,1.45519135e-11,1.8189892e-11,0.0032733525,4
2063228000,0.7563528,-0.26549116,-0.011423216,-0.5977579,-0.99999464,1.45519135e-11,1.8189892e-11,0.0032733525,4
2063280000,0.74479234,-0.261993,-0.017854393,-0.6134536,-0.99999464,1.45519135e-11,1.8189892e-11,0.0032733525,4
2063331999,0.73271465,-0.25963217,-0.023670005,-0.62861764,-0.99999464,1.45519135e-11,1.8189892e-11,0.0032733525,4
2063384000,0.72026277,-0.25820363,-0.02939022,-0.6431864,-0.99999464,1.45519135e-11,1.8189892e-11,0.0032733525,4
2063436000,0.70729274,-0.2576373,-0.034985393,-0.6573706,-0.99999464,1.45519135e-11,1.8189892e-11,0.0032733525,4
2063492000,0.6929081,-0.25748107,-0.041033097,-0.67223376,-0.99999464,1.45519135e-11,1.8189892e-11,0.0032733525,4
2063539999,0.6804882,-0.25723264,-0.046068072,-0.6845764,-0.99999464,1.45519135e-11,1.8189892e-11,0.0032733525,4
2063592000,0.6668285,-0.25657248,-0.051060103,-0.69778454,-0.99999464,1.45519135e-11,1.8189892e-11,0.0032733525,4
2063644000,0.65314424,-0.2556136,-0.055931214,-0.7105885,-0.99999464,1.45519135e-11,1.8189892e-11,0.0032733525,4
2063695999,0.63935345,-0.2544134,-0.06057027,-0.7230714,-0.99999464,1.45519135e-11,1.8189892e-11,0.0032733525,4
2063748000,0.62544864,-0.25314352,-0.06530777,-0.7351649,-0.99999464,1.45519135e-11,1.8189892e-11,0.0032733525,4
2063800000,0.6114215,-0.2517871,-0.07007627,-0.7468979,-0.99999464,1.45519135e-11,1.8189892e-11,0.0032733525,4
2063852000,0.59733707,-0.2505323,-0.074737474,-0.75817955,-0.99999464,1.45519135e-11,1.8189892e-11,0.0032733525,4
2063907999,0.58199954,-0.24913418,-0.07964952,-0.76997715,-0.99999464,1.45519135e-11,1.8189892e-11,0.0032733525,4
2063960000,0.5677257,-0.24761918,-0.084241174,-0.78056115,-0.99999464,1.45519135e-11,1.8189892e-11,0.0032733525,4
2064008000,0.55449677,-0.24610753,-0.08840804,-0.7900308,-0.99999464,1.45519135e-11,1.8189892e-11,0.0032733525,4
2064064000,0.5392401,-0.2442941,-0.093323804,-0.8005193,-0.99999464,1.45519135e-11,1.8189892e-11,0.0032733525,4
2064112000,0.5269001,-0.24248472,-0.097474895,-0.8087497,-0.99999464,1.45519135e-11,1.8189892e-11,0.0032733525,4
2064164000,0.51477844,-0.2409101,-0.101757586,-0.81646246,-0.99999464,1.45519135e-11,1.8189892e-11,0.0032733525,4
2064215999,0.504165,-0.23986931,-0.105245605,-0.82292384,-0.99999464,1.45519135e-11,1.8189892e-11,0.0032733525,4
2064268000,0.4949948,-0.23949769,-0.10792899,-0.8282346,-0.99999464,1.45519135e-11,1.8189892e-11,0.0032733525,4
2064324000,0.486597,-0.23937315,-0.10985211,-0.83298045,-0.99999464,1.45519135e-11,1.8189892e-11,0.0032733525,4
2064372000,0.48034444,-0.23955491,-0.11110929,-0.8363836,-0.99999464,1.45519135e-11,1.8189892e-11,0.0032733525,4
2064424000,0.47460195,-0.23970522,-0.11246104,-0.8394325,-0.99999464,1.45519135e-11,1.8189892e-11,0.0032733525,4
2064476000,0.46965155,-0.23982446,-0.113822095,-0.8419955,-0.99999464,1.45519135e-11,1.8189892e-11,0.0032733525,4
2064528000,0.46555343,-0.23964897,-0.11510548,-0.84414405,-0.99999464,1.45519135e-11,1.8189892e-11,0.0032733525,4
2064579999,0.4621502,-0.2392197,-0.116029024,-0.84600735,-0.99999464,1.45519135e-11,1.8189892e-11,0.0032733525,4
2064632000,0.45938197,-0.23875076,-0.11685231,-0.84753287,-0.99999464,1.45519135e-11,1.8189892e-11,0.0032733525,4
2064684000,0.4571846,-0.23805535,-0.117418215,-0.8488373,-0.99999464,1.45519135e-11,1.8189892e-11,0.0032733525,4
2064735999,0.4552363,-0.23765309,-0.1180641,-0.84990686,-0.99999464,1.45519135e-11,1.8189892e-11,0.0032733525,4
2064788000,0.45362982,-0.2375319,-0.11881547,-0.85069466,-0.99999464,1.45519135e-11,1.8189892e-11,0.0032733525,4
2064844000,0.45220768,-0.23751417,-0.11949322,-0.8513617,-0.99999464,1.45519135e-11,1.8189892e-11,0.0032733525,4
2064892000,0.45128772,-0.23757188,-0.12004871,-0.8517554,-0.99999464,1.45519135e-11,1.8189892e-11,0.0032733525,4
2064943999,0.45045292,-0.23770203,-0.12049873,-0.8520975,-0.99999464,1.45519135e-11,1.8189892e-11,0.0032733525,4
2064996000,0.44980657,-0.23777819,-0.12077705,-0.8523782,-0.99999464,1.45519135e-11,1.8189892e-11,0.0032733525,4
2065048000,0.4492683,-0.23780756,-0.12096871,-0.8526267,-0.99999464,1.45519135e-11,1.8189892e-11,0.0032733525,4
2065099999,0.4489168,-0.23755458,-0.12088275,-0.8528944,-0.99999464,1.45519135e-11,1.8189892e-11,0.0032733525,4
2065152000,0.44862482,-0.23741446,-0.12069857,-0.8531132,-0.99999464,1.45519135e-11,1.8189892e-11,0.0032733525,4
2065204000,0.44843844,-0.23722792,-0.12083416,-0.85324377,-0.99999464,1.45519135e-11,1.8189892e-11,0.0032733525,4
2065260000,0.44830948,-0.23737285,-0.121097475,-0.853234,-0.99999464,1.45519135e-11,1.8189892e-11,0.0032733525,4
2065308000,0.44817102,-0.23748317,-0.12131345,-0.8532453,-0.99999464,1.45519135e-11,1.8189892e-11,0.0032733525,4
2065360000,0.44815743,-0.23784249,-0.12166011,-0.85310304,-0.99999464,1.45519135e-11,1.8189892e-11,0.0032733525,4
2065412000,0.44815782,-0.23810577,-0.12166746,-0.85302824,-0.99999464,1.45519135e-11,1.8189892e-11,0.0032733525,4
2065468000,0.44817597,-0.23830785,-0.12158326,-0.8529743,-0.99999464,1.45519135e-11,1.8189892e-11,0.0032733525,4
2065516000,0.44828594,-0.23836884,-0.121497475,-0.8529118,-0.99999464,1.45519135e-11,1.8189892e-11,0.0032733525,4
2065568000,0.44839478,-0.23846892,-0.121629775,-0.8528077,-0.99999464,1.45519135e-11,1.8189892e-11,0.0032733525,4
2065619999,0.44850335,-0.23855098,-0.12184459,-0.852697,-0.99999464,1.45519135e-11,1.8189892e-11,0.0032733525,4
2065675999,0.4487264,-0.23848227,-0.12206366,-0.8525675,-0.99999464,1.45519135e-11,1.8189892e-11,0.0032733525,4
2065728000,0.44891167,-0.23846532,-0.12213445,-0.85246456,-0.99999464,1.45519135e-11,1.8189892e-11,0.0032733525,4
2065776000,0.44910628,-0.23865423,-0.12186161,-0.8523482,-0.99999464,1.45519135e-11,1.8189892e-11,0.0032733525,4
2065827999,0.44937566,-0.2387373,-0.12165875,-0.85221195,-0.99999464,1.45519135e-11,1.8189892e-11,0.0032733525,4
2065880000,0.44954962,-0.23886251,-0.12146316,-0.85211295,-0.99999464,1.45519135e-11,1.8189892e-11,0.0032733525,4
2065932000,0.44965962,-0.23908986,-0.121366814,-0.8520048,-0.99999464,1.45519135e-11,1.8189892e-11,0.0032733525,4
2065988000,0.44980073,-0.23915805,-0.12127825,-0.85192394,-0.99999464,1.45519135e-11,1.8189892e-11,0.0032733525,4
2066036000,0.44993198,-0.23930036,-0.12121807,-0.8518232,-0.99999464,1.45519135e-11,1.8189892e-11,0.0032733525,4
2066088000,0.45009217,-0.2393717,-0.12127052,-0.8517111,-0.99999464,1.45519135e-11,1.8189892e-11,0.0032733525,4
2066139999,0.45029247,-0.23954156,-0.12136275,-0.8515444,-0.99999464,1.45519135e-11,1.8189892e-11,0.0032733525,4
2066192000,0.45039272,-0.23973231,-0.12137389,-0.8514361,-0.99999464,1.45519135e-11,1.8189892e-11,0.0032733525,4
2066244000,0.45056492,-0.24004242,-0.12145057,-0.8512465,-0.99999464,1.45519135e-11,1.8189892e-11,0.0032733525,4
2066296000,0.45069325,-0.24018502,-0.12131269,-0.8511581,-0.99999464,1.45519135e-11,1.8189892e-11,0.0032733525,4
2066347999,0.4508424,-0.24032287,-0.121014096,-0.8510826,-0.99999464,1.45519135e-11,1.8189892e-11,0.0032733525,4
2066404000,0.45096684,-0.24058597,-0.12075262,-0.85097957,-0.99999464,1.45519135e-11,1.8189892e-11,0.0032733525,4
2066452000,0.45102057,-0.24086352,-0.120745435,-0.85087353,-0.99999464,1.45519135e-11,1.8189892e-11,0.0032733525,4
2066503999,0.45116192,-0.2411865,-0.12070002,-0.8507135,-0.99999464,1.45519135e-11,1.8189892e-11,0.0032733525,4
2066556000,0.4512763,-0.24149774,-0.12062785,-0.8505749,-0.99999464,1.45519135e-11,1.8189892e-11,0.0032733525,4
2066608000,0.45143133,-0.24163328,-0.12064952,-0.8504509,-0.99999464,1.45519135e-11,1.8189892e-11,0.0032733525,4
2066660000,0.45155895,-0.24161746,-0.12079367,-0.8503672,-0.99999464,1.45519135e-11,1.8189892e-11,0.0032733525,4
2066712000,0.45172748,-0.24156046,-0.12078407,-0.8502952,-0.99999464,1.45519135e-11,1.8189892e-11,0.0032733525,4
2066764000,0.45198008,-0.24140832,-0.12082234,-0.8501988,-0.99999464,1.45519135e-11,1.8189892e-11,0.0032733525,4
2066816000,0.45217153,-0.24126889,-0.12076623,-0.85014457,-0.99999464,1.45519135e-11,1.8189892e-11,0.0032733525,4
2066867999,0.45232156,-0.24126028,-0.12091785,-0.8500456,-0.99999464,1.45519135e-11,1.8189892e-11,0.0032733525,4
2066920000,0.4524766,-0.24143527,-0.12092625,-0.84991235,-0.99999464,1.45519135e-11,1.8189892e-11,0.0032733525,4
2066972000,0.4525671,-0.24189794,-0.120933674,-0.8497314,-0.99999464,1.45519135e-11,1.8189892e-11,0.0032733525,4
2067028000,0.45261872,-0.24232599,-0.12100519,-0.8495719,-0.99999464,1.45519135e-11,1.8189892e-11,0.0032733525,4
2067076000,0.4526931,-0.24267963,-0.121111445,-0.849416,-0.99999464,1.45519135e-11,1.8189892e-11,0.0032733525,4
2067128000,0.4527982,-0.2429671,-0.121185936,-0.84926724,-0.99999464,1.45519135e-11,1.8189892e-11,0.0032733525,4
2067180000,0.4528798,-0.24309264,-0.121132515,-0.8491954,-0.99999464,1.45519135e-11,1.8189892e-11,0.0032733525,4
2067231999,0.45300975,-0.24305446,-0.120874755,-0.8491737,-0.99999464,1.45519135e-11,1.8189892e-11,0.0032733525,4
2067288000,0.45316032,-0.2428422,-0.12063344,-0.8491884,-0.99999464,1.45519135e-11,1.8189892e-11,0.0032733525,4
2067336000,0.45325515,-0.24280858,-0.12034851,-0.84918797,-0.99999464,1.45519135e-11,1.8189892e-11,0.0032733525,4
2067387999,0.45343766,-0.24290599,-0.12008635,-0.84909964,-0.99999464,1.45519135e-11,1.8189892e-11,0.0032733525,4
2067440000,0.45348892,-0.24310608,-0.12005418,-0.8490197,-0.99999464,1.45519135e-11,1.8189892e-11,0.0032733525,4
2067492000,0.4535088,-0.24343286,-0.12021814,-0.8488922,-0.99999464,1.45519135e-11,1.8189892e-11,0.0032733525,4
2067548000,0.45357504,-0.24384168,-0.120554194,-0.84869176,-0.99999464,1.45519135e-11,1.8189892e-11,0.0032733525,4
2067596000,0.45359224,-0.24422391,-0.120768204,-0.84854215,-0.99999464,1.45519135e-11,1.8189892e-11,0.0032733525,4
2067652000,0.45364276,-0.24465045,-0.12073264,-0.84839743,-0.99999464,1.45519135e-11,1.8189892e-11,0.0032733525,4
2067700000,0.45362782,-0.24508187,-0.12068097,-0.8482881,-0.99999464,1.45519135e-11,1.8189892e-11,0.0032733525,4
2067756000,0.45372096,-0.24552475,-0.12076657,-0.8480981,-0.99999464,1.45519135e-11,1.8189892e-11,0.0032733525,4
2067808000,0.45374024,-0.24585639,-0.12064286,-0.8480093,-0.99999464,1.45519135e-11,1.8189892e-11,0.0032733525,4
2067856000,0.4537926,-0.24594352,-0.12074738,-0.84794116,-0.99999464,1.45519135e-11,1.8189892e-11,0.0032733525,4
2067907999,0.45383486,-0.2459451,-0.12067845,-0.84792787,-0.99999464,1.45519135e-11,1.8189892e-11,0.0032733525,4
2067960000,0.45388553,-0.24592641,-0.120351486,-0.8479527,-0.99999464,1.45519135e-11,1.8189892e-11,0.0032733525,4
2068012000,0.45396188,-0.24571787,-0.120144285,-0.8480017,-0.99999464,1.45519135e-11,1.8189892e-11,0.0032733525,4
2068064000,0.4541053,-0.2453026,-0.11996362,-0.8480706,-0.99999464,1.45519135e-11,1.8189892e-11,0.0032733525,4
2068116000,0.45425445,-0.24475764,-0.11961874,-0.8481969,-0.99999464,1.45519135e-11,1.8189892e-11,0.0032733525,4
2068168000,0.4543381,-0.24477383,-0.11937061,-0.8481825,-0.99999464,1.45519135e-11,1.8189892e-11,0.0032733525,4
2068220000,0.45437732,-0.2450151,-0.119299725,-0.8481018,-0.99999464,1.45519135e-11,1.8189892e-11,0.0032733525,4
2068271999,0.4543314,-0.24557328,-0.11971016,-0.84790695,-0.99999464,1.45519135e-11,1.8189892e-11,0.0032733525,4
2068324000,0.45424595,-0.2460634,-0.120055616,-0.84776187,-0.99999464,1.45519135e-11,1.8189892e-11,0.0032733525,4
2068376000,0.45425275,-0.24665391,-0.1202004,-0.84756607,-0.99999464,1.45519135e-11,1.8189892e-11,0.0032733525,4
2068427999,0.45425788,-0.24706729,-0.12026281,-0.84743404,-0.99999464,1.45519135e-11,1.8189892e-11,0.0032733525,4
2068483999,0.45433298,-0.24741925,-0.120244674,-0.84729356,-0.99999464,1.45519135e-11,1.8189892e-11,0.0032733525,4
2068532000,0.45429748,-0.24764974,-0.12019026,-0.847253,-0.99999464,1.45519135e-11,1.8189892e-11,0.0032733525,4
2068584000,0.45430887,-0.24766354,-0.1198912,-0.84728533,-0.99999464,1.45519135e-11,1.8189892e-11,0.0032733525,4
2068635999,0.45437598,-0.24748695,-0.11963528,-0.8473371,-0.99999464,1.45519135e-11,1.8189892e-11,0.0032733525,4
2068688000,0.45443067,-0.24729824,-0.11946754,-0.8473865,-0.99999464,1.45519135e-11,1.8189892e-11,0.0032733525,4
2068740000,0.45449716,-0.24702372,-0.11948996,-0.8474278,-0.99999464,1.45519135e-11,1.8189892e-11,0.0032733525,4
2068791999,0.45454338,-0.24684191,-0.119621284,-0.8474375,-0.99999464,1.45519135e-11,1.8189892e-11,0.0032733525,4
2068844000,0.45458847,-0.24686499,-0.119943,-0.84736097,-0.99999464,1.45519135e-11,1.8189892e-11,0.0032733525,4
2068900000,0.45473266,-0.24707747,-0.120320864,-0.84716815,-0.99999464,1.45519135e-11,1.8189892e-11,0.0032733525,4
2068948000,0.45477876,-0.24741702,-0.12043437,-0.84702814,-0.99999464,1.45519135e-11,1.8189892e-11,0.0032733525,4
2069000000,0.45478326,-0.24786858,-0.120431595,-0.84689415,-0.99999464,1.45519135e-11,1.8189892e-11,0.0032733525,4
2069056000,0.45480883,-0.2481158,-0.12032759,-0.84682286,-0.99999464,1.45519135e-11,1.8189892e-11,0.0032733525,4
2069104000,0.4548193,-0.24814814,-0.12031574,-0.84680927,-0.99999464,1.45519135e-11,1.8189892e-11,0.0032733525,4
2069160000,0.45483574,-0.24808902,-0.120464355,-0.8467968,-0.99999464,1.45519135e-11,1.8189892e-11,0.0032733525,4
2069208000,0.45493296,-0.24793978,-0.12068455,-0.8467568,-0.99999464,1.45519135e-11,1.8189892e-11,0.0032733525,4
2069264000,0.45500138,-0.24813528,-0.12115736,-0.8465952,-0.99999464,1.45519135e-11,1.8189892e-11,0.0032733525,4
2069311999,0.4550234,-0.24846037,-0.12155467,-0.84643114,-0.99999464,1.45519135e-11,1.8189892e-11,0.0032733525,4
2069364000,0.45503885,-0.24899192,-0.122057624,-0.84619427,-0.99999464,1.45519135e-11,1.8189892e-11,0.0032733525,4
2069420000,0.4550406,-0.24975829,-0.122466676,-0.8459082,-0.99999464,1.45519135e-11,1.8189892e-11,0.0032733525,4
2069468000,0.45501524,-0.2505147,-0.12252793,-0.84568936,-0.99999464,1.45519135e-11,1.8189892e-11,0.0032733525,4
2069520000,0.4548738,-0.25128168,-0.12260894,-0.84552604,-0.99999464,1.45519135e-11,1.8189892e-11,0.0032733525,4
2069572000,0.45477518,-0.2517395,-0.12254821,-0.8454518,-0.99999464,1.45519135e-11,1.8189892e-11,0.0032733525,4
2069624000,0.45474282,-0.2518761,-0.122405104,-0.84544927,-0.99999464,1.45519135e-11,1.8189892e-11,0.0032733525,4
2069680000,0.4547365,-0.25197387,-0.12256298,-0.8454006,-0.99999464,1.45519135e-11,1.8189892e-11,0.0032733525,4
2069728000,0.45471957,-0.25194836,-0.122678205,-0.8454007,-0.99999464,1.45519135e-11,1.8189892e-11,0.0032733525,4
2069780000,0.45480317,-0.25181124,-0.12278114,-0.8453816,-0.99999464,1.45519135e-11,1.8189892e-11,0.0032733525,4
2069836000,0.4548606,-0.25187165,-0.12291065,-0.84531385,-0.99999464,1.45519135e-11,1.8189892e-11,0.0032733525,4
2069884000,0.4547958,-0.25233805,-0.12280823,-0.8452245,-0.99999464,1.45519135e-11,1.8189892e-11,0.0032733525,4
2069936000,0.45470005,-0.25286052,-0.12261505,-0.84514797,-0.99999464,1.45519135e-11,1.8189892e-11,0.0032733525,4
2069988000,0.45456937,-0.2533183,-0.12264939,-0.84507614,-0.99999464,1.45519135e-11,1.8189892e-11,0.0032733525,4
2070039999,0.45449618,-0.25377163,-0.12263484,-0.8449816,-0.99999464,1.45519135e-11,1.8189892e-11,0.0032733525,4
2070092000,0.45439968,-0.25409126,-0.12265831,-0.84493405,-0.99999464,1.45519135e-11,1.8189892e-11,0.0032733525,4
2070144000,0.45441195,-0.2543023,-0.12271274,-0.844856,-0.99999464,1.45519135e-11,1.8189892e-11,0.0032733525,4
2070195999,0.45440286,-0.2543837,-0.12286432,-0.8448144,-0.99999464,1.45519135e-11,1.8189892e-11,0.0032733525,4
2070248000,0.4543927,-0.25450253,-0.122945756,-0.8447723,-0.99999464,1.45519135e-11,1.8189892e-11,0.0032733525,4
2070300000,0.45445567,-0.2543787,-0.122886635,-0.8447843,-0.99999464,1.45519135e-11,1.8189892e-11,0.0032733525,4
2070352000,0.45456398,-0.25427988,-0.12268856,-0.8447845,-0.99999464,1.45519135e-11,1.8189892e-11,0.0032733525,4
2070404000,0.45461383,-0.25407067,-0.122481264,-0.84485084,-0.99999464,1.45519135e-11,1.8189892e-11,0.0032733525,4
2070456000,0.4545767,-0.25409043,-0.12224231,-0.8448994,-0.99999464,1.45519135e-11,1.8189892e-11,0.0032733525,4
2070508000,0.45456073,-0.2542186,-0.12233707,-0.8448557,-0.99999464,1.45519135e-11,1.8189892e-11,0.0032733525,4
2070559999,0.45450404,-0.25456426,-0.122699216,-0.8447296,-0.99999464,1.45519135e-11,1.8189892e-11,0.0032733525,4
2070616000,0.45450217,-0.25504947,-0.12312134,-0.8445229,-0.99999464,1.45519135e-11,1.8189892e-11,0.0032733525,4
2070664000,0.45442382,-0.25552425,-0.123290755,-0.8443967,-0.99999464,1.45519135e-11,1.8189892e-11,0.0032733525,4
2070715999,0.4544462,-0.2556528,-0.12341301,-0.8443279,-0.99999464,1.45519135e-11,1.8189892e-11,0.0032733525,4
2070768000,0.4544186,-0.25570577,-0.12344709,-0.8443217,-0.99999464,1.45519135e-11,1.8189892e-11,0.0032733525,4
2070820000,0.45437905,-0.25580448,-0.1232954,-0.8443354,-0.99999464,1.45519135e-11,1.8189892e-11,0.0032733525,4
2070872000,0.454335,-0.2558084,-0.12307482,-0.84439,-0.99999464,1.45519135e-11,1.8189892e-11,0.0032733525,4
2070924000,0.4543939,-0.25558242,-0.122774184,-0.84447044,-0.99999464,1.45519135e-11,1.8189892e-11,0.0032733525,4
2070976000,0.4544347,-0.2553103,-0.12249604,-0.8445712,-0.99999464,1.45519135e-11,1.8189892e-11,0.0032733525,4
2071028000,0.45443803,-0.25528395,-0.12239525,-0.844592,-0.99999464,1.45519135e-11,1.8189892e-11,0.0032733525,4
2071079999,0.4543879,-0.2554998,-0.12238883,-0.84455454,-0.99999464,1.45519135e-11,1.8189892e-11,0.0032733525,4
2071135999,0.45428386,-0.25591817,-0.12241878,-0.8444796,-0.99999464,1.45519135e-11,1.8189892e-11,0.0032733525,4
2071184000,0.45423383,-0.25623566,-0.12250383,-0.8443979,-0.99999464,1.45519135e-11,1.8189892e-11,0.0032733525,4
2071235999,0.45416027,-0.2565974,-0.12275425,-0.84429127,-0.99999464,1.45519135e-11,1.8189892e-11,0.0032733525,4
2071291999,0.45415738,-0.25700128,-0.12289482,-0.84414953,-0.99999464,1.45519135e-11,1.8189892e-11,0.0032733525,4
2071340000,0.45412078,-0.2574327,-0.12290033,-0.8440368,-0.99999464,1.45519135e-11,1.8189892e-11,0.0032733525,4
2071392000,0.4540678,-0.25748473,-0.122790255,-0.8440655,-0.99999464,1.45519135e-11,1.8189892e-11,0.0032733525,4
2071443999,0.45405585,-0.25739342,-0.12277828,-0.8441016,-0.99999464,1.45519135e-11,1.8189892e-11,0.0032733525,4
2071496000,0.45405558,-0.25696096,-0.122753896,-0.8442369,-0.99999464,1.45519135e-11,1.8189892e-11,0.0032733525,4
2071548000,0.45414716,-0.25655815,-0.12274461,-0.84431165,-0.99999464,1.45519135e-11,1.8189892e-11,0.0032733525,4
2071599999,0.45423427,-0.25626776,-0.12288584,-0.84433234,-0.99999464,1.45519135e-11,1.8189892e-11,0.0032733525,4
2071652000,0.45433897,-0.2560464,-0.12313397,-0.84430695,-0.99999464,1.45519135e-11,1.8189892e-11,0.0032733525,4
2071704000,0.45431867,-0.2561634,-0.12320201,-0.84427255,-0.99999464,1.45519135e-11,1.8189892e-11,0.0032733525,4
2071756000,0.45433027,-0.25639454,-0.12315196,-0.8442035,-0.99999464,1.45519135e-11,1.8189892e-11,0.0032733525,4
2071808000,0.4542311,-0.25690714,-0.12345084,-0.84405744,-0.99999464,1.45519135e-11,1.8189892e-11,0.0032733525,4
2071864000,0.45416886,-0.25750577,-0.12380577,-0.84385633,-0.99999464,1.45519135e-11,1.8189892e-11,0.0032733525,4
2071912000,0.45414189,-0.2578207,-0.123938434,-0.8437552,-0.99999464,1.45519135e-11,1.8189892e-11,0.0032733525,4
2071963999,0.45413673,-0.25775257,-0.123943545,-0.84377813,-0.99999464,1.45519135e-11,1.8189892e-11,0.0032733525,4
2072016000,0.45414272,-0.2574539,-0.12392021,-0.84386957,-0.99999464,1.45519135e-11,1.8189892e-11,0.0032733525,4
2072068000,0.45418987,-0.25715387,-0.12365931,-0.8439739,-0.99999464,1.45519135e-11,1.8189892e-11,0.0032733525,4
2072119999,0.45421666,-0.25695482,-0.12323894,-0.8440815,-0.99999464,1.45519135e-11,1.8189892e-11,0.0032733525,4
2072172000,0.4541859,-0.25695193,-0.12292191,-0.8441452,-0.99999464,1.45519135e-11,1.8189892e-11,0.0032733525,4
2072228000,0.45411012,-0.2571466,-0.12269509,-0.8441596,-0.99999464,1.45519135e-11,1.8189892e-11,0.0032733525,4
2072276000,0.4540575,-0.25734678,-0.12261151,-0.84413916,-0.99999464,1.45519135e-11,1.8189892e-11,0.0032733525,4
2072327999,0.45405486,-0.25754476,-0.122554764,-0.8440883,-0.99999464,1.45519135e-11,1.8189892e-11,0.0032733525,4
2072384000,0.45402807,-0.25770858,-0.12253927,-0.84405506,-0.99999464,1.45519135e-11,1.8189892e-11,0.0032733525,4
2072432000,0.4539446,-0.25783795,-0.12261602,-0.84404933,-0.99999464,1.45519135e-11,1.8189892e-11,0.0032733525,4
2072488000,0.45387673,-0.25780645,-0.122898996,-0.84405434,-0.99999464,1.45519135e-11,1.8189892e-11,0.0032733525,4
2072536000,0.45395502,-0.25788528,-0.1228601,-0.84399366,-0.99999464,1.45519135e-11,1.8189892e-11,0.0032733525,4
2072592000,0.4538895,-0.25821936,-0.12284836,-0.84392864,-0.99999464,1.45519135e-11,1.8189892e-11,0.0032733525,4
2072639999,0.45375293,-0.2585703,-0.12282532,-0.8438979,-0.99999464,1.45519135e-11,1.8189892e-11,0.0032733525,4
2072692000,0.45365968,-0.2590204,-0.12282603,-0.8438099,-0.99999464,1.45519135e-11,1.8189892e-11,0.0032733525,4
2072744000,0.45364636,-0.2591777,-0.12269369,-0.843788,-0.99999464,1.45519135e-11,1.8189892e-11,0.0032733525,4
2072800000,0.45360196,-0.2592752,-0.12257665,-0.843799,-0.99999464,1.45519135e-11,1.8189892e-11,0.0032733525,4
2072847999,0.45361632,-0.2590787,-0.12256752,-0.84385294,-0.99999464,1.45519135e-11,1.8189892e-11,0.0032733525,4
2072904000,0.45363218,-0.25870082,-0.12249962,-0.8439701,-0.99999464,1.45519135e-11,1.8189892e-11,0.0032733525,4
2072952000,0.45361376,-0.25842428,-0.12232367,-0.8440903,-0.99999464,1.45519135e-11,1.8189892e-11,0.0032733525,4
2073003999,0.45374963,-0.25808835,-0.12230515,-0.8441227,-0.99999464,1.45519135e-11,1.8189892e-11,0.0032733525,4
2073056000,0.45380676,-0.25809687,-0.12244488,-0.8440692,-0.99999464,1.45519135e-11,1.8189892e-11,0.0032733525,4
2073112000,0.45381624,-0.25830257,-0.122776546,-0.8439529,-0.99999464,1.45519135e-11,1.8189892e-11,0.0032733525,4
2073160000,0.4537986,-0.25849742,-0.12310434,-0.8438551,-0.99999464,1.45519135e-11,1.8189892e-11,0.0032733525,4
2073212000,0.4537735,-0.25867674,-0.12315493,-0.8438062,-0.99999464,1.45519135e-11,1.8189892e-11,0.0032733525,4
2073268000,0.4537485,-0.25887817,-0.12309128,-0.84376705,-0.99999464,1.45519135e-11,1.8189892e-11,0.0032733525,4
2073316000,0.45376986,-0.25888377,-0.12292838,-0.8437776,-0.99999464,1.45519135e-11,1.8189892e-11,0.0032733525,4
2073367999,0.45381272,-0.25872636,-0.122954525,-0.84379905,-0.99999464,1.45519135e-11,1.8189892e-11,0.0032733525,4
2073420000,0.4537843,-0.25865805,-0.123040825,-0.8438227,-0.99999464,1.45519135e-11,1.8189892e-11,0.0032733525,4
2073472000,0.45379916,-0.25878194,-0.12294816,-0.84379035,-0.99999464,1.45519135e-11,1.8189892e-11,0.0032733525,4
2073523999,0.45378456,-0.25873747,-0.12279785,-0.8438336,-0.99999464,1.45519135e-11,1.8189892e-11,0.0032733525,4
2073576000,0.453759,-0.25877076,-0.122644596,-0.84385943,-0.99999464,1.45519135e-11,1.8189892e-11,0.0032733525,4
2073628000,0.45371768,-0.25903153,-0.12267797,-0.8437968,-0.99999464,1.45519135e-11,1.8189892e-11,0.0032733525,4
2073680000,0.45362258,-0.25921518,-0.122618675,-0.8438002,-0.99999464,1.45519135e-11,1.8189892e-11,0.0032733525,4
2073735999,0.45362598,-0.25933766,-0.12268668,-0.84375083,-0.99999464,1.45519135e-11,1.8189892e-11,0.0032733525,4
2073784000,0.45361215,-0.25958863,-0.12292038,-0.8436471,-0.99999464,1.45519135e-11,1.8189892e-11,0.0032733525,4
2073840000,0.45354098,-0.2597548,-0.12308219,-0.8436107,-0.99999464,1.45519135e-11,1.8189892e-11,0.0032733525,4
2073887999,0.45354712,-0.25996852,-0.123200804,-0.84352416,-0.99999464,1.45519135e-11,1.8189892e-11,0.0032733525,4
2073940000,0.45359772,-0.26016152,-0.12324164,-0.8434314,-0.99999464,1.45519135e-11,1.8189892e-11,0.0032733525,4
2073992000,0.45364764,-0.26013884,-0.12317649,-0.8434211,-0.99999464,1.45519135e-11,1.8189892e-11,0.0032733525,4
2074048000,0.45366696,-0.26010454,-0.12324375,-0.84341145,-0.99999464,1.45519135e-11,1.8189892e-11,0.0032733525,4
2074096000,0.45366716,-0.2600618,-0.1232365,-0.8434256,-0.99999464,1.45519135e-11,1.8189892e-11,0.0032733525,4
2074148000,0.45362058,-0.2598681,-0.12331246,-0.8434993,-0.99999464,1.45519135e-11,1.8189892e-11,0.0032733525,4
2074204000,0.45362023,-0.25967202,-0.123308085,-0.8435605,-0.99999464,1.45519135e-11,1.8189892e-11,0.0032733525,4
2074251999,0.45371333,-0.25944588,-0.12330742,-0.8435801,-0.99999464,1.45519135e-11,1.8189892e-11,0.0032733525,4
2074304000,0.45377174,-0.2594187,-0.12317752,-0.8435761,-0.99999464,1.45519135e-11,1.8189892e-11,0.0032733525,4
2074360000,0.45371026,-0.25959083,-0.12326588,-0.84354323,-0.99999464,1.45519135e-11,1.8189892e-11,0.0032733525,4
2074407999,0.45372272,-0.2597637,-0.12344323,-0.8434574,-0.99999464,1.45519135e-11,1.8189892e-11,0.0032733525,4
2074460000,0.453624,-0.26014683,-0.12369541,-0.8433555,-0.99999464,1.45519135e-11,1.8189892e-11,0.0032733525,4
2074512000,0.45357323,-0.260395,-0.12367534,-0.84330916,-0.99999464,1.45519135e-11,1.8189892e-11,0.0032733525,4
2074564000,0.45358294,-0.26032338,-0.123375684,-0.8433699,-0.99999464,1.45519135e-11,1.8189892e-11,0.0032733525,4
2074616000,0.45359573,-0.2602957,-0.122988686,-0.8434281,-0.99999464,1.45519135e-11,1.8189892e-11,0.0032733525,4
2074668000,0.4535605,-0.26025826,-0.122761734,-0.8434916,-0.99999464,1.45519135e-11,1.8189892e-11,0.0032733525,4
2074720000,0.45356533,-0.26012832,-0.12275087,-0.8435307,-0.99999464,1.45519135e-11,1.8189892e-11,0.0032733525,4
2074771999,0.45359084,-0.26005048,-0.12294018,-0.84351337,-0.99999464,1.45519135e-11,1.8189892e-11,0.0032733525,4
2074824000,0.45365182,-0.25991967,-0.12316037,-0.8434889,-0.99999464,1.45519135e-11,1.8189892e-11,0.0032733525,4
2074876000,0.45369738,-0.25994137,-0.12333882,-0.84343153,-0.99999464,1.45519135e-11,1.8189892e-11,0.0032733525,4
2074927999,0.45364785,-0.26009142,-0.12354072,-0.8433824,-0.99999464,1.45519135e-11,1.8189892e-11,0.0032733525,4
2074980000,0.45363373,-0.26024824,-0.12365532,-0.8433247,-0.99999464,1.45519135e-11,1.8189892e-11,0.0032733525,4
2075036000,0.45366699,-0.26041433,-0.1238686,-0.8432242,-0.99999464,1.45519135e-11,1.8189892e-11,0.0032733525,4
2075084000,0.4536737,-0.26055247,-0.12390269,-0.843173,-0.99999464,1.45519135e-11,1.8189892e-11,0.0032733525,4
2075135999,0.45373017,-0.26040858,-0.12391572,-0.84318525,-0.99999464,1.45519135e-11,1.8189892e-11,0.0032733525,4
2075188000,0.45376918,-0.2600409,-0.12385569,-0.8432865,-0.99999464,1.45519135e-11,1.8189892e-11,0.0032733525,4
2075244000,0.45380193,-0.25988355,-0.12385134,-0.84331805,-0.99999464,1.45519135e-11,1.8189892e-11,0.0032733525,4
2075291999,0.45370778,-0.26002204,-0.123876005,-0.8433224,-0.99999464,1.45519135e-11,1.8189892e-11,0.0032733525,4
2075344000,0.45368528,-0.2605368,-0.12397951,-0.84316045,-0.99999464,1.45519135e-11,1.8189892e-11,0.0032733525,4
2075400000,0.4535947,-0.26113212,-0.12391265,-0.84303474,-0.99999464,1.45519135e-11,1.8189892e-11,0.0032733525,4
2075448000,0.45348057,-0.26172557,-0.12400586,-0.8428984,-0.99999464,1.45519135e-11,1.8189892e-11,0.0032733525,4
2075500000,0.4533653,-0.2622873,-0.12419787,-0.8427576,-0.99999464,1.45519135e-11,1.8189892e-11,0.0032733525,4
2075552000,0.45327532,-0.26247832,-0.12441282,-0.8427147,-0.99999464,1.45519135e-11,1.8189892e-11,0.0032733525,4
2075604000,0.45338503,-0.26242334,-0.12455087,-0.84265244,-0.99999464,1.45519135e-11,1.8189892e-11,0.0032733525,4
2075660000,0.45337442,-0.2623218,-0.124602236,-0.84268206,-0.99999464,1.45519135e-11,1.8189892e-11,0.0032733525,4
2075708000,0.45336115,-0.26212555,-0.124504164,-0.8427649,-0.99999464,1.45519135e-11,1.8189892e-11,0.0032733525,4
2075764000,0.45336294,-0.26201645,-0.12445311,-0.8428054,-0.99999464,1.45519135e-11,1.8189892e-11,0.0032733525,4
2075811999,0.45341203,-0.26186585,-0.1244011,-0.84283346,-0.99999464,1.45519135e-11,1.8189892e-11,0.0032733525,4
2075867999,0.45345116,-0.26168585,-0.12420052,-0.84289783,-0.99999464,1.45519135e-11,1.8189892e-11,0.0032733525,4
2075916000,0.45345363,-0.2615453,-0.124000944,-0.84296954,-0.99999464,1.45519135e-11,1.8189892e-11,0.0032733525,4
2075968000,0.45345452,-0.26158774,-0.12377624,-0.84298897,-0.99999464,1.45519135e-11,1.8189892e-11,0.0032733525,4
2076023999,0.45344862,-0.26158634,-0.12383642,-0.8429838,-0.99999464,1.45519135e-11,1.8189892e-11,0.0032733525,4
2076072000,0.45343626,-0.2617409,-0.12403964,-0.8429125,-0.99999464,1.45519135e-11,1.8189892e-11,0.0032733525,4
2076124000,0.4534329,-0.2616695,-0.12408213,-0.8429302,-0.99999464,1.45519135e-11,1.8189892e-11,0.0032733525,4
2076180000,0.4534822,-0.26162425,-0.12409171,-0.84291637,-0.99999464,1.45519135e-11,1.8189892e-11,0.0032733525,4
2076228000,0.4534417,-0.26168117,-0.12410445,-0.84291863,-0.99999464,1.45519135e-11,1.8189892e-11,0.0032733525,4
2076284000,0.4534214,-0.26163647,-0.12419419,-0.84293014,-0.99999464,1.45519135e-11,1.8189892e-11,0.0032733525,4
2076331999,0.4534523,-0.26181892,-0.1242684,-0.842846,-0.99999464,1.45519135e-11,1.8189892e-11,0.0032733525,4
2076384000,0.45341396,-0.26209882,-0.12425308,-0.8427818,-0.99999464,1.45519135e-11,1.8189892e-11,0.0032733525,4
2076436000,0.45339707,-0.26243755,-0.12429683,-0.8426791,-0.99999464,1.45519135e-11,1.8189892e-11,0.0032733525,4
2076488000,0.45333183,-0.26262957,-0.12438157,-0.8426419,-0.99999464,1.45519135e-11,1.8189892e-11,0.0032733525,4
2076539999,0.45334268,-0.26277396,-0.1245566,-0.84256506,-0.99999464,1.45519135e-11,1.8189892e-11,0.0032733525,4
2076592000,0.4533489,-0.26287812,-0.1244728,-0.84254164,-0.99999464,1.45519135e-11,1.8189892e-11,0.0032733525,4
2076644000,0.4532632,-0.26296476,-0.12441945,-0.8425687,-0.99999464,1.45519135e-11,1.8189892e-11,0.0032733525,4
2076695999,0.45327842,-0.26296976,-0.12426582,-0.84258157,-0.99999464,1.45519135e-11,1.8189892e-11,0.0032733525,4
2076748000,0.45334443,-0.26284608,-0.12415557,-0.8426009,-0.99999464,1.45519135e-11,1.8189892e-11,0.0032733525,4
2076800000,0.45328355,-0.26267314,-0.124192275,-0.84268206,-0.99999464,1.45519135e-11,1.8189892e-11,0.0032733525,4
2076856000,0.45329142,-0.26260307,-0.12436378,-0.8426744,-0.99999464,1.45519135e-11,1.8189892e-11,0.0032733525,4
2076904000,0.45335153,-0.262487,-0.124531604,-0.84265345,-0.99999464,1.45519135e-11,1.8189892e-11,0.0032733525,4
2076956000,0.45339695,-0.2624299,-0.124612615,-0.8426349,-0.99999464,1.45519135e-11,1.8189892e-11,0.0032733525,4
2077012000,0.4534599,-0.26261362,-0.12466198,-0.84253645,-0.99999464,1.45519135e-11,1.8189892e-11,0.0032733525,4
2077059999,0.4533984,-0.26276457,-0.12476057,-0.84250784,-0.99999464,1.45519135e-11,1.8189892e-11,0.0032733525,4
2077112000,0.4534374,-0.26285923,-0.12484086,-0.84244555,-0.99999464,1.45519135e-11,1.8189892e-11,0.0032733525,4
2077164000,0.45346582,-0.2631684,-0.124949194,-0.8423176,-0.99999464,1.45519135e-11,1.8189892e-11,0.0032733525,4
2077220000,0.45342427,-0.26349583,-0.124970675,-0.84223443,-0.99999464,1.45519135e-11,1.8189892e-11,0.0032733525,4
2077268000,0.4533596,-0.2637129,-0.12500486,-0.8421962,-0.99999464,1.45519135e-11,1.8189892e-11,0.0032733525,4
2077320000,0.45327082,-0.26377678,-0.124985136,-0.842227,-0.99999464,1.45519135e-11,1.8189892e-11,0.0032733525,4
2077372000,0.4532968,-0.26358843,-0.12483841,-0.84229374,-0.99999464,1.45519135e-11,1.8189892e-11,0.0032733525,4
2077424000,0.4534115,-0.2633621,-0.124627076,-0.84233403,-0.99999464,1.45519135e-11,1.8189892e-11,0.0032733525,4
2077476000,0.45336336,-0.26348424,-0.12452071,-0.8423375,-0.99999464,1.45519135e-11,1.8189892e-11,0.0032733525,4
2077532000,0.45331058,-0.2635688,-0.12456734,-0.8423324,-0.99999464,1.45519135e-11,1.8189892e-11,0.0032733525,4
2077584000,0.45334992,-0.26351163,-0.12462021,-0.84232134,-0.99999464,1.45519135e-11,1.8189892e-11,0.0032733525,4
2077632000,0.45343402,-0.26338023,-0.124762654,-0.8422961,-0.99999464,1.45519135e-11,1.8189892e-11,0.0032733525,4
2077684000,0.4534791,-0.2637563,-0.12527524,-0.842078,-0.99999464,1.45519135e-11,1.8189892e-11,0.0032733525,4
2077735999,0.45336044,-0.26452377,-0.1260749,-0.8417818,-0.99999464,1.45519135e-11,1.8189892e-11,0.0032733525,4
2077788000,0.45325708,-0.26519245,-0.12672246,-0.84152985,-0.99999464,1.45519135e-11,1.8189892e-11,0.0032733525,4
2077840000,0.45318228,-0.26571175,-0.12721008,-0.8413328,-0.99999464,1.45519135e-11,1.8189892e-11,0.0032733525,4
2077896000,0.45318872,-0.26583332,-0.12710135,-0.8413073,-0.99999464,1.45519135e-11,1.8189892e-11,0.0032733525,4
2077948000,0.45322886,-0.26559225,-0.1266767,-0.84142584,-0.99999464,1.45519135e-11,1.8189892e-11,0.0032733525,4
2077996000,0.45331064,-0.26496217,-0.1260486,-0.8416747,-0.99999464,1.45519135e-11,1.8189892e-11,0.0032733525,4
2078048000,0.45345584,-0.26421988,-0.12543318,-0.84192187,-0.99999464,1.45519135e-11,1.8189892e-11,0.0032733525,4
2078104000,0.45356926,-0.26344928,-0.124821015,-0.84219307,-0.99999464,1.45519135e-11,1.8189892e-11,0.0032733525,4
2078152000,0.45358527,-0.2629601,-0.12436948,-0.8424041,-0.99999464,1.45519135e-11,1.8189892e-11,0.0032733525,4
2078208000,0.45358345,-0.26253217,-0.12421589,-0.84256124,-0.99999464,1.45519135e-11,1.8189892e-11,0.0032733525,4
2078256000,0.45358148,-0.26250768,-0.124351196,-0.84255004,-0.99999464,1.45519135e-11,1.8189892e-11,0.0032733525,4
2078308000,0.45363575,-0.2625566,-0.12452324,-0.8424801,-0.99999464,1.45519135e-11,1.8189892e-11,0.0032733525,4
2078360000,0.4536088,-0.2629033,-0.12495409,-0.84232265,-0.99999464,1.45519135e-11,1.8189892e-11,0.0032733525,4
2078412000,0.45354027,-0.26333225,-0.1251464,-0.84219706,-0.99999464,1.45519135e-11,1.8189892e-11,0.0032733525,4
2078463999,0.4534899,-0.26373175,-0.12568244,-0.8420192,-0.99999464,1.45519135e-11,1.8189892e-11,0.0032733525,4
2078520000,0.4533725,-0.2643735,-0.12595585,-0.84184045,-0.99999464,1.45519135e-11,1.8189892e-11,0.0032733525,4
