timestamp,roll_body,pitch_body,yaw_body,yaw_sp_move_rate,q_d[0],q_d[1],q_d[2],q_d[3],thrust_body[0],thrust_body[1],thrust_body[2],q_d_valid,roll_reset_integral,pitch_reset_integral,yaw_reset_integral,fw_control_yaw,apply_flaps
2052220000,-0.03898428,-0.07953395,0.4243843,0.0,0.97677636,-0.010667432,-0.042959042,0.2096394,0.0,0.0,-0.12047207,1,0,0,0,0,0
2052316000,0.038752094,-0.04503816,0.42334354,0.0,0.97715807,0.023667455,-0.017940966,0.21042849,0.0,0.0,-0.12021206,1,0,0,0,0,0
2052407999,0.0358392,-0.03643282,0.42334354,0.0,0.9772933,0.021342156,-0.01404201,0.21034518,0.0,0.0,-0.1680712,1,0,0,0,0,0
2052520000,0.029940585,-0.025096253,0.42334354,0.0,0.9774551,0.017270403,-0.009121557,0.21023825,0.0,0.0,-0.24577288,1,0,0,0,0,0
2052616000,0.020762015,-0.022956647,0.42334354,0.0,0.97753894,0.012559813,-0.009040476,0.21018597,0.0,0.0,-0.31452563,1,0,0,0,0,0
2052712000,0.020228496,-0.018820398,0.42334354,0.0,0.9775678,0.011864805,-0.007074748,0.21016765,0.0,0.0,-0.3849932,1,0,0,0,0,0
2052827999,0.017324205,-0.017167713,0.42334354,0.0,0.9775927,0.010271691,-0.0065720845,0.21015173,0.0,0.0,-0.47324505,1,0,0,0,0,0
2052924000,0.014433886,-0.015591418,0.42334354,0.0,0.97761405,0.008693369,-0.0061052595,0.21013783,0.0,0.0,-0.5481058,1,0,0,0,0,0
2053016000,0.01153252,-0.013551215,0.42334354,0.0,0.9776342,0.007060886,-0.005412795,0.21012455,0.0,0.0,-0.6096217,1,0,0,0,0,0
2053128000,0.0073409644,-0.009701019,0.42334354,0.0,0.9776592,0.004607566,-0.003971063,0.21010818,0.0,0.0,-0.61027217,1,0,0,0,0,0
2053220000,0.0002459635,-0.0038438418,0.42334354,0.0,0.97767925,0.00052402174,-0.0018531865,0.21009453,0.0,0.0,-0.6052573,1,0,0,0,0,0
2053331999,-0.003657445,0.00026321702,0.42334354,0.0,0.9776794,-0.0018155565,-0.00025553367,0.21009456,0.0,0.0,-0.6116023,1,0,0,0,0,0
2053427999,-0.0040756133,0.0024267305,0.42334354,0.0,0.9776778,-0.0022472432,0.0007581497,0.21009646,0.0,0.0,-0.6172991,1,0,0,0,0,0
2053520000,-0.0046397047,0.002622502,0.42334354,0.0,0.977677,-0.0025435574,0.00079459365,0.21009691,0.0,0.0,-0.61778665,1,0,0,0,0,0
2053635999,-0.0062327315,0.00017739525,0.42334354,0.0,0.9776763,-0.0030654417,-0.0005680132,0.2100939,0.0,0.0,-0.6172318,1,0,0,0,0,0
2053731999,-0.0041217785,0.00078003434,0.42334354,0.0,0.9776787,-0.002096831,-5.1669886e-05,0.21009499,0.0,0.0,-0.618281,1,0,0,0,0,0
2053827999,-0.0035208068,0.0018811126,0.42334354,0.0,0.9776788,-0.0019187167,0.0005497115,0.21009588,0.0,0.0,-0.6207695,1,0,0,0,0,0
2053924000,-0.0037860558,0.0011662641,0.42334354,0.0,0.9776789,-0.0019732888,0.00017240134,0.21009533,0.0,0.0,-0.62726355,1,0,0,0,0,0
2054036000,-0.004485501,0.0011583142,0.42334354,0.0,0.9776782,-0.0023143701,9.5039955e-05,0.21009536,0.0,0.0,-0.63005155,1,0,0,0,0,0
2054128000,-0.0045742253,0.0011456303,0.42334354,0.0,0.97767806,-0.0023564093,7.95193e-05,0.21009535,0.0,0.0,-0.6283796,1,0,0,0,0,0
2054240000,-0.0028187423,0.0006421911,0.42334354,0.0,0.97767997,-0.0014453752,1.782748e-05,0.21009487,0.0,0.0,-0.6304473,1,0,0,0,0,0
2054331999,-0.0038143902,0.0013310626,0.42334354,0.0,0.9776788,-0.0020044514,0.00024998497,0.21009545,0.0,0.0,-0.6295757,1,0,0,0,0,0
2054443999,-0.004353335,0.0009606424,0.42334354,0.0,0.9776784,-0.0022289972,1.2294043e-05,0.21009518,0.0,0.0,-0.6308588,1,0,0,0,0,0
2054539999,-0.0027736905,1.1541577e-05,0.42334354,0.0,0.9776801,-0.0013571042,-0.00028572668,0.21009447,0.0,0.0,-0.63365024,1,0,0,0,0,0
2054635999,-0.0033869215,0.00012470587,0.42334354,0.0,0.9776796,-0.0016687638,-0.0002948257,0.2100945,0.0,0.0,-0.6358015,1,0,0,0,0,0
2054744000,-0.0016913452,-0.0012046281,0.42334354,0.0,0.9776807,-0.0007002549,-0.0007665419,0.21009405,0.0,0.0,-0.640347,1,0,0,0,0,0
2054840000,-0.0019351864,-0.0011409685,0.42334354,0.0,0.97768056,-0.0008261415,-0.00076103746,0.21009396,0.0,0.0,-0.6441192,1,0,0,0,0,0
2054952000,-0.0015042449,-0.0012198668,0.42334354,0.0,0.9776807,-0.000607192,-0.000754337,0.21009412,0.0,0.0,-0.5213164,1,0,0,0,0,0
2055043999,-0.0026544288,-0.0013555242,0.42334354,0.0,0.9776802,-0.0011551975,-0.00094147486,0.21009353,0.0,0.0,-0.5266362,1,0,0,0,0,0
2055135999,-0.0012174475,-0.0007486257,0.42334354,0.0,0.97768086,-0.0005164964,-0.00049384806,0.21009442,0.0,0.0,-0.55326325,1,0,0,0,0,0
2055251999,-0.0026125184,0.000900544,0.42334354,0.0,0.97768,-0.0013717039,0.00016578406,0.21009503,0.0,0.0,-0.54714316,1,0,0,0,0,0
2055347999,-0.0030653542,0.00016805947,0.42334354,0.0,0.97767985,-0.001516123,-0.00023985293,0.21009456,0.0,0.0,-0.5492918,1,0,0,0,0,0
2055440000,-0.0034163552,0.0011102777,0.42334354,0.0,0.97767925,-0.0017866832,0.00018386918,0.21009526,0.0,0.0,-0.5494952,1,0,0,0,0,0
2055552000,-0.0037749584,-3.0713374e-05,0.42334354,0.0,0.9776793,-0.0018421251,-0.00041156297,0.21009423,0.0,0.0,-0.55274576,1,0,0,0,0,0
2055648000,-0.004015827,-0.00073436304,0.42334354,0.0,0.9776792,-0.0018859546,-0.00078083714,0.2100935,0.0,0.0,-0.5546348,1,0,0,0,0,0
2055740000,-0.0030168372,0.00012906978,0.42334354,0.0,0.9776799,-0.0014883102,-0.0002538161,0.21009453,0.0,0.0,-0.5534897,1,0,0,0,0,0
2055852000,-0.004372949,0.0010044856,0.42334354,0.0,0.97767836,-0.0022431908,3.1665964e-05,0.21009521,0.0,0.0,-0.55529034,1,0,0,0,0,0
2055943999,-0.004155445,0.00073731266,0.42334354,0.0,0.97767866,-0.0021088007,-7.609048e-05,0.21009496,0.0,0.0,-0.5554381,1,0,0,0,0,0
2056059999,-0.0033948831,0.00022415284,0.42334354,0.0,0.9776796,-0.0016831023,-0.0002470484,0.21009456,0.0,0.0,-0.5591427,1,0,0,0,0,0
2056155999,-0.002565539,0.00018808017,0.42334354,0.0,0.97768027,-0.0012738963,-0.00017756179,0.21009462,0.0,0.0,-0.560319,1,0,0,0,0,0
2056251999,-0.00303708,0.00022831654,0.42334354,0.0,0.9776799,-0.001508631,-0.00020742672,0.21009459,0.0,0.0,-0.5615193,1,0,0,0,0,0
2056347999,-0.0021514955,-2.2003887e-05,0.42334354,0.0,0.9776805,-0.0010494265,-0.00023676522,0.21009454,0.0,0.0,-0.5612204,1,0,0,0,0,0
2056460000,-0.0040828595,0.0022080338,0.42334354,0.0,0.97767794,-0.002227812,0.000650481,0.2100963,0.0,0.0,-0.56079704,1,0,0,0,0,0
2056552000,-0.003679327,0.0025370517,0.42334354,0.0,0.9776781,-0.0020651117,0.0008537083,0.21009642,0.0,0.0,-0.5611344,1,0,0,0,0,0
2056664000,-0.0036039583,0.00080190145,0.42334354,0.0,0.97767925,-0.0018459973,1.3415329e-05,0.21009502,0.0,0.0,-0.5605794,1,0,0,0,0,0
2056760000,-0.0034933025,0.00060439645,0.42334354,0.0,0.97767943,-0.0017711569,-7.1508846e-05,0.21009484,0.0,0.0,-0.5631468,1,0,0,0,0,0
2056872000,-0.0054811486,0.00061493635,0.42334354,0.0,0.97767717,-0.002744001,-0.0002751746,0.21009466,0.0,0.0,-0.5653004,1,0,0,0,0,0
2056963999,-0.003155355,0.001014389,0.42334354,0.0,0.97767955,-0.0016490234,0.00016441234,0.21009514,0.0,0.0,-0.5659884,1,0,0,0,0,0
2057059999,-0.0048640757,0.0014890765,0.42334354,0.0,0.9776775,-0.0025341774,0.00021696121,0.21009576,0.0,0.0,-0.56418526,1,0,0,0,0,0
2057155999,-0.0044569066,-0.00044119323,0.42334354,0.0,0.9776787,-0.0021323683,-0.00068385823,0.21009365,0.0,0.0,-0.5641514,1,0,0,0,0,0
2057271999,-0.0043537263,0.00031683582,0.42334354,0.0,0.97767866,-0.0021615585,-0.00030246508,0.2100945,0.0,0.0,-0.5649647,1,0,0,0,0,0
2057367999,-0.0054162554,-0.00064160017,0.42334354,0.0,0.97767764,-0.0025802837,-0.0008826015,0.210093,0.0,0.0,-0.56564987,1,0,0,0,0,0
2057460000,-0.0067904238,0.0009315836,0.42334354,0.0,0.977675,-0.0034172873,-0.00025792123,0.21009497,0.0,0.0,-0.5636998,1,0,0,0,0,0
2057572000,-0.0059233233,0.0023618368,0.42334354,0.0,0.9776754,-0.0031436577,0.00053232827,0.21009704,0.0,0.0,-0.56365854,1,0,0,0,0,0
2057664000,-0.004737235,0.0027385335,0.42334354,0.0,0.97767675,-0.0026034229,0.000841069,0.21009706,0.0,0.0,-0.5624128,1,0,0,0,0,0
2057776000,-0.0064793536,0.0022217734,0.42334354,0.0,0.97767454,-0.0034007528,0.0004054498,0.21009694,0.0,0.0,-0.5628262,1,0,0,0,0,0
2057872000,-0.005480731,0.0020397091,0.42334354,0.0,0.97767633,-0.0028934635,0.00042135332,0.21009648,0.0,0.0,-0.5657647,1,0,0,0,0,0
2057963999,-0.005881298,0.0030439012,0.42334354,0.0,0.9776747,-0.0031947617,0.0008701623,0.21009792,0.0,0.0,-0.5654964,1,0,0,0,0,0
2058079999,-0.005749919,0.0033996375,0.42334354,0.0,0.9776746,-0.0031679068,0.001057861,0.21009828,0.0,0.0,-0.5677544,1,0,0,0,0,0
2058175999,-0.0052692634,0.003943586,0.42334354,0.0,0.97767466,-0.002990083,0.0013742562,0.21009862,0.0,0.0,-0.5667504,1,0,0,0,0,0
2058271999,-0.004231124,0.004118376,0.42334354,0.0,0.97767586,-0.002500962,0.0015687563,0.21009803,0.0,0.0,-0.5664383,1,0,0,0,0,0
2058367999,-0.0043612816,0.003573439,0.42334354,0.0,0.97767633,-0.0025073448,0.0012886969,0.21009763,0.0,0.0,-0.5669039,1,0,0,0,0,0
2058480000,-0.0036484995,0.0046460726,0.42334354,0.0,0.97767586,-0.002271585,0.0018879191,0.21009788,0.0,0.0,-0.56603247,1,0,0,0,0,0
2058572000,-0.0044977022,0.0048072543,0.42334354,0.0,0.9776746,-0.0027036383,0.0018775027,0.2100988,0.0,0.0,-0.5647737,1,0,0,0,0,0
2058684000,-0.003907079,0.004345443,0.42334354,0.0,0.977676,-0.0023664087,0.0017137963,0.21009794,0.0,0.0,-0.56471086,1,0,0,0,0,0
2058776000,-0.0037722518,0.0041955905,0.42334354,0.0,0.9776764,-0.002284759,0.0016547057,0.2100977,0.0,0.0,-0.5635356,1,0,0,0,0,0
2058887999,-0.0038026562,0.0045582275,0.42334354,0.0,0.97767586,-0.0023377151,0.0018287828,0.21009801,0.0,0.0,-0.5654406,1,0,0,0,0,0
2058983999,-0.0031642274,0.004340435,0.42334354,0.0,0.9776768,-0.0020027482,0.0017893834,0.21009725,0.0,0.0,-0.56532085,1,0,0,0,0,0
2059079999,-0.0048084944,0.0051715886,0.42334354,0.0,0.97767365,-0.002893836,0.0020229544,0.21009944,0.0,0.0,-0.5644369,1,0,0,0,0,0
2059175999,-0.0043257163,0.005235465,0.42334354,0.0,0.97767425,-0.0026645462,0.0021048954,0.210099,0.0,0.0,-0.5631926,1,0,0,0,0,0
2059288000,-0.0028513402,0.0055755004,0.42334354,0.0,0.97767544,-0.0019795347,0.0024259994,0.21009754,0.0,0.0,-0.5631476,1,0,0,0,0,0
2059384000,-0.0025960004,0.004330759,0.42334354,0.0,0.97767735,-0.0017239607,0.0018443449,0.21009672,0.0,0.0,-0.5617091,1,0,0,0,0,0
2059480000,-0.00066061737,0.004475313,0.42334354,0.0,0.9776784,-0.00079305493,0.0021183162,0.21009487,0.0,0.0,-0.5633579,1,0,0,0,0,0
2059592000,-0.001043268,0.0039418903,0.42334354,0.0,0.9776788,-0.00092407543,0.001817362,0.21009526,0.0,0.0,-0.5637936,1,0,0,0,0,0
2059684000,-0.0015071414,0.004039429,0.42334354,0.0,0.9776785,-0.0011610811,0.001816314,0.21009567,0.0,0.0,-0.5639154,1,0,0,0,0,0
2059796000,-0.0026341584,0.0055305236,0.42334354,0.0,0.97767574,-0.0018686433,0.0024268283,0.21009724,0.0,0.0,-0.5613206,1,0,0,0,0,0
2059887999,-0.0022021132,0.0037826092,0.42334354,0.0,0.97767824,-0.0014738325,0.0016177647,0.21009621,0.0,0.0,-0.56274855,1,0,0,0,0,0
2059983999,-0.0010553655,0.004653676,0.42334354,0.0,0.97767806,-0.0010047596,0.00216404,0.21009526,0.0,0.0,-0.564266,1,0,0,0,0,0
2060096000,0.0002976726,0.0039893673,0.42334354,0.0,0.9776792,-0.0002735579,0.0019814325,0.21009395,0.0,0.0,-0.56267405,1,0,0,0,0,0
2060192000,0.00013065126,0.0045874836,0.42334354,0.0,0.97767854,-0.00041803494,0.00225627,0.21009395,0.0,0.0,-0.56333137,1,0,0,0,0,0
2060288000,-0.0022379125,0.0046517607,0.42334354,0.0,0.9776772,-0.0015826336,0.0020388796,0.21009652,0.0,0.0,-0.56287694,1,0,0,0,0,0
2060404000,-0.0005493636,0.0037588924,0.42334354,0.0,0.9776792,-0.000663412,0.0017797886,0.21009481,0.0,0.0,-0.56213456,1,0,0,0,0,0
2060496000,6.534343e-05,0.0031820543,0.42334354,0.0,0.97767985,-0.0003023237,0.0015623807,0.21009435,0.0,0.0,-0.5628677,1,0,0,0,0,0
2060592000,0.00034558278,0.0045016934,0.42334354,0.0,0.97767866,-0.00030395598,0.0022369104,0.21009377,0.0,0.0,-0.56426346,1,0,0,0,0,0
2060704000,-0.0005705732,0.0005458913,0.42305624,0.0,0.97771114,-0.00033623396,0.0002069649,0.20995429,0.0,0.0,-0.5588344,1,0,0,0,0,0
2060796000,-0.011982044,0.001652812,0.35079962,0.0,0.984638,-0.00604327,-0.00023172605,0.1745035,0.0,0.0,-0.55936986,1,0,0,0,0,0
2060907999,-0.049685176,0.041471332,0.2628358,0.0,0.99079067,-0.027336717,0.01729471,0.13148196,0.0,0.0,-0.564724,1,0,0,0,0,0
2061000000,-0.09957327,0.09867414,0.19057836,0.0,0.99278665,-0.05416648,0.044303264,0.09735469,0.0,0.0,-0.5624933,1,0,0,0,0,0
2061096000,-0.17216356,0.15410462,0.11518011,0.0,0.99131346,-0.089992516,0.07163001,0.063782044,0.0,0.0,-0.56777453,1,0,0,0,0,0
2061212000,-0.2646291,0.19079107,0.024073927,0.0,0.98652947,-0.13245595,0.09283074,0.024442645,0.0,0.0,-0.573684,1,0,0,0,0,0
2061308000,-0.3241815,0.19534738,-0.0513243,0.0,0.9822687,-0.15809035,0.10032971,-0.009469766,0.0,0.0,-0.5794878,1,0,0,0,0,0
2061404000,-0.3690071,0.18472746,-0.12672253,0.0,0.9779445,-0.17656906,0.10205198,-0.045092005,0.0,0.0,-0.59007746,1,0,0,0,0,0
2061503999,-0.41341257,0.1656092,-0.20526157,0.0,0.9719657,-0.19516464,0.10147801,-0.08304034,0.0,0.0,-0.60112214,1,0,0,0,0,0
2061599999,-0.44485646,0.13989194,-0.28065982,0.0,0.96557164,-0.20836155,0.09827677,-0.12082462,0.0,0.0,-0.6087858,1,0,0,0,0,0
2061712000,-0.45282206,0.09813195,-0.36862522,0.0,0.958838,-0.21165451,0.08807644,-0.16755499,0.0,0.0,-0.6124405,1,0,0,0,0,0
2061808000,-0.47825634,0.06557969,-0.44402346,0.0,0.9489001,-0.22390486,0.08319515,-0.20623733,0.0,0.0,-0.61883026,1,0,0,0,0,0
2061904000,-0.4974394,0.029045884,-0.5194217,0.0,0.9375438,-0.2342683,0.07681185,-0.24541767,0.0,0.0,-0.6267732,1,0,0,0,0,0
2062000000,-0.5176897,-0.010814125,-0.59481996,0.0,0.9238284,-0.24625506,0.07001042,-0.2846016,0.0,0.0,-0.6330561,1,0,0,0,0,0
2062116000,-0.5433554,-0.06761666,-0.6859262,0.0,0.9036518,-0.26352555,0.059522487,-0.33230236,0.0,0.0,-0.64501876,1,0,0,0,0,0
2062212000,-0.5505299,-0.11460627,-0.76132447,0.0,0.88621676,-0.27240923,0.049647834,-0.3714137,0.0,0.0,-0.6535064,1,0,0,0,0,0
2062308000,-0.5527913,-0.16295174,-0.83672273,0.0,0.8671355,-0.28033668,0.03895332,-0.40984142,0.0,0.0,-0.6614836,1,0,0,0,0,0
2062424000,-0.56023407,-0.229162,-0.92782897,0.0,0.83967143,-0.29478982,0.024633775,-0.45546025,0.0,0.0,-0.6718622,1,0,0,0,0,0
2062516000,-0.5502888,-0.27303544,-1.0000856,0.0,0.8189675,-0.29900065,0.014112678,-0.48958308,0.0,0.0,-0.6726002,1,0,0,0,0,0
2062628000,-0.5355137,-0.31810758,-1.0880501,0.0,0.7930395,-0.30257225,0.004518669,-0.5286945,0.0,0.0,-0.67927647,1,0,0,0,0,0
2062720000,-0.509286,-0.34055007,-1.1603067,0.0,0.7743046,-0.29752782,-0.0010743667,-0.5585055,0.0,0.0,-0.6794077,1,0,0,0,0,0
2062816000,-0.4888089,-0.37619781,-1.2357049,0.0,0.75073844,-0.29886603,-0.010189464,-0.5890391,0.0,0.0,-0.68955183,1,0,0,0,0,0
2062927999,-0.44211537,-0.4023278,-1.3236688,0.0,0.7272248,-0.28928825,-0.0217544,-0.6220796,0.0,0.0,-0.68729025,1,0,0,0,0,0
2063020000,-0.3918902,-0.41711146,-1.3959262,0.0,0.70930165,-0.27644715,-0.033183977,-0.64758545,0.0,0.0,-0.68378913,1,0,0,0,0,0
2063116000,-0.34412208,-0.43614239,-1.4713244,0.0,0.68828213,-0.26697087,-0.045851897,-0.6729723,0.0,0.0,-0.6851126,1,0,0,0,0,0
2063231999,-0.29728627,-0.4566943,-1.5624298,0.0,0.6603944,-0.26006502,-0.05738801,-0.7021054,0.0,0.0,-0.682156,1,0,0,0,0,0
2063327999,-0.26371056,-0.48099694,-1.637828,0.0,0.6347263,-0.25967652,-0.06800785,-0.72461414,0.0,0.0,-0.6797174,1,0,0,0,0,0
2063424000,-0.23194921,-0.5067482,-1.713227,0.0,0.6079098,-0.2615157,-0.07844135,-0.7455885,0.0,0.0,-0.67981154,1,0,0,0,0,0
2063516000,-0.19638172,-0.51546913,-1.7854836,0.0,0.584178,-0.25701421,-0.085291475,-0.76511776,0.0,0.0,-0.67958623,1,0,0,0,0,0
2063628000,-0.15085942,-0.52796304,-1.8734481,0.0,0.55444074,-0.25270805,-0.09553396,-0.7871515,0.0,0.0,-0.6787628,1,0,0,0,0,0
2063740000,-0.10641522,-0.5371447,-1.9614127,0.0,0.52400297,-0.24870096,-0.1048395,-0.8078226,0.0,0.0,-0.67938066,1,0,0,0,0,0
2063831999,-0.06911688,-0.5389776,-2.0336685,0.0,-0.49894786,0.24380693,0.11165046,0.82410157,0.0,0.0,-0.6782129,1,0,0,0,0,0
2063927999,-0.029629385,-0.54799217,-2.1090667,0.0,-0.47168157,0.24232997,0.121150166,0.8391158,0.0,0.0,-0.6825779,1,0,0,0,0,0
2064039999,-0.011519699,-0.54216146,-2.14193,0.0,-0.46041396,0.23767027,0.1234648,0.8463382,0.0,0.0,-0.6794793,1,0,0,0,0,0
2064135999,-0.012632441,-0.54485625,-2.1419394,0.0,-0.46009716,0.23906502,0.12361684,0.8460954,0.0,0.0,-0.6797602,1,0,0,0,0,0
2064231999,-0.015622812,-0.5470663,-2.1419666,0.0,-0.45957762,0.24068715,0.122860394,0.84602803,0.0,0.0,-0.6788872,1,0,0,0,0,0
2064327999,-0.016207768,-0.5482937,-2.1419926,0.0,-0.45941246,0.24134108,0.12289415,0.8459265,0.0,0.0,-0.6797198,1,0,0,0,0,0
2064440000,-0.014271334,-0.5467172,-2.142027,0.0,-0.4597383,0.24023291,0.12334397,0.8459995,0.0,0.0,-0.67998445,1,0,0,0,0,0
2064536000,-0.014259309,-0.55257636,-2.142045,0.0,-0.45933345,0.24270327,0.12470308,0.84531474,0.0,0.0,-0.68335176,1,0,0,0,0,0
2064648000,-0.013113903,-0.5503595,-2.14207,0.0,-0.45961258,0.24150659,0.12467131,0.8455104,0.0,0.0,-0.6826387,1,0,0,0,0,0
2064740000,-0.013175908,-0.5483893,-2.1420813,0.0,-0.45973384,0.24069022,0.12418784,0.8457484,0.0,0.0,-0.6816331,1,0,0,0,0,0
2064852000,-0.013156647,-0.54905623,-2.1420984,0.0,-0.45968384,0.24096829,0.12434825,0.8456729,0.0,0.0,-0.68110687,1,0,0,0,0,0
2064943999,-0.0137505215,-0.5446073,-2.1421032,0.0,-0.45991093,0.23922713,0.12306655,0.84623104,0.0,0.0,-0.6798736,1,0,0,0,0,0
2065039999,-0.015139019,-0.5421718,-2.1421323,0.0,-0.45989686,0.23851976,0.12191127,0.8466055,0.0,0.0,-0.68170583,1,0,0,0,0,0
2065135999,-0.014394756,-0.54329795,-2.1421533,0.0,-0.45990092,0.23882551,0.122484714,0.8464343,0.0,0.0,-0.68134975,1,0,0,0,0,0
2065251999,-0.014896637,-0.54854786,-2.1421885,0.0,-0.45947045,0.24115914,0.123483896,0.8458611,0.0,0.0,-0.68258774,1,0,0,0,0,0
2065347999,-0.016521862,-0.5473384,-2.1422138,0.0,-0.45934623,0.24102369,0.122513324,0.8461082,0.0,0.0,-0.68402916,1,0,0,0,0,0
2065440000,-0.01701791,-0.54305315,-2.142244,0.0,-0.45956546,0.23933063,0.121306814,0.84664345,0.0,0.0,-0.6823748,1,0,0,0,0,0
2065552000,-0.015348352,-0.54395306,-2.142267,0.0,-0.45969462,0.23932831,0.12221928,0.84644276,0.0,0.0,-0.6819396,1,0,0,0,0,0
2065648000,-0.017076679,-0.54950655,-2.142295,0.0,-0.45909658,0.24207081,0.122771,0.84590745,0.0,0.0,-0.6855812,1,0,0,0,0,0
2065760000,-0.017775573,-0.5486056,-2.1423235,0.0,-0.4590618,0.24185291,0.12226323,0.8460622,0.0,0.0,-0.6870847,1,0,0,0,0,0
2065852000,-0.019282306,-0.54660463,-2.1423702,0.0,-0.45899743,0.24135736,0.12115644,0.84639776,0.0,0.0,-0.6837,1,0,0,0,0,0
2065943999,-0.019354904,-0.5427461,-2.1424053,0.0,-0.4592382,0.2397476,0.12022693,0.846857,0.0,0.0,-0.6830038,1,0,0,0,0,0
2066059999,-0.019038146,-0.5482631,-2.1424503,0.0,-0.45887893,0.24200588,0.121634394,0.8462082,0.0,0.0,-0.68547916,1,0,0,0,0,0
2066155999,-0.01977559,-0.5491004,-2.1424775,0.0,-0.4587204,0.24252993,0.12151311,0.8461616,0.0,0.0,-0.6854676,1,0,0,0,0,0
2066251999,-0.022454377,-0.5481188,-2.142524,0.0,-0.45844376,0.24273293,0.12014639,0.8464484,0.0,0.0,-0.68576425,1,0,0,0,0,0
2066347999,-0.022260025,-0.548409,-2.1425662,0.0,-0.45842928,0.24281329,0.12029081,0.8464127,0.0,0.0,-0.6866143,1,0,0,0,0,0
2066460000,-0.023466831,-0.5484477,-2.1426253,0.0,-0.45825496,0.24310975,0.119781844,0.8464942,0.0,0.0,-0.6871636,1,0,0,0,0,0
2066552000,-0.02246154,-0.54568356,-2.142663,0.0,-0.4585531,0.24171558,0.11956175,0.846763,0.0,0.0,-0.68470937,1,0,0,0,0,0
2066648000,-0.022335747,-0.5438864,-2.1427016,0.0,-0.45867622,0.24093066,0.119193494,0.846972,0.0,0.0,-0.68586224,1,0,0,0,0,0
2066760000,-0.021298781,-0.5441649,-2.142727,0.0,-0.45877114,0.24081188,0.119694196,0.84688365,0.0,0.0,-0.68594104,1,0,0,0,0,0
2066856000,-0.023689073,-0.5530486,-2.142755,0.0,-0.4578505,0.24510816,0.12073866,0.8460006,0.0,0.0,-0.68779737,1,0,0,0,0,0
2066968000,-0.022805974,-0.5543815,-2.1427827,0.0,-0.45785335,0.24546938,0.12141764,0.8457972,0.0,0.0,-0.6873255,1,0,0,0,0,0
2067059999,-0.02358852,-0.55215627,-2.1428134,0.0,-0.45790088,0.2447125,0.120567225,0.8461124,0.0,0.0,-0.68525904,1,0,0,0,0,0
2067155999,-0.023979876,-0.5505159,-2.142833,0.0,-0.4579599,0.24411179,0.120019004,0.8463319,0.0,0.0,-0.6871528,1,0,0,0,0,0
2067271999,-0.025166698,-0.55331945,-2.1428726,0.0,-0.45760044,0.24556752,0.12016196,0.84608483,0.0,0.0,-0.6900557,1,0,0,0,0,0
2067367999,-0.025050502,-0.55510634,-2.142899,0.0,-0.45747697,0.24629547,0.12062203,0.8458745,0.0,0.0,-0.68904513,1,0,0,0,0,0
2067460000,-0.025546439,-0.55346304,-2.1429405,0.0,-0.45751482,0.245719,0.12002624,0.8461064,0.0,0.0,-0.6875288,1,0,0,0,0,0
2067572000,-0.02649256,-0.5539348,-2.1429734,0.0,-0.45735115,0.24613614,0.11973132,0.84611547,0.0,0.0,-0.68764037,1,0,0,0,0,0
2067664000,-0.02646023,-0.5526008,-2.143011,0.0,-0.45743388,0.24556892,0.11943105,0.84627795,0.0,0.0,-0.68507904,1,0,0,0,0,0
2067776000,-0.026143672,-0.5523645,-2.1430387,0.0,-0.45747778,0.24539858,0.11950682,0.846293,0.0,0.0,-0.6850366,1,0,0,0,0,0
2067872000,-0.028462676,-0.5573542,-2.143083,0.0,-0.45681697,0.24803318,0.119677216,0.8458576,0.0,0.0,-0.6902947,1,0,0,0,0,0
2067963999,-0.026262717,-0.55207515,-2.1431189,0.0,-0.45744964,0.24530864,0.119379535,0.84635216,0.0,0.0,-0.68857884,1,0,0,0,0,0
2068079999,-0.0282411,-0.5558268,-2.143168,0.0,-0.45691812,0.2473444,0.11940628,0.846043,0.0,0.0,-0.69090873,1,0,0,0,0,0
2068175999,-0.027070135,-0.5592406,-2.1431987,0.0,-0.45680556,0.24851626,0.12068889,0.84557825,0.0,0.0,-0.69079304,1,0,0,0,0,0
2068271999,-0.027999355,-0.56230885,-2.1432428,0.0,-0.45645005,0.25002253,0.1210014,0.8452814,0.0,0.0,-0.68971926,1,0,0,0,0,0
2068367999,-0.028521808,-0.5616617,-2.143276,0.0,-0.45641756,0.24987143,0.12062651,0.84539723,0.0,0.0,-0.69047946,1,0,0,0,0,0
2068480000,-0.029868266,-0.56095564,-2.1433148,0.0,-0.45628408,0.24988388,0.11988884,0.84557056,0.0,0.0,-0.6905364,1,0,0,0,0,0
2068572000,-0.02971384,-0.55637467,-2.143339,0.0,-0.45662412,0.2479217,0.11888914,0.8461056,0.0,0.0,-0.6898178,1,0,0,0,0,0
2068684000,-0.028314205,-0.5558785,-2.1433697,0.0,-0.45682013,0.24739493,0.1193624,0.84608734,0.0,0.0,-0.69107825,1,0,0,0,0,0
2068776000,-0.027301136,-0.5537133,-2.1433759,0.0,-0.45709705,0.24625175,0.119288325,0.84628165,0.0,0.0,-0.6887424,1,0,0,0,0,0
2068887999,-0.028814672,-0.5554288,-2.143388,0.0,-0.45678264,0.24732094,0.11904414,0.846174,0.0,0.0,-0.6884563,1,0,0,0,0,0
2068983999,-0.028840749,-0.56309205,-2.1433852,0.0,-0.45622787,0.25055265,0.12080941,0.8452719,0.0,0.0,-0.69153243,1,0,0,0,0,0
2069079999,-0.027663331,-0.56282943,-2.1433585,0.0,-0.45640558,0.2501719,0.12124953,0.8452257,0.0,0.0,-0.69192505,1,0,0,0,0,0
2069175999,-0.025975855,-0.56439835,-2.1433475,0.0,-0.45650813,0.25044623,0.122327134,0.84493375,0.0,0.0,-0.69386494,1,0,0,0,0,0
2069288000,-0.026127819,-0.5621397,-2.143326,0.0,-0.45666078,0.24952914,0.12174279,0.8452069,0.0,0.0,-0.69108236,1,0,0,0,0,0
2069384000,-0.027693989,-0.56448275,-2.143343,0.0,-0.45628864,0.2508735,0.121621326,0.8450275,0.0,0.0,-0.6928043,1,0,0,0,0,0
2069480000,-0.028500866,-0.57182854,-2.1433508,0.0,-0.4556472,0.25414628,0.12297971,0.8441986,0.0,0.0,-0.6950944,1,0,0,0,0,0
2069592000,-0.02784751,-0.57207686,-2.1433687,0.0,-0.45570445,0.2541029,0.12331067,0.8441325,0.0,0.0,-0.6967345,1,0,0,0,0,0
2069684000,-0.026924575,-0.56732893,-2.1433723,0.0,-0.45616642,0.2518969,0.12260144,0.84464735,0.0,0.0,-0.69538677,1,0,0,0,0,0
2069796000,-0.029943338,-0.5707083,-2.1433973,0.0,-0.45552677,0.25400698,0.122105606,0.84443235,0.0,0.0,-0.69630337,1,0,0,0,0,0
2069887999,-0.029899456,-0.56792957,-2.143415,0.0,-0.4557291,0.2528302,0.12147864,0.84476674,0.0,0.0,-0.6947764,1,0,0,0,0,0
2069983999,-0.030003335,-0.5771261,-2.143449,0.0,-0.4550222,0.2567193,0.123558514,0.8436725,0.0,0.0,-0.6978344,1,0,0,0,0,0
2070096000,-0.029576818,-0.57094395,-2.143478,0.0,-0.455522,0.2540275,0.12230467,0.8444,0.0,0.0,-0.6938437,1,0,0,0,0,0
2070192000,-0.029793503,-0.5696714,-2.14352,0.0,-0.45557025,0.2535446,0.1219133,0.84457564,0.0,0.0,-0.69546115,1,0,0,0,0,0
2070288000,-0.030434849,-0.5687344,-2.1435435,0.0,-0.455548,0.2532983,0.121422604,0.8447322,0.0,0.0,-0.6976839,1,0,0,0,0,0
2070384000,-0.030801397,-0.5698067,-2.1435728,0.0,-0.45541015,0.25383425,0.121512316,0.84463274,0.0,0.0,-0.69697267,1,0,0,0,0,0
2070496000,-0.029380567,-0.57216823,-2.1435912,0.0,-0.455409,0.25450414,0.1226564,0.8442664,0.0,0.0,-0.69612324,1,0,0,0,0,0
2070592000,-0.030062981,-0.5808451,-2.1436214,0.0,-0.45466426,0.25830433,0.124370955,0.8432622,0.0,0.0,-0.6986611,1,0,0,0,0,0
2070704000,-0.030556072,-0.5794536,-2.1436465,0.0,-0.45469424,0.25783414,0.12383817,0.84346837,0.0,0.0,-0.6991254,1,0,0,0,0,0
2070796000,-0.031581152,-0.57388717,-2.1436832,0.0,-0.4549621,0.25573266,0.122113466,0.84421474,0.0,0.0,-0.6978392,1,0,0,0,0,0
2070907999,-0.030998299,-0.5741614,-2.1437078,0.0,-0.45500588,0.25571674,0.12241981,0.8441516,0.0,0.0,-0.69739133,1,0,0,0,0,0
2071000000,-0.032495476,-0.57368076,-2.1437614,0.0,-0.4548275,0.25585872,0.121669754,0.84431314,0.0,0.0,-0.69620514,1,0,0,0,0,0
2071096000,-0.03188249,-0.5749972,-2.1437957,0.0,-0.4547934,0.2562742,0.12222869,0.8441248,0.0,0.0,-0.69673234,1,0,0,0,0,0
2071192000,-0.032787543,-0.5761083,-2.1438386,0.0,-0.4545762,0.2569491,0.122098334,0.8440555,0.0,0.0,-0.6963732,1,0,0,0,0,0
2071308000,-0.03330836,-0.5790986,-2.1438751,0.0,-0.45426923,0.25832465,0.12256564,0.8437331,0.0,0.0,-0.6985269,1,0,0,0,0,0
2071404000,-0.031317085,-0.57577425,-2.1439123,0.0,-0.4547588,0.25647905,0.12263213,0.8440227,0.0,0.0,-0.7007549,1,0,0,0,0,0
2071516000,-0.029715236,-0.57539535,-2.1439257,0.0,-0.4549865,0.25595644,0.12321881,0.84397316,0.0,0.0,-0.70127565,1,0,0,0,0,0
2071608000,-0.030862283,-0.57353306,-2.14396,0.0,-0.4549634,0.2554373,0.12229962,0.84427655,0.0,0.0,-0.69950616,1,0,0,0,0,0
2071704000,-0.031275954,-0.5824718,-2.1439745,0.0,-0.4542364,0.25928435,0.12418977,0.84321874,0.0,0.0,-0.70146036,1,0,0,0,0,0
2071816000,-0.030542038,-0.5849126,-2.1439917,0.0,-0.45414063,0.26014242,0.12506074,0.8428772,0.0,0.0,-0.7010906,1,0,0,0,0,0
2071907999,-0.029984167,-0.57835615,-2.1439857,0.0,-0.4547066,0.25726447,0.12378202,0.84364384,0.0,0.0,-0.7022049,1,0,0,0,0,0
2072020000,-0.03197414,-0.57739604,-2.1440067,0.0,-0.4545135,0.25731507,0.12271781,0.8438879,0.0,0.0,-0.7022938,1,0,0,0,0,0
2072116000,-0.033138465,-0.57845557,-2.1440177,0.0,-0.45427945,0.25802496,0.1224702,0.8438332,0.0,0.0,-0.70115227,1,0,0,0,0,0
2072212000,-0.03377086,-0.5789733,-2.1440525,0.0,-0.4541441,0.25838798,0.122318655,0.8438169,0.0,0.0,-0.7016524,1,0,0,0,0,0
2072308000,-0.0326081,-0.5792837,-2.144074,0.0,-0.45426184,0.2582555,0.1228782,0.84371275,0.0,0.0,-0.7030878,1,0,0,0,0,0
2072424000,-0.03308968,-0.5825928,-2.1441066,0.0,-0.45393622,0.25975505,0.12343585,0.84334624,0.0,0.0,-0.7030011,1,0,0,0,0,0
2072516000,-0.03289712,-0.5808192,-2.144117,0.0,-0.45409068,0.25896806,0.12310572,0.84355325,0.0,0.0,-0.70125234,1,0,0,0,0,0
2072608000,-0.034547605,-0.57797956,-2.1441545,0.0,-0.4540756,0.2581536,0.12174783,0.84400797,0.0,0.0,-0.6997533,1,0,0,0,0,0
2072720000,-0.0341915,-0.5762266,-2.1441808,0.0,-0.4542424,0.25733855,0.121489145,0.8442045,0.0,0.0,-0.70109516,1,0,0,0,0,0
2072816000,-0.033859864,-0.5821909,-2.1442096,0.0,-0.45382318,0.25976762,0.12300478,0.84346616,0.0,0.0,-0.7042049,1,0,0,0,0,0
2072927999,-0.032903124,-0.5759205,-2.1442232,0.0,-0.45441312,0.25691998,0.12195669,0.8441726,0.0,0.0,-0.7008127,1,0,0,0,0,0
2073023999,-0.032847703,-0.58354163,-2.1442468,0.0,-0.4538367,0.26010674,0.123738945,0.84324694,0.0,0.0,-0.70352286,1,0,0,0,0,0
2073116000,-0.03310099,-0.5820725,-2.14425,0.0,-0.45391363,0.25954822,0.12329221,0.84344304,0.0,0.0,-0.7026467,1,0,0,0,0,0
2073231999,-0.033950575,-0.57813907,-2.1442556,0.0,-0.454098,0.25809115,0.122023635,0.84397525,0.0,0.0,-0.6997968,1,0,0,0,0,0
2073327999,-0.03301105,-0.5776533,-2.144239,0.0,-0.45426267,0.25767288,0.12230989,0.843973,0.0,0.0,-0.7011841,1,0,0,0,0,0
2073424000,-0.033603843,-0.5835892,-2.1442447,0.0,-0.45373568,0.26029807,0.123431385,0.84328735,0.0,0.0,-0.7049308,1,0,0,0,0,0
2073516000,-0.03484881,-0.58123064,-2.1442373,0.0,-0.45375583,0.25959098,0.12236204,0.8436502,0.0,0.0,-0.7023639,1,0,0,0,0,0
2073628000,-0.03475822,-0.5827314,-2.1442404,0.0,-0.45365238,0.2602,0.12274687,0.84346235,0.0,0.0,-0.7019816,1,0,0,0,0,0
2073720000,-0.033704042,-0.5794709,-2.144233,0.0,-0.45403907,0.2585926,0.12243856,0.84379333,0.0,0.0,-0.7005586,1,0,0,0,0,0
2073831999,-0.034401383,-0.57978296,-2.144226,0.0,-0.45392817,0.25888145,0.12221745,0.84379643,0.0,0.0,-0.7006129,1,0,0,0,0,0
2073927999,-0.034024555,-0.5861284,-2.1442077,0.0,-0.45350334,0.26145577,0.12384563,0.84299344,0.0,0.0,-0.7046029,1,0,0,0,0,0
2074039999,-0.033147257,-0.57955307,-2.1442077,0.0,-0.45411548,0.25849915,0.12269572,0.8437435,0.0,0.0,-0.7004444,1,0,0,0,0,0
2074135999,-0.033704266,-0.58004504,-2.144191,0.0,-0.45401335,0.258831,0.12257668,0.843714,0.0,0.0,-0.7018309,1,0,0,0,0,0
2074231999,-0.03352925,-0.57850516,-2.144197,0.0,-0.45414954,0.25814548,0.12229363,0.8438918,0.0,0.0,-0.7029394,1,0,0,0,0,0
2074327999,-0.03316873,-0.58192337,-2.1441855,0.0,-0.45394328,0.25949708,0.12323752,0.84345084,0.0,0.0,-0.7012624,1,0,0,0,0,0
2074440000,-0.034840792,-0.5798794,-2.144192,0.0,-0.4538784,0.25901952,0.12205876,0.8438039,0.0,0.0,-0.70195067,1,0,0,0,0,0
2074536000,-0.03538747,-0.5855353,-2.1441936,0.0,-0.45337635,0.26151532,0.12313589,0.8431472,0.0,0.0,-0.7049346,1,0,0,0,0,0
2074628000,-0.035033915,-0.5822577,-2.1441953,0.0,-0.45367151,0.2600611,0.12252691,0.84352684,0.0,0.0,-0.70358634,1,0,0,0,0,0
2074740000,-0.032818723,-0.5831615,-2.1441731,0.0,-0.45390028,0.2599362,0.12367291,0.84327495,0.0,0.0,-0.703848,1,0,0,0,0,0
2074831999,-0.033749253,-0.57999337,-2.1441376,0.0,-0.45403403,0.2588163,0.122552656,0.8437109,0.0,0.0,-0.7015408,1,0,0,0,0,0
2074943999,-0.033338834,-0.582386,-2.144078,0.0,-0.4539315,0.2597231,0.12328669,0.8433804,0.0,0.0,-0.7023064,1,0,0,0,0,0
2075039999,-0.032912634,-0.5808211,-2.1440456,0.0,-0.45411867,0.25896797,0.12310888,0.8435378,0.0,0.0,-0.70195585,1,0,0,0,0,0
2075135999,-0.032419644,-0.5795271,-2.1440008,0.0,-0.45429876,0.2583103,0.1230234,0.84365493,0.0,0.0,-0.7041976,1,0,0,0,0,0
2075251999,-0.033910032,-0.587262,-2.1439872,0.0,-0.45352474,0.2618912,0.12418468,0.8427968,0.0,0.0,-0.70365125,1,0,0,0,0,0
2075347999,-0.034858346,-0.5889058,-2.1439795,0.0,-0.4532778,0.2627944,0.124165945,0.8426513,0.0,0.0,-0.7035516,1,0,0,0,0,0
2075440000,-0.034346037,-0.58531475,-2.1439686,0.0,-0.4536241,0.26117286,0.12355334,0.843059,0.0,0.0,-0.7015449,1,0,0,0,0,0
2075552000,-0.033128623,-0.58482724,-2.1439326,0.0,-0.4538352,0.26069006,0.12395849,0.84303534,0.0,0.0,-0.7034437,1,0,0,0,0,0
2075648000,-0.034349427,-0.5911424,-2.1439042,0.0,-0.45320466,0.2636112,0.124906994,0.84232587,0.0,0.0,-0.7058088,1,0,0,0,0,0
2075740000,-0.03358921,-0.5868457,-2.1438642,0.0,-0.4536503,0.26163635,0.12423979,0.84280026,0.0,0.0,-0.70441633,1,0,0,0,0,0
2075852000,-0.03523402,-0.586673,-2.1438484,0.0,-0.4534549,0.26193604,0.123508774,0.84291977,0.0,0.0,-0.7038138,1,0,0,0,0,0
2075943999,-0.033882804,-0.58395743,-2.143837,0.0,-0.4538433,0.26049066,0.123452,0.84316695,0.0,0.0,-0.7021599,1,0,0,0,0,0
2076059999,-0.03356921,-0.58790874,-2.1438193,0.0,-0.45359075,0.2620745,0.12449973,0.8426578,0.0,0.0,-0.70400184,1,0,0,0,0,0
2076155999,-0.034290817,-0.5888003,-2.1437938,0.0,-0.45343864,0.26261005,0.12440509,0.84258693,0.0,0.0,-0.7055771,1,0,0,0,0,0
2076251999,-0.034087956,-0.58943635,-2.1437745,0.0,-0.45342466,0.2628293,0.12464007,0.8424913,0.0,0.0,-0.7047991,1,0,0,0,0,0
2076347999,-0.03479564,-0.58981794,-2.143751,0.0,-0.45331234,0.2631481,0.12443322,0.8424829,0.0,0.0,-0.7054623,1,0,0,0,0,0
2076460000,-0.03386911,-0.5895809,-2.1437225,0.0,-0.45346424,0.262837,0.124772474,0.842448,0.0,0.0,-0.7044057,1,0,0,0,0,0
2076552000,-0.035327453,-0.5862383,-2.1436925,0.0,-0.45354167,0.26176545,0.1233893,0.8429436,0.0,0.0,-0.7027498,1,0,0,0,0,0
2076664000,-0.035006575,-0.5845459,-2.1436677,0.0,-0.45372334,0.26098186,0.12313637,0.84312576,0.0,0.0,-0.7034231,1,0,0,0,0,0
2076760000,-0.034483306,-0.5921828,-2.1436415,0.0,-0.4532176,0.26406077,0.12512563,0.8421457,0.0,0.0,-0.7070222,1,0,0,0,0,0
2076872000,-0.03336042,-0.59300166,-2.1435864,0.0,-0.45332614,0.26414564,0.12579481,0.8419609,0.0,0.0,-0.7066049,1,0,0,0,0,0
2076963999,-0.034033645,-0.5898539,-2.1435323,0.0,-0.45350185,0.26297674,0.12479123,0.8423814,0.0,0.0,-0.70558727,1,0,0,0,0,0
2077059999,-0.03388616,-0.5920349,-2.1434832,0.0,-0.45337448,0.26385358,0.12536378,0.8420907,0.0,0.0,-0.70385426,1,0,0,0,0,0
2077155999,-0.035075385,-0.59338146,-2.1434388,0.0,-0.45313212,0.26468396,0.12518007,0.8419879,0.0,0.0,-0.70429575,1,0,0,0,0,0
2077271999,-0.03483426,-0.5947228,-2.1434135,0.0,-0.453071,0.26518914,0.12559484,0.84180003,0.0,0.0,-0.7065437,1,0,0,0,0,0
2077367999,-0.034745198,-0.593698,-2.1434007,0.0,-0.45316744,0.2647393,0.12539726,0.8419192,0.0,0.0,-0.708215,1,0,0,0,0,0
2077460000,-0.03531455,-0.5912726,-2.1433742,0.0,-0.45329064,0.2638514,0.12460054,0.8422499,0.0,0.0,-0.705916,1,0,0,0,0,0
2077572000,-0.032973144,-0.5914033,-2.1433325,0.0,-0.45360672,0.26337263,0.12562214,0.84207773,0.0,0.0,-0.70470154,1,0,0,0,0,0
2077664000,-0.032022476,-0.60142726,-2.1432765,0.0,-0.4529833,0.26734784,0.12834343,0.8407492,0.0,0.0,-0.7088275,1,0,0,0,0,0
2077776000,-0.032578025,-0.60182446,-2.143185,0.0,-0.45291662,0.26763386,0.12821376,0.8407139,0.0,0.0,-0.70445323,1,0,0,0,0,0
2077867999,-0.034476575,-0.5937697,-2.1431227,0.0,-0.45331454,0.26469097,0.1255637,0.84183043,0.0,0.0,-0.70425534,1,0,0,0,0,0
2077963999,-0.034522083,-0.5901935,-2.1430802,0.0,-0.45360193,0.26320156,0.124723524,0.84226733,0.0,0.0,-0.7052449,1,0,0,0,0,0
2078079999,-0.03483057,-0.59203005,-2.1430783,0.0,-0.45342064,0.26404026,0.12501843,0.84205866,0.0,0.0,-0.70731556,1,0,0,0,0,0
2078175999,-0.034181092,-0.5938758,-2.1430907,0.0,-0.45335883,0.26466638,0.1257168,0.8417914,0.0,0.0,-0.7084974,1,0,0,0,0,0
2078271999,-0.033062648,-0.59570944,-2.1430926,0.0,-0.45336464,0.26518026,0.12661077,0.84149253,0.0,0.0,-0.70774895,1,0,0,0,0,0
2078367999,-0.032545418,-0.59834826,-2.1430874,0.0,-0.4532316,0.26616666,0.12743834,0.84112775,0.0,0.0,-0.70701885,1,0,0,0,0,0
2078480000,-0.034622718,-0.59837484,-2.1430721,0.0,-0.45295927,0.26664737,0.12657279,0.84125286,0.0,0.0,-0.7074192,1,0,0,0,0,0
2078572000,-0.034789983,-0.5945548,-2.1430664,0.0,-0.45323595,0.26508698,0.12562068,0.84173954,0.0,0.0,-0.7054866,1,0,0,0,0,0
2078684000,-0.033172157,-0.59256876,-2.1430464,0.0,-0.4536115,0.26388773,0.12584534,0.8418805,0.0,0.0,-0.70616204,1,0,0,0,0,0
2078776000,-0.033907976,-0.5893357,-2.1430252,0.0,-0.45377165,0.26269957,0.124791026,0.84232265,0.0,0.0,-0.70401317,1,0,0,0,0,0
2078884000,-0.03329639,-0.6020008,-2.143021,0.0,-0.4528756,0.26785973,0.1279744,0.84070057,0.0,0.0,-0.7081521,1,0,0,0,0,0
2078980000,-0.032869678,-0.6093034,-2.1430159,0.0,-0.45236334,0.27081352,0.1298387,0.8397436,0.0,0.0,-0.70788425,1,0,0,0,0,0
2079092000,-0.034539897,-0.6056537,-2.1430173,0.0,-0.45242408,0.2696673,0.12829529,0.8403168,0.0,0.0,-0.7053634,1,0,0,0,0,0
2079184000,-0.035819713,-0.59551746,-2.1429882,0.0,-0.45305753,0.26571816,0.12542018,0.8416665,0.0,0.0,-0.7080735,1,0,0,0,0,0
2079276000,-0.034659367,-0.5899723,-2.142933,0.0,-0.4536629,0.26313087,0.12463392,0.8422699,0.0,0.0,-0.7052232,1,0,0,0,0,0
2079387999,-0.03318906,-0.59360147,-2.1428764,0.0,-0.45360142,0.26431313,0.12609929,0.8417145,0.0,0.0,-0.7041869,1,0,0,0,0,0
2079483999,-0.032675587,-0.6026072,-2.1428442,0.0,-0.45298585,0.2679613,0.128399,0.840544,0.0,0.0,-0.7073169,1,0,0,0,0,0
2079579999,-0.0320158,-0.60318494,-2.142781,0.0,-0.45305583,0.26804927,0.12881804,0.84041417,0.0,0.0,-0.7102095,1,0,0,0,0,0
2079692000,-0.031424507,-0.5982914,-2.1426935,0.0,-0.45355088,0.2658636,0.12794895,0.84097403,0.0,0.0,-0.70566934,1,0,0,0,0,0
2079788000,-0.0318014,-0.6017488,-2.1426015,0.0,-0.45327157,0.26738885,0.12860078,0.8405414,0.0,0.0,-0.7071644,1,0,0,0,0,0
2079884000,-0.032342356,-0.6024345,-2.1425288,0.0,-0.45317644,0.2677934,0.12854142,0.840473,0.0,0.0,-0.7068933,1,0,0,0,0,0
2079996000,-0.032040723,-0.60112554,-2.1424434,0.0,-0.45335445,0.2671724,0.12837748,0.8405997,0.0,0.0,-0.7087353,1,0,0,0,0,0
2080092000,-0.031882387,-0.6091945,-2.1423917,0.0,-0.45276758,0.27050403,0.13031252,0.83955216,0.0,0.0,-0.7111367,1,0,0,0,0,0
2080204000,-0.03289106,-0.6101526,-2.1423826,0.0,-0.45255938,0.2711317,0.13011132,0.8394931,0.0,0.0,-0.7113071,1,0,0,0,0,0
2080296000,-0.033843406,-0.6073706,-2.142416,0.0,-0.4526357,0.270188,0.12906514,0.8399176,0.0,0.0,-0.71052784,1,0,0,0,0,0
2080387999,-0.03332872,-0.6030228,-2.1424358,0.0,-0.45303753,0.26825666,0.12827519,0.8404409,0.0,0.0,-0.7098239,1,0,0,0,0,0
2080500000,-0.03177993,-0.60268855,-2.1424577,0.0,-0.4532619,0.26776752,0.12884592,0.84038854,0.0,0.0,-0.71030945,1,0,0,0,0,0
2080596000,-0.031800177,-0.6032875,-2.142464,0.0,-0.45320997,0.26802278,0.12897478,0.84031546,0.0,0.0,-0.71064746,1,0,0,0,0,0
2080692000,-0.03398847,-0.6049503,-2.1424816,0.0,-0.4527788,0.2692143,0.1284368,0.8402494,0.0,0.0,-0.7095864,1,0,0,0,0,0
2080788000,-0.034345943,-0.60565114,-2.1425176,0.0,-0.45266044,0.26959026,0.12844354,0.8401916,0.0,0.0,-0.709968,1,0,0,0,0,0
2080904000,-0.03553541,-0.6090548,-2.1425881,0.0,-0.45220128,0.2712849,0.12871996,0.83985096,0.0,0.0,-0.71237975,1,0,0,0,0,0
2080996000,-0.033439945,-0.60457253,-2.1426396,0.0,-0.45281574,0.26894248,0.12855877,0.8402979,0.0,0.0,-0.7099303,1,0,0,0,0,0
2081108000,-0.03363254,-0.6036434,-2.1426933,0.0,-0.4528401,0.26860136,0.12825622,0.8404401,0.0,0.0,-0.71098673,1,0,0,0,0,0
2081204000,-0.034309614,-0.6107666,-2.1427352,0.0,-0.4521704,0.2717317,0.12960957,0.8395863,0.0,0.0,-0.71499825,1,0,0,0,0,0
2081296000,-0.033843845,-0.6084932,-2.1428018,0.0,-0.45238522,0.27068174,0.12927182,0.83986175,0.0,0.0,-0.7122524,1,0,0,0,0,0
2081407999,-0.033112895,-0.6109087,-2.14287,0.0,-0.4522652,0.27152917,0.13012639,0.8395209,0.0,0.0,-0.71185964,1,0,0,0,0,0
2081503999,-0.033188153,-0.6104284,-2.1429296,0.0,-0.45226783,0.27134955,0.12997597,0.8396008,0.0,0.0,-0.7117763,1,0,0,0,0,0
2081616000,-0.033542406,-0.60867214,-2.1429791,0.0,-0.45233738,0.2706997,0.12941562,0.8398596,0.0,0.0,-0.7122946,1,0,0,0,0,0
2081712000,-0.033470716,-0.6093878,-2.1430345,0.0,-0.45226747,0.2709859,0.12960327,0.839776,0.0,0.0,-0.71391743,1,0,0,0,0,0
2081808000,-0.033232495,-0.60911906,-2.143108,0.0,-0.45229012,0.27082455,0.12963134,0.83981156,0.0,0.0,-0.71283597,1,0,0,0,0,0
2081904000,-0.033765607,-0.61028516,-2.1432042,0.0,-0.45208544,0.27143815,0.12966327,0.8397187,0.0,0.0,-0.7131854,1,0,0,0,0,0
2082016000,-0.034752134,-0.61177945,-2.1433303,0.0,-0.45178008,0.27229294,0.12957637,0.8396197,0.0,0.0,-0.7125394,1,0,0,0,0,0
2082108000,-0.03344734,-0.60821766,-2.1434505,0.0,-0.45218807,0.2705189,0.12928699,0.8400181,0.0,0.0,-0.7110629,1,0,0,0,0,0
2082224000,-0.03307279,-0.60880053,-2.1434627,0.0,-0.45218787,0.27067843,0.12957698,0.83992213,0.0,0.0,-0.713661,1,0,0,0,0,0
2082320000,-0.031695273,-0.60763377,-2.1434593,0.0,-0.45246688,0.26987937,0.12988713,0.8399811,0.0,0.0,-0.71533036,1,0,0,0,0,0
2082412000,-0.028946409,-0.58873576,-2.143483,0.0,-0.4542745,0.26135072,0.12668194,0.8421889,0.0,0.0,-0.7064297,1,0,0,0,0,0
2082523999,-0.035766587,-0.5481931,-2.143558,0.0,-0.45637444,0.24586946,0.11439993,0.8474569,0.0,0.0,-0.6984393,1,0,0,0,0,0
2082619999,-0.04343233,-0.50171447,-2.1436915,0.0,-0.4586847,0.22798485,0.10028291,0.85297984,0.0,0.0,-0.6931165,1,0,0,0,0,0
2082712000,-0.04325137,-0.4550587,-2.1438544,0.0,-0.46170977,0.20811225,0.0893963,0.8576256,0.0,0.0,-0.6891471,1,0,0,0,0,0
2082827999,-0.03433637,-0.42426777,-2.1437986,0.0,-0.46448925,0.19288556,0.08598571,0.8600298,0.0,0.0,-0.67472386,1,0,0,0,0,0
2082920000,-0.028072407,-0.40754202,-2.143431,0.0,-0.46617627,0.18424128,0.08477681,0.86113167,0.0,0.0,-0.66352534,1,0,0,0,0,0
2083016000,-0.022292843,-0.38397264,-2.142749,0.0,-0.46822274,0.17273325,0.08177123,0.8626959,0.0,0.0,-0.6582315,1,0,0,0,0,0
2083128000,-0.015999613,-0.3525264,-2.1415117,0.0,-0.47078606,0.15765357,0.07716023,0.86461097,0.0,0.0,-0.6506681,1,0,0,0,0,0
2083220000,-0.011495414,-0.32614502,-2.1402287,0.0,-0.47282907,0.14514309,0.07295564,0.8660506,0.0,0.0,-0.6451899,1,0,0,0,0,0
2083331999,-0.005122918,-0.2990905,-2.1385689,0.0,-0.4750499,0.1318588,0.06940527,0.8672507,0.0,0.0,-0.6383773,1,0,0,0,0,0
2083424000,-0.0049606985,-0.28527352,-2.1370807,0.0,-0.4762048,0.125779,0.066281185,0.8677646,0.0,0.0,-0.63275975,1,0,0,0,0,0
2083520000,-0.0060032206,-0.27229258,-2.1355982,0.0,-0.4772339,0.12034829,0.06282146,0.86822665,0.0,0.0,-0.6267004,1,0,0,0,0,0
2083616000,-0.00933256,-0.2562712,-2.1341329,0.0,-0.4782109,0.114145525,0.057627544,0.86888677,0.0,0.0,-0.6242028,1,0,0,0,0,0
2083731999,-0.008723266,-0.23563737,-2.1324224,0.0,-0.4796394,0.1049901,0.05303496,0.8695461,0.0,0.0,-0.6178476,1,0,0,0,0,0
2083827999,-0.01132495,-0.2231261,-2.130591,0.0,-0.48067608,0.10013113,0.048987612,0.8697842,0.0,0.0,-0.61416245,1,0,0,0,0,0
2083924000,-0.01109769,-0.20738386,-2.1287053,0.0,-0.48195532,0.09318932,0.045380786,0.87004334,0.0,0.0,-0.61060107,1,0,0,0,0,0
2084036000,-0.009496274,-0.19146809,-2.1258569,0.0,-0.48368648,0.08582067,0.042355493,0.8699932,0.0,0.0,-0.60681725,1,0,0,0,0,0
2084128000,-0.009154976,-0.1819531,-2.1230652,0.0,-0.48515013,0.08154406,0.040312503,0.8696866,0.0,0.0,-0.60314876,1,0,0,0,0,0
2084240000,-0.010606798,-0.16833211,-2.1194038,0.0,-0.4870049,0.07590765,0.03650987,0.869328,0.0,0.0,-0.600437,1,0,0,0,0,0
2084331999,-0.012356121,-0.16232014,-2.1158776,0.0,-0.48860827,0.073660925,0.034412798,0.868707,0.0,0.0,-0.5993128,1,0,0,0,0,0
2084443999,-0.0138286855,-0.15022837,-2.1112685,0.0,-0.49082342,0.06869922,0.030971339,0.867994,0.0,0.0,-0.5953211,1,0,0,0,0,0
2084539999,-0.011870124,-0.14021309,-2.1223729,0.0,-0.48626697,0.06403546,0.029003767,0.87097806,0.0,0.0,-0.59434426,1,0,0,0,0,0
2084635999,-0.010756239,-0.1281159,-2.0909576,0.0,0.5001541,-0.058073502,-0.027458455,-0.86355054,0.0,0.0,-0.59269035,1,0,0,0,0,0
2084731999,0.0053689876,-0.10635724,-2.0155594,0.0,0.5331038,-0.043518286,-0.030636983,-0.8443743,0.0,0.0,-0.58777344,1,0,0,0,0,0
2084847999,0.057542376,-0.07230598,-1.9244533,0.0,0.5719376,-0.013208267,-0.04424253,-0.81899667,0.0,0.0,-0.5868777,1,0,0,0,0,0
2084940000,0.11707572,-0.054274153,-1.8521959,0.0,0.600976,0.013495385,-0.06302256,-0.7966642,0.0,0.0,-0.5870685,1,0,0,0,0,0
2085036000,0.19112708,-0.038865734,-1.7767977,0.0,0.62909836,0.04515324,-0.08623526,-0.77120686,0.0,0.0,-0.58710015,1,0,0,0,0,0
2085148000,0.25859517,-0.040934343,-1.6888331,0.0,0.6604583,0.070446104,-0.10985071,-0.73943555,0.0,0.0,-0.5868842,1,0,0,0,0,0
2085240000,0.2997815,-0.051922847,-1.6165766,0.0,0.6855651,0.08455282,-0.12567455,-0.7120796,0.0,0.0,-0.58863384,1,0,0,0,0,0
2085352000,0.31329444,-0.069920994,-1.5286119,0.0,0.71636224,0.08865428,-0.13281937,-0.6792089,0.0,0.0,-0.5827894,1,0,0,0,0,0
2085443999,0.23672302,-0.075311795,-1.456356,0.0,0.7435992,0.06319583,-0.10643404,-0.65706795,0.0,0.0,-0.5772468,1,0,0,0,0,0
2085539999,0.17850901,-0.07308028,-1.3809578,0.0,0.76943374,0.045497913,-0.08478534,-0.6314373,0.0,0.0,-0.58584446,1,0,0,0,0,0
2085655999,0.14717373,-0.07578609,-1.2898517,0.0,0.79808384,0.03599938,-0.074357145,-0.5968562,0.0,0.0,-0.58436465,1,0,0,0,0,0
2085751999,0.14885443,-0.0850238,-1.2144535,0.0,0.82002336,0.036828022,-0.07719511,-0.5659031,0.0,0.0,-0.5817897,1,0,0,0,0,0
2085847999,0.14929405,-0.09519992,-1.1390553,0.0,0.84077287,0.03714853,-0.08012917,-0.5341351,0.0,0.0,-0.58057237,1,0,0,0,0,0
2085940000,0.14305325,-0.10475913,-1.0667979,0.0,0.85960656,0.03490069,-0.08125511,-0.50324553,0.0,0.0,-0.5814235,1,0,0,0,0,0
2086052000,0.1382013,-0.11532947,-0.97883326,0.0,0.88090813,0.03380977,-0.08315089,-0.4646975,0.0,0.0,-0.5807208,1,0,0,0,0,0
2086148000,0.13794656,-0.12593691,-0.903435,0.0,0.8976737,0.034480117,-0.08650473,-0.43070865,0.0,0.0,-0.5810756,1,0,0,0,0,0
2086260000,0.14105709,-0.15132831,-0.81547034,0.0,0.91523117,0.034607884,-0.09708616,-0.3895234,0.0,0.0,-0.58454883,1,0,0,0,0,0
2086352000,0.13125397,-0.16237389,-0.74321365,0.0,0.9286081,0.031518202,-0.09913429,-0.35618255,0.0,0.0,-0.5838942,1,0,0,0,0,0
2086463999,0.12572853,-0.18249878,-0.6552498,0.0,0.94284993,0.029968858,-0.10623749,-0.31440327,0.0,0.0,-0.58656293,1,0,0,0,0,0
2086559999,0.12391977,-0.2074188,-0.5798515,0.0,0.95312,0.029478565,-0.1166194,-0.2776567,0.0,0.0,-0.58946157,1,0,0,0,0,0
2086655999,0.107053235,-0.21452343,-0.50445324,0.0,0.96284443,0.024831746,-0.11679537,-0.24222474,0.0,0.0,-0.5884617,1,0,0,0,0,0
2086751999,0.09716827,-0.24055439,-0.429055,0.0,0.97011405,0.02159548,-0.12736271,-0.2054048,0.0,0.0,-0.5915772,1,0,0,0,0,0
2086867999,0.08156485,-0.26573104,-0.3379488,0.0,0.9771655,0.017576247,-0.13727574,-0.16122644,0.0,0.0,-0.5925192,1,0,0,0,0,0
2086960000,0.061544318,-0.26299345,-0.26569137,0.0,0.98270094,0.012873868,-0.13394141,-0.127251,0.0,0.0,-0.5922186,1,0,0,0,0,0
2087072000,0.04409683,-0.3121462,-0.17772675,0.0,0.9840125,0.007901306,-0.15672207,-0.08423305,0.0,0.0,-0.596739,1,0,0,0,0,0
2087164000,0.022661988,-0.3015082,-0.1054701,0.0,0.98731005,0.0032708985,-0.15055577,-0.0504101,0.0,0.0,-0.59469944,1,0,0,0,0,0
2087260000,0.002159947,-0.32582673,-0.030071875,0.0,0.9866495,-0.0013730879,-0.16219126,-0.014661133,0.0,0.0,-0.6017868,1,0,0,0,0,0
2087372000,-0.027488977,-0.35125944,0.057892725,0.0,0.9841808,-0.008470396,-0.17503017,0.026093932,0.0,0.0,-0.6093419,1,0,0,0,0,0
2087463999,-0.034766596,-0.3671141,0.067035265,0.0,0.9826063,-0.010964974,-0.18297066,0.029772414,0.0,0.0,-0.6092307,1,0,0,0,0,0
2087559999,-0.034486447,-0.3795232,0.070272684,0.0,0.98141146,-0.010297168,-0.18907514,0.031243058,0.0,0.0,-0.6095672,1,0,0,0,0,0
2087675999,-0.036260128,-0.4071262,0.07413688,0.0,0.9786547,-0.010251739,-0.20264603,0.032626335,0.0,0.0,-0.62099564,1,0,0,0,0,0
2087771999,-0.038085975,-0.41971323,0.0777123,0.0,0.97729945,-0.010519018,-0.20884816,0.03402343,0.0,0.0,-0.62453187,1,0,0,0,0,0
2087867999,-0.040466625,-0.4327648,0.08140447,0.0,0.9758487,-0.011009288,-0.2152801,0.03539382,0.0,0.0,-0.6227137,1,0,0,0,0,0
2087980000,-0.040901273,-0.42903,0.08611587,0.0,0.97615737,-0.010800846,-0.21349187,0.03770018,0.0,0.0,-0.62304693,1,0,0,0,0,0
2088072000,-0.04524912,-0.4488602,0.09026959,0.0,0.97390616,-0.0119940145,-0.22326235,0.03894711,0.0,0.0,-0.62963915,1,0,0,0,0,0
2088184000,-0.04707206,-0.46687055,0.095710374,0.0,0.97175497,-0.011806728,-0.2320874,0.041088935,0.0,0.0,-0.6353999,1,0,0,0,0,0
2088276000,-0.053199034,-0.48412448,0.10070964,0.0,0.96959305,-0.013727306,-0.24061638,0.042481598,0.0,0.0,-0.6412729,1,0,0,0,0,0
2088372000,-0.056109093,-0.50658864,0.10590014,0.0,0.9667269,-0.013860188,-0.2515821,0.044196893,0.0,0.0,-0.64550793,1,0,0,0,0,0
2088483999,-0.06123469,-0.5161001,0.1130876,0.0,0.9653332,-0.015136372,-0.25634113,0.046817154,0.0,0.0,-0.65192854,1,0,0,0,0,0
2088579999,-0.062535584,-0.5053913,0.12023226,0.0,0.9664901,-0.015201641,-0.2512599,0.050341453,0.0,0.0,-0.65489906,1,0,0,0,0,0
2088675999,-0.06818847,-0.5095852,0.128275,0.0,0.9657153,-0.016774256,-0.25349456,0.053414334,0.0,0.0,-0.6575665,1,0,0,0,0,0
2088771999,-0.069147065,-0.49049574,0.13777004,0.0,0.9677758,-0.016750937,-0.24438424,0.05835829,0.0,0.0,-0.6555595,1,0,0,0,0,0
2088884000,-0.07374812,-0.4766579,0.15184343,0.0,0.9689361,-0.017826311,-0.23795623,0.06497657,0.0,0.0,-0.65343946,1,0,0,0,0,0
2088980000,-0.076034285,-0.47579864,0.16446345,0.0,0.9685871,-0.01746964,-0.23772962,0.070841216,0.0,0.0,-0.65887004,1,0,0,0,0,0
2089092000,-0.08011274,-0.45451227,0.18376648,0.0,0.9702281,-0.018195376,-0.22775455,0.08033872,0.0,0.0,-0.65774214,1,0,0,0,0,0
2089184000,-0.088936314,-0.4495176,0.20459689,0.0,0.9698046,-0.020371716,-0.22591232,0.089597546,0.0,0.0,-0.6564465,1,0,0,0,0,0
2089296000,-0.108529285,-0.4576011,0.2349276,0.0,0.96724576,-0.025918957,-0.23110572,0.101754755,0.0,0.0,-0.6576134,1,0,0,0,0,0
2089387999,-0.12392784,-0.45487756,0.26930717,0.0,0.9654498,-0.029571105,-0.23111215,0.1167023,0.0,0.0,-0.65772647,1,0,0,0,0,0
2089483999,-0.14558692,-0.456011,0.31046584,0.0,0.9623989,-0.035140216,-0.23367941,0.13396826,0.0,0.0,-0.65807587,1,0,0,0,0,0
2089579999,-0.1374835,-0.4482895,0.29789868,0.0,0.96417755,-0.033320688,-0.22923054,0.12924685,0.0,0.0,-0.6559718,1,0,0,0,0,0
2089692000,-0.08828633,-0.45592636,0.20993328,0.0,0.9688684,-0.01909535,-0.22903499,0.09204598,0.0,0.0,-0.6567201,1,0,0,0,0,0
2089788000,-0.03589332,-0.4548346,0.13453503,0.0,0.97216403,-0.002291693,-0.22609113,0.061438613,0.0,0.0,-0.65541494,1,0,0,0,0,0
2089884000,0.013305972,-0.46485543,0.059136808,0.0,0.97261786,0.013280872,-0.23004346,0.030300258,0.0,0.0,-0.6570429,1,0,0,0,0,0
2089996000,0.021071708,-0.46660942,0.025587754,0.0,0.9727429,0.013207008,-0.23103108,0.014881811,0.0,0.0,-0.65828073,1,0,0,0,0,0
2090092000,0.012871786,-0.47124785,0.025782704,0.0,0.9722486,0.009266835,-0.2333448,0.014036865,0.0,0.0,-0.6594552,1,0,0,0,0,0
2090204000,0.001119689,-0.47396258,0.025815053,0.0,0.9719683,0.0035743597,-0.23474275,0.01267785,0.0,0.0,-0.6594533,1,0,0,0,0,0
2090296000,-0.0047886623,-0.47755265,0.02577808,0.0,0.97155195,0.00072213926,-0.23652351,0.011956725,0.0,0.0,-0.6613007,1,0,0,0,0,0
2090387999,-0.006100202,-0.46741048,0.025643606,0.0,0.9727396,2.2893166e-06,-0.23160157,0.011766548,0.0,0.0,-0.6590323,1,0,0,0,0,0
2090500000,-0.005425181,-0.46750826,0.025550451,0.0,0.9727288,0.00032044968,-0.23164512,0.011799135,0.0,0.0,-0.65900534,1,0,0,0,0,0
2090596000,-0.0075324723,-0.47516808,0.025393656,0.0,0.97183543,-0.0006719738,-0.23538105,0.011453419,0.0,0.0,-0.6592271,1,0,0,0,0,0
2090692000,-0.007481453,-0.46996424,0.025330193,0.0,0.9724448,-0.00068896636,-0.23285136,0.011445759,0.0,0.0,-0.6609472,1,0,0,0,0,0
2090788000,-0.008530783,-0.47526473,0.02521225,0.0,0.9718247,-0.0011777794,-0.2354336,0.011247435,0.0,0.0,-0.6626896,1,0,0,0,0,0
2090904000,-0.011108854,-0.48105565,0.025134105,0.0,0.97113734,-0.0024005354,-0.23826057,0.010881729,0.0,0.0,-0.66504055,1,0,0,0,0,0
2090996000,-0.011210548,-0.46974447,0.025017623,0.0,0.97246903,-0.002540008,-0.23276506,0.0108605195,0.0,0.0,-0.6618828,1,0,0,0,0,0
2091108000,-0.011580284,-0.47269624,0.025022388,0.0,0.97212416,-0.0026992827,-0.23420203,0.010807185,0.0,0.0,-0.6630526,1,0,0,0,0,0
2091204000,-0.014747099,-0.47532168,0.025000937,0.0,0.9718107,-0.0042228373,-0.23549464,0.010412648,0.0,0.0,-0.6631779,1,0,0,0,0,0
2091316000,-0.014444522,-0.4766466,0.025110377,0.0,0.97165465,-0.0040537165,-0.236137,0.010494844,0.0,0.0,-0.6635319,1,0,0,0,0,0
2091407999,-0.016045483,-0.47613615,0.02517676,0.0,0.9717109,-0.004827273,-0.23589751,0.010340814,0.0,0.0,-0.66471195,1,0,0,0,0,0
2091500000,-0.015713666,-0.48097444,0.025377218,0.0,0.97113764,-0.0046080905,-0.23824614,0.010451608,0.0,0.0,-0.6654058,1,0,0,0,0,0
2091616000,-0.016538082,-0.48466572,0.025652902,0.0,0.97069323,-0.0049489266,-0.24004298,0.010466785,0.0,0.0,-0.6677137,1,0,0,0,0,0
2091712000,-0.016636334,-0.4847055,0.026006008,0.0,0.9706864,-0.004953941,-0.24006365,0.010626149,0.0,0.0,-0.6666754,1,0,0,0,0,0
2091808000,-0.017361302,-0.48123607,0.026361167,0.0,0.9710972,-0.005288969,-0.23838435,0.010731591,0.0,0.0,-0.6639125,1,0,0,0,0,0
2091904000,-0.018721592,-0.48515922,0.026811846,0.0,0.97062194,-0.0058658114,-0.24029721,0.010764159,0.0,0.0,-0.6681999,1,0,0,0,0,0
2092016000,-0.020247564,-0.48473346,0.027285678,0.0,0.97066575,-0.0065527842,-0.24010031,0.010813556,0.0,0.0,-0.66772825,1,0,0,0,0,0
2092108000,-0.020832483,-0.48074922,0.027787916,0.0,0.9711369,-0.006808203,-0.23817113,0.0110138515,0.0,0.0,-0.6650334,1,0,0,0,0,0
2092220000,-0.021822365,-0.48091385,0.028396932,0.0,0.97111046,-0.0072149816,-0.2382587,0.011190534,0.0,0.0,-0.664639,1,0,0,0,0,0
2092316000,-0.021843279,-0.48418307,0.029005498,0.0,0.97071666,-0.0071253562,-0.23984797,0.011460537,0.0,0.0,-0.6681838,1,0,0,0,0,0
2092407999,-0.022555122,-0.48422036,0.029692044,0.0,0.9707056,-0.0073881997,-0.23987263,0.011708122,0.0,0.0,-0.6671801,1,0,0,0,0,0
2092520000,-0.023820452,-0.4870724,0.030599719,0.0,0.9703529,-0.007868203,-0.24126749,0.011975169,0.0,0.0,-0.6679605,1,0,0,0,0,0
2092616000,-0.025155755,-0.49080813,0.031414896,0.0,0.96989083,-0.00838357,-0.24309076,0.012179692,0.0,0.0,-0.6707188,1,0,0,0,0,0
2092712000,-0.026022635,-0.49117434,0.032340597,0.0,0.96983695,-0.008687988,-0.24327764,0.012520207,0.0,0.0,-0.6680385,1,0,0,0,0,0
2092827999,-0.026670134,-0.48647025,0.03358667,0.0,0.97039473,-0.008896306,-0.24100573,0.01308567,0.0,0.0,-0.6678054,1,0,0,0,0,0
2092924000,-0.027824609,-0.48901698,0.034631856,0.0,0.9700754,-0.009304828,-0.24225345,0.013431156,0.0,0.0,-0.6715594,1,0,0,0,0,0
2093016000,-0.028631665,-0.4879635,0.0358399,0.0,0.9701905,-0.009560929,-0.24175374,0.0139289405,0.0,0.0,-0.6711437,1,0,0,0,0,0
2093128000,-0.028568313,-0.4895784,0.037448935,0.0,0.96998423,-0.009318242,-0.24254407,0.014702278,0.0,0.0,-0.67233473,1,0,0,0,0,0
2093220000,-0.028336676,-0.48421288,0.038996246,0.0,0.9706194,-0.009078172,-0.23994671,0.015530289,0.0,0.0,-0.66801286,1,0,0,0,0,0
2093331999,-0.028273055,-0.48670274,0.04103158,0.0,0.97030455,-0.008774089,-0.24116327,0.016502466,0.0,0.0,-0.66830677,1,0,0,0,0,0
2093427999,-0.028010884,-0.4890871,0.042827517,0.0,0.97000295,-0.008401537,-0.24232517,0.017383011,0.0,0.0,-0.6700778,1,0,0,0,0,0
2093520000,-0.027996076,-0.4902655,0.04500919,0.0,0.9698409,-0.008115151,-0.24290544,0.018431695,0.0,0.0,-0.6705804,1,0,0,0,0,0
2093635999,-0.027709397,-0.49102914,0.048005413,0.0,0.9697207,-0.007602058,-0.24328469,0.01991207,0.0,0.0,-0.6708531,1,0,0,0,0,0
2093731999,-0.027646633,-0.48897076,0.050677396,0.0,0.9699426,-0.0072753383,-0.24229603,0.021235345,0.0,0.0,-0.67048633,1,0,0,0,0,0
2093827999,-0.02921419,-0.49185416,0.053467035,0.0,0.9695571,-0.0076550758,-0.24372134,0.022368522,0.0,0.0,-0.67177474,1,0,0,0,0,0
2093924000,-0.028869005,-0.4914683,0.056235068,0.0,0.9695733,-0.007156359,-0.2435406,0.023756467,0.0,0.0,-0.67114395,1,0,0,0,0,0
2094036000,-0.030068476,-0.49713188,0.06008053,0.0,0.9688305,-0.00717667,-0.24631312,0.025412517,0.0,0.0,-0.6720497,1,0,0,0,0,0
2094128000,-0.03313254,-0.4977349,0.0637123,0.0,0.96869725,-0.008203042,-0.2466591,0.026787147,0.0,0.0,-0.6710395,1,0,0,0,0,0
2094240000,-0.035833687,-0.49245673,0.06830636,0.0,0.96926665,-0.009043576,-0.2441599,0.028746907,0.0,0.0,-0.67267853,1,0,0,0,0,0
2094331999,-0.035705037,-0.48434246,0.0726986,0.0,0.97017926,-0.00860555,-0.24024428,0.030997042,0.0,0.0,-0.66955024,1,0,0,0,0,0
2094443999,-0.039725658,-0.4924289,0.07849076,0.0,0.96909404,-0.009686604,-0.24425437,0.03320733,0.0,0.0,-0.67077374,1,0,0,0,0,0
2094539999,-0.0423281,-0.49790078,0.08414394,0.0,0.9683164,-0.010131314,-0.24697633,0.03554426,0.0,0.0,-0.67138666,1,0,0,0,0,0
2094635999,-0.044316236,-0.4919674,0.090665445,0.0,0.9689085,-0.010434778,-0.24417448,0.038552534,0.0,0.0,-0.6703503,1,0,0,0,0,0
2094731999,-0.047355037,-0.49351716,0.098200984,0.0,0.96855295,-0.010945292,-0.24502604,0.041804727,0.0,0.0,-0.6738152,1,0,0,0,0,0
2094847999,-0.05140717,-0.49107248,0.108507186,0.0,0.9685987,-0.011716282,-0.24399057,0.046345133,0.0,0.0,-0.6712722,1,0,0,0,0,0
2094940000,-0.05718291,-0.49061796,0.119049214,0.0,0.9683615,-0.013241129,-0.24397662,0.050754525,0.0,0.0,-0.6730319,1,0,0,0,0,0
2095036000,-0.06354543,-0.49477184,0.13063347,0.0,0.96750784,-0.014759868,-0.24623516,0.055488966,0.0,0.0,-0.67243296,1,0,0,0,0,0
2095148000,-0.07123519,-0.4953549,0.14894089,0.0,0.9668337,-0.016199507,-0.24688698,0.06337975,0.0,0.0,-0.672135,1,0,0,0,0,0
2095240000,-0.08072461,-0.49104106,0.16934364,0.0,0.9665781,-0.018461907,-0.24530347,0.07219495,0.0,0.0,-0.67198014,1,0,0,0,0,0
2095352000,-0.094236016,-0.48772135,0.2011344,0.0,0.9655801,-0.021261852,-0.24455316,0.086004145,0.0,0.0,-0.67206806,1,0,0,0,0,0
2095443999,-0.111408524,-0.4815036,0.23983747,0.0,0.9642771,-0.02520158,-0.24282175,0.10282151,0.0,0.0,-0.67279756,1,0,0,0,0,0
2095539999,-0.101773866,-0.48952708,0.21631297,0.0,0.9646076,-0.022936272,-0.24592608,0.0923389,0.0,0.0,-0.6716153,1,0,0,0,0,0
2095655999,-0.05779453,-0.5006924,0.12520675,0.0,0.96697295,-0.01244499,-0.24890216,0.053442936,0.0,0.0,-0.6716666,1,0,0,0,0,0
2095751999,-0.019774828,-0.49946836,0.049808532,0.0,0.9686912,-0.0034234982,-0.24729626,0.021685176,0.0,0.0,-0.67041385,1,0,0,0,0,0
2095847999,-0.017993413,-0.49953288,0.04791963,0.0,0.96870613,-0.0027933961,-0.24730556,0.020990068,0.0,0.0,-0.6732183,1,0,0,0,0,0
2095940000,-0.02002186,-0.4926042,0.049869657,0.0,0.9695314,-0.0036269682,-0.2439734,0.021738533,0.0,0.0,-0.66998625,1,0,0,0,0,0
2096052000,-0.022874942,-0.48871487,0.052322745,0.0,0.9699699,-0.0047654975,-0.2421246,0.022613548,0.0,0.0,-0.67024523,1,0,0,0,0,0
2096148000,-0.02407197,-0.48120195,0.054356366,0.0,0.9708439,-0.0052097654,-0.23849872,0.023523271,0.0,0.0,-0.6706983,1,0,0,0,0,0
2096260000,-0.023209007,-0.4411783,0.057205524,0.0,0.97537655,-0.0050612865,-0.21902414,0.025365975,0.0,0.0,-0.6628975,1,0,0,0,0,0
2096356000,-0.022272943,-0.39809588,0.05985676,0.0,0.97982144,-0.0049947985,-0.19796199,0.027130207,0.0,0.0,-0.65953434,1,0,0,0,0,0
2096448000,-0.020073742,-0.36450663,0.06278342,0.0,0.9829608,-0.0041772067,-0.18145742,0.02904695,0.0,0.0,-0.6566656,1,0,0,0,0,0
2096559999,-0.017690657,-0.34258604,0.06651627,0.0,0.9848319,-0.003043144,-0.17064546,0.0312572,0.0,0.0,-0.6486485,1,0,0,0,0,0
2096655999,-0.017211447,-0.326663,0.07008653,0.0,0.98609775,-0.002788995,-0.16279791,0.033170056,0.0,0.0,-0.64211845,1,0,0,0,0,0
2096751999,-0.018586092,-0.3131239,0.073855504,0.0,0.9871066,-0.0034166595,-0.156149,0.03501824,0.0,0.0,-0.6364771,1,0,0,0,0,0
2096867999,-0.017068895,-0.2931322,0.078520395,0.0,0.988529,-0.0027043829,-0.14625543,0.037582465,0.0,0.0,-0.62992346,1,0,0,0,0,0
2096960000,-0.017694624,-0.27782032,0.08272133,0.0,0.9895324,-0.0030293828,-0.1387023,0.039725006,0.0,0.0,-0.6269201,1,0,0,0,0,0
2097052000,-0.01657819,-0.26556826,0.08726552,0.0,0.9902676,-0.0024335166,-0.1326221,0.042137086,0.0,0.0,-0.6233921,1,0,0,0,0,0
2097164000,-0.016516648,-0.24715321,0.09285111,0.0,0.99131835,-0.0024661527,-0.12350563,0.04503657,0.0,0.0,-0.62025803,1,0,0,0,0,0
2097260000,-0.013176619,-0.22886422,0.09760401,0.0,0.99229217,-0.00096737704,-0.1143634,0.047711164,0.0,0.0,-0.61703837,1,0,0,0,0,0
2097372000,-0.015958996,-0.21596596,0.10399401,0.0,0.99284494,-0.0023210323,-0.10803647,0.05081041,0.0,0.0,-0.61087143,1,0,0,0,0,0
2097463999,-0.015915029,-0.20762755,0.109868065,0.0,0.9931297,-0.0022130215,-0.103902355,0.053785708,0.0,0.0,-0.6070003,1,0,0,0,0,0
2097559999,-0.015371564,-0.19446161,0.11601308,0.0,0.99361676,-0.0020087233,-0.097355,0.056953628,0.0,0.0,-0.60489863,1,0,0,0,0,0
2097675999,-0.015439727,-0.18060274,0.1237554,0.0,0.994033,-0.0020972947,-0.09047886,0.06088961,0.0,0.0,-0.602389,1,0,0,0,0,0
2097771999,-0.015899537,-0.17103808,0.13070895,0.0,0.99423134,-0.0023256312,-0.08574707,0.06438966,0.0,0.0,-0.6010191,1,0,0,0,0,0
2097867999,-0.016703129,-0.16252959,0.13818866,0.0,0.9943338,-0.0026999437,-0.08155354,0.06813281,0.0,0.0,-0.5979982,1,0,0,0,0,0
2097960000,-0.016015975,-0.1566618,0.14602041,0.0,0.99429166,-0.0022542274,-0.0786222,0.07209441,0.0,0.0,-0.59599674,1,0,0,0,0,0
2098072000,-0.016138852,-0.1474656,0.1559718,0.0,0.9942658,-0.0022840535,-0.07406667,0.07710003,0.0,0.0,-0.5952951,1,0,0,0,0,0
2098184000,-0.016489545,-0.1398837,0.16656028,0.0,0.9941119,-0.0023829208,-0.07032441,0.08240353,0.0,0.0,-0.5921968,1,0,0,0,0,0
2098276000,-0.015612968,-0.13586627,0.17655453,0.0,0.99382496,-0.0017736926,-0.068301156,0.087428786,0.0,0.0,-0.59087044,1,0,0,0,0,0
2098372000,-0.012982618,-0.12516694,0.18626907,0.0,0.99373376,-0.0006341398,-0.06287276,0.092411704,0.0,0.0,-0.58939266,1,0,0,0,0,0
2098483999,-0.014207984,-0.117260665,0.19963475,0.0,0.9933291,-0.001217309,-0.0590103,0.09906376,0.0,0.0,-0.58827865,1,0,0,0,0,0
2098579999,-0.015090739,-0.1110726,0.21175805,0.0,0.99288297,-0.001625512,-0.055991508,0.10509889,0.0,0.0,-0.58668953,1,0,0,0,0,0
2098675999,-0.01524928,-0.107684836,0.22472848,0.0,0.9922709,-0.0015313571,-0.054329164,0.11155447,0.0,0.0,-0.5851283,1,0,0,0,0,0
2098771999,-0.01580484,-0.1027127,0.23836692,0.0,0.9916143,-0.0017324627,-0.051906385,0.11833824,0.0,0.0,-0.58310384,1,0,0,0,0,0
2098884000,-0.015050242,-0.1036171,0.26978284,0.0,0.9896108,-0.00048264684,-0.052324127,0.13391232,0.0,0.0,-0.58200616,1,0,0,0,0,0
2098980000,-0.003707453,-0.13365285,0.34518108,0.0,0.98296386,0.009645766,-0.06610213,0.1712294,0.0,0.0,-0.58189595,1,0,0,0,0,0
2099092000,0.013121434,-0.20257665,0.37314886,0.0,0.97746503,0.025169615,-0.098147534,0.18519105,0.0,0.0,-0.58280414,1,0,0,0,0,0
2099184000,0.014536946,-0.27445018,0.37364167,0.0,0.97315234,0.03248184,-0.13307367,0.18496208,0.0,0.0,-0.58641595,1,0,0,0,0,0
2099276000,0.00795699,-0.3515979,0.37407708,0.0,0.9672781,0.036370266,-0.17111479,0.18376611,0.0,0.0,-0.59229195,1,0,0,0,0,0
2099387999,-0.00014462302,-0.4361269,0.3745083,0.0,0.95925426,0.040204737,-0.21257064,0.18173774,0.0,0.0,-0.600808,1,0,0,0,0,0
