timestamp,roll,pitch,yaw,thrust_body[0],thrust_body[1],thrust_body[2]
2051220000,-0.0035650353,0.004518711,-1.1849722,0.0,0.0,0.0
2051240000,-0.0039322707,0.004133606,-1.1849811,0.0,0.0,0.0
2051260000,-0.0040158085,0.004213029,-1.1847533,0.0,0.0,0.0
2051280000,-0.0040541035,0.004502839,-1.1847076,0.0,0.0,0.0
2051300000,-0.0045515494,0.004526193,-1.1845981,0.0,0.0,0.0
2051316000,-0.0045343414,0.0046563465,-1.1845729,0.0,0.0,0.0
2051340000,-0.0043556383,0.004032007,-1.1846244,0.0,0.0,0.0
2051356000,-0.00438987,0.0035777874,-1.1846392,0.0,0.0,0.0
2051380000,-0.004598565,0.003560766,-1.184823,0.0,0.0,0.0
2051400000,-0.0046996255,0.003610435,-1.1851435,0.0,0.0,0.0
2051416000,-0.0047837133,0.0034262748,-1.1852713,0.0,0.0,0.0
2051440000,-0.0045385696,0.0034728213,-1.1852927,0.0,0.0,0.0
2051452000,-0.0041653644,0.003364103,-1.1852943,0.0,0.0,0.0
2051476000,-0.004010926,0.0033610978,-1.1852627,0.0,0.0,0.0
2051496000,-0.004084536,0.0034968574,-1.1852334,0.0,0.0,0.0
2051520000,-0.003786977,0.003429798,-1.1853279,0.0,0.0,0.0
2051539999,-0.003655437,0.0028481677,-1.1856031,0.0,0.0,0.0
2051564000,-0.0036128904,0.0027067985,-1.1857795,0.0,0.0,0.0
2051584000,-0.003433393,0.002749971,-1.1856166,0.0,0.0,0.0
2051604000,-0.0034718588,0.0022387467,-1.1854672,0.0,0.0,0.0
2051624000,-0.003458945,0.0019126013,-1.1856973,0.0,0.0,0.0
2051644000,-0.0030576647,0.0018391792,-1.1857677,0.0,0.0,0.0
2051660000,-0.0027833066,0.0013483269,-1.1860187,0.0,0.0,0.0
2051680000,-0.0025254844,0.0017103176,-1.1859666,0.0,0.0,0.0
2051700000,-0.0026277408,0.0017165684,-1.1861264,0.0,0.0,0.0
2051720000,-0.0024186615,0.0016002251,-1.1862558,0.0,0.0,0.0
2051740000,-0.0024224096,0.0017142678,-1.186393,0.0,0.0,0.0
2051756000,-0.0025898828,0.0019506812,-1.1864946,0.0,0.0,0.0
2051784000,-0.002053932,0.0019887495,-1.1864436,0.0,0.0,0.0
2051804000,-0.0021089502,0.0016276793,-1.1863292,0.0,0.0,0.0
2051824000,-0.0017925033,0.0014470117,-1.1860693,0.0,0.0,0.0
2051844000,-0.0015064938,0.0013430669,-1.1861981,0.0,0.0,0.0
2051864000,-0.0016809127,0.0013753026,-1.1863806,0.0,0.0,0.0
2051884000,-0.0014658375,0.0014894702,-1.186275,0.0,0.0,0.0
2051904000,-0.0012092227,0.0018266384,-1.1862797,0.0,0.0,0.0
2051924000,-0.0009537954,0.002162828,-1.1862141,0.0,0.0,0.0
2051948000,-0.00084194297,0.0021992894,-1.1861877,0.0,0.0,0.0
2051963999,-0.0010340717,0.0021182103,-1.1861359,0.0,0.0,0.0
2051980000,-0.0010188834,0.0015553017,-1.1861997,0.0,0.0,0.0
2052008000,-0.0009538541,0.001504971,-1.1861007,0.0,0.0,0.0
2052028000,-0.0011931658,0.0016840799,-1.1861516,0.0,0.0,0.0
2052043999,-0.0010500976,0.0015914722,-1.1861261,0.0,0.0,0.0
2052064000,-0.0010706405,0.0014143172,-1.1861601,0.0,0.0,0.0
2052088000,-0.0016182447,0.0009303859,-1.1862782,0.0,0.0,0.0
2052104000,-0.0017287843,0.00073523656,-1.1863177,0.0,0.0,0.0
2052128000,-0.0020973706,0.00034444136,-1.1861662,0.0,0.0,0.0
2052148000,-0.0027264317,3.5769008e-05,-1.1862621,0.0,0.0,0.0
2052168000,-0.002758405,-4.7925263e-05,-1.1862267,0.0,0.0,0.0
2052188000,-0.0024990996,0.00015595477,-1.1863439,0.0,0.0,0.0
2052204000,-0.0019745883,0.00015374259,-1.1862559,0.0,0.0,0.0
2052228000,-0.23595227,-0.47670674,-0.004273653,0.0,0.0,-0.12047207
2052244000,-0.14255774,-0.30900025,-0.004446745,0.0,0.0,-0.12019218
2052260000,-0.038589332,-0.23215443,-0.003185749,0.0,0.0,-0.120091945
2052288000,0.0748035,-0.20585766,-0.0020937324,0.0,0.0,-0.12008052
2052308000,0.16520569,-0.24453695,-0.0012713671,0.0,0.0,-0.12014601
2052331999,0.2299689,-0.27076536,-0.00024962425,0.0,0.0,-0.12021206
2052347999,0.26333186,-0.29460406,0.00037515163,0.0,0.0,-0.12026271
2052372000,0.2654044,-0.3097979,0.0006158352,0.0,0.0,-0.12872227
2052392000,0.25479767,-0.25187254,-0.00023496151,0.0,0.0,-0.15356037
2052407999,0.21286544,-0.21884854,-0.0009493232,0.0,0.0,-0.1680712
2052432000,0.19412984,-0.18552096,-0.0015184879,0.0,0.0,-0.18174282
2052452000,0.20194277,-0.18637621,-0.0017162561,0.0,0.0,-0.19160056
2052468000,0.18958801,-0.17668122,-0.001932621,0.0,0.0,-0.20564258
2052483999,0.1780606,-0.1602472,-0.0021414757,0.0,0.0,-0.22007813
2052508000,0.16940928,-0.14289787,-0.002276659,0.0,0.0,-0.2314566
2052532000,0.17727888,-0.15070415,-0.0019068718,0.0,0.0,-0.24577288
2052548000,0.16120133,-0.15092397,-0.001773119,0.0,0.0,-0.26016015
2052568000,0.14907554,-0.15058348,-0.0019165277,0.0,0.0,-0.27445918
2052592000,0.1298489,-0.13807617,-0.0018632412,0.0,0.0,-0.288838
2052608000,0.12573826,-0.14238368,-0.002022028,0.0,0.0,-0.30021665
2052628000,0.12216663,-0.13749878,-0.0019821525,0.0,0.0,-0.31452563
2052652000,0.11883676,-0.1310313,-0.0023240447,0.0,0.0,-0.32936087
2052668000,0.1251564,-0.11913807,-0.002362311,0.0,0.0,-0.34405464
2052692000,0.124949835,-0.11640271,-0.0022822022,0.0,0.0,-0.35905036
2052708000,0.120409526,-0.11326193,-0.0024052262,0.0,0.0,-0.37038293
2052735999,0.122628585,-0.11312786,-0.0023136735,0.0,0.0,-0.40018633
2052756000,0.11680415,-0.11453225,-0.002479434,0.0,0.0,-0.4149914
2052776000,0.11372611,-0.11490524,-0.0024358034,0.0,0.0,-0.42984524
2052796000,0.109529465,-0.11224676,-0.0025259256,0.0,0.0,-0.4423007
2052816000,0.10491401,-0.10656938,-0.0026065707,0.0,0.0,-0.45793042
2052836000,0.102043234,-0.1026434,-0.0029266477,0.0,0.0,-0.47324505
2052852000,0.100444995,-0.098029435,-0.0029402375,0.0,0.0,-0.4887366
2052872000,0.09564742,-0.097167835,-0.0029423833,0.0,0.0,-0.5043636
2052896000,0.089721605,-0.101113535,-0.0027501583,0.0,0.0,-0.5169812
2052916000,0.08787641,-0.09884211,-0.00263983,0.0,0.0,-0.5325028
2052936000,0.08480191,-0.093777925,-0.00245744,0.0,0.0,-0.5481058
2052956000,0.0861131,-0.09167702,-0.0025134087,0.0,0.0,-0.56127614
2052972000,0.08369573,-0.089766994,-0.0025482774,0.0,0.0,-0.5767608
2052996000,0.08290662,-0.091776766,-0.0024184585,0.0,0.0,-0.5919689
2053012000,0.067879,-0.0878768,-0.0024998188,0.0,0.0,-0.6000943
2053036000,0.049716745,-0.06235975,-0.0021581054,0.0,0.0,-0.6163805
2053056000,0.036316022,-0.051756658,-0.0021942258,0.0,0.0,-0.6132462
2053072000,0.022844216,-0.034690946,-0.0019213557,0.0,0.0,-0.61522764
2053092000,0.007930344,-0.018098619,-0.0017765164,0.0,0.0,-0.61522764
2053116000,-0.024331775,0.007162529,-0.0017859936,0.0,0.0,-0.60893106
2053135999,-0.037023522,0.025758553,-0.0016983747,0.0,0.0,-0.61027217
2053155999,-0.051761568,0.03628479,-0.001583755,0.0,0.0,-0.61129946
2053175999,-0.06890738,0.049337257,-0.0014171004,0.0,0.0,-0.6037296
2053195999,-0.07742307,0.05737395,-0.0011299253,0.0,0.0,-0.60629845
2053220000,-0.08296972,0.067103766,-0.0009913445,0.0,0.0,-0.6100287
2053235999,-0.090033524,0.08135554,-0.0008574128,0.0,0.0,-0.6052573
2053251999,-0.09044583,0.08280742,-0.0007367134,0.0,0.0,-0.60978794
2053276000,-0.0912434,0.080511354,-0.000523746,0.0,0.0,-0.6139636
2053300000,-0.09655081,0.087151125,-0.00019830465,0.0,0.0,-0.61321294
2053320000,-0.09387828,0.08536281,-7.0273876e-05,0.0,0.0,-0.6168894
2053340000,-0.089368224,0.088487886,-0.00018543005,0.0,0.0,-0.6116023
2053356000,-0.082980156,0.08320827,-0.00011461973,0.0,0.0,-0.614735
2053372000,-0.07987641,0.080323376,-8.100271e-05,0.0,0.0,-0.61772066
2053400000,-0.079617,0.08057836,-0.00018882751,0.0,0.0,-0.61207885
2053420000,-0.074408926,0.08198071,-0.00018006563,0.0,0.0,-0.6147382
2053432000,-0.06585557,0.07862559,-0.00012123585,0.0,0.0,-0.6172991
2053460000,-0.063352115,0.08019251,-0.00017094612,0.0,0.0,-0.61195004
2053480000,-0.061466493,0.0700997,3.7014484e-05,0.0,0.0,-0.6156672
2053496000,-0.05856452,0.06339623,7.349253e-05,0.0,0.0,-0.619036
2053520000,-0.052576646,0.059422165,0.00029933453,0.0,0.0,-0.61470443
2053539999,-0.05120623,0.055211008,0.0002605319,0.0,0.0,-0.61778665
2053556000,-0.048416477,0.044512164,0.0002744794,0.0,0.0,-0.6148936
2053584000,-0.04841754,0.041698817,0.0004323721,0.0,0.0,-0.6222547
2053599999,-0.050563004,0.036327593,0.00064122677,0.0,0.0,-0.61676186
2053619999,-0.048479445,0.03428621,0.00060224533,0.0,0.0,-0.6201768
2053644000,-0.050647475,0.029772336,0.00052267313,0.0,0.0,-0.6172318
2053664000,-0.04590615,0.031216487,0.00066661835,0.0,0.0,-0.6208795
2053684000,-0.0409086,0.032038793,0.0006428361,0.0,0.0,-0.62473154
2053704000,-0.03651569,0.03127482,0.0004464984,0.0,0.0,-0.61924523
2053724000,-0.031312488,0.035194237,0.00061923265,0.0,0.0,-0.6221396
2053744000,-0.02935027,0.03203108,0.0004556179,0.0,0.0,-0.618281
2053764000,-0.028290628,0.029488482,0.0004813671,0.0,0.0,-0.6216391
2053780000,-0.027717058,0.032119084,0.00041502714,0.0,0.0,-0.6256423
2053800000,-0.02618733,0.037996996,0.0004311204,0.0,0.0,-0.620112
2053820000,-0.025288176,0.037717015,0.00030308962,0.0,0.0,-0.62354624
2053844000,-0.025296018,0.036734395,0.00032687187,0.0,0.0,-0.6207695
2053864000,-0.027126504,0.035940684,0.0005121231,0.0,0.0,-0.6239125
2053880000,-0.026173929,0.03635485,0.0008518696,0.0,0.0,-0.6273297
2053896000,-0.024705365,0.033271365,0.0007789135,0.0,0.0,-0.62165534
2053924000,-0.02468147,0.028088745,0.0006891489,0.0,0.0,-0.6245837
2053948000,-0.028482016,0.02516581,0.0009006858,0.0,0.0,-0.6210769
2053968000,-0.029617745,0.027684394,0.0007504821,0.0,0.0,-0.62420785
2053988000,-0.029392712,0.027861077,0.0006312132,0.0,0.0,-0.6276489
2054008000,-0.03443824,0.030528728,0.0008406043,0.0,0.0,-0.6227497
2054028000,-0.03219996,0.026544195,0.00074636936,0.0,0.0,-0.6265474
2054048000,-0.03064847,0.023745343,0.00057667494,0.0,0.0,-0.63005155
2054064000,-0.028440306,0.023025857,0.0005350113,0.0,0.0,-0.62432057
2054088000,-0.027571471,0.02547234,0.0007444024,0.0,0.0,-0.6272336
2054108000,-0.024503555,0.029478341,0.0007286668,0.0,0.0,-0.63016105
2054128000,-0.02650306,0.022121152,0.0008574128,0.0,0.0,-0.6283796
2054148000,-0.025807293,0.017745188,0.0011104345,0.0,0.0,-0.6315391
2054164000,-0.025071256,0.017154137,0.0010988116,0.0,0.0,-0.6315391
2054184000,-0.017686265,0.02105055,0.0011764169,0.0,0.0,-0.6292314
2054204000,-0.017007552,0.021226212,0.0014274716,0.0,0.0,-0.6292314
2054224000,-0.013371209,0.01635719,0.0014693141,0.0,0.0,-0.62729126
2054248000,-0.012936104,0.01787579,0.0015124083,0.0,0.0,-0.6304473
2054264000,-0.011817293,0.021866083,0.001575172,0.0,0.0,-0.633114
2054284000,-0.010134944,0.016641807,0.0016205907,0.0,0.0,-0.6278179
2054304000,-0.012924478,0.017907906,0.001642406,0.0,0.0,-0.63080204
2054324000,-0.01841803,0.016649786,0.0015496016,0.0,0.0,-0.63434243
2054347999,-0.022943888,0.022427106,0.0016198754,0.0,0.0,-0.6295757
2054372000,-0.024211556,0.02368337,0.0014128089,0.0,0.0,-0.6324726
2054392000,-0.022876136,0.018535014,0.0015342236,0.0,0.0,-0.6298973
2054412000,-0.022457087,0.018853301,0.001483798,0.0,0.0,-0.6327611
2054427999,-0.02162743,0.017935243,0.0012930036,0.0,0.0,-0.6327611
2054448000,-0.02357598,0.017017819,0.001004219,0.0,0.0,-0.6308588
2054468000,-0.02006663,0.016519899,0.00074118376,0.0,0.0,-0.63487554
2054492000,-0.01730904,0.014295747,0.0007792711,0.0,0.0,-0.6389341
2054512000,-0.011208241,0.011388852,0.0006508827,0.0,0.0,-0.6339277
2054528000,-0.0130743245,0.008731395,0.00080144405,0.0,0.0,-0.6371716
2054548000,-0.011596317,0.010517765,0.00092607737,0.0,0.0,-0.63365024
2054572000,-0.012256228,0.008679414,0.0009582639,0.0,0.0,-0.6369863
2054592000,-0.013167083,0.011381255,0.000911057,0.0,0.0,-0.64074975
2054608000,-0.017419398,0.014252619,0.00078356266,0.0,0.0,-0.6354139
2054628000,-0.013693167,0.017493341,0.0007554889,0.0,0.0,-0.63899255
2054652000,-0.016107064,0.013842545,0.0008266568,0.0,0.0,-0.6358015
2054672000,-0.01564686,0.012528658,0.00064748526,0.0,0.0,-0.6386967
2054692000,-0.013407994,0.011921793,0.00064623356,0.0,0.0,-0.6395885
2054708000,-0.0130269285,0.011272411,0.00077211857,0.0,0.0,-0.6395885
2054731999,-0.0076438608,0.006865118,0.019100726,0.0,0.0,-0.6464491
2054751999,-0.0045460323,0.003375872,0.019118428,0.0,0.0,-0.640347
2054776000,-0.0046475343,-0.0011943147,0.018777609,0.0,0.0,-0.64248466
2054791999,-0.004422955,0.004804017,0.018290877,0.0,0.0,-0.64533395
2054816000,-0.006229925,0.004437322,0.017522514,0.0,0.0,-0.6389752
2054831999,-0.006207145,0.004178755,0.016839981,0.0,0.0,-0.6412849
2054856000,-0.010551088,0.008657841,0.015842915,0.0,0.0,-0.6441192
2054872000,-0.012612315,0.010502065,0.01469636,0.0,0.0,-0.6379263
2054896000,-0.010101933,0.01663976,0.013933361,0.0,0.0,-0.59163374
2054912000,-0.009541299,0.01717695,0.01306504,0.0,0.0,-0.59163374
2054932000,-0.00790515,0.0107941665,0.011992335,0.0,0.0,-0.5335123
2054956000,-0.0081122145,0.009994542,0.010925174,0.0,0.0,-0.5213164
2054976000,-0.01006862,0.011042271,0.010190785,0.0,0.0,-0.50639915
2054996000,-0.010703104,0.010960438,0.009280801,0.0,0.0,-0.5071661
2055016000,-0.014426057,0.008694237,0.008622408,0.0,0.0,-0.5119563
2055036000,-0.011909362,0.007466291,0.008048058,0.0,0.0,-0.5169174
2055052000,-0.015411207,0.007055073,0.0077040195,0.0,0.0,-0.5266362
2055076000,-0.01303518,0.011974021,0.006925285,0.0,0.0,-0.5371596
2055092000,-0.010462847,0.007337828,0.006260276,0.0,0.0,-0.54275405
2055112000,-0.011377121,0.012058253,0.005784452,0.0,0.0,-0.5496252
2055132000,-0.009673832,0.00826247,0.0052408576,0.0,0.0,-0.55490255
2055155999,-0.0047277585,0.010771037,0.0049064755,0.0,0.0,-0.55552465
2055180000,-0.003872252,0.013151195,0.0043932796,0.0,0.0,-0.5571952
2055200000,-0.009539111,0.017508365,0.0038593411,0.0,0.0,-0.5508504
2055220000,-0.011884058,0.01631308,0.0035651922,0.0,0.0,-0.5503634
2055240000,-0.010578329,0.017651528,0.0034121275,0.0,0.0,-0.5458188
2055256000,-0.013888305,0.018857114,0.0030283928,0.0,0.0,-0.54714316
2055276000,-0.015657522,0.019118339,0.002503395,0.0,0.0,-0.54863465
2055300000,-0.014465893,0.01268515,0.0019828677,0.0,0.0,-0.54477614
2055320000,-0.012908619,0.008782752,0.0015805364,0.0,0.0,-0.54747075
2055340000,-0.015121033,0.01204019,0.0011270642,0.0,0.0,-0.54635996
2055360000,-0.012084115,0.008900305,0.00067430735,0.0,0.0,-0.5492918
2055376000,-0.009669855,0.0060687046,0.0002746582,0.0,0.0,-0.5523407
2055396000,-0.012595311,0.0070939474,0.00015306473,0.0,0.0,-0.54914576
2055416000,-0.008852255,0.008168606,8.833408e-05,0.0,0.0,-0.55154955
2055436000,-0.010870982,0.012977103,-2.4676323e-05,0.0,0.0,-0.5536328
2055460000,-0.010762754,0.011777159,-0.00034493208,0.0,0.0,-0.5494952
2055476000,-0.004459937,0.010748999,-0.0004223585,0.0,0.0,-0.5513961
2055496000,-0.0046658833,0.0054426924,-0.000546813,0.0,0.0,-0.55341196
2055520000,-0.0087362155,0.00445192,-0.00066143274,0.0,0.0,-0.5527372
2055539999,-0.0067388434,0.004727293,-0.00062048435,0.0,0.0,-0.55517894
2055556000,-0.011525122,0.0025528008,-0.0008048415,0.0,0.0,-0.55274576
2055579999,-0.008391158,-0.0011330716,-0.0008828044,0.0,0.0,-0.55446637
2055604000,-0.007524565,-0.0012523932,-0.0010303259,0.0,0.0,-0.5563452
2055624000,-0.011798336,0.002492764,-0.0009797215,0.0,0.0,-0.5521813
2055644000,-0.013499248,0.00070191943,-0.0010780692,0.0,0.0,-0.55309373
2055660000,-0.010619056,0.0015087429,-0.0013107061,0.0,0.0,-0.5546348
2055675999,-0.007949802,0.00828078,-0.00152421,0.0,0.0,-0.5508534
2055700000,-0.0047351923,0.009836917,-0.0017146468,0.0,0.0,-0.5519934
2055720000,-0.002182936,0.010996473,-0.0017700791,0.0,0.0,-0.551335
2055744000,-0.0009462553,0.0075675705,-0.002090156,0.0,0.0,-0.5534897
2055760000,-0.0018056959,0.0070778662,-0.002337277,0.0,0.0,-0.55541354
2055780000,-0.0038257511,0.0027969405,-0.002402544,0.0,0.0,-0.55290055
2055800000,-0.004913266,0.008414667,-0.0025153756,0.0,0.0,-0.55486286
2055820000,-0.00899801,0.0068662134,-0.002204597,0.0,0.0,-0.5567901
2055840000,-0.009632013,0.009140257,-0.0021471977,0.0,0.0,-0.5539328
2055860000,-0.010344418,0.010898602,-0.0021695495,0.0,0.0,-0.55529034
2055880000,-0.007960268,0.009664318,-0.002323866,0.0,0.0,-0.5570065
2055904000,-0.011225759,0.008743301,-0.0025763512,0.0,0.0,-0.5539957
2055920000,-0.013192093,0.0042317472,-0.0027199388,0.0,0.0,-0.55587184
2055943999,-0.0073691057,0.006978317,-0.0025922656,0.0,0.0,-0.5554381
2055963999,-0.0045512547,0.0042395084,-0.0025911927,0.0,0.0,-0.55742747
2055983999,-0.0023186575,-0.0011348346,-0.0027188659,0.0,0.0,-0.55901873
2056008000,0.006543407,-0.0014182561,-0.0026412606,0.0,0.0,-0.55646855
2056028000,0.008154541,-0.0028353708,-0.0025529265,0.0,0.0,-0.55824524
2056043999,0.00020878029,0.0013638226,-0.0025173426,0.0,0.0,-0.5567848
2056064000,0.00040851606,0.0049298834,-0.0024517179,0.0,0.0,-0.5591427
2056084000,0.0010671695,-0.0004923083,-0.002385378,0.0,0.0,-0.5611584
2056104000,0.003293069,0.0032937757,-0.0022571683,0.0,0.0,-0.5586965
2056124000,-0.002978751,0.0029839077,-0.0022791624,0.0,0.0,-0.5602233
2056144000,-0.0027215476,0.004932029,-0.002206564,0.0,0.0,-0.5586179
2056164000,0.0013418528,0.0065161823,-0.0021062493,0.0,0.0,-0.560319
2056188000,-0.0028316826,0.00047572295,-0.0018784404,0.0,0.0,-0.562759
2056208000,0.0028840033,-0.0035025193,-0.0016073585,0.0,0.0,-0.55992836
2056224000,-0.0016786952,0.0021698787,-0.0014639497,0.0,0.0,-0.5613053
2056244000,-0.0058127176,0.0080498215,-0.0014120936,0.0,0.0,-0.55966306
2056268000,-0.0035638772,0.0077668936,-0.0010478497,0.0,0.0,-0.5615193
2056284000,0.0023427238,0.00787599,-0.00095289946,0.0,0.0,-0.56361467
2056304000,0.00016214553,0.007824625,-0.0007930398,0.0,0.0,-0.56052905
2056327999,-0.00038439775,0.0075788624,-0.0007477999,0.0,0.0,-0.5615976
2056347999,0.0007081049,0.004402065,-0.0006174445,0.0,0.0,-0.5612204
2056372000,-0.0025507761,0.004492572,-0.00040626526,0.0,0.0,-0.56311935
2056384000,-0.0023262922,0.003659274,-0.00014144182,0.0,0.0,-0.56311935
2056404000,-0.0061019454,0.0023698916,-8.547306e-05,0.0,0.0,-0.5617671
2056427999,-0.010561414,0.0065525696,0.00015091896,0.0,0.0,-0.5628872
2056452000,-0.01219227,0.015236093,0.00042271614,0.0,0.0,-0.5594769
2056472000,-0.012494253,0.016491309,0.00043183565,0.0,0.0,-0.56079704
2056492000,-0.015841313,0.015034986,0.0005427003,0.0,0.0,-0.5624303
2056508000,-0.0111164665,0.010607665,0.00066787004,0.0,0.0,-0.5597204
2056532000,-0.009980826,0.008203064,0.00079625845,0.0,0.0,-0.5609488
2056548000,-0.0071910596,0.012725609,0.0006721616,0.0,0.0,-0.56274647
2056572000,-0.0014552833,0.005403613,0.0005815029,0.0,0.0,-0.5630316
2056588000,-0.00094651873,0.0052664573,0.0005925894,0.0,0.0,-0.5630316
2056612000,0.0014441623,0.004813242,0.00059723854,0.0,0.0,-0.5623622
2056628000,0.0012444097,0.0035677361,0.00068092346,0.0,0.0,-0.5623622
2056648000,0.00091819186,0.00078923197,0.00095432997,0.0,0.0,-0.56277514
2056672000,-0.0029724115,-0.0024526995,0.0012735128,0.0,0.0,-0.5605794
2056692000,-0.0057456754,-0.0015999202,0.0014764667,0.0,0.0,-0.56121236
2056708000,-0.0055361846,0.0009951142,0.0015079379,0.0,0.0,-0.56235677
2056735999,-0.002713915,0.0034192158,0.0016259551,0.0,0.0,-0.56005156
2056756000,-0.0027746337,0.0008754716,0.0017017722,0.0,0.0,-0.56157994
2056776000,-0.0010531516,-0.0018445803,0.001637578,0.0,0.0,-0.5631468
2056791999,-0.003271678,-0.006086164,0.0015052557,0.0,0.0,-0.56116563
2056811999,-0.0052872673,-0.0038584708,0.0016025305,0.0,0.0,-0.56250143
2056831999,-0.0063779787,-0.0025411814,0.0014812946,0.0,0.0,-0.56413674
2056852000,-0.010261468,0.0025208485,0.001467526,0.0,0.0,-0.56345904
2056876000,-0.012003887,0.00055162143,0.0014120936,0.0,0.0,-0.5653004
2056896000,-0.007303805,0.0015534803,0.0012987256,0.0,0.0,-0.5640945
2056912000,-0.0069014397,0.0035273067,0.0009974241,0.0,0.0,-0.56557757
2056932000,-0.0037395018,0.0030996269,0.00066661835,0.0,0.0,-0.5673846
2056956000,0.0029582302,0.0029578416,0.0006238818,0.0,0.0,-0.5650934
2056972000,0.006359632,0.004584198,0.0009060502,0.0,0.0,-0.5659884
2056996000,0.007348275,0.0071511283,0.0007805228,0.0,0.0,-0.5672839
2057012000,0.0023520356,0.009710694,0.0008652806,0.0,0.0,-0.5650724
2057036000,-0.00014578513,0.005877973,0.00055360794,0.0,0.0,-0.5652344
2057048000,-0.00820204,0.004527066,0.0005232096,0.0,0.0,-0.5632812
2057076000,-0.0070797317,0.005484602,0.00043344498,0.0,0.0,-0.56418526
2057092000,-0.008266917,0.00080987695,0.000497818,0.0,0.0,-0.5653507
2057116000,-0.011719026,-0.0037246433,0.0005797148,0.0,0.0,-0.5632726
2057139999,-0.0073535843,-0.004050676,0.00071525574,0.0,0.0,-0.56274366
2057155999,-0.0018977446,-0.007521321,0.0007903576,0.0,0.0,-0.5641514
2057180000,-0.00057627726,-0.00788946,0.0007619262,0.0,0.0,-0.56560016
2057195999,0.0023256713,-0.004753381,0.0008749366,0.0,0.0,-0.5626965
2057215999,-0.0037430723,0.00046045322,0.0006415844,0.0,0.0,-0.5640142
2057235999,-0.0040452937,0.0019319941,0.0005707741,0.0,0.0,-0.56213236
2057251999,-0.0033128755,0.0030388427,0.0005174875,0.0,0.0,-0.5634281
2057280000,-0.0007293847,0.0024006204,0.00038015842,0.0,0.0,-0.5649647
2057300000,-0.0042615207,0.0033141067,0.00042700768,0.0,0.0,-0.5634689
2057311999,-0.005891986,0.00013109017,2.2888184e-05,0.0,0.0,-0.5645021
2057336000,-0.0075102746,-0.003580413,-4.094839e-05,0.0,0.0,-0.56355757
2057360000,-0.007650687,-0.0041638697,-0.00010174513,0.0,0.0,-0.5645212
2057380000,-0.005610335,-0.0029034382,-3.8087368e-05,0.0,0.0,-0.56564987
2057400000,-0.004845159,-0.0014252518,0.00010854006,0.0,0.0,-0.56363845
2057416000,-0.0062589124,0.00049936236,0.00016772747,0.0,0.0,-0.56456125
2057440000,-0.0069096154,0.002436034,4.2915344e-06,0.0,0.0,-0.5656071
2057456000,-0.012243608,0.0072842967,0.00016129017,0.0,0.0,-0.5630999
2057476000,-0.010727012,0.008755257,0.00025230646,0.0,0.0,-0.5636998
2057500000,-0.007218888,0.00912574,4.810095e-05,0.0,0.0,-0.562232
2057520000,-0.0046176207,0.009107925,-7.921457e-05,0.0,0.0,-0.56355846
2057539999,-0.0014596331,0.012032784,-0.00017470121,0.0,0.0,-0.56481373
2057559999,-0.0034699356,0.014046391,-0.0003452897,0.0,0.0,-0.56283545
2057584000,-0.0016642007,0.012847667,-0.0004364848,0.0,0.0,-0.56365854
2057599999,-0.0007919519,0.011315167,-0.000359416,0.0,0.0,-0.56531775
2057624000,-0.00015297497,0.016391845,-0.00012302399,0.0,0.0,-0.5635936
2057644000,0.0015314093,0.010405844,-0.00021654367,0.0,0.0,-0.5640733
2057664000,0.004070424,0.0094414735,-0.00024408102,0.0,0.0,-0.564331
2057680000,0.0055061346,0.0089697335,-0.000271976,0.0,0.0,-0.5624128
2057700000,0.0023385654,0.0085095,-0.00018113852,0.0,0.0,-0.56313497
2057720000,-9.005831e-06,0.004388824,3.2186508e-05,0.0,0.0,-0.5622219
2057744000,0.00121927,0.003441827,7.939339e-05,0.0,0.0,-0.5630163
2057760000,0.0006040514,0.0028393455,0.0001911521,0.0,0.0,-0.5630163
2057780000,-0.0068174126,-0.00013929396,0.0001373291,0.0,0.0,-0.5628262
2057804000,-0.004721611,0.001413946,5.6147575e-05,0.0,0.0,-0.5642353
2057824000,-0.004757873,0.0020631559,0.00012391806,0.0,0.0,-0.5653932
2057836000,-0.0006329411,-0.00038926047,0.00019490719,0.0,0.0,-0.5636998
2057860000,-0.0024105723,-0.0032078626,0.00030308962,0.0,0.0,-0.5646738
2057884000,-0.00010649697,-0.0007977979,0.00046044588,0.0,0.0,-0.5657647
2057900000,-0.008565881,0.0015926678,0.00041860342,0.0,0.0,-0.5637819
2057916000,-0.010435923,0.0024841942,0.00046545267,0.0,0.0,-0.5644054
2057943999,-0.007166298,0.004133136,0.000248909,0.0,0.0,-0.5654253
2057968000,-3.3386867e-05,0.0065225274,0.00020635128,0.0,0.0,-0.5654964
2057988000,-0.00030112686,0.0044733346,0.00024425983,0.0,0.0,-0.5670417
2058003999,-0.0021972458,0.003839671,0.00039839745,0.0,0.0,-0.56566316
2058028000,-0.00071737304,0.004891038,0.00045615435,0.0,0.0,-0.56675667
2058043999,-0.0003091265,0.0057849176,0.00044310093,0.0,0.0,-0.56564194
2058064000,0.00015841308,0.006408998,0.00026714802,0.0,0.0,-0.56659865
2058084000,0.0012558672,0.0069325813,0.00026071072,0.0,0.0,-0.5677544
2058104000,-0.00027789362,0.007344909,0.00046670437,0.0,0.0,-0.56638855
2058128000,0.0039947527,0.006599893,0.0003604889,0.0,0.0,-0.56686467
2058144000,0.0061323885,0.0012132009,0.00030863285,0.0,0.0,-0.56545174
2058164000,0.004971319,0.0041731163,0.00019401312,0.0,0.0,-0.56597304
2058184000,0.0033328645,0.0073301056,0.00033080578,0.0,0.0,-0.5667504
2058212000,0.0006027486,0.004177519,0.00038301945,0.0,0.0,-0.5654483
2058235999,0.0072790487,0.0077311476,0.00065016747,0.0,0.0,-0.56459284
2058256000,0.0069495533,0.006883346,0.0006907582,0.0,0.0,-0.5655717
2058276000,0.0074939467,0.0058222646,0.00065356493,0.0,0.0,-0.5664383
2058291999,-0.0019761776,0.007011396,0.00071686506,0.0,0.0,-0.5645053
2058311999,0.0035475546,0.0023145592,0.000659287,0.0,0.0,-0.5652239
2058336000,0.0035793716,0.0040659145,0.0007098913,0.0,0.0,-0.56419367
2058356000,0.0035405431,0.0028857887,0.00047510862,0.0,0.0,-0.56546575
2058367999,0.0029041516,0.0027569875,0.00027608871,0.0,0.0,-0.56546575
2058392000,0.0090669915,0.0018055723,7.992983e-05,0.0,0.0,-0.56576616
2058412000,0.009445839,0.0024882597,-8.583069e-06,0.0,0.0,-0.5670019
2058432000,0.006778107,0.0044269618,-0.00012892485,0.0,0.0,-0.5675886
2058448000,0.0057234466,0.005624733,-0.0004157424,0.0,0.0,-0.5655298
2058472000,0.0027369945,0.0037388192,-0.00050747395,0.0,0.0,-0.5657317
2058492000,0.0024325359,0.005518084,-0.0005866885,0.0,0.0,-0.56603247
2058516000,-0.005747917,0.005670314,-0.0005505681,0.0,0.0,-0.56422544
2058536000,-0.0074874787,0.005767609,-0.0006505251,0.0,0.0,-0.56469005
2058548000,-0.0038922606,0.0052745854,-0.0003604889,0.0,0.0,-0.56553733
2058572000,-0.003243912,0.0046918243,-0.00025874376,0.0,0.0,-0.5647737
2058592000,-0.0021755265,0.0041580843,-0.00040340424,0.0,0.0,-0.5647737
2058616000,0.0018656496,-0.009725218,-0.0004336238,0.0,0.0,-0.5643134
2058639999,0.0021952146,-0.011496192,-0.00031203032,0.0,0.0,-0.564986
2058655999,0.0024816361,-0.012617804,-0.00017237663,0.0,0.0,-0.56583565
2058680000,0.0046685035,-0.006814152,-0.00016343594,0.0,0.0,-0.56350225
2058695999,0.0017028025,0.0029503105,6.920099e-05,0.0,0.0,-0.56471086
2058720000,0.0018000392,0.0068763318,9.423494e-05,0.0,0.0,-0.5654377
2058740000,0.010233484,0.0032887012,0.000195086,0.0,0.0,-0.56457597
2058756000,0.010224341,0.003616673,-6.0796738e-06,0.0,0.0,-0.56457597
2058771999,0.008831244,0.0027608292,-1.9133091e-05,0.0,0.0,-0.56543857
2058791999,0.0007424868,0.0047670435,-0.0001668334,0.0,0.0,-0.5635356
2058816000,0.005473746,0.0051800124,-0.00020366907,0.0,0.0,-0.56528884
2058831999,0.004757335,0.0043252287,-0.00017076731,0.0,0.0,-0.56528884
2058856000,0.0051059923,0.002536241,-0.00019043684,0.0,0.0,-0.56525207
2058880000,0.0048282687,0.0029183363,-0.00022941828,0.0,0.0,-0.5665488
2058900000,-0.004620963,0.004224932,-0.0003274083,0.0,0.0,-0.5654406
2058916000,-0.005625697,0.001074532,-0.0004425645,0.0,0.0,-0.56641066
2058936000,-0.002431023,-0.00019789499,-0.00043165684,0.0,0.0,-0.5670229
2058960000,-0.0014129381,0.0039012083,-0.00040018559,0.0,0.0,-0.56499517
2058980000,0.0012389225,0.00027643587,-0.0002655387,0.0,0.0,-0.5648351
2058996000,0.00027605204,0.0019233747,-0.00014734268,0.0,0.0,-0.56532085
2059020000,-0.013716836,0.004328953,0.0001360774,0.0,0.0,-0.5630572
2059039999,-0.012584757,0.005824672,0.00026017427,0.0,0.0,-0.5634003
2059059999,-0.010927271,0.005738115,-8.100271e-05,0.0,0.0,-0.56390727
2059084000,-0.0070451126,0.005408827,-0.0004912019,0.0,0.0,-0.5644369
2059104000,-0.005052261,0.0030996508,-0.0003388524,0.0,0.0,-0.5627475
2059124000,0.00035741797,0.0032110051,-0.00043451786,0.0,0.0,-0.56284213
2059144000,0.0019935037,0.007307141,-0.0006119013,0.0,0.0,-0.56210583
2059164000,0.002883613,0.010588399,-0.0006660819,0.0,0.0,-0.562607
2059180000,0.00083074195,0.0042340187,-0.00063836575,0.0,0.0,-0.5631926
2059200000,0.0036234404,0.0061799577,-0.0004886985,0.0,0.0,-0.5623971
2059220000,0.010448961,0.0031465353,-0.00055611134,0.0,0.0,-0.5632025
2059240000,0.009588128,0.0023135317,-0.00056272745,0.0,0.0,-0.56253225
2059264000,0.010364624,0.002208248,-0.00047671795,0.0,0.0,-0.5632126
2059276000,0.00814173,-0.0007902228,-0.000413239,0.0,0.0,-0.5641676
2059300000,0.0066801407,0.0033734343,-7.921457e-05,0.0,0.0,-0.5631476
2059320000,0.005382564,0.00024937594,-7.18832e-05,0.0,0.0,-0.5635523
2059340000,0.0058412426,-0.002318224,9.602308e-05,0.0,0.0,-0.56214476
2059360000,0.0038896664,-0.0015852526,0.00027126074,0.0,0.0,-0.5624707
2059384000,0.0014950553,-0.0005738087,0.00025624037,0.0,0.0,-0.5625698
2059404000,0.0030917176,-0.0034771697,0.00035762787,0.0,0.0,-0.5617091
2059420000,0.0047639953,0.00042594457,0.0004298687,0.0,0.0,-0.5621802
2059443999,0.009704229,-0.0021734517,0.00040894747,0.0,0.0,-0.5621989
2059463999,0.009788399,0.0026381502,0.00029200315,0.0,0.0,-0.56260365
2059488000,0.012102228,-0.0020343277,0.00037193298,0.0,0.0,-0.5633579
2059503999,0.009844415,-0.00041854894,0.00021886826,0.0,0.0,-0.56280804
2059528000,0.0072842613,-0.0022383754,0.00022906065,0.0,0.0,-0.56316817
2059548000,0.004260738,-0.0043752016,0.00020831823,0.0,0.0,-0.5640833
2059564000,0.0066852467,-0.0012217304,4.9352646e-05,0.0,0.0,-0.56297874
2059584000,0.004707441,0.0003764585,-2.360344e-05,0.0,0.0,-0.5631524
2059608000,0.0034458553,-0.0029784185,-4.4703484e-06,0.0,0.0,-0.5637936
2059624000,0.0007464874,0.0028831898,-8.529425e-05,0.0,0.0,-0.56292385
2059648000,0.0009954809,0.0037425072,0.000110685825,0.0,0.0,-0.563594
2059668000,0.002211254,-0.0018683356,0.0002619624,0.0,0.0,-0.5635807
2059684000,0.0025868076,-0.001945859,0.00010120869,0.0,0.0,-0.5635807
2059708000,-0.0027956902,0.00055388454,0.00010585785,0.0,0.0,-0.56427497
2059728000,-0.007183094,0.0062876106,4.041195e-05,0.0,0.0,-0.56290317
2059748000,-0.004739883,0.004324697,2.2888184e-05,0.0,0.0,-0.56296
2059768000,-0.005710439,0.00515124,-4.7564507e-05,0.0,0.0,-0.56282175
2059784000,-0.009840962,0.006285483,-0.00010514259,0.0,0.0,-0.5609925
2059808000,-0.006133233,0.0070235864,0.00021636486,0.0,0.0,-0.5613206
2059831999,-0.0022647716,0.0030913963,2.6464462e-05,0.0,0.0,-0.56244934
2059844000,0.00511082,0.001694078,0.00015753508,0.0,0.0,-0.5621585
2059872000,0.00046212994,-0.0039719203,5.7041645e-05,0.0,0.0,-0.56345326
2059887999,0.00033887755,-0.005005988,0.00024461746,0.0,0.0,-0.56345326
2059912000,-0.0016112899,-0.007642277,0.00038212538,0.0,0.0,-0.56378233
2059932000,0.0017578985,-0.0023298513,0.00018060207,0.0,0.0,-0.56491786
2059948000,0.002458686,-0.0012731154,0.00022512674,0.0,0.0,-0.5639455
2059968000,0.005564682,0.0009042247,0.00038713217,0.0,0.0,-0.56405115
2059992000,0.0055059455,0.002072972,0.00044828653,0.0,0.0,-0.564266
2060012000,0.005566639,0.00207838,0.00060403347,0.0,0.0,-0.56263596
2060023999,0.009009501,0.005224791,0.0006233454,0.0,0.0,-0.56261426
2060052000,0.006190291,0.007314349,0.00047278404,0.0,0.0,-0.56218266
2060072000,0.0063692546,0.0052080075,0.00040787458,0.0,0.0,-0.56261444
2060088000,0.006859895,0.0027795623,0.00034421682,0.0,0.0,-0.5635477
2060112000,0.008873527,-0.0025940207,0.00056773424,0.0,0.0,-0.56267405
2060132000,0.004227781,-0.0019990294,0.0006907582,0.0,0.0,-0.56357616
2060152000,0.001702776,0.0012414356,0.0007814169,0.0,0.0,-0.5630692
2060172000,0.0007740272,-0.0028051683,0.0007984042,0.0,0.0,-0.56394005
2060188000,0.004611179,0.0012560898,0.00078999996,0.0,0.0,-0.5643358
2060208000,0.005720003,0.00084938976,0.000641942,0.0,0.0,-0.56333137
2060231999,5.337631e-05,5.229155e-05,0.0006582141,0.0,0.0,-0.56380737
2060256000,-0.0027886012,0.0015666862,0.00066125393,0.0,0.0,-0.5637188
2060271999,-0.006422368,0.0008399334,0.0010224581,0.0,0.0,-0.56437564
2060291999,-0.010144088,0.0027890573,0.0009800792,0.0,0.0,-0.56287694
2060311999,-0.008251851,0.0010257144,0.0009663105,0.0,0.0,-0.5630652
2060331999,-0.007651029,-0.000118860975,0.0010741353,0.0,0.0,-0.56228137
2060356000,-0.0040132157,0.0039424263,0.0012865663,0.0,0.0,-0.5626578
2060376000,-0.003181656,0.0012091335,0.0012677908,0.0,0.0,-0.5631343
2060392000,0.0013417964,0.0006764135,0.0010315776,0.0,0.0,-0.5617768
2060416000,0.0055757295,-0.004326323,0.0010995269,0.0,0.0,-0.56213456
2060432000,0.0073107556,-0.0077975183,0.0010728836,0.0,0.0,-0.5625626
2060456000,0.0057017347,-0.00703063,0.0012352467,0.0,0.0,-0.56219053
2060476000,0.007811282,-0.0068209623,0.0011576414,0.0,0.0,-0.56220406
2060492000,0.0070784753,-0.0043639746,0.001206994,0.0,0.0,-0.56300324
2060512000,0.006981834,-0.005422699,0.0011971593,0.0,0.0,-0.5628677
2060532000,0.0073100547,-0.0051022456,0.0013232231,0.0,0.0,-0.5634853
2060556000,0.007977633,0.0033001837,0.001440525,0.0,0.0,-0.5632847
2060576000,0.00984047,0.0020826154,0.0013203621,0.0,0.0,-0.56373584
2060596000,0.0050213947,0.0049977005,0.0012972951,0.0,0.0,-0.56426346
2060612000,0.0028299436,0.0046687843,0.001121521,0.0,0.0,-0.5631626
2060635999,0.004025271,0.00614132,0.0008250475,0.0,0.0,-0.56313455
2060655999,0.0016087638,0.0057587163,-0.00021457672,0.0,0.0,-0.56350756
2060675999,0.009159211,0.007929159,-0.00031667948,0.0,0.0,-0.56288457
2060700000,0.0044936254,-0.0032475996,-0.00020188093,0.0,0.0,-0.5615095
2060715999,-0.004188411,-0.020798815,-0.00026893616,0.0,0.0,-0.5588344
2060740000,-0.011678962,-0.031195968,-0.035399973,0.0,0.0,-0.5557178
2060760000,-0.024081726,-0.038707115,-0.079673946,0.0,0.0,-0.5551749
2060780000,-0.051076993,-0.02786193,-0.15866876,0.0,0.0,-0.5574346
2060800000,-0.06787273,-0.0039503826,-0.20198679,0.0,0.0,-0.55936986
2060820000,-0.09014991,0.030180387,-0.24403775,0.0,0.0,-0.56156087
2060836000,-0.108180165,0.06370794,-0.2758745,0.0,0.0,-0.5630104
2060856000,-0.13494316,0.104946464,-0.31607097,0.0,0.0,-0.56415325
2060880000,-0.15925053,0.16009547,-0.35233855,0.0,0.0,-0.56523293
2060900000,-0.17619014,0.2011701,-0.37904978,0.0,0.0,-0.56476736
2060920000,-0.19681424,0.25920987,-0.41233563,0.0,0.0,-0.564724
2060940000,-0.22705333,0.32129186,-0.4430024,0.0,0.0,-0.56540555
2060956000,-0.240397,0.3660642,-0.46639717,0.0,0.0,-0.5636373
2060980000,-0.26009768,0.41406673,-0.4898581,0.0,0.0,-0.56323606
2061000000,-0.28504077,0.4751275,-0.51364464,0.0,0.0,-0.5635417
2061016000,-0.28506097,0.50084406,-0.5279138,0.0,0.0,-0.5624933
2061043999,-0.36981165,0.6310421,-0.5821506,0.0,0.0,-0.563977
2061059999,-0.4122995,0.6724435,-0.5985423,0.0,0.0,-0.5660592
2061084000,-0.4486887,0.6991167,-0.6138954,0.0,0.0,-0.5680896
2061096000,-0.41336972,0.6409365,-0.5954734,0.0,0.0,-0.5680896
2061119999,-0.49114108,0.7058121,-0.6392733,0.0,0.0,-0.569947
2061139999,-0.48860452,0.68735546,-0.65287495,0.0,0.0,-0.5700095
2061164000,-0.5081046,0.6759412,-0.6575744,0.0,0.0,-0.57230264
2061184000,-0.5287632,0.67815554,-0.66634595,0.0,0.0,-0.5743341
2061204000,-0.47982025,0.58509284,-0.6749359,0.0,0.0,-0.5715242
2061224000,-0.50120616,0.5800783,-0.6824425,0.0,0.0,-0.573684
2061235999,-0.4785108,0.5424353,-0.7004707,0.0,0.0,-0.5729106
2061264000,-0.48775643,0.52250165,-0.7010656,0.0,0.0,-0.5759119
2061280000,-0.5022823,0.5142201,-0.7075646,0.0,0.0,-0.5787332
2061296000,-0.42010358,0.4262225,-0.7225131,0.0,0.0,-0.57609826
2061320000,-0.42462042,0.41733268,-0.7205314,0.0,0.0,-0.5794878
2061344000,-0.36849076,0.35619965,-0.7332121,0.0,0.0,-0.5792272
2061360000,-0.38814452,0.3617831,-0.737875,0.0,0.0,-0.5833827
2061384000,-0.3888022,0.35382372,-0.73595005,0.0,0.0,-0.587777
2061400000,-0.30200833,0.28053752,-0.75777483,0.0,0.0,-0.5854025
2061420000,-0.33106095,0.29472053,-0.76154333,0.0,0.0,-0.59007746
2061443999,-0.264131,0.23605675,-0.76687336,0.0,0.0,-0.58907
2061468000,-0.25694364,0.21597746,-0.81402093,0.0,0.0,-0.5921177
2061483999,-0.22574109,0.19133931,-0.7848596,0.0,0.0,-0.5921177
2061503999,-0.26418453,0.21624734,-0.7875311,0.0,0.0,-0.5968197
2061528000,-0.20116356,0.15985826,-0.83060277,0.0,0.0,-0.5968754
2061543999,-0.29229808,0.2188033,-0.83795124,0.0,0.0,-0.6047689
2061564000,-0.1739439,0.14915372,-0.8430335,0.0,0.0,-0.5998858
2061588000,-0.22539333,0.17378935,-0.8378674,0.0,0.0,-0.6046178
2061604000,-0.27833307,0.20385867,-0.8564127,0.0,0.0,-0.6087858
2061628000,-0.15877414,0.13212192,-0.8536568,0.0,0.0,-0.60443574
2061644000,-0.26537699,0.19296044,-0.8693516,0.0,0.0,-0.61274433
2061664000,-0.1502791,0.12620571,-0.8742083,0.0,0.0,-0.6079443
2061684000,-0.20748529,0.152807,-0.87653,0.0,0.0,-0.61352
2061708000,-0.24011381,0.1608326,-0.8727486,0.0,0.0,-0.6173764
2061720000,-0.12506327,0.103111655,-0.88393223,0.0,0.0,-0.6124405
2061740000,-0.23328292,0.14848973,-0.8944671,0.0,0.0,-0.6203308
2061764000,-0.12298575,0.096790105,-0.89591146,0.0,0.0,-0.61490405
2061788000,-0.18791623,0.1183549,-0.89041615,0.0,0.0,-0.61941326
2061808000,-0.23580891,0.13741088,-0.89332706,0.0,0.0,-0.62326086
2061827999,-0.1301124,0.09845884,-0.89148027,0.0,0.0,-0.61883026
2061847999,-0.2390235,0.13477588,-0.9033408,0.0,0.0,-0.62718296
2061867999,-0.20631726,0.11955332,-0.94013804,0.0,0.0,-0.6276286
2061887999,-0.25728408,0.13264638,-0.953283,0.0,0.0,-0.632079
2061912000,-0.14388257,0.09739908,-0.9399041,0.0,0.0,-0.6267732
2061932000,-0.19857283,0.10784483,-0.93521744,0.0,0.0,-0.6317424
2061948000,-0.15458298,0.09825195,-0.95700127,0.0,0.0,-0.62941456
2061963999,-0.21791491,0.111061156,-0.9610833,0.0,0.0,-0.6339366
2061988000,-0.26953894,0.116239406,-0.9662185,0.0,0.0,-0.6383797
2062012000,-0.16965917,0.088370696,-0.9502884,0.0,0.0,-0.6330561
2062028000,-0.2278482,0.094205886,-0.9553282,0.0,0.0,-0.6378178
2062052000,-0.18654262,0.07869843,-0.9598142,0.0,0.0,-0.6361069
2062068000,-0.24672765,0.08259715,-0.9752916,0.0,0.0,-0.6411795
2062088000,-0.28684473,0.080544546,-0.9813745,0.0,0.0,-0.6458507
2062112000,-0.17615308,0.06165397,-0.96186376,0.0,0.0,-0.6407124
2062132000,-0.233674,0.061497644,-0.96822864,0.0,0.0,-0.64501876
2062152000,-0.18506317,0.051153436,-0.96988714,0.0,0.0,-0.64242554
2062168000,-0.2398934,0.05313514,-0.9848592,0.0,0.0,-0.64751256
2062192000,-0.27656603,0.049640223,-0.98057574,0.0,0.0,-0.652366
2062208000,-0.17593372,0.042702734,-0.9767044,0.0,0.0,-0.6481707
2062235999,-0.19177005,0.044392973,-1.01085,0.0,0.0,-0.65161043
2062256000,-0.24220441,0.03987935,-1.0174408,0.0,0.0,-0.65711427
2062276000,-0.27843916,0.03567472,-1.0223706,0.0,0.0,-0.6619331
2062296000,-0.17659114,0.03329408,-1.0062547,0.0,0.0,-0.65654427
2062311999,-0.23103811,0.024630904,-1.0235127,0.0,0.0,-0.6614836
2062336000,-0.1832568,0.021962464,-1.0116237,0.0,0.0,-0.65890884
2062356000,-0.23153621,0.012536287,-1.0181884,0.0,0.0,-0.6640162
2062372000,-0.27937984,0.0022984743,-1.0347722,0.0,0.0,-0.66873854
2062396000,-0.18591884,0.007575184,-1.0058451,0.0,0.0,-0.6631594
2062416000,-0.24411446,-0.0063833892,-1.0140538,0.0,0.0,-0.6679989
2062432000,-0.28946942,-0.019120663,-1.031015,0.0,0.0,-0.6718622
2062456000,-0.19404715,-0.008596927,-1.0003856,0.0,0.0,-0.6656322
2062476000,-0.24216413,-0.026052833,-0.99803424,0.0,0.0,-0.670725
2062492000,-0.2866056,-0.036295205,-1.0234956,0.0,0.0,-0.6747491
2062512000,-0.1899291,-0.011885762,-0.99859893,0.0,0.0,-0.6680137
2062532000,-0.23923877,-0.024917543,-1.0047534,0.0,0.0,-0.6726002
2062552000,-0.27294964,-0.03731203,-1.0090023,0.0,0.0,-0.6765607
2062576000,-0.23016827,-0.015777826,-1.027237,0.0,0.0,-0.6757989
2062592000,-0.2636058,-0.020664722,-1.0391965,0.0,0.0,-0.680533
2062612000,-0.17059578,0.013124317,-1.0113012,0.0,0.0,-0.67432016
2062635999,-0.20043674,0.0061817765,-1.0018609,0.0,0.0,-0.67927647
2062660000,-0.22825158,-0.00058311224,-0.9917357,0.0,0.0,-0.6829607
2062680000,-0.13234462,0.038306236,-0.96153975,0.0,0.0,-0.6770735
2062700000,-0.16508575,0.023470849,-0.9632149,0.0,0.0,-0.68175095
2062715999,-0.18907332,0.013548374,-0.9729216,0.0,0.0,-0.6856727
2062735999,-0.09696075,0.053438723,-0.9420247,0.0,0.0,-0.6794077
2062760000,-0.12529868,0.03540516,-0.9317529,0.0,0.0,-0.68382865
2062780000,-0.054277305,0.06718147,-0.95141315,0.0,0.0,-0.6822331
2062796000,-0.08277027,0.05017823,-0.9619006,0.0,0.0,-0.68641144
2062820000,-0.10175519,0.0264135,-0.9516567,0.0,0.0,-0.68955183
2062840000,-0.017174106,0.0552603,-0.92390907,0.0,0.0,-0.6836069
2062860000,-0.04171311,0.033079326,-0.9235357,0.0,0.0,-0.6871913
2062880000,-0.057364687,0.015218854,-0.9215323,0.0,0.0,-0.6893442
2062900000,0.020019388,0.04289639,-0.895046,0.0,0.0,-0.68328106
2062920000,-0.0028282776,0.01763767,-0.89496195,0.0,0.0,-0.68579066
2062940000,-0.01896912,-0.0055886507,-0.8938726,0.0,0.0,-0.68729025
2062960000,0.054861866,0.019917369,-0.86907077,0.0,0.0,-0.6817281
2062972000,0.03452496,-0.0012479424,-0.8781992,0.0,0.0,-0.6843536
2062996000,0.019518096,-0.023628116,-0.8665352,0.0,0.0,-0.6861494
2063016000,0.09532951,0.0018103123,-0.8525795,0.0,0.0,-0.68183726
2063043999,0.123725116,-0.0060893297,-0.86946774,0.0,0.0,-0.6823063
2063059999,0.10797675,-0.028219879,-0.8673073,0.0,0.0,-0.68482995
2063084000,0.092334874,-0.04781109,-0.86485434,0.0,0.0,-0.6869824
2063104000,0.13575463,-0.033555686,-0.84560215,0.0,0.0,-0.68320644
2063119999,0.10531191,-0.049540758,-0.8431957,0.0,0.0,-0.6851126
2063139999,0.121029675,-0.0427258,-0.8453028,0.0,0.0,-0.6834589
2063160000,0.084518,-0.066096604,-0.83479714,0.0,0.0,-0.6851209
2063184000,0.05626052,-0.08424318,-0.8330369,0.0,0.0,-0.68689984
2063200000,0.08249713,-0.054990113,-0.82332695,0.0,0.0,-0.68327504
2063224000,0.0426927,-0.07726747,-0.8137679,0.0,0.0,-0.6844804
2063240000,0.0479182,-0.06624055,-0.81639576,0.0,0.0,-0.682156
2063260000,0.0147924945,-0.09176999,-0.8075727,0.0,0.0,-0.68336207
2063280000,-0.011756279,-0.1148234,-0.8071754,0.0,0.0,-0.68454975
2063300000,0.008456133,-0.09754443,-0.8008547,0.0,0.0,-0.6813331
2063320000,-0.012450345,-0.120972276,-0.8005682,0.0,0.0,-0.68235826
2063340000,-0.009601146,-0.11968875,-0.78820825,0.0,0.0,-0.6797174
2063360000,-0.027880624,-0.13923687,-0.79649985,0.0,0.0,-0.68061876
2063384000,-0.03993371,-0.15754366,-0.78721654,0.0,0.0,-0.68146586
2063400000,-0.01913032,-0.13623315,-0.7815099,0.0,0.0,-0.6775421
2063416000,-0.039070845,-0.1505742,-0.7805507,0.0,0.0,-0.6785576
2063448000,-0.025563464,-0.13375229,-0.789829,0.0,0.0,-0.6772253
2063468000,-0.033758685,-0.14517564,-0.78769934,0.0,0.0,-0.678772
2063488000,-0.041463375,-0.15453672,-0.7854996,0.0,0.0,-0.68020123
2063503999,-0.021591425,-0.11626536,-0.7788824,0.0,0.0,-0.67774093
2063528000,-0.028404191,-0.123595655,-0.7681836,0.0,0.0,-0.67958623
2063548000,-0.03415963,-0.13566077,-0.76617694,0.0,0.0,-0.681632
2063564000,-0.012578577,-0.102589846,-0.76012516,0.0,0.0,-0.67894185
2063588000,-0.014697164,-0.112932265,-0.7491871,0.0,0.0,-0.6800096
2063604000,-0.02120997,-0.12441695,-0.7553015,0.0,0.0,-0.68118507
2063628000,-0.003832385,-0.11698794,-0.7734679,0.0,0.0,-0.6787628
2063644000,-0.002212599,-0.11708701,-0.74032116,0.0,0.0,-0.6787628
2063668000,0.0045811236,-0.09406668,-0.7579901,0.0,0.0,-0.6773003
2063684000,0.002806306,-0.11303419,-0.75610185,0.0,0.0,-0.6788673
2063704000,-0.0021327138,-0.13281655,-0.762409,0.0,0.0,-0.6805627
2063724000,0.013989285,-0.09676176,-0.7495254,0.0,0.0,-0.67789733
2063744000,0.008474708,-0.11718124,-0.7395959,0.0,0.0,-0.67938066
2063764000,0.0042689145,-0.13813913,-0.7377434,0.0,0.0,-0.68088984
2063784000,0.021232903,-0.09794015,-0.7333528,0.0,0.0,-0.67766315
2063804000,0.016618162,-0.11592883,-0.72331345,0.0,0.0,-0.6789093
2063827999,0.010969073,-0.13340592,-0.7216197,0.0,0.0,-0.68088377
2063852000,0.021733046,-0.11341506,-0.7405107,0.0,0.0,-0.679714
2063872000,0.02363035,-0.1127767,-0.70045567,0.0,0.0,-0.679714
2063892000,0.032462686,-0.093608916,-0.7277713,0.0,0.0,-0.67918134
2063912000,0.029664695,-0.1082924,-0.71798193,0.0,0.0,-0.6808993
2063927999,0.030547589,-0.10818976,-0.68623245,0.0,0.0,-0.6808993
2063952000,0.037130266,-0.092435,-0.7140877,0.0,0.0,-0.68019116
2063968000,0.037536174,-0.11403251,-0.72028863,0.0,0.0,-0.6820565
2063988000,0.03533426,-0.128981,-0.6839855,0.0,0.0,-0.68332005
2064012000,0.04693687,-0.08846462,-0.6446564,0.0,0.0,-0.67949325
2064028000,0.04588017,-0.102769375,-0.6137116,0.0,0.0,-0.681143
2064048000,0.045782804,-0.08820677,-0.57507205,0.0,0.0,-0.6794793
2064072000,0.040333718,-0.11398244,-0.5298253,0.0,0.0,-0.680894
2064088000,0.035407573,-0.1354047,-0.500394,0.0,0.0,-0.68290657
2064108000,0.03945467,-0.09799808,-0.46435153,0.0,0.0,-0.6800174
2064128000,0.034763575,-0.1197415,-0.4301691,0.0,0.0,-0.6815436
2064148000,0.02916348,-0.10091704,-0.3972777,0.0,0.0,-0.6797602
2064172000,0.0228391,-0.12063682,-0.360402,0.0,0.0,-0.68150693
2064188000,0.018371254,-0.14483911,-0.337551,0.0,0.0,-0.68291175
2064208000,0.0142259,-0.10368079,-0.30957448,0.0,0.0,-0.6795841
2064235999,0.009490371,-0.10196972,-0.27387893,0.0,0.0,-0.6788872
2064256000,0.005524993,-0.11710471,-0.25076795,0.0,0.0,-0.680093
2064276000,0.0074035227,-0.13649297,-0.22912574,0.0,0.0,-0.68185735
2064296000,0.008146405,-0.09138787,-0.20840263,0.0,0.0,-0.6791784
2064311999,0.015537053,-0.11332476,-0.19311225,0.0,0.0,-0.68061435
2064336000,0.024145782,-0.093438506,-0.17133307,0.0,0.0,-0.6797198
2064356000,0.031424135,-0.11160368,-0.15470839,0.0,0.0,-0.6814214
2064376000,0.039391994,-0.12593132,-0.13874674,0.0,0.0,-0.6828235
2064396000,0.042284667,-0.086509466,-0.12365091,0.0,0.0,-0.6797382
2064416000,0.04445994,-0.101845086,-0.10983932,0.0,0.0,-0.6813336
2064436000,0.04696119,-0.11576468,-0.09425712,0.0,0.0,-0.68247247
2064456000,0.057650506,-0.06428665,-0.08397746,0.0,0.0,-0.67998445
2064476000,0.058732152,-0.08220899,-0.07230663,0.0,0.0,-0.6810442
2064496000,0.059791356,-0.09882563,-0.061469793,0.0,0.0,-0.6824218
2064512000,0.060759813,-0.047294497,-0.05257988,0.0,0.0,-0.6797577
2064528000,0.05948648,-0.06569785,-0.043145657,0.0,0.0,-0.6816444
2064548000,0.061311185,-0.089054525,-0.034069777,0.0,0.0,-0.68335176
2064568000,0.06514236,-0.04049921,-0.0253129,0.0,0.0,-0.68095195
2064588000,0.06594068,-0.056359828,-0.017540932,0.0,0.0,-0.6820319
2064612000,0.07017025,-0.03323418,-0.010101557,0.0,0.0,-0.67997015
2064639999,0.07156393,-0.056531847,-0.0009012222,0.0,0.0,-0.68103015
2064660000,0.06641087,-0.078231096,0.0048154593,0.0,0.0,-0.6826387
2064680000,0.06671083,-0.04176879,0.01084435,0.0,0.0,-0.67968714
2064695999,0.06960261,-0.06965804,0.01489234,0.0,0.0,-0.6815588
2064720000,0.06626952,-0.09167898,0.020963073,0.0,0.0,-0.6829522
2064740000,0.0647538,-0.06975603,0.025865436,0.0,0.0,-0.6816331
2064756000,0.06313285,-0.06822592,0.030136585,0.0,0.0,-0.6816331
2064780000,0.06822735,-0.0436846,0.034329414,0.0,0.0,-0.6803665
2064800000,0.06674901,-0.06467414,0.03811705,0.0,0.0,-0.6813001
2064820000,0.06590867,-0.08231163,0.041366816,0.0,0.0,-0.6828294
2064836000,0.062588006,-0.04282075,0.044937015,0.0,0.0,-0.6795444
2064856000,0.060144246,-0.065710366,0.047398925,0.0,0.0,-0.68110687
2064876000,0.057111472,-0.08656132,0.049344063,0.0,0.0,-0.68300194
2064896000,0.05510795,-0.034810603,0.05220616,0.0,0.0,-0.6798739
2064916000,0.057904065,-0.05721599,0.054189205,0.0,0.0,-0.6812477
2064936000,0.05582741,-0.07669115,0.05616474,0.0,0.0,-0.6827797
2064960000,0.05352652,-0.031748414,0.058390617,0.0,0.0,-0.6798736
2064976000,0.055112332,-0.0469442,0.05951643,0.0,0.0,-0.68177265
2064996000,0.05124539,-0.0643301,0.061341047,0.0,0.0,-0.6838379
2065020000,0.045836,-0.016123295,0.06307161,0.0,0.0,-0.6814321
2065043999,0.04522741,-0.0138680935,0.06473601,0.0,0.0,-0.68170583
2065064000,0.041906834,-0.039042592,0.06554389,0.0,0.0,-0.68335336
2065084000,0.04421836,-0.056702793,0.06640577,0.0,0.0,-0.6852259
2065099999,0.04851982,-0.01583594,0.06732094,0.0,0.0,-0.6818972
2065119999,0.051784873,-0.03818518,0.067851305,0.0,0.0,-0.6832388
2065144000,0.05232945,-0.025898695,0.06882191,0.0,0.0,-0.68134975
2065160000,0.05332294,-0.04891026,0.069331884,0.0,0.0,-0.6830271
2065180000,0.05571404,-0.07067782,0.069533944,0.0,0.0,-0.684355
2065204000,0.0513753,-0.031475365,0.07061684,0.0,0.0,-0.68108463
2065220000,0.048688352,-0.055740774,0.070662975,0.0,0.0,-0.6820176
2065244000,0.047207147,-0.035270154,0.07117045,0.0,0.0,-0.6805999
2065264000,0.04695216,-0.056070864,0.07123482,0.0,0.0,-0.68258774
2065280000,0.041532576,-0.074154675,0.0713861,0.0,0.0,-0.6847886
2065300000,0.04014945,-0.034007013,0.07217932,0.0,0.0,-0.6820292
2065324000,0.04142189,-0.050410867,0.072221875,0.0,0.0,-0.683633
2065344000,0.03410393,-0.025868833,0.072378516,0.0,0.0,-0.6823054
2065360000,0.03412807,-0.040904224,0.07211065,0.0,0.0,-0.68402916
2065384000,0.034665942,-0.05468166,0.07171261,0.0,0.0,-0.6854791
2065404000,0.03186831,-0.011725187,0.072025895,0.0,0.0,-0.68263847
2065424000,0.031398207,-0.05550742,0.07124376,0.0,0.0,-0.6853966
2065443999,0.032621562,-0.010730088,0.07175982,0.0,0.0,-0.6823748
2065468000,0.03593597,-0.034172058,0.071157575,0.0,0.0,-0.68355495
2065488000,0.03737381,-0.053824782,0.07075453,0.0,0.0,-0.6849926
2065503999,0.037212074,-0.013097048,0.070662975,0.0,0.0,-0.681607
2065528000,0.042499065,-0.035396755,0.07020664,0.0,0.0,-0.6830912
2065548000,0.042602062,-0.05448854,0.06959939,0.0,0.0,-0.6846088
2065564000,0.043240428,-0.013467729,0.069787145,0.0,0.0,-0.6819396
2065584000,0.04331705,-0.030517101,0.0695858,0.0,0.0,-0.68388057
2065608000,0.04187116,-0.046711564,0.06908548,0.0,0.0,-0.68607205
2065624000,0.037852407,-0.0044973493,0.06919956,0.0,0.0,-0.6830696
2065648000,0.035664797,-0.02672875,0.06850147,0.0,0.0,-0.6839679
2065664000,0.028684616,-0.0444957,0.06803477,0.0,0.0,-0.6855812
2065684000,0.020552337,-0.004078567,0.06800473,0.0,0.0,-0.68273586
2065708000,0.020347416,-0.04675877,0.06734276,0.0,0.0,-0.6864888
2065728000,0.017056972,-3.629923e-05,0.06718755,0.0,0.0,-0.6841151
2065748000,0.018120557,-0.01785189,0.06635964,0.0,0.0,-0.6857577
2065768000,0.02389893,-0.03791982,0.06535721,0.0,0.0,-0.6870847
2065784000,0.021243364,-0.005635321,0.06501138,0.0,0.0,-0.6832744
2065808000,0.018253148,-0.028281748,0.06388092,0.0,0.0,-0.68464315
2065827999,0.016878247,-0.047165394,0.06304693,0.0,0.0,-0.68539965
2065847999,0.018277466,-0.005001962,0.062672496,0.0,0.0,-0.6820545
2065872000,0.018724501,-0.026173353,0.061819196,0.0,0.0,-0.6837
2065892000,0.015152603,-0.0006455183,0.061655045,0.0,0.0,-0.68219036
2065912000,0.02107492,-0.023818016,0.06090796,0.0,0.0,-0.68378264
2065924000,0.021884054,-0.023432314,0.060697675,0.0,0.0,-0.68378264
2065952000,0.020498872,-0.0009434223,0.06037581,0.0,0.0,-0.6830038
2065972000,0.02036038,-0.023989856,0.05971849,0.0,0.0,-0.68498456
2065988000,0.021938056,-0.0480718,0.059173822,0.0,0.0,-0.68656385
2066012000,0.020097166,-0.008009791,0.05897641,0.0,0.0,-0.6842797
2066028000,0.02072668,-0.029646099,0.058285475,0.0,0.0,-0.6855908
2066052000,0.02177167,-0.011152625,0.05804479,0.0,0.0,-0.68386024
2066068000,0.023074776,-0.032278597,0.057450414,0.0,0.0,-0.68547916
2066088000,0.021449089,-0.047285914,0.056969404,0.0,0.0,-0.6866442
2066108000,0.017703742,-0.0072053075,0.056686163,0.0,0.0,-0.6835471
2066128000,0.017258584,-0.029803276,0.055951238,0.0,0.0,-0.68488693
2066152000,0.014031798,-0.010086179,0.055812478,0.0,0.0,-0.68386596
2066172000,0.017801106,-0.03252572,0.055080056,0.0,0.0,-0.6854676
2066192000,0.016126871,-0.0497337,0.054638386,0.0,0.0,-0.68731254
2066212000,0.012457967,-0.024348557,0.054267526,0.0,0.0,-0.6858314
2066235999,0.008082479,0.002013445,0.05368638,0.0,0.0,-0.68419486
2066256000,0.0022009313,-0.022199929,0.052996874,0.0,0.0,-0.68576425
2066276000,0.0034771264,0.002117157,0.052823067,0.0,0.0,-0.68508756
2066296000,0.005034864,-0.017061532,0.05223012,0.0,0.0,-0.68704766
2066316000,0.0048225224,-0.038811743,0.05161035,0.0,0.0,-0.6885591
2066336000,0.00400874,-0.0060973763,0.051240563,0.0,0.0,-0.6852206
2066352000,0.007916182,-0.023933351,0.050611854,0.0,0.0,-0.6866143
2066376000,0.011188388,-0.045293212,0.049805403,0.0,0.0,-0.6881056
2066396000,0.008913606,-0.0080038905,0.04961407,0.0,0.0,-0.6852936
2066416000,0.005905509,-0.023718774,0.04906261,0.0,0.0,-0.6868287
2066432000,0.009615451,-0.040260673,0.048719645,0.0,0.0,-0.68848526
2066456000,0.0071486235,0.0007715821,0.0486027,0.0,0.0,-0.68551815
2066476000,0.0065179467,-0.018667817,0.047967553,0.0,0.0,-0.6871636
2066492000,0.008873016,-0.04116261,0.04714644,0.0,0.0,-0.68845975
2066508000,0.008033216,0.0033114552,0.047007322,0.0,0.0,-0.68561053
2066532000,0.013787895,-0.0132261515,0.046296358,0.0,0.0,-0.6870625
2066548000,0.01433444,-0.03657192,0.045660496,0.0,0.0,-0.68830055
2066576000,0.017413795,-0.019738376,0.045268536,0.0,0.0,-0.68600833
2066592000,0.017459571,0.0015056133,0.04500997,0.0,0.0,-0.68449414
2066616000,0.016653925,-0.01703149,0.044523597,0.0,0.0,-0.68652403
2066639999,0.011904985,-0.035555005,0.044053674,0.0,0.0,-0.68837154
2066660000,0.0128856,0.01614958,0.044309735,0.0,0.0,-0.68586224
2066675999,0.012818903,-0.0043904185,0.043615222,0.0,0.0,-0.6876758
2066700000,0.010527223,-0.022582948,0.043055177,0.0,0.0,-0.6895368
2066720000,0.012317777,0.01897502,0.04311776,0.0,0.0,-0.6866454
2066735999,0.014235914,-0.00647074,0.042413592,0.0,0.0,-0.6884932
2066756000,0.013654679,-0.027273059,0.041624665,0.0,0.0,-0.68986773
2066776000,0.01586759,0.012191176,0.041755915,0.0,0.0,-0.68594104
2066796000,0.0132780075,-0.00999552,0.041008115,0.0,0.0,-0.68697286
2066816000,0.016519636,-0.034520924,0.040450215,0.0,0.0,-0.6879283
2066836000,0.011717051,4.774332e-05,0.040499568,0.0,0.0,-0.6851754
2066856000,0.0053816736,-0.024071395,0.03990376,0.0,0.0,-0.6864304
2066876000,0.0016451776,-0.0031306744,0.03979361,0.0,0.0,-0.6847683
2066896000,-0.0017003417,-0.02355051,0.038912058,0.0,0.0,-0.68649125
2066920000,0.0007675588,-0.04490894,0.038166404,0.0,0.0,-0.6876482
2066940000,0.00046160817,0.0009993911,0.038232923,0.0,0.0,-0.68495524
2066960000,0.0061099827,-0.022395194,0.03751874,0.0,0.0,-0.68607044
2066976000,0.0068182647,-0.04235083,0.0368675,0.0,0.0,-0.6873255
2066996000,0.0071840286,-0.0047909617,0.03708279,0.0,0.0,-0.6835892
2067020000,0.006881833,-0.020322025,0.03645408,0.0,0.0,-0.6846336
2067043999,0.0036476254,0.0013520122,0.036185503,0.0,0.0,-0.68354535
2067059999,0.0038561225,0.002783239,0.035942674,0.0,0.0,-0.68354535
2067076000,0.0034432411,-0.01980561,0.03526604,0.0,0.0,-0.68525904
2067099999,0.0022073686,0.010936439,0.035144806,0.0,0.0,-0.6844751
2067119999,0.002053678,-0.0076471567,0.034536123,0.0,0.0,-0.68679166
2067144000,-0.002032578,0.0148540735,0.034511447,0.0,0.0,-0.6854764
2067164000,0.0015398562,-0.0045654774,0.034071922,0.0,0.0,-0.6871528
2067180000,0.0038371682,-0.024228394,0.03341317,0.0,0.0,-0.68938446
2067200000,0.0014744103,0.018132627,0.033498645,0.0,0.0,-0.68654644
2067224000,-0.00014993548,-0.0008853078,0.032808423,0.0,0.0,-0.68761575
2067240000,-0.00023549795,0.019933641,0.032784462,0.0,0.0,-0.68645
2067264000,-0.003921658,-0.0047317743,0.03222406,0.0,0.0,-0.6881489
2067284000,-0.002371341,-0.026921868,0.03156209,0.0,0.0,-0.6900557
2067304000,-0.006550759,0.012604952,0.03179598,0.0,0.0,-0.6869817
2067324000,-0.0034912527,-0.012979567,0.03112042,0.0,0.0,-0.68812066
2067344000,-0.0010769963,0.0075656176,0.030906916,0.0,0.0,-0.6862566
2067364000,0.0012593865,-0.01607269,0.030185938,0.0,0.0,-0.6877655
2067384000,0.003082484,-0.04088509,0.029248238,0.0,0.0,-0.68904513
2067400000,0.007702142,-0.0021495223,0.02927792,0.0,0.0,-0.6859319
2067420000,0.006662607,-0.020111024,0.028692484,0.0,0.0,-0.68735963
2067448000,0.0027802885,-0.003230989,0.028696775,0.0,0.0,-0.6859352
2067468000,0.0015849173,-0.027092993,0.028147101,0.0,0.0,-0.6875288
2067488000,0.006108731,-0.044053137,0.02765429,0.0,0.0,-0.6890463
2067503999,0.0060516894,-0.0033493638,0.027857065,0.0,0.0,-0.68634933
2067520000,0.0033425689,-0.020884037,0.02737248,0.0,0.0,-0.68817306
2067548000,0.0037827194,-0.037757456,0.026979446,0.0,0.0,-0.6893202
2067568000,-0.0035613477,0.002833128,0.027130365,0.0,0.0,-0.6863502
2067588000,-0.006238103,-0.017115712,0.026743412,0.0,0.0,-0.68764037
2067608000,-0.008070409,-0.040031254,0.026355386,0.0,0.0,-0.6886822
2067624000,-0.00800398,0.0010204911,0.026539207,0.0,0.0,-0.6848676
2067648000,-0.00425452,-0.02215004,0.025898337,0.0,0.0,-0.68653965
2067668000,-0.002863437,-0.0023070574,0.025630474,0.0,0.0,-0.68507904
2067684000,-0.0013641715,-0.015644789,0.025230289,0.0,0.0,-0.68661916
2067708000,-0.0021359324,-0.034279525,0.024709582,0.0,0.0,-0.68790656
2067724000,-0.0006762743,0.008705914,0.024792194,0.0,0.0,-0.6850842
2067744000,-0.002566427,-0.014230192,0.024032235,0.0,0.0,-0.6867132
2067764000,-0.000420928,-0.032218695,0.023529053,0.0,0.0,-0.68809134
2067788000,0.0032187402,0.0101594925,0.023705006,0.0,0.0,-0.6850366
2067804000,0.0049075484,-0.009100378,0.023136377,0.0,0.0,-0.6866939
2067831999,0.0026777387,-0.025470614,0.022764087,0.0,0.0,-0.6886282
2067852000,-0.004409373,0.019553483,0.023085594,0.0,0.0,-0.68681526
2067867999,-0.010468841,0.0028510094,0.022807002,0.0,0.0,-0.6886526
2067887999,-0.010520071,-0.01653707,0.022384644,0.0,0.0,-0.6902947
2067912000,-0.004586488,0.0047337413,0.02245295,0.0,0.0,-0.6884613
2067927999,-0.0034603179,0.004512906,0.022174,0.0,0.0,-0.6884613
2067952000,0.0041306913,0.029673636,0.022097826,0.0,0.0,-0.68685555
2067968000,0.0063296556,0.011942446,0.021811724,0.0,0.0,-0.68857884
2067988000,0.0050677657,-0.0065461993,0.021603942,0.0,0.0,-0.6903922
2068003999,0.0055451095,0.037559688,0.021930456,0.0,0.0,-0.68746406
2068032000,0.00053456426,0.015100837,0.021530628,0.0,0.0,-0.6894954
2068052000,-0.0014932752,0.028458238,0.021392226,0.0,0.0,-0.6880777
2068068000,-0.0034417212,0.0005541444,0.020914078,0.0,0.0,-0.6893142
2068088000,-0.0054168105,-0.023096502,0.020632625,0.0,0.0,-0.69090873
2068108000,-0.010069728,0.0073626637,0.02072239,0.0,0.0,-0.6880864
2068128000,-0.0063866973,-0.01749283,0.020201683,0.0,0.0,-0.68977445
2068152000,-0.0043642223,-0.002275765,0.019980311,0.0,0.0,-0.6883592
2068168000,-0.0008739531,-0.028024614,0.019479632,0.0,0.0,-0.68955827
2068192000,0.004997939,-0.049012184,0.018614173,0.0,0.0,-0.69079304
2068208000,0.009789884,-0.010062575,0.018912435,0.0,0.0,-0.6871904
2068231999,0.0066470504,-0.033843398,0.018550515,0.0,0.0,-0.6881221
2068256000,0.0040664077,-0.03690684,0.018403172,0.0,0.0,-0.687873
2068276000,-0.0010067225,-0.057005703,0.017947197,0.0,0.0,-0.68971926
2068296000,-0.006877184,-0.009128988,0.018570542,0.0,0.0,-0.6875341
2068316000,-0.0072848797,-0.025646925,0.018401384,0.0,0.0,-0.68867594
2068331999,-0.0063052475,-7.921457e-05,0.01870501,0.0,0.0,-0.6871042
2068356000,-0.005589545,-0.020954847,0.018203616,0.0,0.0,-0.6886901
2068376000,-0.003786385,-0.038735747,0.017493725,0.0,0.0,-0.69047946
2068396000,-0.0028119385,0.0022484064,0.017741203,0.0,0.0,-0.6874775
2068407999,-0.0031935275,-0.012735307,0.017284513,0.0,0.0,-0.6888342
2068436000,-0.0046189427,-0.029456556,0.01685965,0.0,0.0,-0.69043773
2068456000,-0.0076701343,0.012352645,0.01708746,0.0,0.0,-0.6870937
2068472000,-0.0070216656,-0.008235455,0.016503453,0.0,0.0,-0.6890067
2068492000,-0.008543283,-0.025087237,0.015716672,0.0,0.0,-0.6905364
2068516000,-0.009847015,0.022209227,0.01627779,0.0,0.0,-0.6879514
2068532000,-0.008439124,0.0026664734,0.01592052,0.0,0.0,-0.6900738
2068556000,-0.009724528,0.028940856,0.016041398,0.0,0.0,-0.68842983
2068576000,-0.0034927726,0.00316751,0.01568842,0.0,0.0,-0.6898178
2068596000,-0.00019794703,-0.0147791505,0.015354037,0.0,0.0,-0.6913785
2068616000,0.003617853,0.025494576,0.015628338,0.0,0.0,-0.68900806
2068639999,0.0024006665,0.0042541623,0.015172362,0.0,0.0,-0.691085
2068660000,0.0040400326,-0.017871022,0.0146359205,0.0,0.0,-0.6924776
2068680000,0.005451143,0.022849917,0.015292525,0.0,0.0,-0.68930715
2068700000,0.00708881,-0.0013107061,0.014864445,0.0,0.0,-0.69107825
2068720000,0.00994429,-0.02353549,0.014579773,0.0,0.0,-0.6922013
2068740000,0.0098809,0.017528594,0.015110493,0.0,0.0,-0.6892063
2068760000,0.010906845,-0.03012532,0.014472842,0.0,0.0,-0.69181323
2068780000,0.009935439,0.0082009435,0.0150078535,0.0,0.0,-0.6887424
2068800000,0.00970915,-0.0146051645,0.014875174,0.0,0.0,-0.69040585
2068811999,0.008614093,-0.01448983,0.015028596,0.0,0.0,-0.69040585
2068836000,0.00443092,0.0009098053,0.01525569,0.0,0.0,-0.6883961
2068856000,0.0023100972,-0.02254057,0.014623046,0.0,0.0,-0.69033134
2068880000,-0.00546813,-0.043342352,0.014095187,0.0,0.0,-0.69183934
2068900000,-0.006716788,0.0041740537,0.014253616,0.0,0.0,-0.6884563
2068916000,-0.0075058937,-0.020093858,0.013697863,0.0,0.0,-0.68950844
2068940000,-0.00987491,-0.03832251,0.012999058,0.0,0.0,-0.69082564
2068956000,-0.010795891,0.008462906,0.013495803,0.0,0.0,-0.68788534
2068976000,-0.009038597,-0.011488259,0.0129032135,0.0,0.0,-0.6900119
2068996000,-0.0047566295,-0.032625675,0.012334585,0.0,0.0,-0.69153243
2069016000,0.001190722,0.015170217,0.012747288,0.0,0.0,-0.6885795
2069039999,0.0038664937,-0.006578028,0.012156844,0.0,0.0,-0.6903136
2069064000,0.0053603053,-0.008123875,0.011992335,0.0,0.0,-0.6901636
2069084000,0.0055042505,-0.027604043,0.01171124,0.0,0.0,-0.69192505
2069104000,0.0065554976,0.011227906,0.012203693,0.0,0.0,-0.6889166
2069124000,0.010057479,-0.010214746,0.011979818,0.0,0.0,-0.69071877
2069139999,0.008534968,0.0060964823,0.012067795,0.0,0.0,-0.6895375
2069160000,0.008710027,-0.018407822,0.01191473,0.0,0.0,-0.6917395
