timestamp,ref_timestamp,ref_lat,ref_lon,x,y,z,delta_xy[0],delta_xy[1],delta_z,vx,vy,vz,z_deriv,delta_vxy[0],delta_vxy[1],delta_vz,ax,ay,az,yaw,ref_alt,dist_bottom,dist_bottom_rate,eph,epv,evh,evv,vxy_max,vz_max,hagl_min,hagl_max,xy_valid,z_valid,v_xy_valid,v_z_valid,xy_reset_counter,z_reset_counter,vxy_reset_counter,vz_reset_counter,xy_global,z_global,dist_bottom_valid
2051220000,1684000,47.3977508,8.5456074,-0.046281382,0.013344949,-0.021452673,-0.022669492,-0.0033747193,0.0,-0.0068885554,-0.0212535,-0.0009258463,0.0047888355,-0.05914641,-0.009015089,0.12613459,-0.020544048,0.014559344,-0.005537191,0.42390218,0.0,0.10362185,0.0009258463,0.41980323,0.2348757,0.17300719,0.10428197,inf,inf,inf,inf,1,1,1,1,2,0,2,2,1,1,1
2051316000,1684000,47.3977508,8.5456074,-0.04627132,0.012852154,-0.021839218,-0.022669492,-0.0033747193,0.0,-0.006413521,-0.022851687,0.00084501354,0.0057206936,-0.05914641,-0.009015089,0.12613459,0.050788406,0.031646524,-0.058795527,0.42376336,0.0,0.10400839,-0.00084501354,0.43188262,0.23447244,0.17739773,0.104478836,inf,inf,inf,inf,1,1,1,1,2,0,2,2,1,1,1
2051412000,1684000,47.3977508,8.5456074,-0.04592786,0.012398918,-0.021389557,-0.022669492,-0.0033747193,0.0,-0.006500532,-0.02374173,0.0024258452,0.007258307,-0.05914641,-0.009015089,0.12613459,-0.004577004,-0.04039218,0.0817711,0.4240023,0.0,0.103558734,-0.0024258452,0.41841412,0.2343578,0.17254798,0.10410824,inf,inf,inf,inf,1,1,1,1,2,0,2,2,1,1,1
2051516000,1684000,47.3977508,8.5456074,-0.045756876,0.011343988,-0.021053346,-0.022669492,-0.0033747193,0.0,-0.0047529065,-0.02556229,0.006489403,0.010803199,-0.05914641,-0.009015089,0.12613459,-0.025269326,-0.06449017,-0.027867032,0.42402273,0.0,0.10322252,-0.006489403,0.4314643,0.23460224,0.17728798,0.10450384,inf,inf,inf,inf,1,1,1,1,2,0,2,2,1,1,1
2051619999,1684000,47.3977508,8.5456074,-0.045567498,0.0112103745,-0.019552002,-0.022669492,-0.0033747193,0.0,-0.004660856,-0.026075387,0.008955891,0.013641721,-0.05914641,-0.009015089,0.12613459,0.01333263,-0.025680551,0.10505896,0.42415527,0.0,0.101721175,-0.008955891,0.4189378,0.2351328,0.17276502,0.10432715,inf,inf,inf,inf,1,1,1,1,2,0,2,2,1,1,1
2051715999,1684000,47.3977508,8.5456074,-0.04560124,0.010773654,-0.01761051,-0.022669492,-0.0033747193,0.0,-0.005187254,-0.026261225,0.012391617,0.017559582,-0.05914641,-0.009015089,0.12613459,-0.053113755,-0.025810605,0.07514485,0.42434254,0.0,0.1,-0.012391617,0.4309888,0.234718,0.17713068,0.10452142,inf,inf,inf,inf,1,1,1,1,2,0,2,2,1,1,1
2051820000,1684000,47.3977508,8.5456074,-0.04582565,0.010784001,-0.014876641,-0.022669492,-0.0033747193,0.0,-0.006356968,-0.026840951,0.0142998155,0.020247124,-0.05914641,-0.009015089,0.12613459,0.048552185,0.014659071,-0.055183653,0.42428896,0.0,0.1,-0.0142998155,0.41852802,0.23523165,0.17262839,0.104338355,inf,inf,inf,inf,1,1,1,1,2,0,2,2,1,1,1
2051916000,1684000,47.3977508,8.5456074,-0.04618514,0.010216049,-0.01208194,-0.022669492,-0.0033747193,0.0,-0.0067318566,-0.028753657,0.017248524,0.023880223,-0.05914641,-0.009015089,0.12613459,-0.01616844,-0.07699317,-0.014748423,0.42433393,0.0,0.1,-0.017248524,0.4305653,0.23480833,0.17699865,0.1045304,inf,inf,inf,inf,1,1,1,1,2,0,2,2,1,1,1
2052020000,1684000,47.3977508,8.5456074,-0.046354353,0.009978518,-0.008314133,-0.022669492,-0.0033747193,0.0,-0.009529484,-0.032424193,0.019485952,0.027261848,-0.05914641,-0.009015089,0.12613459,-0.065580666,-0.06342472,-0.02682302,0.4243144,0.0,0.10082236,-0.019485952,0.4181633,0.23370296,0.17252384,0.10392308,inf,inf,inf,inf,1,1,1,1,2,0,2,2,1,1,0
2052124000,1684000,47.3977508,8.5456074,-0.046838824,0.008975808,-0.0040574456,-0.022669492,-0.0033747193,0.0,-0.010923533,-0.032752723,0.021870712,0.030864468,-0.05914641,-0.009015089,0.12613459,-0.00513475,0.021446079,0.06280387,0.4243237,0.0,0.1,-0.021870712,0.43121475,0.23555408,0.17726475,0.104741804,inf,inf,inf,inf,1,1,1,1,2,0,2,2,1,1,0
2052220000,1684000,47.3977508,8.5456074,-0.047117397,0.009056591,-0.0015508924,-0.022669492,-0.0033747193,0.0,-0.013839199,-0.033341207,0.023530658,0.03195047,-0.05914641,-0.009015089,0.12613459,0.0568011,0.00036430638,0.020182302,0.4243843,0.0,0.1,-0.023530658,0.41783932,0.23381238,0.17244223,0.1039444,inf,inf,inf,inf,1,1,1,1,2,0,2,2,1,1,0
2052324000,1684000,47.3977508,8.5456074,-0.047743727,0.008333267,0.0010167594,-0.022669492,-0.0033747193,0.0,-0.014252288,-0.03508655,0.023143925,0.030758632,-0.05914641,-0.009015089,0.12613459,0.035535086,-0.061917055,-0.024059786,0.42432618,0.0,0.1,-0.023143925,0.43088138,0.23566599,0.1771822,0.1047649,inf,inf,inf,inf,1,1,1,1,2,0,2,2,1,1,0
2052427999,1684000,47.3977508,8.5456074,-0.047744885,0.00806833,0.002393134,-0.022669492,-0.0033747193,0.0,-0.014174746,-0.03643786,0.025939878,0.03152628,-0.05914641,-0.009015089,0.12613459,-0.03014627,-0.10386246,-0.063366264,0.4243957,0.0,0.1,-0.025939878,0.41843578,0.2345588,0.1726809,0.104157716,inf,inf,inf,inf,1,1,1,1,2,0,2,2,1,1,0
2052523999,1684000,47.3977508,8.5456074,-0.04784324,0.0071554147,0.004039404,-0.022669492,-0.0033747193,0.0,-0.013899267,-0.038515016,0.025053592,0.029398099,-0.05914641,-0.009015089,0.12613459,-0.044183217,0.03739631,-0.04091578,0.42441112,0.0,0.1,-0.025053592,0.4304827,0.23577619,0.17705679,0.10478573,inf,inf,inf,inf,1,1,1,1,2,0,2,2,1,1,0
2052628000,1684000,47.3977508,8.5456074,-0.04783889,0.0065327343,0.0050943624,-0.022669492,-0.0033747193,0.0,-0.01719218,-0.03846223,0.026029125,0.028391887,-0.05914641,-0.009015089,0.12613459,-0.010220168,-0.052042376,0.048145648,0.42429215,0.0,0.1,-0.026029125,0.41809216,0.23466739,0.17258386,0.10417885,inf,inf,inf,inf,1,1,1,1,2,0,2,2,1,1,0
2052731999,1684000,47.3977508,8.5456074,-0.048225712,0.005010637,0.0063372403,-0.022669492,-0.0033747193,0.0,-0.016523352,-0.04249471,0.028159566,0.02883433,-0.05914641,-0.009015089,0.12613459,0.005104457,-0.0009259516,-0.005188764,0.42437112,0.0,0.1,-0.028159566,0.4311542,0.23489706,0.17732434,0.10457169,inf,inf,inf,inf,1,1,1,1,2,0,2,2,1,1,0
2052827999,1684000,47.3977508,8.5456074,-0.048611514,0.004565483,0.008070048,-0.022669492,-0.0033747193,0.0,-0.01837737,-0.04421058,0.03020681,0.029921439,-0.05914641,-0.009015089,0.12613459,-0.0050834627,0.011098855,-0.07958931,0.42452776,0.0,0.1,-0.03020681,0.41778657,0.23477767,0.17249286,0.104202315,inf,inf,inf,inf,1,1,1,1,2,0,2,2,1,1,0
2052932000,1684000,47.3977508,8.5456074,-0.049521007,0.0032369301,0.010487364,-0.022669492,-0.0033747193,0.0,-0.019567344,-0.044348925,0.03222347,0.03132341,-0.05914641,-0.009015089,0.12613459,0.01752291,-0.08737467,0.12336475,0.4243363,0.0,0.1,-0.03222347,0.43083885,0.2350164,0.17723428,0.10459985,inf,inf,inf,inf,1,1,1,1,2,0,2,2,1,1,0
2053036000,1684000,47.3977508,8.5456074,-0.049953658,0.0030534859,0.011348324,-0.022669492,-0.0033747193,0.0,-0.01988802,-0.040261082,-0.009202796,-0.011341033,-0.05914641,-0.009015089,0.12613459,-0.017150031,0.007154663,-1.0544806,0.42418814,0.0,0.1,0.009202796,0.4184974,0.23391376,0.17277436,0.10399778,inf,inf,inf,inf,1,1,1,1,2,0,2,2,1,1,0
2053132000,1684000,47.3977508,8.5456074,-0.050532352,0.002741259,0.0033082701,-0.022669492,-0.0033747193,0.0,-0.017225442,-0.029102638,-0.14576279,-0.1483816,-0.05914641,-0.009015089,0.12613459,0.032724366,0.17839177,-1.5778606,0.42393148,0.0,0.103259414,0.14576279,0.43055922,0.23511945,0.17715135,0.10462188,inf,inf,inf,inf,1,1,1,1,2,0,2,2,1,1,0
2053235999,1684000,47.3977508,8.5456074,-0.05023195,0.004925962,-0.020411298,-0.022669492,-0.0033747193,0.0,-0.011698484,-0.008241229,-0.2821417,-0.28539452,-0.05914641,-0.009015089,0.12613459,0.0793254,0.21321699,-1.1859657,0.42354476,0.0,0.12748416,0.2821417,0.41816205,0.23402216,0.17299588,0.10401973,inf,inf,inf,inf,1,1,1,1,2,0,2,2,1,1,0
2053331999,1684000,47.3977508,8.5456074,-0.04970041,0.008050277,-0.053385876,-0.022669492,-0.0033747193,0.0,-0.0066303574,0.0065242667,-0.40197656,-0.4049209,-0.05914641,-0.009015089,0.12613459,0.052459214,0.04119663,-1.2702234,0.42333284,0.0,0.16045874,0.40197656,0.43024212,0.23523892,0.17796668,0.104648754,inf,inf,inf,inf,1,1,1,1,2,0,2,2,1,1,0
2053436000,1684000,47.3977508,8.5456074,-0.04794064,0.013562948,-0.10260699,-0.022669492,-0.0033747193,0.0,-0.00039124582,0.014446371,-0.5409804,-0.5436343,-0.05914641,-0.009015089,0.12613459,0.03325731,0.006523812,-1.3170577,0.42336106,0.0,0.20967984,0.5409804,0.41788927,0.23413965,0.17393374,0.104045786,inf,inf,inf,inf,1,1,1,1,2,0,2,2,1,1,0
2053539999,1684000,47.3977508,8.5456074,-0.04617056,0.018704908,-0.16581756,-0.022669492,-0.0033747193,0.0,-0.0008852069,0.014719806,-0.6733035,-0.67565644,-0.05914641,-0.009015089,0.12613459,-0.106280506,-0.04843961,-1.2803587,0.42326245,0.0,0.27289042,0.6733035,0.43104503,0.23598662,0.17925961,0.10486331,inf,inf,inf,inf,1,1,1,1,2,0,2,2,1,1,0
2053644000,1684000,47.3977508,8.5456074,-0.044166017,0.024493609,-0.24249154,-0.022669492,-0.0033747193,0.0,-0.0048118033,0.013589111,-0.8074593,-0.8090935,-0.05914641,-0.009015089,0.12613459,0.0051945536,-0.04371635,-1.2098069,0.42314348,0.0,0.3495644,0.8074593,0.41868305,0.23485568,0.17518637,0.10424962,inf,inf,inf,inf,1,1,1,1,2,0,2,2,1,1,0
2053740000,1684000,47.3977508,8.5456074,-0.042982858,0.028595777,-0.32628965,-0.022669492,-0.0033747193,0.0,-0.005325373,0.007986254,-0.9337802,-0.935442,-0.05914641,-0.009015089,0.12613459,-0.03923478,-0.05860767,-1.322614,0.42318976,0.0,0.4333625,0.9337802,0.430891,0.23443085,0.18010996,0.10444301,inf,inf,inf,inf,1,1,1,1,2,0,2,2,1,1,0
2053836000,1684000,47.3977508,8.5456074,-0.03990126,0.03311857,-0.42216703,-0.022669492,-0.0033747193,0.0,-0.00437298,0.0037813429,-1.0572797,-1.0590562,-0.05914641,-0.009015089,0.12613459,-0.02697386,-0.058648888,-1.3114055,0.42325273,0.0,0.5292399,1.0572797,0.41755417,0.23430657,0.17554842,0.10407337,inf,inf,inf,inf,1,1,1,1,2,0,2,2,1,1,0
2053940000,1684000,47.3977508,8.5456074,-0.037249703,0.036625095,-0.5410147,-0.022669492,-0.0033747193,0.0,-0.006842653,-0.0004084629,-1.1932644,-1.1966215,-0.05914641,-0.009015089,0.12613459,-0.05235583,0.032098617,-1.253915,0.4230566,0.0,0.6480875,1.1932644,0.43079916,0.23453155,0.18090242,0.104466245,inf,inf,inf,inf,1,1,1,1,2,0,2,2,1,1,0
2054043999,1684000,47.3977508,8.5456074,-0.034856703,0.04121056,-0.67402387,-0.022669492,-0.0033747193,0.0,-0.009424707,-0.0024440002,-1.3240523,-1.3289963,-0.05914641,-0.009015089,0.12613459,-0.014389963,-0.04737254,-1.2540882,0.42314517,0.0,0.7810967,1.3240523,0.41836885,0.23504572,0.17660992,0.10428743,inf,inf,inf,inf,1,1,1,1,2,0,2,2,1,1,0
2054139999,1684000,47.3977508,8.5456074,-0.03345938,0.044453036,-0.80967695,-0.022669492,-0.0033747193,0.0,-0.011650004,-0.0055646705,-1.4479164,-1.4547877,-0.05914641,-0.009015089,0.12613459,-0.035663452,-0.049272735,-1.3026445,0.4229859,0.0,0.91674984,1.4479164,0.4306507,0.23463207,0.18155655,0.10448725,inf,inf,inf,inf,1,1,1,1,2,0,2,2,1,1,0
2054244000,1684000,47.3977508,8.5456074,-0.03127185,0.049015105,-0.97113705,-0.022669492,-0.0033747193,0.0,-0.012061429,-0.011851969,-1.5798196,-1.5898377,-0.05914641,-0.009015089,0.12613459,0.021498831,-0.06962829,-1.3752253,0.42280853,0.0,1.0782099,1.5798196,0.4182404,0.23514797,0.17719322,0.10430946,inf,inf,inf,inf,1,1,1,1,2,0,2,2,1,1,0
2054347999,1684000,47.3977508,8.5456074,-0.029779276,0.0520595,-1.146129,-0.022669492,-0.0033747193,0.0,-0.01328493,-0.014244256,-1.7110218,-1.7235724,-0.05914641,-0.009015089,0.12613459,-0.04032992,0.034828532,-1.2952459,0.42278075,0.0,1.2532018,1.7110218,0.43160442,0.23537007,0.1825311,0.10470133,inf,inf,inf,inf,1,1,1,1,2,0,2,2,1,1,0
2054443999,1684000,47.3977508,8.5456074,-0.028420147,0.055744085,-1.3202914,-0.022669492,-0.0033747193,0.0,-0.015515124,-0.016281463,-1.8333058,-1.8483231,-0.05914641,-0.009015089,0.12613459,0.051527854,-0.11264707,-1.1743207,0.4229519,0.0,1.4273642,1.8333058,0.41815603,0.23363405,0.1776904,0.10390837,inf,inf,inf,inf,1,1,1,1,2,0,2,2,1,1,0
2054548000,1684000,47.3977508,8.5456074,-0.027845958,0.058117397,-1.5218453,-0.022669492,-0.0033747193,0.0,-0.017209291,-0.021928906,-1.9640827,-1.9813936,-0.05914641,-0.009015089,0.12613459,-0.06481041,-0.06312705,-1.2822243,0.42301604,0.0,1.6289182,1.9640827,0.43155167,0.23547676,0.18302543,0.10472671,inf,inf,inf,inf,1,1,1,1,2,0,2,2,1,1,0
2054644000,1684000,47.3977508,8.5456074,-0.026153544,0.060642973,-1.7206285,-0.022669492,-0.0033747193,0.0,-0.018873366,-0.02374157,-2.085478,-2.1052458,-0.05914641,-0.009015089,0.12613459,-0.030617917,-0.076314986,-1.3726321,0.42308527,0.0,1.8277013,2.085478,0.41810754,0.23533563,0.17812018,0.1043487,inf,inf,inf,inf,1,1,1,1,2,0,2,2,1,1,0
2054751999,1684000,47.3977508,8.5456074,-0.025213968,0.06185349,-1.9499612,-0.022669492,-0.0033747193,0.0,-0.021741968,-0.028895218,-2.2180548,-2.240886,-0.05914641,-0.009015089,0.12613459,-0.123549625,-0.09498127,-1.3728528,0.41649592,0.0,2.057034,2.2180548,0.43152338,0.23555234,0.18195502,0.10473907,inf,inf,inf,inf,1,1,1,1,2,0,2,2,1,1,0
2054847999,1684000,47.3977508,8.5456074,-0.023380218,0.06286211,-2.1742105,-0.022669492,-0.0033747193,0.0,-0.023113351,-0.03144521,-2.3464491,-2.3717642,-0.05914641,-0.009015089,0.12613459,0.0011573139,-0.029911056,-1.3124396,0.41764474,0.0,2.2812834,2.3464491,0.41796476,0.23380597,0.17307633,0.10393953,inf,inf,inf,inf,1,1,1,1,2,0,2,2,1,1,0
2054952000,1684000,47.3977508,8.5456074,-0.02206282,0.06291857,-2.4303443,-0.022669492,-0.0033747193,0.0,-0.022711793,-0.03351955,-2.425558,-2.453964,-0.05914641,-0.009015089,0.12613459,0.027071862,0.030254306,0.6569838,0.41944307,0.0,2.5374172,2.425558,0.43098915,0.23566523,0.17432474,0.104766466,inf,inf,inf,inf,1,1,1,1,2,0,2,2,1,1,0
2055048000,1684000,47.3977508,8.5456074,-0.02036108,0.06429245,-2.662281,-0.022669492,-0.0033747193,0.0,-0.024602804,-0.033723954,-2.255494,-2.2866597,-0.05914641,-0.009015089,0.12613459,0.02912681,-0.028905457,2.291337,0.42059365,0.0,2.7693539,2.255494,0.41761777,0.2339291,0.16708696,0.10397658,inf,inf,inf,inf,1,1,1,1,2,0,2,2,1,1,0
2055152000,1684000,47.3977508,8.5456074,-0.019598955,0.06464025,-2.8935168,-0.022669492,-0.0033747193,0.0,-0.024918292,-0.035288226,-2.0780249,-2.1121633,-0.05914641,-0.009015089,0.12613459,0.016173413,-0.058213905,1.2153805,0.421593,0.0,3.0005896,2.0780249,0.4302249,0.23579133,0.16908228,0.10480605,inf,inf,inf,inf,1,1,1,1,2,0,2,2,1,1,0
2055256000,1684000,47.3977508,8.5456074,-0.018237121,0.0661659,-3.1117134,-0.022669492,-0.0033747193,0.0,-0.023743784,-0.03342641,-1.9667531,-2.0045662,-0.05914641,-0.009015089,0.12613459,-0.028960185,-0.01934709,1.1300534,0.4223116,0.0,3.2187862,1.9667531,0.41782168,0.2346891,0.16283311,0.10420616,inf,inf,inf,inf,1,1,1,1,2,0,2,2,1,1,0
2055360000,1684000,47.3977508,8.5456074,-0.01772927,0.06682537,-3.3182297,-0.022669492,-0.0033747193,0.0,-0.025422223,-0.033576485,-1.8428621,-1.8843485,-0.05914641,-0.009015089,0.12613459,-0.01726601,-0.052853957,1.2295879,0.42315578,0.0,3.4253025,1.8428621,0.43007377,0.23492482,0.16530411,0.1046068,inf,inf,inf,inf,1,1,1,1,2,0,2,2,1,1,0
2055456000,1684000,47.3977508,8.5456074,-0.016105026,0.06872127,-3.4988267,-0.022669492,-0.0033747193,0.0,-0.024757998,-0.033789292,-1.7382935,-1.7838198,-0.05914641,-0.009015089,0.12613459,-0.03626648,-0.0084798345,1.0896716,0.42347175,0.0,3.6058996,1.7382935,0.41684562,0.23481202,0.16003793,0.10424427,inf,inf,inf,inf,1,1,1,1,2,0,2,2,1,1,0
2055559999,1684000,47.3977508,8.5456074,-0.015398319,0.069454886,-3.6830394,-0.022669492,-0.0033747193,0.0,-0.02771841,-0.034400187,-1.6326413,-1.68146,-0.05914641,-0.009015089,0.12613459,-0.045702964,-0.08405435,0.9007787,0.423626,0.0,3.7901123,1.6326413,0.42876992,0.23504846,0.16313775,0.104646474,inf,inf,inf,inf,1,1,1,1,2,0,2,2,1,1,0
2055655999,1684000,47.3977508,8.5456074,-0.014544136,0.070802204,-3.844669,-0.022669492,-0.0033747193,0.0,-0.029096125,-0.03402849,-1.5479308,-1.6001658,-0.05914641,-0.009015089,0.12613459,0.029188704,-0.03540424,0.9549878,0.42379087,0.0,3.951742,1.5479308,0.41571456,0.23493628,0.15872566,0.10428484,inf,inf,inf,inf,1,1,1,1,2,0,2,2,1,1,0
2055760000,1684000,47.3977508,8.5456074,-0.014522086,0.07096869,-4.011413,-0.022669492,-0.0033747193,0.0,-0.02941773,-0.035479706,-1.4575356,-1.5137072,-0.05914641,-0.009015089,0.12613459,-0.10084456,-0.0029636119,0.9166998,0.42418182,0.0,4.118486,1.4575356,0.4273713,0.23517342,0.16244283,0.10468844,inf,inf,inf,inf,1,1,1,1,2,0,2,2,1,1,0
2055856000,1684000,47.3977508,8.5456074,-0.01362591,0.07178907,-4.157118,-0.022669492,-0.0033747193,0.0,-0.028544465,-0.03429881,-1.3793184,-1.4387482,-0.05914641,-0.009015089,0.12613459,-0.0016934172,-0.0060493834,0.7520634,0.42412478,0.0,4.2641907,1.3793184,0.41449627,0.2350618,0.15876928,0.10432748,inf,inf,inf,inf,1,1,1,1,2,0,2,2,1,1,0
2055960000,1684000,47.3977508,8.5456074,-0.013605822,0.071701646,-4.305549,-0.022669492,-0.0033747193,0.0,-0.029607618,-0.0342388,-1.3025955,-1.3637221,-0.05914641,-0.009015089,0.12613459,-0.040758222,-0.09733206,0.7012896,0.42427146,0.0,4.412622,1.3025955,0.42595112,0.2353084,0.16303475,0.10473613,inf,inf,inf,inf,1,1,1,1,2,0,2,2,1,1,0
2056064000,1684000,47.3977508,8.5456074,-0.012402703,0.07236887,-4.4464293,-0.022669492,-0.0033747193,0.0,-0.030816687,-0.03664119,-1.2322307,-1.2950065,-0.05914641,-0.009015089,0.12613459,-0.083771646,-0.09226365,0.661719,0.42420325,0.0,4.553502,1.2322307,0.41403857,0.23422274,0.16022873,0.10414438,inf,inf,inf,inf,1,1,1,1,2,0,2,2,1,1,0
2056160000,1684000,47.3977508,8.5456074,-0.012004924,0.0720664,-4.5699887,-0.022669492,-0.0033747193,0.0,-0.030858748,-0.037656788,-1.1723162,-1.2363105,-0.05914641,-0.009015089,0.12613459,-0.066693485,-0.027213346,0.66386425,0.42409867,0.0,4.6770616,1.1723162,0.424499,0.23544988,0.16465342,0.10478422,inf,inf,inf,inf,1,1,1,1,2,0,2,2,1,1,0
2056264000,1684000,47.3977508,8.5456074,-0.011053313,0.07238541,-4.6969633,-0.022669492,-0.0033747193,0.0,-0.030679319,-0.039042834,-1.1129644,-1.1774678,-0.05914641,-0.009015089,0.12613459,0.023171963,-0.06870112,0.6429357,0.4237591,0.0,4.804036,1.1129644,0.4127668,0.23436153,0.162288,0.104191564,inf,inf,inf,inf,1,1,1,1,2,0,2,2,1,1,0
2056367999,1684000,47.3977508,8.5456074,-0.010881877,0.07171161,-4.8175297,-0.022669492,-0.0033747193,0.0,-0.030356126,-0.038565923,-1.0611627,-1.1254637,-0.05914641,-0.009015089,0.12613459,0.032729067,0.018468622,0.6024164,0.42349052,0.0,4.9246025,1.0611627,0.42404878,0.23460633,0.16753115,0.10459805,inf,inf,inf,inf,1,1,1,1,2,0,2,2,1,1,0
2056463999,1684000,47.3977508,8.5456074,-0.009736486,0.07239487,-4.9249063,-0.022669492,-0.0033747193,0.0,-0.030119736,-0.035190664,-1.0152239,-1.0802134,-0.05914641,-0.009015089,0.12613459,-0.09714684,0.046436336,0.52428406,0.42320758,0.0,5.031979,1.0152239,0.41160476,0.23450857,0.16504693,0.10424256,inf,inf,inf,inf,1,1,1,1,2,0,2,2,1,1,0
2056568000,1684000,47.3977508,8.5456074,-0.0093856435,0.072329305,-5.035651,-0.022669492,-0.0033747193,0.0,-0.029479723,-0.0355703,-0.96508104,-1.0300955,-0.05914641,-0.009015089,0.12613459,-0.024020635,0.04258951,0.44988373,0.4231199,0.0,5.142724,0.96508104,0.42288753,0.23477915,0.17066011,0.104660444,inf,inf,inf,inf,1,1,1,1,2,0,2,2,1,1,0
2056672000,1684000,47.3977508,8.5456074,-0.008136596,0.07311935,-5.1421165,-0.022669492,-0.0033747193,0.0,-0.031079102,-0.036454096,-0.92258894,-0.98831,-0.05914641,-0.009015089,0.12613459,-0.04484964,-0.021915836,0.39756575,0.4228689,0.0,5.2491894,0.92258894,0.41145396,0.23371726,0.16871573,0.10407938,inf,inf,inf,inf,1,1,1,1,2,0,2,2,1,1,0
2056768000,1684000,47.3977508,8.5456074,-0.008031743,0.07283457,-5.2363596,-0.022669492,-0.0033747193,0.0,-0.032458715,-0.036492247,-0.88303924,-0.94913876,-0.05914641,-0.009015089,0.12613459,0.025058117,-0.019533088,0.43670738,0.42277572,0.0,5.3434324,0.88303924,0.4219474,0.23495698,0.17415117,0.10472368,inf,inf,inf,inf,1,1,1,1,2,0,2,2,1,1,0
2056872000,1684000,47.3977508,8.5456074,-0.00732601,0.07317345,-5.3333097,-0.022669492,-0.0033747193,0.0,-0.034042533,-0.033773955,-0.8412034,-0.9068277,-0.05914641,-0.009015089,0.12613459,0.017621523,0.020147562,0.46548158,0.4228396,0.0,5.4403825,0.8412034,0.41057605,0.23388718,0.17214192,0.10413529,inf,inf,inf,inf,1,1,1,1,2,0,2,2,1,1,0
2056968000,1684000,47.3977508,8.5456074,-0.007449451,0.07274023,-5.4175653,-0.022669492,-0.0033747193,0.0,-0.032566242,-0.03595247,-0.8089094,-0.872623,-0.05914641,-0.009015089,0.12613459,0.032677647,0.011669134,0.2787264,0.42302275,0.0,5.524638,0.8089094,0.42117488,0.23512836,0.17777717,0.104779705,inf,inf,inf,inf,1,1,1,1,2,0,2,2,1,1,0
2057072000,1684000,47.3977508,8.5456074,-0.007089194,0.0728827,-5.5065455,-0.022669492,-0.0033747193,0.0,-0.033647858,-0.03410254,-0.77982193,-0.842541,-0.05914641,-0.009015089,0.12613459,-0.10172551,0.007601254,0.3531063,0.42319274,0.0,5.6136184,0.77982193,0.40992528,0.23405385,0.17561384,0.10418875,inf,inf,inf,inf,1,1,1,1,2,0,2,2,1,1,0
2057175999,1684000,47.3977508,8.5456074,-0.0078407535,0.07228241,-5.5926085,-0.022669492,-0.0033747193,0.0,-0.03554466,-0.034855615,-0.74825585,-0.8103714,-0.05914641,-0.009015089,0.12613459,0.059719183,0.012095254,0.21091999,0.42306587,0.0,5.6996813,0.74825585,0.4215944,0.23431748,0.1819164,0.10460021,inf,inf,inf,inf,1,1,1,1,2,0,2,2,1,1,0
2057271999,1684000,47.3977508,8.5456074,-0.007440827,0.07203163,-5.670405,-0.022669492,-0.0033747193,0.0,-0.03538066,-0.034675077,-0.7176093,-0.7805262,-0.05914641,-0.009015089,0.12613459,0.0010313247,-0.030272346,0.34882933,0.42320266,0.0,5.7774777,0.7176093,0.4095143,0.23421736,0.17906545,0.10423988,inf,inf,inf,inf,1,1,1,1,2,0,2,2,1,1,0
2057376000,1684000,47.3977508,8.5456074,-0.008008394,0.070958614,-5.751911,-0.022669492,-0.0033747193,0.0,-0.036589187,-0.033560753,-0.68577987,-0.75000256,-0.05914641,-0.009015089,0.12613459,-0.040060196,-0.010166631,0.32394472,0.42335477,0.0,5.858984,0.68577987,0.42138556,0.23447947,0.18545392,0.1046503,inf,inf,inf,inf,1,1,1,1,2,0,2,2,1,1,0
2057472000,1684000,47.3977508,8.5456074,-0.007731834,0.07152552,-5.8244963,-0.022669492,-0.0033747193,0.0,-0.03646058,-0.030391237,-0.6619815,-0.72732514,-0.05914641,-0.009015089,0.12613459,-0.0027107596,0.022091538,0.27196947,0.42326215,0.0,5.931569,0.6619815,0.4093437,0.23437777,0.18226555,0.10428857,inf,inf,inf,inf,1,1,1,1,2,0,2,2,1,1,0
2057576000,1684000,47.3977508,8.5456074,-0.0081737675,0.071449615,-5.899935,-0.022669492,-0.0033747193,0.0,-0.033240918,-0.029599158,-0.63340485,-0.69931465,-0.05914641,-0.009015089,0.12613459,0.0030308745,-0.0051270723,0.31408665,0.42351395,0.0,6.0070076,0.63340485,0.4214422,0.23463824,0.18870442,0.10469798,inf,inf,inf,inf,1,1,1,1,2,0,2,2,1,1,0
2057680000,1684000,47.3977508,8.5456074,-0.0074539976,0.071836516,-5.9729424,-0.022669492,-0.0033747193,0.0,-0.030791782,-0.030089675,-0.60869575,-0.6754498,-0.05914641,-0.009015089,0.12613459,-0.003762855,-0.029611485,0.26902816,0.42343706,0.0,6.080015,0.60869575,0.41023615,0.23357269,0.1856062,0.10410724,inf,inf,inf,inf,1,1,1,1,2,0,2,2,1,1,0
2057776000,1684000,47.3977508,8.5456074,-0.00744418,0.071486026,-6.0376763,-0.022669492,-0.0033747193,0.0,-0.031762253,-0.029265717,-0.5856378,-0.652636,-0.05914641,-0.009015089,0.12613459,0.002167226,-0.04190615,0.30050644,0.42325157,0.0,6.144749,0.5856378,0.42164817,0.23480822,0.1915687,0.10474665,inf,inf,inf,inf,1,1,1,1,2,0,2,2,1,1,0
2057880000,1684000,47.3977508,8.5456074,-0.006265085,0.07143986,-6.105576,-0.022669492,-0.0033747193,0.0,-0.032363582,-0.029309023,-0.5608098,-0.6284301,-0.05914641,-0.009015089,0.12613459,-0.033414703,0.060468405,0.18341187,0.42317823,0.0,6.212649,0.5608098,0.41043368,0.23373754,0.18811184,0.10415321,inf,inf,inf,inf,1,1,1,1,2,0,2,2,1,1,0
2057983999,1684000,47.3977508,8.5456074,-0.0059800902,0.07079443,-6.169323,-0.022669492,-0.0033747193,0.0,-0.032181807,-0.028323762,-0.53913504,-0.6055021,-0.05914641,-0.009015089,0.12613459,-0.03238603,0.009260793,0.20595294,0.42326063,0.0,6.276396,0.53913504,0.42306998,0.23561074,0.19455385,0.10498418,inf,inf,inf,inf,1,1,1,1,2,0,2,2,1,1,0
2058079999,1684000,47.3977508,8.5456074,-0.004515438,0.07084574,-6.225248,-0.022669492,-0.0033747193,0.0,-0.03139221,-0.02814024,-0.52277434,-0.5871326,-0.05914641,-0.009015089,0.12613459,0.008608644,-0.04779038,0.2162755,0.42323527,0.0,6.3323207,0.52277434,0.4108144,0.23389062,0.1902291,0.10419298,inf,inf,inf,inf,1,1,1,1,2,0,2,2,1,1,0
2058184000,1684000,47.3977508,8.5456074,-0.0039210524,0.07009448,-6.2841516,-0.022669492,-0.0033747193,0.0,-0.031075228,-0.02842949,-0.5073251,-0.56969804,-0.05914641,-0.009015089,0.12613459,-0.027408075,0.018802958,0.2130838,0.42323083,0.0,6.3912244,0.5073251,0.42369202,0.23414421,0.19663899,0.1045961,inf,inf,inf,inf,1,1,1,1,2,0,2,2,1,1,0
2058280000,1684000,47.3977508,8.5456074,-0.0021772152,0.06893291,-6.337638,-0.022669492,-0.0033747193,0.0,-0.030396912,-0.028036442,-0.49285242,-0.55418104,-0.05914641,-0.009015089,0.12613459,-0.061992034,0.12010668,0.1583388,0.42313862,0.0,6.4447107,0.49285242,0.41134673,0.23404066,0.19197208,0.1042308,inf,inf,inf,inf,1,1,1,1,2,0,2,2,1,1,0
2058384000,1684000,47.3977508,8.5456074,-0.0014052021,0.06704709,-6.3942966,-0.022669492,-0.0033747193,0.0,-0.03023357,-0.02975645,-0.47328305,-0.53405154,-0.05914641,-0.009015089,0.12613459,0.083103545,-0.04292152,0.24767497,0.42328125,0.0,6.5013695,0.47328305,0.42445734,0.23430134,0.19834913,0.104637004,inf,inf,inf,inf,1,1,1,1,2,0,2,2,1,1,0
2058488000,1684000,47.3977508,8.5456074,9.807409e-06,0.06536518,-6.4488087,-0.022669492,-0.0033747193,0.0,-0.029948827,-0.028216068,-0.45906675,-0.5191153,-0.05914641,-0.009015089,0.12613459,-0.055704616,0.036334023,0.1903939,0.42355806,0.0,6.5558815,0.45906675,0.41289607,0.23483394,0.19373702,0.10446113,inf,inf,inf,inf,1,1,1,1,2,0,2,2,1,1,0
2058584000,1684000,47.3977508,8.5456074,0.00041364954,0.06371348,-6.4978194,-0.022669492,-0.0033747193,0.0,-0.03160231,-0.02629768,-0.44413185,-0.5035807,-0.05914641,-0.009015089,0.12613459,-0.07507441,0.020533793,0.14260384,0.42348325,0.0,6.6048923,0.44413185,0.42521808,0.23445217,0.1995201,0.10467137,inf,inf,inf,inf,1,1,1,1,2,0,2,2,1,1,0
2058688000,1684000,47.3977508,8.5456074,-0.00050380884,0.061410457,-6.5498962,-0.022669492,-0.0033747193,0.0,-0.031241355,-0.026143523,-0.42730162,-0.48685324,-0.05914641,-0.009015089,0.12613459,0.035335418,0.029099667,0.12129731,0.42334116,0.0,6.656969,0.42730162,0.43935713,0.23632443,0.20587887,0.10548245,inf,inf,inf,inf,1,1,1,1,2,0,2,2,1,1,0
2058791999,1684000,47.3977508,8.5456074,-0.00037849334,0.059878327,-6.6003175,-0.022669492,-0.0033747193,0.0,-0.030202825,-0.02618992,-0.411503,-0.47118065,-0.05914641,-0.009015089,0.12613459,0.100075096,-0.022578428,0.15219101,0.4234062,0.0,6.7073903,0.411503,0.42566583,0.23520261,0.1997624,0.10484175,inf,inf,inf,inf,1,1,1,1,2,0,2,2,1,1,0
2058887999,1684000,47.3977508,8.5456074,-0.0007526756,0.058239173,-6.6447153,-0.022669492,-0.0033747193,0.0,-0.029786296,-0.02521212,-0.39490733,-0.45412278,-0.05914641,-0.009015089,0.12613459,-0.04431363,0.034693208,0.21261449,0.42345798,0.0,6.751788,0.39490733,0.43879786,0.23480374,0.20550618,0.10502767,inf,inf,inf,inf,1,1,1,1,2,0,2,2,1,1,0
2058992000,1684000,47.3977508,8.5456074,1.621616e-05,0.057487965,-6.6922836,-0.022669492,-0.0033747193,0.0,-0.030908119,-0.023064755,-0.3826152,-0.44241256,-0.05914641,-0.009015089,0.12613459,-0.033873845,0.1360551,0.15627405,0.42339712,0.0,6.7993565,0.3826152,0.425183,0.23532212,0.19928399,0.10482503,inf,inf,inf,inf,1,1,1,1,2,0,2,2,1,1,0
2059088000,1684000,47.3977508,8.5456074,5.778842e-05,0.056838896,-6.735827,-0.022669492,-0.0033747193,0.0,-0.030163622,-0.021055503,-0.36755362,-0.42864394,-0.05914641,-0.009015089,0.12613459,-0.028376384,-0.004759407,0.17738713,0.42348862,0.0,6.8429,0.36755362,0.43835688,0.23492025,0.20490716,0.105010845,inf,inf,inf,inf,1,1,1,1,2,0,2,2,1,1,0
2059192000,1684000,47.3977508,8.5456074,0.0011552386,0.0559784,-6.782773,-0.022669492,-0.0033747193,0.0,-0.029169055,-0.020190809,-0.3501669,-0.4138823,-0.05914641,-0.009015089,0.12613459,-0.057745837,-0.01719417,0.22760871,0.42351332,0.0,6.889846,0.3501669,0.4248018,0.23542859,0.19862847,0.10480527,inf,inf,inf,inf,1,1,1,1,2,0,2,2,1,1,0
2059296000,1684000,47.3977508,8.5456074,0.0014957951,0.05454912,-6.82813,-0.022669492,-0.0033747193,0.0,-0.028537596,-0.021582024,-0.33107975,-0.39744443,-0.05914641,-0.009015089,0.12613459,-0.015885383,0.014653647,0.17773853,0.42337388,0.0,6.9352026,0.33107975,0.43913978,0.23567177,0.20459102,0.10518719,inf,inf,inf,inf,1,1,1,1,2,0,2,2,1,1,0
2059392000,1684000,47.3977508,8.5456074,0.002666957,0.05226296,-6.869975,-0.022669492,-0.0033747193,0.0,-0.030286046,-0.021837294,-0.31590322,-0.38594192,-0.05914641,-0.009015089,0.12613459,0.009095445,0.02838347,0.2521084,0.42322654,0.0,6.977048,0.31590322,0.42450038,0.23553249,0.19776006,0.10478749,inf,inf,inf,inf,1,1,1,1,2,0,2,2,1,1,0
2059496000,1684000,47.3977508,8.5456074,0.0029342119,0.049454395,-6.913429,-0.022669492,-0.0033747193,0.0,-0.029385284,-0.023040527,-0.29674554,-0.37025964,-0.05914641,-0.009015089,0.12613459,-0.0045569283,-0.038375173,0.20145345,0.4232301,0.0,7.0205016,0.29674554,0.43885845,0.23577341,0.20359716,0.105169974,inf,inf,inf,inf,1,1,1,1,2,0,2,2,1,1,0
2059599999,1684000,47.3977508,8.5456074,0.0036765123,0.047627434,-6.9542723,-0.022669492,-0.0033747193,0.0,-0.03070087,-0.022555722,-0.28191984,-0.3577092,-0.05914641,-0.009015089,0.12613459,0.073853835,0.058575965,0.18230633,0.42336532,0.0,7.061345,0.28191984,0.42522004,0.2346541,0.19710432,0.10453632,inf,inf,inf,inf,1,1,1,1,2,0,2,2,1,1,0
2059695999,1684000,47.3977508,8.5456074,0.0035718048,0.04600812,-6.9898014,-0.022669492,-0.0033747193,0.0,-0.031362716,-0.020628406,-0.26900962,-0.34585544,-0.05914641,-0.009015089,0.12613459,-0.07380422,0.051598936,0.09421472,0.4233073,0.0,7.096874,0.26900962,0.4384994,0.23587008,0.20237675,0.10515075,inf,inf,inf,inf,1,1,1,1,2,0,2,2,1,1,0
2059800000,1684000,47.3977508,8.5456074,0.0034314224,0.044495843,-7.0278263,-0.022669492,-0.0033747193,0.0,-0.030762153,-0.017309539,-0.25869468,-0.3371997,-0.05914641,-0.009015089,0.12613459,-0.007682514,-0.008174541,0.2462305,0.423292,0.0,7.134899,0.25869468,0.4249139,0.2347573,0.19591011,0.10452239,inf,inf,inf,inf,1,1,1,1,2,0,2,2,1,1,0
2059896000,1684000,47.3977508,8.5456074,0.0025709383,0.043006867,-7.061447,-0.022669492,-0.0033747193,0.0,-0.032350574,-0.017013362,-0.24435665,-0.32400474,-0.05914641,-0.009015089,0.12613459,-0.040691003,0.061530624,0.21752341,0.42321825,0.0,7.16852,0.24435665,0.438182,0.2359738,0.2011012,0.10513843,inf,inf,inf,inf,1,1,1,1,2,0,2,2,1,1,0
2060000000,1684000,47.3977508,8.5456074,0.002284489,0.041508395,-7.0964775,-0.022669492,-0.0033747193,0.0,-0.030568525,-0.017423278,-0.23321526,-0.3139964,-0.05914641,-0.009015089,0.12613459,-0.008455368,0.019326517,0.11588632,0.4231567,0.0,7.2035503,0.23321526,0.4246435,0.2348587,0.19466345,0.10451142,inf,inf,inf,inf,1,1,1,1,2,0,2,2,1,1,0
2060104000,1684000,47.3977508,8.5456074,0.0015233876,0.039827228,-7.130469,-0.022669492,-0.0033747193,0.0,-0.029318422,-0.018272985,-0.22127268,-0.3030351,-0.05914641,-0.009015089,0.12613459,-0.022010693,0.082822256,0.17188662,0.42314255,0.0,7.2375417,0.22127268,0.43902487,0.23509282,0.20016775,0.10489358,inf,inf,inf,inf,1,1,1,1,2,0,2,2,1,1,0
2060200000,1684000,47.3977508,8.5456074,0.0013100777,0.037959527,-7.1598625,-0.022669492,-0.0033747193,0.0,-0.028840454,-0.01725446,-0.21193337,-0.29364496,-0.05914641,-0.009015089,0.12613459,-0.041438732,0.06774912,0.109744765,0.4231187,0.0,7.2669353,0.21193337,0.42439798,0.23496686,0.19335738,0.10450675,inf,inf,inf,inf,1,1,1,1,2,0,2,2,1,1,0
2060304000,1684000,47.3977508,8.5456074,0.00037028175,0.03607475,-7.1916313,-0.022669492,-0.0033747193,0.0,-0.029488083,-0.01319671,-0.20270386,-0.28528818,-0.05914641,-0.009015089,0.12613459,-0.03552108,0.028144153,0.074919306,0.42301524,0.0,7.298704,0.20270386,0.43874797,0.23520808,0.19877198,0.10489376,inf,inf,inf,inf,1,1,1,1,2,0,2,2,1,1,0
2060407999,1684000,47.3977508,8.5456074,-0.0005168043,0.034687106,-7.2223573,-0.022669492,-0.0033747193,0.0,-0.029379003,-0.013386724,-0.19453102,-0.2777377,-0.05914641,-0.009015089,0.12613459,-0.0013561955,-0.009944745,0.07795629,0.4229445,0.0,7.32943,0.19453102,0.4251281,0.23409332,0.19235075,0.10426864,inf,inf,inf,inf,1,1,1,1,2,0,2,2,1,1,0
2060503999,1684000,47.3977508,8.5456074,-0.001883133,0.033237014,-7.24919,-0.022669492,-0.0033747193,0.0,-0.029381204,-0.014406388,-0.18437606,-0.26745942,-0.05914641,-0.009015089,0.12613459,-0.00831958,-0.020375151,0.15021612,0.42292857,0.0,7.3562627,0.18437606,0.4383553,0.23531003,0.19727816,0.1048884,inf,inf,inf,inf,1,1,1,1,2,0,2,2,1,1,0
2060608000,1684000,47.3977508,8.5456074,-0.0025082957,0.03219494,-7.2774253,-0.022669492,-0.0033747193,0.0,-0.026889458,-0.013923072,-0.17584738,-0.25902826,-0.05914641,-0.009015089,0.12613459,-0.014451925,0.010267747,0.035820525,0.4229431,0.0,7.384498,0.17584738,0.424797,0.23419349,0.19093324,0.104264766,inf,inf,inf,inf,1,1,1,1,2,0,2,2,1,1,0
2060704000,1684000,47.3977508,8.5456074,-0.0032778902,0.031188224,-7.30189,-0.022669492,-0.0033747193,0.0,-0.024274237,-0.014454626,-0.1706334,-0.25295183,-0.05914641,-0.009015089,0.12613459,0.031626686,0.06645392,0.021247191,0.42314047,0.0,7.4089627,0.1706334,0.43797323,0.23541127,0.19577123,0.10488624,inf,inf,inf,inf,1,1,1,1,2,0,2,2,1,1,0
2060808000,1684000,47.3977508,8.5456074,-0.0043006022,0.030142862,-7.3274283,-0.022669492,-0.0033747193,0.0,-0.02236687,-0.017297523,-0.15106577,-0.23271184,-0.05914641,-0.009015089,0.12613459,0.019628033,0.012403659,0.25086942,0.42260313,0.0,7.434501,0.15106577,0.42447528,0.23429306,0.18952024,0.104263976,inf,inf,inf,inf,1,1,1,1,2,0,2,2,1,1,0
2060912000,1684000,47.3977508,8.5456074,-0.005619758,0.02866211,-7.3509445,-0.022669492,-0.0033747193,0.0,-0.01990469,-0.021157539,-0.14016496,-0.22120892,-0.05914641,-0.009015089,0.12613459,0.05263322,-0.039318815,0.045303106,0.41211668,0.0,7.4580173,0.14016496,0.4387166,0.23615912,0.19468872,0.10508244,inf,inf,inf,inf,1,1,1,1,2,0,2,2,1,1,0
2061008000,1684000,47.3977508,8.5456074,-0.0063525178,0.026157193,-7.3734345,-0.022669492,-0.0033747193,0.0,-0.021293722,-0.042603698,-0.14314224,-0.22462146,-0.05914641,-0.009015089,0.12613459,-0.08632877,-0.3619771,0.018519375,0.3873724,0.0,7.4805074,0.14314224,0.42415744,0.23440158,0.1880784,0.10427012,inf,inf,inf,inf,1,1,1,1,2,0,2,2,1,1,0
2061112000,1684000,47.3977508,8.5456074,-0.008794526,0.019319346,-7.397228,-0.022669492,-0.0033747193,0.0,-0.045332164,-0.09968888,-0.1424717,-0.22372167,-0.05914641,-0.009015089,0.12613459,-0.43858254,-0.75469977,0.02430938,0.34461883,0.0,7.5043006,0.1424717,0.43823382,0.23626016,0.19303264,0.1050864,inf,inf,inf,inf,1,1,1,1,2,0,2,2,1,1,0
2061215999,1684000,47.3977508,8.5456074,-0.016655438,0.0040607215,-7.4220924,-0.022669492,-0.0033747193,0.0,-0.11130336,-0.21346617,-0.1457206,-0.22769916,-0.05914641,-0.009015089,0.12613459,-0.7878472,-1.3217856,0.029146507,0.28738394,0.0,7.5291653,0.1457206,0.42457458,0.23511367,0.18671052,0.10445309,inf,inf,inf,inf,1,1,1,1,2,0,2,2,1,1,0
2061311999,1684000,47.3977508,8.5456074,-0.03256187,-0.022854283,-7.4448028,-0.022669492,-0.0033747193,0.0,-0.2088604,-0.36567703,-0.14161582,-0.22391813,-0.05914641,-0.009015089,0.12613459,-1.1594292,-1.8509974,0.12038771,0.22499008,0.0,7.5518756,0.14161582,0.4374659,0.23632428,0.19116801,0.10506578,inf,inf,inf,inf,1,1,1,1,2,0,2,2,1,1,0
2061416000,1684000,47.3977508,8.5456074,-0.059916783,-0.06701751,-7.4682803,-0.022669492,-0.0033747193,0.0,-0.33711174,-0.57035816,-0.12589388,-0.20850866,-0.05914641,-0.009015089,0.12613459,-1.291635,-2.1179483,0.18432829,0.15207747,0.0,7.575353,0.12589388,0.42393807,0.2351865,0.18501128,0.10441343,inf,inf,inf,inf,1,1,1,1,2,0,2,2,1,1,0
2061512000,1684000,47.3977508,8.5456074,-0.09813236,-0.12785974,-7.487906,-0.022669492,-0.0033747193,0.0,-0.4700379,-0.7807426,-0.112519,-0.19470194,-0.05914641,-0.009015089,0.12613459,-1.4702364,-2.2372446,0.18226726,0.083164304,0.0,7.594979,0.112519,0.43671012,0.23475355,0.18936844,0.1045504,inf,inf,inf,inf,1,1,1,1,2,0,2,2,1,1,0
2061616000,1684000,47.3977508,8.5456074,-0.15243979,-0.21314976,-7.5080357,-0.022669492,-0.0033747193,0.0,-0.6112522,-1.01492,-0.09980127,-0.18184562,-0.05914641,-0.009015089,0.12613459,-1.3576834,-2.2979598,0.2339836,0.0070470953,0.0,7.6151085,0.09980127,0.42332998,0.23525472,0.18344234,0.10428382,inf,inf,inf,inf,1,1,1,1,2,0,2,2,1,1,0
2061720000,1684000,47.3977508,8.5456074,-0.22181055,-0.32348716,-7.5257864,-0.022669492,-0.0033747193,0.0,-0.75045705,-1.2487934,-0.086065225,-0.16701488,-0.05914641,-0.009015089,0.12613459,-1.3179822,-2.2636673,0.11963759,-0.07013687,0.0,7.632859,0.086065225,0.43709213,0.23545654,0.18822911,0.104569264,inf,inf,inf,inf,1,1,1,1,2,0,2,2,1,1,0
2061816000,1684000,47.3977508,8.5456074,-0.29528219,-0.44321537,-7.541616,-0.022669492,-0.0033747193,0.0,-0.8717715,-1.4552077,-0.078903474,-0.1593297,-0.05914641,-0.009015089,0.12613459,-1.2647853,-2.1756725,0.11296633,-0.14210853,0.0,7.648689,0.078903474,0.42273578,0.23530822,0.18218413,0.1040926,inf,inf,inf,inf,1,1,1,1,2,0,2,2,1,1,0
2061920000,1684000,47.3977508,8.5456074,-0.38846794,-0.5964576,-7.557291,-0.022669492,-0.0033747193,0.0,-0.995792,-1.6685028,-0.06827645,-0.14776331,-0.05914641,-0.009015089,0.12613459,-1.2067844,-2.1083946,0.15805474,-0.2212232,0.0,7.664364,0.06827645,0.43638834,0.2355057,0.1870242,0.10436727,inf,inf,inf,inf,1,1,1,1,2,0,2,2,1,1,0
2062023999,1684000,47.3977508,8.5456074,-0.49136335,-0.7677543,-7.5724664,-0.022669492,-0.0033747193,0.0,-1.1123102,-1.8709947,-0.063687675,-0.1426025,-0.05914641,-0.009015089,0.12613459,-1.1987373,-1.9630004,0.01899628,-0.30182156,0.0,7.679539,0.063687675,0.423054,0.2343618,0.18144257,0.10364239,inf,inf,inf,inf,1,1,1,1,2,0,2,2,1,1,0
2062119999,1684000,47.3977508,8.5456074,-0.5979044,-0.94540185,-7.586315,-0.022669492,-0.0033747193,0.0,-1.2177554,-2.0465803,-0.05553558,-0.13447596,-0.05914641,-0.009015089,0.12613459,-1.1668833,-1.8838454,0.10687084,-0.37634853,0.0,7.693388,0.05553558,0.4355837,0.2355319,0.18593937,0.10415254,inf,inf,inf,inf,1,1,1,1,2,0,2,2,1,1,0
2062224000,1684000,47.3977508,8.5456074,-0.72309226,-1.1548897,-7.599245,-0.022669492,-0.0033747193,0.0,-1.3265911,-2.2328265,-0.046928532,-0.12460932,-0.05914641,-0.009015089,0.12613459,-1.0505418,-1.8920546,0.10809395,-0.4576102,0.0,7.706318,0.046928532,0.42237282,0.23438011,0.18049598,0.10342965,inf,inf,inf,inf,1,1,1,1,2,0,2,2,1,1,0
2062327999,1684000,47.3977508,8.5456074,-0.86104214,-1.385822,-7.610284,-0.022669492,-0.0033747193,0.0,-1.4334762,-2.4153967,-0.041192714,-0.11677031,-0.05914641,-0.009015089,0.12613459,-0.98639566,-1.7671831,0.100837156,-0.5387039,0.0,7.7173567,0.041192714,0.4358441,0.23452407,0.18528698,0.10368426,inf,inf,inf,inf,1,1,1,1,2,0,2,2,1,1,0
2062424000,1684000,47.3977508,8.5456074,-0.9971148,-1.6145008,-7.620084,-0.022669492,-0.0033747193,0.0,-1.5291332,-2.5771866,-0.041013937,-0.114802465,-0.05914641,-0.009015089,0.12613459,-1.0363586,-1.6873646,0.032594424,-0.6137347,0.0,7.7271566,0.041013937,0.42170578,0.23434778,0.17962357,0.103205435,inf,inf,inf,inf,1,1,1,1,2,0,2,2,1,1,0
2062528000,1684000,47.3977508,8.5456074,-1.156634,-1.8819361,-7.6301966,-0.022669492,-0.0033747193,0.0,-1.6308806,-2.7470152,-0.04254821,-0.114011675,-0.05914641,-0.009015089,0.12613459,-0.94497293,-1.5844327,0.044277046,-0.69521374,0.0,7.7372694,0.04254821,0.43508807,0.2361011,0.1844698,0.103883885,inf,inf,inf,inf,1,1,1,1,2,0,2,2,1,1,0
2062624000,1684000,47.3977508,8.5456074,-1.3130815,-2.1433492,-7.639143,-0.022669492,-0.0033747193,0.0,-1.7205237,-2.8973305,-0.0354386,-0.10485573,-0.05914641,-0.009015089,0.12613459,-0.93435955,-1.6579814,0.06030855,-0.77078193,0.0,7.746216,0.0354386,0.42104995,0.23426932,0.17890891,0.10298088,inf,inf,inf,inf,1,1,1,1,2,0,2,2,1,1,0
2062728000,1684000,47.3977508,8.5456074,-1.4939594,-2.4446857,-7.6475625,-0.022669492,-0.0033747193,0.0,-1.8187013,-3.0505612,-0.02692026,-0.09387649,-0.05914641,-0.009015089,0.12613459,-0.9129186,-1.5234034,0.16805995,-0.8546145,0.0,7.7546353,0.02692026,0.4343071,0.23437856,0.18369897,0.10323859,inf,inf,inf,inf,1,1,1,1,2,0,2,2,1,1,0
2062831999,1684000,47.3977508,8.5456074,-1.6836683,-2.7608213,-7.6542554,-0.022669492,-0.0033747193,0.0,-1.9158541,-3.1809444,-0.015556311,-0.07984385,-0.05914641,-0.009015089,0.12613459,-0.8388757,-1.1411057,0.078361474,-0.94037104,0.0,7.761328,0.015556311,0.42130297,0.23480263,0.17862615,0.10294746,inf,inf,inf,inf,1,1,1,1,2,0,2,2,1,1,0
2062927999,1684000,47.3977508,8.5456074,-1.8683912,-3.0650504,-7.6598926,-0.022669492,-0.0033747193,0.0,-2.0005004,-3.2761755,-0.01028928,-0.0726284,-0.05914641,-0.009015089,0.12613459,-0.8565131,-0.8004518,0.10757323,-1.0199572,0.0,7.7669654,0.01028928,0.43345055,0.23428445,0.18299331,0.10303853,inf,inf,inf,inf,1,1,1,1,2,0,2,2,1,1,0
2063032000,1684000,47.3977508,8.5456074,-2.076475,-3.4029796,-7.665103,-0.022669492,-0.0033747193,0.0,-2.0783331,-3.3403533,-0.0016449557,-0.061859652,-0.05914641,-0.009015089,0.12613459,-0.6732058,-0.4788993,0.20426232,-1.1054115,0.0,7.772176,0.0016449557,0.42056683,0.23469971,0.17801552,0.10276801,inf,inf,inf,inf,1,1,1,1,2,0,2,2,1,1,0
2063135999,1684000,47.3977508,8.5456074,-2.2926812,-3.7473085,-7.6692505,-0.022669492,-0.0033747193,0.0,-2.1326509,-3.3714693,0.0041865758,-0.054008324,-0.05914641,-0.009015089,0.12613459,-0.46146953,-0.14490113,0.020718725,-1.189954,0.0,7.7763233,-0.0041865758,0.4336453,0.23478505,0.18271637,0.103058726,inf,inf,inf,inf,1,1,1,1,2,0,2,2,1,1,0
2063231999,1684000,47.3977508,8.5456074,-2.4959552,-4.069664,-7.672982,-0.022669492,-0.0033747193,0.0,-2.161504,-3.3867617,0.00035846728,-0.05612975,-0.05914641,-0.009015089,0.12613459,-0.16641167,-0.059272546,0.020249221,-1.2665915,0.0,7.780055,-0.00035846728,0.41984463,0.23456599,0.1773936,0.10263497,inf,inf,inf,inf,1,1,1,1,2,0,2,2,1,1,0
2063336000,1684000,47.3977508,8.5456074,-2.719436,-4.4207373,-7.677757,-0.022669492,-0.0033747193,0.0,-2.1753383,-3.3872616,-0.010117702,-0.064922705,-0.05914641,-0.009015089,0.12613459,-0.01188443,-0.01881267,-0.10658558,-1.348342,0.0,7.7848296,0.010117702,0.43281466,0.23466305,0.18206514,0.10295689,inf,inf,inf,inf,1,1,1,1,2,0,2,2,1,1,0
2063432000,1684000,47.3977508,8.5456074,-2.927235,-4.748226,-7.682591,-0.022669492,-0.0033747193,0.0,-2.1810403,-3.3837805,-0.017907,-0.070760794,-0.05914641,-0.009015089,0.12613459,-0.024232311,0.015688863,0.0131535055,-1.4225881,0.0,7.789664,0.017907,0.41913638,0.23445325,0.17695998,0.10255623,inf,inf,inf,inf,1,1,1,1,2,0,2,2,1,1,0
2063536000,1684000,47.3977508,8.5456074,-3.1535347,-5.102986,-7.6877713,-0.022669492,-0.0033747193,0.0,-2.1812775,-3.3842883,-0.017413428,-0.06801253,-0.05914641,-0.009015089,0.12613459,-0.03286055,0.001653796,0.04959013,-1.5033535,0.0,7.794844,0.017413428,0.43200988,0.23455751,0.1817949,0.10289434,inf,inf,inf,inf,1,1,1,1,2,0,2,2,1,1,0
2063639999,1684000,47.3977508,8.5456074,-3.381045,-5.4591,-7.6935787,-0.022669492,-0.0033747193,0.0,-2.1872356,-3.3881264,-0.020833269,-0.07000591,-0.05914641,-0.009015089,0.12613459,0.022772698,-0.07750699,0.09150523,-1.5855592,0.0,7.8006516,0.020833269,0.41930822,0.23337689,0.17720973,0.102273904,inf,inf,inf,inf,1,1,1,1,2,0,2,2,1,1,0
2063735999,1684000,47.3977508,8.5456074,-3.5920696,-5.787881,-7.6991673,-0.022669492,-0.0033747193,0.0,-2.1900873,-3.390328,-0.021602051,-0.06961643,-0.05914641,-0.009015089,0.12613459,-0.018519813,-0.0939269,-0.07082614,-1.6618242,0.0,7.80624,0.021602051,0.43113804,0.2344686,0.18187456,0.10284186,inf,inf,inf,inf,1,1,1,1,2,0,2,2,1,1,0
2063840000,1684000,47.3977508,8.5456074,-3.821008,-6.146935,-7.704822,-0.022669492,-0.0033747193,0.0,-2.1942227,-3.393163,-0.022911446,-0.06927728,-0.05914641,-0.009015089,0.12613459,-0.076503955,-0.0019664874,-0.01922529,-1.7444738,0.0,7.811895,0.022911446,0.4185565,0.23331583,0.17755224,0.102236286,inf,inf,inf,inf,1,1,1,1,2,0,2,2,1,1,0
2063943999,1684000,47.3977508,8.5456074,-4.05063,-6.5055394,-7.709161,-0.022669492,-0.0033747193,0.0,-2.1977355,-3.394231,-0.023501335,-0.06706224,-0.05914641,-0.009015089,0.12613459,-0.06901429,0.051579993,0.008905671,-1.8270007,0.0,7.8162336,0.023501335,0.43132883,0.23503502,0.18283871,0.10299057,inf,inf,inf,inf,1,1,1,1,2,0,2,2,1,1,0
2064039999,1684000,47.3977508,8.5456074,-4.2621093,-6.8379617,-7.7134457,-0.022669492,-0.0033747193,0.0,-2.2043836,-3.397778,-0.027075388,-0.06844591,-0.05914641,-0.009015089,0.12613459,-0.044438455,-0.039838433,-0.00039032174,-1.9028248,0.0,7.8205185,0.027075388,0.41785097,0.23322988,0.17828193,0.10218968,inf,inf,inf,inf,1,1,1,1,2,0,2,2,1,1,0
2064144000,1684000,47.3977508,8.5456074,-4.4918985,-7.197212,-7.7192163,-0.022669492,-0.0033747193,0.0,-2.2058082,-3.400507,-0.029615594,-0.06963422,-0.05914641,-0.009015089,0.12613459,-0.0063006845,-0.03045269,-0.0053472486,-1.9785446,0.0,7.826289,0.029615594,0.43057334,0.23494838,0.18376276,0.10294245,inf,inf,inf,inf,1,1,1,1,2,0,2,2,1,1,0
2064240000,1684000,47.3977508,8.5456074,-4.703293,-7.5311394,-7.7253942,-0.022669492,-0.0033747193,0.0,-2.2036211,-3.4066935,-0.03257854,-0.07206323,-0.05914641,-0.009015089,0.12613459,0.06485599,-0.13785157,0.031246442,-2.033062,0.0,7.832467,0.03257854,0.4172021,0.23316371,0.17934707,0.102149226,inf,inf,inf,inf,1,1,1,1,2,0,2,2,1,1,0
2064344000,1684000,47.3977508,8.5456074,-4.9325275,-7.892374,-7.73252,-0.022669492,-0.0033747193,0.0,-2.2051268,-3.4119093,-0.031739887,-0.07100143,-0.05914641,-0.009015089,0.12613459,-0.0820856,0.033752292,0.0005150213,-2.075601,0.0,7.839593,0.031739887,0.42988047,0.2332859,0.18495966,0.10248943,inf,inf,inf,inf,1,1,1,1,2,0,2,2,1,1,0
2064448000,1684000,47.3977508,8.5456074,-5.16176,-8.254668,-7.7396526,-0.022669492,-0.0033747193,0.0,-2.2132964,-3.4170518,-0.029915633,-0.06906692,-0.05914641,-0.009015089,0.12613459,-0.1526005,0.0038572722,-0.06627218,-2.1064148,0.0,7.8467255,0.029915633,0.41748846,0.23374206,0.18105017,0.10228909,inf,inf,inf,inf,1,1,1,1,2,0,2,2,1,1,0
2064543999,1684000,47.3977508,8.5456074,-5.3744335,-8.588568,-7.7458835,-0.022669492,-0.0033747193,0.0,-2.2219768,-3.4248607,-0.027531875,-0.066393346,-0.05914641,-0.009015089,0.12613459,-0.12203818,-0.07045152,0.1503257,-2.12746,0.0,7.8529563,0.027531875,0.4291995,0.23324938,0.18633822,0.10245609,inf,inf,inf,inf,1,1,1,1,2,0,2,2,1,1,0
2064648000,1684000,47.3977508,8.5456074,-5.6059885,-8.952937,-7.7532034,-0.022669492,-0.0033747193,0.0,-2.2336168,-3.4339826,-0.02735404,-0.06673593,-0.05914641,-0.009015089,0.12613459,-0.040351875,0.039075032,0.0338871,-2.1433864,0.0,7.860276,0.02735404,0.41690207,0.2337124,0.18244083,0.10227532,inf,inf,inf,inf,1,1,1,1,2,0,2,2,1,1,0
2064751999,1684000,47.3977508,8.5456074,-5.83868,-9.3166895,-7.759799,-0.022669492,-0.0033747193,0.0,-2.239671,-3.4385865,-0.02613291,-0.06520068,-0.05914641,-0.009015089,0.12613459,-0.09727302,-0.0025829703,0.14590581,-2.1545043,0.0,7.866872,0.02613291,0.42963716,0.23383573,0.18829633,0.102641225,inf,inf,inf,inf,1,1,1,1,2,0,2,2,1,1,0
2064847999,1684000,47.3977508,8.5456074,-6.0539656,-9.654304,-7.7654076,-0.022669492,-0.0033747193,0.0,-2.2452056,-3.444339,-0.028082272,-0.066415675,-0.05914641,-0.009015089,0.12613459,-0.043558136,0.08102786,-0.0785264,-2.1616268,0.0,7.8724804,0.028082272,0.4164114,0.23366567,0.18390605,0.10228691,inf,inf,inf,inf,1,1,1,1,2,0,2,2,1,1,0
2064952000,1684000,47.3977508,8.5456074,-6.288093,-10.01926,-7.77126,-0.022669492,-0.0033747193,0.0,-2.250488,-3.4527285,-0.026608452,-0.06397216,-0.05914641,-0.009015089,0.12613459,-0.12931879,-0.04772562,0.08067395,-2.1664164,0.0,7.8783326,0.026608452,0.42918774,0.2337741,0.18987197,0.102663055,inf,inf,inf,inf,1,1,1,1,2,0,2,2,1,1,0
2065048000,1684000,47.3977508,8.5456074,-6.5030193,-10.358814,-7.7757955,-0.022669492,-0.0033747193,0.0,-2.2535868,-3.4621108,-0.024370382,-0.06035754,-0.05914641,-0.009015089,0.12613459,-0.0398681,-0.00475461,-0.055575818,-2.1692994,0.0,7.8828683,0.024370382,0.4160232,0.23359829,0.18540984,0.102318645,inf,inf,inf,inf,1,1,1,1,2,0,2,2,1,1,0
2065160000,1684000,47.3977508,8.5456074,-6.7549934,-10.754171,-7.7813907,-0.022669492,-0.0033747193,0.0,-2.2605581,-3.4692197,-0.026602894,-0.06145055,-0.05914641,-0.009015089,0.12613459,-0.06787412,-0.012354863,-0.07787635,-2.1711848,0.0,7.8884635,0.026602894,0.42988485,0.2343465,0.19191559,0.10290486,inf,inf,inf,inf,1,1,1,1,2,0,2,2,1,1,0
2065256000,1684000,47.3977508,8.5456074,-6.97062,-11.09534,-7.7866015,-0.022669492,-0.0033747193,0.0,-2.26404,-3.4745908,-0.026982607,-0.061141286,-0.05914641,-0.009015089,0.12613459,0.04517578,-0.026627073,0.09734544,-2.172019,0.0,7.8936744,0.026982607,0.41660565,0.23258746,0.18721916,0.10217123,inf,inf,inf,inf,1,1,1,1,2,0,2,2,1,1,0
2065352000,1684000,47.3977508,8.5456074,-7.1868944,-11.435593,-7.7915854,-0.022669492,-0.0033747193,0.0,-2.267052,-3.481842,-0.024518501,-0.057976324,-0.05914641,-0.009015089,0.12613459,-0.06459016,-0.13691117,0.02857049,-2.172442,0.0,7.8986583,0.024518501,0.42855585,0.23369823,0.19284402,0.10281234,inf,inf,inf,inf,1,1,1,1,2,0,2,2,1,1,0
2065456000,1684000,47.3977508,8.5456074,-7.4214797,-11.805831,-7.7963634,-0.022669492,-0.0033747193,0.0,-2.2722619,-3.4899716,-0.025979087,-0.058252186,-0.05914641,-0.009015089,0.12613459,-0.11489307,-0.050909813,-0.08720531,-2.172058,0.0,7.903436,0.025979087,0.4163442,0.23258677,0.1884911,0.10228631,inf,inf,inf,inf,1,1,1,1,2,0,2,2,1,1,0
2065559999,1684000,47.3977508,8.5456074,-7.6572037,-12.17539,-7.8009477,-0.022669492,-0.0033747193,0.0,-2.27999,-3.4950671,-0.026267426,-0.057099704,-0.05914641,-0.009015089,0.12613459,-0.08206212,-0.072693,0.08807391,-2.1714244,0.0,7.9080205,0.026267426,0.42939085,0.23276271,0.19455864,0.10273345,inf,inf,inf,inf,1,1,1,1,2,0,2,2,1,1,0
2065655999,1684000,47.3977508,8.5456074,-7.87463,-12.518669,-7.805309,-0.022669492,-0.0033747193,0.0,-2.2841885,-3.5024292,-0.025613144,-0.05551923,-0.05914641,-0.009015089,0.12613459,0.02340673,0.02601159,0.07349786,-2.1708574,0.0,7.9123816,0.025613144,0.4161883,0.23265278,0.18960299,0.102447525,inf,inf,inf,inf,1,1,1,1,2,0,2,2,1,1,0
2065760000,1684000,47.3977508,8.5456074,-8.110861,-12.889858,-7.809347,-0.022669492,-0.0033747193,0.0,-2.2869413,-3.5092852,-0.024985846,-0.053389974,-0.05914641,-0.009015089,0.12613459,0.00482914,0.0202856,-0.08228793,-2.1697996,0.0,7.91642,0.024985846,0.4293275,0.23285884,0.19564591,0.102916725,inf,inf,inf,inf,1,1,1,1,2,0,2,2,1,1,0
2065856000,1684000,47.3977508,8.5456074,-8.328349,-13.235809,-7.813151,-0.022669492,-0.0033747193,0.0,-2.2903085,-3.5171306,-0.028732304,-0.055717066,-0.05914641,-0.009015089,0.12613459,-0.058816046,-0.044806626,0.0063944603,-2.168402,0.0,7.9202237,0.028732304,0.41612968,0.23276576,0.19052517,0.102637105,inf,inf,inf,inf,1,1,1,1,2,0,2,2,1,1,0
2065960000,1684000,47.3977508,8.5456074,-8.5651865,-13.609481,-7.817041,-0.022669492,-0.0033747193,0.0,-2.2949848,-3.5224173,-0.027679754,-0.052978836,-0.05914641,-0.009015089,0.12613459,0.04138285,-0.021551734,0.081847414,-2.1674843,0.0,7.9241138,0.027679754,0.42936406,0.2329847,0.19655581,0.1031129,inf,inf,inf,inf,1,1,1,1,2,0,2,2,1,1,0
2066064000,1684000,47.3977508,8.5456074,-8.801074,-13.983137,-7.8219495,-0.022669492,-0.0033747193,0.0,-2.299673,-3.5250046,-0.02781474,-0.052692126,-0.05914641,-0.009015089,0.12613459,-0.09374561,-0.11444467,0.004715039,-2.1665454,0.0,7.9290223,0.02781474,0.41704756,0.23194587,0.19163135,0.10262328,inf,inf,inf,inf,1,1,1,1,2,0,2,2,1,1,0
2066160000,1684000,47.3977508,8.5456074,-9.019829,-14.327068,-7.8261256,-0.022669492,-0.0033747193,0.0,-2.303897,-3.5299313,-0.028167307,-0.05228518,-0.05914641,-0.009015089,0.12613459,-0.07171393,-0.074841,0.057046942,-2.1657212,0.0,7.9331985,0.028167307,0.42937773,0.23312902,0.19716436,0.10331488,inf,inf,inf,inf,1,1,1,1,2,0,2,2,1,1,0
2066264000,1684000,47.3977508,8.5456074,-9.255832,-14.702233,-7.829947,-0.022669492,-0.0033747193,0.0,-2.306821,-3.5387335,-0.027173815,-0.049914643,-0.05914641,-0.009015089,0.12613459,-0.030454246,-0.00013876705,0.07119867,-2.1646433,0.0,7.93702,0.027173815,0.41706058,0.23209623,0.1920843,0.10282277,inf,inf,inf,inf,1,1,1,1,2,0,2,2,1,1,0
2066367999,1684000,47.3977508,8.5456074,-9.492903,-15.076767,-7.8334107,-0.022669492,-0.0033747193,0.0,-2.3106654,-3.5435233,-0.028195065,-0.049422137,-0.05914641,-0.009015089,0.12613459,-0.08550491,-0.015128926,-0.0071785664,-2.1635816,0.0,7.9404836,0.028195065,0.4305201,0.2323475,0.19800298,0.103308134,inf,inf,inf,inf,1,1,1,1,2,0,2,2,1,1,0
2066463999,1684000,47.3977508,8.5456074,-9.710977,-15.424366,-7.8354397,-0.022669492,-0.0033747193,0.0,-2.3139162,-3.5486133,-0.029657729,-0.04833279,-0.05914641,-0.009015089,0.12613459,-0.10150112,0.013010103,-0.07640618,-2.1628168,0.0,7.9425125,0.029657729,0.41713825,0.23227383,0.19234002,0.10302412,inf,inf,inf,inf,1,1,1,1,2,0,2,2,1,1,0
2066568000,1684000,47.3977508,8.5456074,-9.949021,-15.799814,-7.8374834,-0.022669492,-0.0033747193,0.0,-2.3211684,-3.55249,-0.03391873,-0.049724992,-0.05914641,-0.009015089,0.12613459,-0.11783279,0.023572005,-0.028303823,-2.1617045,0.0,7.944556,0.03391873,0.43067482,0.23253627,0.19821191,0.10350836,inf,inf,inf,inf,1,1,1,1,2,0,2,2,1,1,0
2066664000,1684000,47.3977508,8.5456074,-10.169439,-16.148443,-7.839805,-0.022669492,-0.0033747193,0.0,-2.3276,-3.5578196,-0.03167205,-0.04539976,-0.05914641,-0.009015089,0.12613459,-0.06438163,-0.048451822,-0.01252815,-2.1610482,0.0,7.946878,0.03167205,0.41726688,0.2324766,0.19243966,0.1032223,inf,inf,inf,inf,1,1,1,1,2,0,2,2,1,1,0
2066768000,1684000,47.3977508,8.5456074,-10.409901,-16.525002,-7.8418236,-0.022669492,-0.0033747193,0.0,-2.3338854,-3.5617294,-0.034874436,-0.046203844,-0.05914641,-0.009015089,0.12613459,-0.0001748558,-0.043776117,-0.09675789,-2.1601443,0.0,7.9488964,0.034874436,0.4308732,0.23274866,0.19823779,0.103705674,inf,inf,inf,inf,1,1,1,1,2,0,2,2,1,1,0
2066872000,1684000,47.3977508,8.5456074,-10.649296,-16.902376,-7.844992,-0.022669492,-0.0033747193,0.0,-2.337167,-3.5665224,-0.038145732,-0.048003078,-0.05914641,-0.009015089,0.12613459,-0.10107399,-0.020371081,-0.03068034,-2.159407,0.0,7.952065,0.038145732,0.4183477,0.23174697,0.19269954,0.10319666,inf,inf,inf,inf,1,1,1,1,2,0,2,2,1,1,0
2066968000,1684000,47.3977508,8.5456074,-10.871143,-17.24986,-7.848131,-0.022669492,-0.0033747193,0.0,-2.340765,-3.5709527,-0.040211968,-0.048894115,-0.05914641,-0.009015089,0.12613459,-0.03167451,-0.019780071,-0.04122586,-2.1584222,0.0,7.955204,0.040211968,0.4309869,0.23297027,0.19801053,0.10388453,inf,inf,inf,inf,1,1,1,1,2,0,2,2,1,1,0
2067072000,1684000,47.3977508,8.5456074,-11.111134,-17.627844,-7.8526506,-0.022669492,-0.0033747193,0.0,-2.3450873,-3.5761724,-0.039571855,-0.04797506,-0.05914641,-0.009015089,0.12613459,-0.12648663,-0.054958273,0.07571186,-2.1576886,0.0,7.9597235,0.039571855,0.41845655,0.23352878,0.19243981,0.103761524,inf,inf,inf,inf,1,1,1,1,2,0,2,2,1,1,0
2067175999,1684000,47.3977508,8.5456074,-11.352545,-18.005106,-7.856149,-0.022669492,-0.0033747193,0.0,-2.3484647,-3.5813,-0.03567688,-0.04316956,-0.05914641,-0.009015089,0.12613459,-0.013833133,-0.019568486,-0.04476683,-2.1569805,0.0,7.963222,0.03567688,0.4322133,0.23380384,0.19810013,0.10422575,inf,inf,inf,inf,1,1,1,1,2,0,2,2,1,1,0
2067271999,1684000,47.3977508,8.5456074,-11.574278,-18.355545,-7.859242,-0.022669492,-0.0033747193,0.0,-2.3513136,-3.588292,-0.034444634,-0.041244354,-0.05914641,-0.009015089,0.12613459,-0.07836012,-0.08959817,0.0047909897,-2.1562572,0.0,7.966315,0.034444634,0.41856554,0.2321439,0.19198295,0.103488415,inf,inf,inf,inf,1,1,1,1,2,0,2,2,1,1,0
2067376000,1684000,47.3977508,8.5456074,-11.815873,-18.734364,-7.8629856,-0.022669492,-0.0033747193,0.0,-2.3553784,-3.5915406,-0.03723017,-0.043657277,-0.05914641,-0.009015089,0.12613459,-0.08850754,0.0495878,-0.0025602055,-2.1553764,0.0,7.9700584,0.03723017,0.432363,0.23401472,0.19758138,0.104356945,inf,inf,inf,inf,1,1,1,1,2,0,2,2,1,1,0
2067472000,1684000,47.3977508,8.5456074,-12.037609,-19.085466,-7.8662167,-0.022669492,-0.0033747193,0.0,-2.358951,-3.5937955,-0.03733226,-0.043073792,-0.05914641,-0.009015089,0.12613459,-0.154956,0.05384767,0.012550502,-2.1548038,0.0,7.9732895,0.03733226,0.41869408,0.232361,0.19144638,0.10361229,inf,inf,inf,inf,1,1,1,1,2,0,2,2,1,1,0
2067576000,1684000,47.3977508,8.5456074,-12.27923,-19.464529,-7.870122,-0.022669492,-0.0033747193,0.0,-2.360653,-3.5979834,-0.037844665,-0.043360826,-0.05914641,-0.009015089,0.12613459,-0.009695533,-0.07661455,-0.09901728,-2.1542904,0.0,7.977195,0.037844665,0.4325131,0.2342323,0.19698633,0.10447149,inf,inf,inf,inf,1,1,1,1,2,0,2,2,1,1,0
2067680000,1684000,47.3977508,8.5456074,-12.519883,-19.844236,-7.87513,-0.022669492,-0.0033747193,0.0,-2.3646417,-3.602033,-0.03686514,-0.04309935,-0.05914641,-0.009015089,0.12613459,-0.059301343,-0.05524156,0.06281225,-2.1536808,0.0,7.982203,0.03686514,0.41975886,0.23320529,0.19118844,0.10390485,inf,inf,inf,inf,1,1,1,1,2,0,2,2,1,1,0
2067776000,1684000,47.3977508,8.5456074,-12.74325,-20.194067,-7.87972,-0.022669492,-0.0033747193,0.0,-2.368661,-3.6058772,-0.035451166,-0.042421985,-0.05914641,-0.009015089,0.12613459,-0.12021975,0.017382283,-0.008233627,-2.1529765,0.0,7.986793,0.035451166,0.432541,0.23445167,0.19624685,0.10456254,inf,inf,inf,inf,1,1,1,1,2,0,2,2,1,1,0
2067880000,1684000,47.3977508,8.5456074,-12.984148,-20.575495,-7.8833594,-0.022669492,-0.0033747193,0.0,-2.3710139,-3.612345,-0.029938411,-0.036651243,-0.05914641,-0.009015089,0.12613459,-0.061512455,-0.0020361037,0.037278045,-2.15258,0.0,7.9904323,0.029938411,0.4197851,0.23342104,0.19043863,0.103985555,inf,inf,inf,inf,1,1,1,1,2,0,2,2,1,1,0
2067983999,1684000,47.3977508,8.5456074,-13.226819,-20.956516,-7.885872,-0.022669492,-0.0033747193,0.0,-2.3803506,-3.6188614,-0.029307632,-0.034908142,-0.05914641,-0.009015089,0.12613459,-0.121393785,-0.020042881,-0.004880419,-2.152226,0.0,7.9929447,0.029307632,0.43364847,0.23371045,0.19582315,0.104412355,inf,inf,inf,inf,1,1,1,1,2,0,2,2,1,1,0
2068079999,1684000,47.3977508,8.5456074,-13.450478,-21.310553,-7.8883805,-0.022669492,-0.0033747193,0.0,-2.382288,-3.623901,-0.029265728,-0.034300707,-0.05914641,-0.009015089,0.12613459,0.05622729,-0.0065497663,-0.024019226,-2.1519496,0.0,7.9954534,0.029265728,0.41980675,0.23363735,0.18963417,0.104049124,inf,inf,inf,inf,1,1,1,1,2,0,2,2,1,1,0
2068184000,1684000,47.3977508,8.5456074,-13.694162,-21.692724,-7.8906717,-0.022669492,-0.0033747193,0.0,-2.385518,-3.6222503,-0.032776188,-0.036651537,-0.05914641,-0.009015089,0.12613459,-0.060382295,0.05221157,0.02255663,-2.1513166,0.0,7.9977446,0.032776188,0.43365744,0.2339356,0.19495314,0.10447157,inf,inf,inf,inf,1,1,1,1,2,0,2,2,1,1,0
2068280000,1684000,47.3977508,8.5456074,-13.917737,-22.046576,-7.8931966,-0.022669492,-0.0033747193,0.0,-2.387271,-3.6234164,-0.034199573,-0.037151262,-0.05914641,-0.009015089,0.12613459,-0.033107582,-0.04269741,0.042884607,-2.1511192,0.0,8.00027,0.034199573,0.41981065,0.23229438,0.18880183,0.103694126,inf,inf,inf,inf,1,1,1,1,2,0,2,2,1,1,0
2068384000,1684000,47.3977508,8.5456074,-14.161416,-22.428656,-7.895728,-0.022669492,-0.0033747193,0.0,-2.3898363,-3.6264055,-0.033991747,-0.03591332,-0.05914641,-0.009015089,0.12613459,-0.03801798,-0.06810971,0.019966623,-2.150742,0.0,8.002801,0.033991747,0.4336522,0.23419052,0.19412993,0.10452425,inf,inf,inf,inf,1,1,1,1,2,0,2,2,1,1,0
2068488000,1684000,47.3977508,8.5456074,-14.404731,-22.811827,-7.898083,-0.022669492,-0.0033747193,0.0,-2.3928826,-3.6335173,-0.032720454,-0.033581086,-0.05914641,-0.009015089,0.12613459,-0.11046566,-0.04159504,0.06622656,-2.1500678,0.0,8.0051565,0.032720454,0.42074528,0.2331801,0.18834573,0.10392753,inf,inf,inf,inf,1,1,1,1,2,0,2,2,1,1,0
2068584000,1684000,47.3977508,8.5456074,-14.6307125,-23.165035,-7.899672,-0.022669492,-0.0033747193,0.0,-2.397309,-3.6389413,-0.03208991,-0.031672973,-0.05914641,-0.009015089,0.12613459,-0.047358252,-0.039577138,0.003090287,-2.1498632,0.0,8.006745,0.03208991,0.43351567,0.23444259,0.19319889,0.104556546,inf,inf,inf,inf,1,1,1,1,2,0,2,2,1,1,0
2068688000,1684000,47.3977508,8.5456074,-14.875061,-23.548357,-7.9002085,-0.022669492,-0.0033747193,0.0,-2.4036672,-3.641001,-0.033227637,-0.030452937,-0.05914641,-0.009015089,0.12613459,-0.16912608,0.0021010635,-0.13070087,-2.1496177,0.0,8.007281,0.033227637,0.42063174,0.23342282,0.18746358,0.10394973,inf,inf,inf,inf,1,1,1,1,2,0,2,2,1,1,0
