timestamp,timestamp_sample,control[0],control[1],control[2],control[3],control[4],control[5],control[6],control[7]
1859220000,1859220000,-0.0022485727,-0.009394057,-0.23256533,-0.0,0.0,0.0,0.0,-1.0
1859320000,1859320000,0.0005249331,-0.010721254,-0.23286143,-0.0,0.0,0.0,0.0,-1.0
1859420000,1859420000,-0.0023125545,-0.012419407,-0.23185097,-0.0,0.0,0.0,0.0,-1.0
1859520000,1859520000,1.3081721e-05,-0.012253685,-0.23351698,-0.0,0.0,0.0,0.0,-1.0
1859620000,1859620000,0.0008068449,-0.011970096,-0.23216425,-0.0,0.0,0.0,0.0,-1.0
1859716000,1859716000,-0.00017058763,-0.011292298,-0.23212205,-0.0,0.0,0.0,0.0,-1.0
1859816000,1859816000,-0.0022374971,-0.009347924,-0.23210204,-0.0,0.0,0.0,0.0,-1.0
1859920000,1859920000,0.0016145488,-0.010713082,-0.23304561,-0.0,0.0,0.0,0.0,-1.0
1860020000,1860020000,0.00031117417,-0.009430908,-0.23277365,-0.0,0.0,0.0,0.0,-1.0
1860120000,1860120000,0.0016277018,-0.009383833,-0.23356664,-0.0,0.0,0.0,0.0,-1.0
1860220000,1860220000,0.0018272955,-0.011675503,-0.23201397,-0.0,0.0,0.0,0.0,-1.0
1860320000,1860320000,-0.010001732,0.004692895,0.0005691818,0.12001605,0.0,0.0,0.0,-1.0
1860420000,1860420000,-0.01925391,-0.019420916,0.00047761473,0.1400481,0.0,0.0,0.0,-1.0
1860520000,1860520000,-0.011226274,-0.022261439,0.00091892673,0.22089969,0.0,0.0,0.0,-1.0
1860620000,1860620000,-0.0122888405,-0.026194418,-0.0003690263,0.29236215,0.0,0.0,0.0,-1.0
1860720000,1860720000,-0.00781525,-0.026863012,0.0004609623,0.3600267,0.0,0.0,0.0,-1.0
1860816000,1860816000,-0.0042982637,-0.026555419,0.000557663,0.42728552,0.0,0.0,0.0,-1.0
1860916000,1860916000,-0.0024470747,-0.026894018,0.0010589,0.5122943,0.0,0.0,0.0,-1.0
1861016000,1861016000,-0.0020943359,-0.023956018,-9.639607e-05,0.5893251,0.0,0.0,0.0,-1.0
1861116000,1861116000,-0.0015843932,0.005452485,0.00044143695,0.6182603,0.0,0.0,0.0,-1.0
1861220000,1861220000,-0.00052383426,0.004621448,0.00021611882,0.6048868,0.0,0.0,0.0,-1.0
1861320000,1861320000,-0.00010470941,0.0006731581,-0.0012929746,0.6099724,0.0,0.0,0.0,-1.0
1861420000,1861420000,0.0012685669,-0.0017618458,0.00065645797,0.6117762,0.0,0.0,0.0,-1.0
1861520000,1861520000,0.002364422,-0.0013653394,0.00012449706,0.6173359,0.0,0.0,0.0,-1.0
1861616000,1861616000,0.00017304718,0.00060652476,-0.00064549054,0.61669976,0.0,0.0,0.0,-1.0
1861720000,1861720000,-0.0004238602,0.0008821292,0.00037409522,0.6181864,0.0,0.0,0.0,-1.0
1861816000,1861816000,-0.00030383188,0.00066138245,0.0003585661,0.6178304,0.0,0.0,0.0,-1.0
1861916000,1861916000,0.0028411574,0.00052523194,0.0011187001,0.6203311,0.0,0.0,0.0,-1.0
1862020000,1862020000,-0.00028936134,0.00070041604,0.00095361285,0.62692624,0.0,0.0,0.0,-1.0
1862120000,1862120000,-2.2571243e-05,-0.0025635299,-0.0010440868,0.62688965,0.0,0.0,0.0,-1.0
1862216000,1862216000,0.0016601111,0.00084274774,-0.0006340612,0.6249593,0.0,0.0,0.0,-1.0
1862320000,1862320000,-0.0023704309,0.00044955383,0.00065145735,0.62824094,0.0,0.0,0.0,-1.0
1862420000,1862420000,-0.00065386156,-0.0023587253,-0.00021389578,0.6360149,0.0,0.0,0.0,-1.0
1862516000,1862516000,-0.0018604026,-0.00067224423,0.00016468021,0.6385199,0.0,0.0,0.0,-1.0
1862616000,1862616000,0.00045691265,-0.0014303145,-0.00057654886,0.63801605,0.0,0.0,0.0,-1.0
1862720000,1862720000,-0.0017880664,0.0018233268,-0.0022362543,0.63865364,0.0,0.0,0.0,-1.0
1862816000,1862816000,-0.0010691817,0.00057949545,-0.0011752724,0.6384763,0.0,0.0,0.0,1.0
1862920000,1862920000,-0.0014262318,-0.0008187491,0.0007795133,0.6427158,0.0,0.0,0.0,1.0
1863020000,1863020000,0.0030892987,-0.0016655009,0.0010740249,0.53820884,0.0,0.0,0.0,1.0
1863120000,1863120000,-0.0017434099,-0.00057919975,0.0007146305,0.5638522,0.0,0.0,0.0,1.0
1863220000,1863220000,0.0004986321,-0.0024272283,0.00058096566,0.5683684,0.0,0.0,0.0,1.0
1863320000,1863320000,0.002690112,-0.00092409964,0.00028119422,0.5630773,0.0,0.0,0.0,1.0
1863416000,1863416000,-0.0021700906,-0.00040867855,0.0006448641,0.5752666,0.0,0.0,0.0,1.0
1863520000,1863520000,0.0018546915,-9.204587e-05,0.0006460726,0.57128406,0.0,0.0,0.0,1.0
1863620000,1863620000,-0.0010224447,-0.004256596,6.837329e-05,0.57241404,0.0,0.0,0.0,1.0
1863720000,1863720000,0.0017086278,0.0002868767,0.00020528966,0.5684633,0.0,0.0,0.0,1.0
1863816000,1863816000,0.0010300109,-0.002399479,-0.00017124553,0.5775248,0.0,0.0,0.0,1.0
1863916000,1863916000,0.0004901536,0.0022264873,-0.0010961025,0.57590073,0.0,0.0,0.0,1.0
1864020000,1864020000,-0.0004506504,6.787479e-06,2.960948e-05,0.5763684,0.0,0.0,0.0,1.0
1864120000,1864120000,0.00044980092,-0.00011056161,-0.0006232857,0.5780916,0.0,0.0,0.0,1.0
1864220000,1864220000,-0.0020201337,-0.0019931048,-0.00037019528,0.57495815,0.0,0.0,0.0,1.0
1864316000,1864316000,-0.0016723201,-0.0008381058,6.4959786e-06,0.58221704,0.0,0.0,0.0,1.0
1864416000,1864416000,-0.00057164574,0.0001953246,-0.00017305734,0.58115196,0.0,0.0,0.0,1.0
1864520000,1864520000,-0.0008612732,-0.0030174332,-0.00042256183,0.5791912,0.0,0.0,0.0,1.0
1864620000,1864620000,5.2808115e-05,0.0019843124,0.0008595683,0.57613665,0.0,0.0,0.0,1.0
1864720000,1864720000,-0.00018567954,-0.0016377377,-0.00050652854,0.5775974,0.0,0.0,0.0,1.0
1864820000,1864820000,0.000398918,0.00010707509,-0.0007148778,0.5832329,0.0,0.0,0.0,1.0
1864916000,1864916000,-0.00036522807,-1.4728575e-06,0.000341272,0.58066297,0.0,0.0,0.0,1.0
1865020000,1865020000,-0.0014834699,-0.0011168679,6.91853e-05,0.58035153,0.0,0.0,0.0,1.0
1865120000,1865120000,-0.00037264865,0.00084175286,0.0013836828,0.57963365,0.0,0.0,0.0,1.0
1865220000,1865220000,-0.0020178375,-0.00044185558,-0.00015327592,0.5858235,0.0,0.0,0.0,1.0
1865320000,1865320000,0.0017469241,-0.00061065156,-0.00034790018,0.58581704,0.0,0.0,0.0,1.0
1865420000,1865420000,-0.00035761137,0.000121985446,0.0005302587,0.59065574,0.0,0.0,0.0,1.0
1865520000,1865520000,0.0004826544,-0.0020221826,-0.00027940675,0.58637106,0.0,0.0,0.0,1.0
1865620000,1865620000,-0.0005548032,-0.00339256,0.0005075956,0.57932115,0.0,0.0,0.0,1.0
1865720000,1865720000,0.0011118529,-0.0002999972,0.0005751727,0.57653844,0.0,0.0,0.0,1.0
1865820000,1865820000,-0.00035745132,-0.0005812177,-3.8061633e-05,0.57807565,0.0,0.0,0.0,1.0
1865920000,1865920000,-5.680621e-05,-0.001664469,-0.00019793358,0.58362156,0.0,0.0,0.0,1.0
1866020000,1866020000,-0.0024043494,-0.0003928598,-0.00030717376,0.5789009,0.0,0.0,0.0,1.0
1866120000,1866120000,0.0019995912,-0.0015061339,0.0005194714,0.5769357,0.0,0.0,0.0,1.0
1866220000,1866220000,-0.00073605415,0.0026978143,-0.00019825173,0.58196145,0.0,0.0,0.0,1.0
1866320000,1866320000,0.003364632,-0.0014371821,-0.0005000263,0.5833409,0.0,0.0,0.0,1.0
1866416000,1866416000,-0.002601649,-0.0023597155,-0.00048934174,0.58306247,0.0,0.0,0.0,1.0
1866520000,1866520000,0.0032071986,0.000467356,0.00053689705,0.57929736,0.0,0.0,0.0,1.0
1866620000,1866620000,0.0014470875,-0.0005335171,0.0009984887,0.57912946,0.0,0.0,0.0,1.0
1866716000,1866716000,0.0017949448,-0.0020356013,0.00029153528,0.57873404,0.0,0.0,0.0,1.0
1866820000,1866820000,0.0007352207,0.0009339795,0.000716113,0.5859454,0.0,0.0,0.0,1.0
1866920000,1866920000,-0.00033813337,-0.0021971622,-0.00066796906,0.58651626,0.0,0.0,0.0,1.0
1867016000,1867016000,0.00031749054,0.0021096678,-0.00054918317,0.58199614,0.0,0.0,0.0,1.0
1867120000,1867120000,-0.00011788294,0.00016183456,-0.0003377273,0.58148795,0.0,0.0,0.0,1.0
1867216000,1867216000,-0.0016838905,-0.002931993,-8.74475e-05,0.5835751,0.0,0.0,0.0,1.0
1867316000,1867316000,0.00056461216,-0.0030795203,-0.00023223544,0.58608687,0.0,0.0,0.0,1.0
1867420000,1867420000,0.0006104854,-0.00047143223,0.00052912434,0.5812477,0.0,0.0,0.0,1.0
1867516000,1867516000,0.0012956703,0.0007930327,0.0015252617,0.59861076,0.0,0.0,0.0,1.0
1867616000,1867616000,0.00031280375,-0.0015520477,-2.1174274e-05,0.62496823,0.0,0.0,0.0,1.0
1867720000,1867720000,0.0014712246,0.0005863485,3.276643e-05,0.65895873,0.0,0.0,0.0,1.0
1867820000,1867820000,0.0003560706,-0.0030355814,-0.0006630027,0.6759204,0.0,0.0,0.0,1.0
1867920000,1867920000,-0.0006029415,0.00017181039,5.2892137e-05,0.71571654,0.0,0.0,0.0,1.0
1868016000,1868016000,-0.0014456876,-0.0008386506,0.0015762197,0.6813144,0.0,0.0,0.0,1.0
1868120000,1868120000,-0.00038664037,0.0031736118,0.0005574598,0.6550526,0.0,0.0,0.0,1.0
1868220000,1868220000,0.0022522635,0.00097439555,-0.00052399957,0.628638,0.0,0.0,0.0,1.0
1868316000,1868316000,-0.00070353685,-0.0037134204,-0.00060188567,0.6176897,0.0,0.0,0.0,1.0
1868420000,1868420000,-0.0018440896,0.0026347202,6.940399e-05,0.6037794,0.0,0.0,0.0,1.0
1868516000,1868516000,-0.001831558,-0.0037489594,0.0012385442,0.60484254,0.0,0.0,0.0,1.0
1868620000,1868620000,0.0015775397,-0.0001687039,-0.0006894715,0.6017101,0.0,0.0,0.0,1.0
1868720000,1868720000,0.0008543241,0.00091593136,0.00026284828,0.5951644,0.0,0.0,0.0,1.0
1868820000,1868820000,0.0034385982,0.0007595039,-0.0006908355,0.60869473,0.0,0.0,0.0,1.0
1868920000,1868920000,0.0017625248,3.6378944e-05,0.00054643437,0.6030649,0.0,0.0,0.0,1.0
1869020000,1869020000,0.000440544,0.0024554678,-0.00039612452,0.6019199,0.0,0.0,0.0,1.0
1869120000,1869120000,0.0012226485,0.0026781966,0.00032633755,0.59590834,0.0,0.0,0.0,1.0
1869220000,1869220000,-0.00019761149,0.0015250935,-7.9294405e-05,0.59417665,0.0,0.0,0.0,1.0
1869316000,1869316000,-0.0028460713,0.0009224925,-0.00038507773,0.6092513,0.0,0.0,0.0,1.0
1869416000,1869416000,-0.0035287838,0.0011184334,0.00025635774,0.60149413,0.0,0.0,0.0,1.0
1869520000,1869520000,0.002365834,-0.0052422644,-6.535148e-06,0.6022601,0.0,0.0,0.0,1.0
1869620000,1869620000,0.0023703675,0.0024857486,-0.00081461656,0.5966053,0.0,0.0,0.0,1.0
1869716000,1869716000,0.00030618417,0.0020448873,0.0005020992,0.6094062,0.0,0.0,0.0,1.0
1869820000,1869820000,-0.0021174855,0.00029615252,0.00038708904,0.6104473,0.0,0.0,0.0,1.0
1869920000,1869920000,-0.0007529152,-0.0013620623,-0.0005003057,0.6025863,0.0,0.0,0.0,1.0
1870020000,1870020000,-0.00076529535,0.0006437404,0.00027756262,0.59549063,0.0,0.0,0.0,1.0
1870116000,1870116000,0.001042667,0.00037214236,-0.0003732362,0.5977662,0.0,0.0,0.0,1.0
1870216000,1870216000,-0.0019533415,0.002063535,0.00082029245,0.60988593,0.0,0.0,0.0,1.0
1870316000,1870316000,-0.00068534777,0.000719346,-0.00028308673,0.60207236,0.0,0.0,0.0,1.0
1870420000,1870420000,0.0025931369,-0.0006690167,4.3627197e-06,0.60243124,0.0,0.0,0.0,1.0
1870520000,1870520000,-0.0014501234,0.0011406501,0.00065228174,0.596325,0.0,0.0,0.0,1.0
1870620000,1870620000,-0.0044082007,0.00088055606,-7.5773285e-05,0.5973607,0.0,0.0,0.0,1.0
1870720000,1870720000,-0.00096406514,-0.00033931065,-0.0008150018,0.61151016,0.0,0.0,0.0,1.0
1870816000,1870816000,0.0006986851,0.0007744194,0.00029587917,0.6040403,0.0,0.0,0.0,1.0
1870920000,1870920000,-0.0015852572,0.0019529441,0.00032130184,0.6042736,0.0,0.0,0.0,1.0
1871020000,1871020000,0.00052051106,0.0026550663,0.00087619905,0.59700465,0.0,0.0,0.0,1.0
1871120000,1871120000,0.00043842007,0.0025597643,-0.00045223723,0.612282,0.0,0.0,0.0,1.0
1871220000,1871220000,-0.00064527517,-0.0024739204,6.567811e-05,0.6101178,0.0,0.0,0.0,1.0
1871320000,1871320000,-0.0027457,-0.00017837237,-0.001435133,0.6094241,0.0,0.0,0.0,1.0
1871420000,1871420000,0.002747153,0.000555604,-0.0008290521,0.5746424,0.0,0.0,0.0,1.0
1871516000,1871516000,0.0021734617,-0.00039568453,-0.0010982044,0.5639495,0.0,0.0,0.0,1.0
1871620000,1871620000,0.00047053627,0.000483562,0.00012678404,0.56840885,0.0,0.0,0.0,1.0
1871716000,1871716000,0.00034104186,-0.0010017423,0.00065780495,0.57488096,0.0,0.0,0.0,1.0
1871820000,1871820000,-0.0030046632,0.00043529682,-0.0003134864,0.5733996,0.0,0.0,0.0,1.0
1871920000,1871920000,-0.0017520266,0.0016216344,0.0011425958,0.5690194,0.0,0.0,0.0,1.0
1872020000,1872020000,0.00068797177,0.00013721167,-5.5006694e-05,0.5662773,0.0,0.0,0.0,1.0
1872116000,1872116000,0.0021819512,0.00030632864,-0.0006839725,0.56539845,0.0,0.0,0.0,1.0
1872220000,1872220000,-0.0007572159,-0.0007204669,0.0008944604,0.5736766,0.0,0.0,0.0,1.0
1872320000,1872320000,0.004187192,0.0028831675,-0.00075472146,0.5722854,0.0,0.0,0.0,1.0
1872420000,1872420000,-0.0010536936,-0.003176327,0.00021140974,0.56933504,0.0,0.0,0.0,1.0
1872516000,1872516000,-0.0011983053,0.0010209926,0.0005577053,0.5654447,0.0,0.0,0.0,1.0
1872616000,1872616000,0.0010162885,-0.0011489259,2.4393403e-05,0.5713138,0.0,0.0,0.0,1.0
1872716000,1872716000,-0.0012311627,0.0035060137,0.00016557354,0.57258713,0.0,0.0,0.0,1.0
1872820000,1872820000,0.00042473982,0.0005950868,0.00025630256,0.5697145,0.0,0.0,0.0,1.0
1872920000,1872920000,-0.00054832594,0.0005524355,0.0003458069,0.5692334,0.0,0.0,0.0,1.0
1873020000,1873020000,0.0002268343,0.0018835543,0.00052781304,0.56722254,0.0,0.0,0.0,1.0
1873120000,1873120000,-0.0014220572,0.0015202349,0.00017987505,0.5729094,0.0,0.0,0.0,1.0
1873220000,1873220000,0.0016297384,-7.0710244e-05,0.00052831724,0.5734001,0.0,0.0,0.0,1.0
1873316000,1873316000,-0.00061132887,0.00081620587,0.00014567548,0.5672384,0.0,0.0,0.0,1.0
1873420000,1873420000,-0.0004299677,-0.0019260892,-0.00038085834,0.56682456,0.0,0.0,0.0,1.0
1873520000,1873520000,-0.002019268,0.0055804597,0.00092545495,0.5652655,0.0,0.0,0.0,1.0
1873620000,1873620000,0.00063620025,0.00071725436,-0.00038339105,0.56909585,0.0,0.0,0.0,1.0
1873720000,1873720000,0.0008093423,-3.2126758e-05,0.0007305074,0.5693268,0.0,0.0,0.0,1.0
1873816000,1873816000,-0.00064852636,0.002542641,-0.00026327028,0.56754756,0.0,0.0,0.0,1.0
1873920000,1873920000,-0.001518397,0.0005238702,-0.00032305327,0.56430864,0.0,0.0,0.0,1.0
1874016000,1874016000,-0.0016788193,-0.0041669956,0.0002847185,0.5691306,0.0,0.0,0.0,1.0
1874120000,1874120000,0.0029966193,0.0017049705,0.00014016825,0.56770116,0.0,0.0,0.0,1.0
1874220000,1874220000,-0.0012020993,-0.0001699114,-4.7687216e-05,0.5675137,0.0,0.0,0.0,1.0
1874320000,1874320000,0.0007796634,0.0017872627,0.0005934551,0.5660767,0.0,0.0,0.0,1.0
1874420000,1874420000,-0.000885832,0.0005799476,0.00048024772,0.5640767,0.0,0.0,0.0,1.0
1874516000,1874516000,-0.0010704532,-0.0012190476,-0.00026560313,0.5653314,0.0,0.0,0.0,1.0
1874620000,1874620000,0.00085964473,0.001288367,-0.00041921847,0.5643589,0.0,0.0,0.0,1.0
1874720000,1874720000,-0.0016539103,-7.3527626e-05,0.0003306179,0.5669985,0.0,0.0,0.0,1.0
1874820000,1874820000,0.0034863749,-0.00045119348,0.0014124361,0.56779987,0.0,0.0,0.0,1.0
1874920000,1874920000,-0.0013132411,0.0025992363,-0.0001584467,0.5674307,0.0,0.0,0.0,1.0
1875020000,1875020000,0.0009862218,-0.00060566416,-0.00035576947,0.56332546,0.0,0.0,0.0,1.0
1875116000,1875116000,-0.0039542764,0.0019043941,0.0002533149,0.5688523,0.0,0.0,0.0,1.0
1875220000,1875220000,0.00060716824,0.00033154507,-0.00055092294,0.5680047,0.0,0.0,0.0,1.0
1875316000,1875316000,0.0007700589,-0.00022502794,0.00026153264,0.5669593,0.0,0.0,0.0,1.0
1875420000,1875420000,-0.0023718218,0.00015015573,-2.83205e-05,0.56602657,0.0,0.0,0.0,1.0
1875520000,1875520000,0.002321338,0.0012948789,-5.9488968e-05,0.5622253,0.0,0.0,0.0,1.0
1875620000,1875620000,0.00010485692,0.0015910773,-0.00084001024,0.566735,0.0,0.0,0.0,1.0
1875720000,1875720000,0.003661478,-0.0011872266,-0.00040220315,0.56567025,0.0,0.0,0.0,1.0
1875820000,1875820000,-0.00023936683,-0.000510909,-0.00011952318,0.5632907,0.0,0.0,0.0,1.0
1875920000,1875920000,-0.00080762716,0.0018506289,-0.0007684522,0.56432056,0.0,0.0,0.0,1.0
1876016000,1876016000,0.00084623677,0.0002184888,-0.00017933038,0.5658987,0.0,0.0,0.0,1.0
1876120000,1876120000,-0.0006010195,0.0023333027,-0.001624623,0.5660174,0.0,0.0,0.0,1.0
1876220000,1876220000,-0.0012479228,0.0002951214,-0.0009224845,0.56462055,0.0,0.0,0.0,1.0
1876320000,1876320000,-0.00048910076,-0.0029833121,-0.00051302713,0.56492454,0.0,0.0,0.0,1.0
1876420000,1876420000,0.00044491925,-0.002029581,-0.00014654869,0.5643685,0.0,0.0,0.0,1.0
1876520000,1876520000,-0.0012859466,0.0024930115,-0.00044008275,0.5666331,0.0,0.0,0.0,1.0
1876616000,1876616000,0.00016970409,0.0017658562,3.422513e-05,0.5663712,0.0,0.0,0.0,1.0
1876720000,1876720000,-0.00010336243,0.0027481373,0.0008296902,0.5655275,0.0,0.0,0.0,1.0
1876820000,1876820000,-0.0015963019,-0.0009376508,-0.0001838062,0.56566364,0.0,0.0,0.0,1.0
1876916000,1876916000,-0.00012661621,0.0012870259,-5.9084014e-05,0.5639928,0.0,0.0,0.0,1.0
1877020000,1877020000,-0.0018939042,0.0007202311,-0.00060330663,0.56413805,0.0,0.0,0.0,1.0
1877116000,1877116000,0.0015543429,0.0013643483,0.00058631366,0.5659115,0.0,0.0,0.0,1.0
1877216000,1877216000,0.0013299322,0.0027589537,0.00048663988,0.56544805,0.0,0.0,0.0,1.0
1877320000,1877320000,0.0030816535,0.0024040623,0.00022651779,0.56446123,0.0,0.0,0.0,1.0
1877420000,1877420000,-0.0024798724,-0.0011238703,-0.000540177,0.5663993,0.0,0.0,0.0,1.0
1877516000,1877516000,-0.00015661135,-0.0012657396,0.0005970172,0.5637431,0.0,0.0,0.0,1.0
1877620000,1877620000,0.0035812815,0.0011417116,0.0005353164,0.5645027,0.0,0.0,0.0,1.0
1877716000,1877716000,-9.8167344e-05,-0.0017588469,-0.00018247646,0.56401545,0.0,0.0,0.0,1.0
1877820000,1877820000,0.0010556383,0.00070324953,-0.00034579646,0.5643385,0.0,0.0,0.0,1.0
1877920000,1877920000,-0.0005974802,0.00080795406,0.00023081488,0.5650988,0.0,0.0,0.0,1.0
1878020000,1878020000,9.595484e-05,0.00024397016,-0.0014180938,0.5629845,0.0,0.0,0.0,1.0
1878116000,1878116000,0.0020068353,-0.0012756212,1.2081542e-05,0.56302667,0.0,0.0,0.0,1.0
1878220000,1878220000,-0.0012280631,0.0012159682,0.0001600349,0.5644972,0.0,0.0,0.0,1.0
1878316000,1878316000,-0.0001833136,0.0010029053,0.00092022563,0.56543934,0.0,0.0,0.0,1.0
1878420000,1878420000,0.00057839794,-0.0032524813,0.0001293638,0.5651029,0.0,0.0,0.0,1.0
1878520000,1878520000,-0.001597874,0.0035374789,9.2161295e-05,0.5653116,0.0,0.0,0.0,1.0
1878620000,1878620000,-3.05211e-05,-0.00066849776,-0.00016596731,0.5626927,0.0,0.0,0.0,1.0
1878720000,1878720000,-0.0032533128,-0.0005348236,0.00029483766,0.5644633,0.0,0.0,0.0,1.0
1878820000,1878820000,-0.00014179072,-0.00025195506,0.000524045,0.5645492,0.0,0.0,0.0,1.0
1878916000,1878916000,-0.0022647646,-0.0006250346,0.00014409599,0.564423,0.0,0.0,0.0,1.0
1879020000,1879020000,0.0004343009,-0.0011202863,-8.910303e-05,0.56486386,0.0,0.0,0.0,1.0
1879116000,1879116000,0.0001418495,-0.00083783816,-0.00011884838,0.56455225,0.0,0.0,0.0,1.0
1879220000,1879220000,-0.0009160382,-0.0018842637,0.00012364627,0.56229997,0.0,0.0,0.0,1.0
1879320000,1879320000,5.3538643e-05,0.0031199853,-7.962695e-05,0.56387603,0.0,0.0,0.0,1.0
1879420000,1879420000,0.0013722319,-0.0020644884,-5.573279e-05,0.56433845,0.0,0.0,0.0,1.0
1879520000,1879520000,0.0004487147,0.0025430846,2.3173765e-05,0.56224626,0.0,0.0,0.0,1.0
1879620000,1879620000,0.0007937964,0.0018233036,-0.0010934077,0.5633605,0.0,0.0,0.0,1.0
1879716000,1879716000,-0.00015683334,0.002494009,0.00011383845,0.5648834,0.0,0.0,0.0,1.0
1879820000,1879820000,-0.00089796924,0.0027036946,-2.7574102e-05,0.56361467,0.0,0.0,0.0,1.0
1879916000,1879916000,1.6007762e-06,0.0018116436,-0.0005667931,0.56312853,0.0,0.0,0.0,1.0
1880020000,1880020000,0.002173681,0.00094050297,0.0005628486,0.5640428,0.0,0.0,0.0,1.0
1880116000,1880116000,0.0030242794,0.0014450032,-0.00070665963,0.56300443,0.0,0.0,0.0,1.0
1880216000,1880216000,-6.6696295e-05,0.001513919,-0.0001502473,0.56276315,0.0,0.0,0.0,1.0
1880320000,1880320000,0.0016616601,4.938121e-05,-7.662925e-05,0.5650778,0.0,0.0,0.0,1.0
1880420000,1880420000,-0.00010427815,0.0011246528,-0.00036315492,0.56305057,0.0,0.0,0.0,1.0
1880516000,1880516000,0.00020870636,0.00011400036,-0.00082481734,0.562866,0.0,0.0,0.0,1.0
1880620000,1880620000,0.0005537713,0.0010045869,-0.00025101888,0.5631258,0.0,0.0,0.0,1.0
1880720000,1880720000,-0.0005819739,-0.0011381661,-0.0005453317,0.5639047,0.0,0.0,0.0,1.0
1880816000,1880816000,-0.0012670081,0.002154797,-0.0006416688,0.564106,0.0,0.0,0.0,1.0
1880920000,1880920000,0.002265374,-0.0006088632,0.00034320046,0.563359,0.0,0.0,0.0,1.0
1881020000,1881020000,0.00014081266,-0.0011632936,0.00087157125,0.56310153,0.0,0.0,0.0,1.0
1881116000,1881116000,0.001193573,-0.00050092104,0.00056515756,0.5635254,0.0,0.0,0.0,1.0
1881216000,1881216000,0.0011746399,0.0006207759,-0.00044571044,0.5631424,0.0,0.0,0.0,1.0
1881320000,1881320000,0.0011604598,-0.0018479073,0.00078809017,0.56408936,0.0,0.0,0.0,1.0
1881420000,1881420000,0.0017166304,0.0005431219,0.00012496815,0.5631026,0.0,0.0,0.0,1.0
1881516000,1881516000,0.00095275627,0.00024023915,-0.00042432116,0.5638363,0.0,0.0,0.0,1.0
1881620000,1881620000,0.00072105986,0.00072718365,0.00041049963,0.5629644,0.0,0.0,0.0,1.0
1881720000,1881720000,-0.001428836,-0.00087108,0.00052610645,0.56480604,0.0,0.0,0.0,1.0
1881820000,1881820000,0.0031854927,-7.817425e-06,0.00052391953,0.56451875,0.0,0.0,0.0,1.0
1881920000,1881920000,0.00017294762,-0.0018767635,0.0007294989,0.5630511,0.0,0.0,0.0,1.0
1882020000,1882020000,-0.00019827267,-0.0018712601,0.0002609736,0.56371063,0.0,0.0,0.0,1.0
1882120000,1882120000,0.0006252117,0.0005714756,-0.00032746943,0.563219,0.0,0.0,0.0,1.0
1882220000,1882220000,0.002299029,0.00047757613,-1.1451666e-06,0.5634932,0.0,0.0,0.0,1.0
1882316000,1882316000,0.0020839903,-0.0016649506,-0.00065004907,0.56345254,0.0,0.0,0.0,1.0
1882420000,1882420000,0.0025818024,-0.0007941319,0.00068832014,0.56341016,0.0,0.0,0.0,1.0
1882520000,1882520000,0.0011504721,-0.001515018,-0.0012662412,0.5645123,0.0,0.0,0.0,1.0
1882616000,1882616000,0.0007074056,0.0026142173,-0.00027720584,0.5639648,0.0,0.0,0.0,1.0
1882716000,1882716000,-0.00015712461,-0.0023891756,0.00048610207,0.5616115,0.0,0.0,0.0,1.0
1882820000,1882820000,0.00076504477,0.0015987724,0.00022341823,0.563304,0.0,0.0,0.0,1.0
1882920000,1882920000,-0.0022596354,0.00043088384,-9.0416375e-05,0.561334,0.0,0.0,0.0,1.0
1883016000,1883016000,-0.0010915578,-5.295541e-05,-0.0007021934,0.56222534,0.0,0.0,0.0,1.0
1883120000,1883120000,0.0015573754,0.0021296162,-1.43620055e-05,0.56285703,0.0,0.0,0.0,1.0
1883220000,1883220000,-0.0011146154,-0.00069703587,5.914886e-05,0.5624504,0.0,0.0,0.0,1.0
1883320000,1883320000,-0.0014008338,0.00013412064,-0.0004232427,0.5622013,0.0,0.0,0.0,1.0
1883420000,1883420000,-0.000472688,-0.00055076927,-0.00020136003,0.5642687,0.0,0.0,0.0,1.0
1883520000,1883520000,-0.002407253,-0.0004002221,0.0002036376,0.56570786,0.0,0.0,0.0,1.0
1883620000,1883620000,-0.0007896791,-0.0025665031,-0.0007121506,0.56386614,0.0,0.0,0.0,1.0
1883720000,1883720000,0.00036709878,0.0011891639,-0.0007281046,0.5633084,0.0,0.0,0.0,1.0
1883816000,1883816000,-5.664813e-06,0.001173194,0.00018811156,0.56398106,0.0,0.0,0.0,1.0
1883920000,1883920000,0.002692578,-0.00015051685,0.00047253733,0.56327486,0.0,0.0,0.0,1.0
1884020000,1884020000,-0.00041159423,0.00015386389,-5.6341894e-05,0.5658487,0.0,0.0,0.0,1.0
1884116000,1884116000,-0.0002233685,0.00047180653,-0.00047569143,0.56468487,0.0,0.0,0.0,1.0
1884220000,1884220000,-0.00052903674,-0.0039058912,-0.0005270877,0.56432915,0.0,0.0,0.0,1.0
1884316000,1884316000,0.0007981495,-0.0015346166,-2.8432376e-05,0.5637895,0.0,0.0,0.0,1.0
1884416000,1884416000,-0.00037776656,-0.0017473237,-0.0009553175,0.56526166,0.0,0.0,0.0,1.0
1884520000,1884520000,0.0011879924,-0.0016768224,0.00027368218,0.5630213,0.0,0.0,0.0,1.0
1884616000,1884616000,-0.0026333742,-0.0024518988,0.0011501394,0.56459033,0.0,0.0,0.0,1.0
1884720000,1884720000,-0.0010821434,0.00025132822,-0.00017492012,0.5652595,0.0,0.0,0.0,1.0
1884820000,1884820000,0.00206646,-0.0039086537,8.523836e-05,0.56285447,0.0,0.0,0.0,1.0
1884916000,1884916000,-0.0003632799,-0.0044624205,-0.00020737131,0.56329495,0.0,0.0,0.0,1.0
1885020000,1885020000,-0.0020379433,0.0009205538,-1.4302968e-05,0.56314266,0.0,0.0,0.0,1.0
1885116000,1885116000,0.00048741835,-0.0012694299,-0.00070525,0.5639229,0.0,0.0,0.0,1.0
1885216000,1885216000,0.0014878269,0.00016859476,3.8041988e-05,0.56467557,0.0,0.0,0.0,1.0
1885320000,1885320000,0.0011111964,-0.0037245178,-0.00018438774,0.5625414,0.0,0.0,0.0,1.0
1885420000,1885420000,0.0005390586,-0.0007456523,-0.0010052283,0.563116,0.0,0.0,0.0,1.0
1885516000,1885516000,0.0013918699,0.00050677394,0.0001535011,0.56354064,0.0,0.0,0.0,1.0
1885616000,1885616000,-0.0015919268,0.0013635004,-2.0285064e-05,0.56418335,0.0,0.0,0.0,1.0
1885716000,1885716000,0.003232374,0.0010193951,-0.0018024885,0.563507,0.0,0.0,0.0,1.0
1885820000,1885820000,0.00047230825,0.003791855,-0.0019894845,0.5636612,0.0,0.0,0.0,1.0
1885916000,1885916000,0.00047167338,-0.0015109116,-0.00013241454,0.5645914,0.0,0.0,0.0,1.0
1886020000,1886020000,0.0008561717,0.0017130165,0.00047666946,0.5625298,0.0,0.0,0.0,1.0
1886120000,1886120000,0.0037026252,-0.0006567569,-0.0013018479,0.5641773,0.0,0.0,0.0,1.0
1886220000,1886220000,0.0016532673,-0.003248071,-0.00020117886,0.56386876,0.0,0.0,0.0,1.0
1886320000,1886320000,-0.00022201083,-0.0020698588,-0.0004942601,0.56350285,0.0,0.0,0.0,1.0
1886416000,1886416000,0.000517443,-0.0017771791,0.0006044254,0.5637298,0.0,0.0,0.0,1.0
1886516000,1886516000,0.0018980772,0.0013778508,0.00020456806,0.5648599,0.0,0.0,0.0,1.0
1886620000,1886620000,-0.0004181925,0.0007463194,-4.301536e-05,0.56107634,0.0,0.0,0.0,1.0
1886720000,1886720000,0.00027496787,-0.0013106922,0.00061245373,0.56439376,0.0,0.0,0.0,1.0
1886820000,1886820000,0.0010083835,5.438237e-05,-0.00047533773,0.5647793,0.0,0.0,0.0,1.0
1886920000,1886920000,-0.0035308152,9.532264e-05,0.00034926282,0.56279194,0.0,0.0,0.0,1.0
1887020000,1887020000,-0.0011696779,0.0035204596,0.00090766733,0.56380165,0.0,0.0,0.0,1.0
1887120000,1887120000,-0.0024264206,0.0015314617,0.00039984714,0.5635619,0.0,0.0,0.0,1.0
1887216000,1887216000,-0.0017985221,0.001241215,-7.516633e-05,0.56409514,0.0,0.0,0.0,1.0
1887320000,1887320000,0.0016893455,-0.0016359907,2.544282e-05,0.5635436,0.0,0.0,0.0,1.0
1887420000,1887420000,-0.00053759915,-0.0011848675,0.00067184947,0.5636435,0.0,0.0,0.0,1.0
1887520000,1887520000,-0.0006482059,-0.0005234759,0.0008060692,0.5627392,0.0,0.0,0.0,1.0
1887620000,1887620000,-0.0015775955,0.0010950889,0.00014245388,0.56277466,0.0,0.0,0.0,1.0
1887720000,1887720000,0.0025848506,-0.0017912771,0.0012267423,0.56159407,0.0,0.0,0.0,1.0
1887820000,1887820000,-0.0050817984,0.0005201602,7.4491996e-05,0.5618555,0.0,0.0,0.0,1.0
1887920000,1887920000,0.0010314104,-0.00079079653,-0.0004998922,0.56205654,0.0,0.0,0.0,1.0
1888020000,1888020000,-0.0011270017,-0.0008559505,-0.0004998861,0.56208235,0.0,0.0,0.0,1.0
1888116000,1888116000,0.00013248879,0.00076523423,-0.00053555006,0.56249726,0.0,0.0,0.0,1.0
1888216000,1888216000,-0.0019686117,0.0010465445,-0.00023116893,0.56170565,0.0,0.0,0.0,1.0
1888320000,1888320000,-0.0012170329,-0.0010695355,-0.000377066,0.56238127,0.0,0.0,0.0,1.0
1888420000,1888420000,0.002025616,0.0010203931,0.00012931593,0.56246334,0.0,0.0,0.0,1.0
1888516000,1888516000,-0.0006961108,0.00050150906,-4.9595765e-06,0.5614452,0.0,0.0,0.0,1.0
1888616000,1888616000,-0.002891186,-0.00017859289,0.0004119126,0.56394947,0.0,0.0,0.0,1.0
1888716000,1888716000,-0.0011908935,-0.0012738769,-0.00028908998,0.5624456,0.0,0.0,0.0,1.0
1888820000,1888820000,-0.0020790705,-0.0010587112,-0.00028531413,0.5637213,0.0,0.0,0.0,1.0
1888920000,1888920000,0.00012074485,0.0001195775,0.00023964203,0.56348497,0.0,0.0,0.0,1.0
1889020000,1889020000,-0.0021923352,0.0031190359,-3.3423028e-05,0.5628458,0.0,0.0,0.0,1.0
1889120000,1889120000,-0.00077972363,-0.001889896,-0.00038681156,0.5629604,0.0,0.0,0.0,1.0
1889220000,1889220000,0.000356892,0.0007862147,0.00041088148,0.56420803,0.0,0.0,0.0,1.0
1889320000,1889320000,-0.0009943449,0.0008891963,0.00034632647,0.56378376,0.0,0.0,0.0,1.0
1889420000,1889420000,0.0007460509,0.0018353558,0.00054094975,0.56231123,0.0,0.0,0.0,1.0
1889520000,1889520000,-0.0005003315,-0.0011325547,-8.693473e-05,0.5634822,0.0,0.0,0.0,1.0
1889616000,1889616000,0.0044157794,0.0006585966,0.00011450909,0.5640838,0.0,0.0,0.0,1.0
1889720000,1889720000,-0.00087268883,-0.0007926513,-0.00026932103,0.56230825,0.0,0.0,0.0,1.0
1889820000,1889820000,0.0009768002,0.0026304482,-6.696003e-05,0.56216884,0.0,0.0,0.0,1.0
1889920000,1889920000,0.0022245366,0.0033154732,0.00067665946,0.5638189,0.0,0.0,0.0,1.0
1890016000,1890016000,-0.0013936199,0.0014194105,0.00027529,0.56339693,0.0,0.0,0.0,1.0
1890120000,1890120000,0.0018498589,-0.0021701246,0.00071445375,0.5624771,0.0,0.0,0.0,1.0
1890220000,1890220000,-0.0015450668,0.0018717729,-0.00049214077,0.56384057,0.0,0.0,0.0,1.0
1890320000,1890320000,-0.0002363707,-0.0002881811,-0.00047841834,0.5647925,0.0,0.0,0.0,1.0
1890420000,1890420000,0.0008906784,-0.0007065048,0.0001355245,0.5640676,0.0,0.0,0.0,1.0
1890520000,1890520000,0.0014683775,0.0010530741,5.6373814e-05,0.5638322,0.0,0.0,0.0,1.0
1890620000,1890620000,-0.0005570073,0.00058176066,-0.0002807204,0.56431025,0.0,0.0,0.0,1.0
1890720000,1890720000,0.00067073206,-0.00012787168,0.00059009827,0.5640512,0.0,0.0,0.0,1.0
1890820000,1890820000,0.002600723,0.0016780988,0.0003413604,0.5631748,0.0,0.0,0.0,1.0
1890916000,1890916000,-0.0025205316,-0.0029941227,0.00033523957,0.5639184,0.0,0.0,0.0,1.0
1891020000,1891020000,-0.000482459,0.00013469472,-1.0357107e-05,0.5630017,0.0,0.0,0.0,1.0
1891120000,1891120000,0.000100428355,-0.0030692425,-0.00045666864,0.56264293,0.0,0.0,0.0,1.0
1891220000,1891220000,8.378741e-05,-0.0016465093,0.0009169524,0.5631894,0.0,0.0,0.0,1.0
1891320000,1891320000,-0.0002466053,0.0018816609,0.0004887491,0.56370896,0.0,0.0,0.0,1.0
1891420000,1891420000,0.0011066796,-0.0011708961,-0.0002219158,0.56312585,0.0,0.0,0.0,1.0
1891520000,1891520000,0.00076279405,0.0008604259,2.7850878e-05,0.56321555,0.0,0.0,0.0,1.0
1891616000,1891616000,0.004380439,0.0038291956,0.0004625477,0.56268173,0.0,0.0,0.0,1.0
1891716000,1891716000,-0.002402409,0.0045599504,0.00025500945,0.5636962,0.0,0.0,0.0,1.0
1891820000,1891820000,0.0018418331,-0.00010891592,-0.00012710544,0.5625949,0.0,0.0,0.0,1.0
1891920000,1891920000,0.0023186721,-0.0018584948,-0.00031230692,0.5638221,0.0,0.0,0.0,1.0
1892020000,1892020000,0.0033402694,-0.00023336368,-0.00045555006,0.5638834,0.0,0.0,0.0,1.0
1892116000,1892116000,0.0016873237,-0.0012500335,-0.00083042803,0.56482273,0.0,0.0,0.0,1.0
1892216000,1892216000,-6.6873326e-06,0.00023184587,0.00016344873,0.5648188,0.0,0.0,0.0,1.0
1892320000,1892320000,-0.00019029045,-0.0011045758,0.0004264693,0.5644805,0.0,0.0,0.0,1.0
1892420000,1892420000,0.0017112681,-0.00011271663,-0.00056288316,0.56312007,0.0,0.0,0.0,1.0
1892520000,1892520000,-0.002479747,0.004834262,0.00024554957,0.5632595,0.0,0.0,0.0,1.0
1892620000,1892620000,0.1769292,0.047477335,-0.21690701,0.52997553,0.0,0.0,0.0,1.0
1892720000,1892720000,0.0062489924,0.07094669,-0.056476384,0.5153683,0.0,0.0,0.0,1.0
1892820000,1892820000,-0.019230027,0.02272474,-0.005568837,0.578952,0.0,0.0,0.0,1.0
1892916000,1892916000,-0.01801235,-0.014841976,0.0071742693,0.57411635,0.0,0.0,0.0,1.0
1893020000,1893020000,-0.0030295947,-0.020665376,0.007905887,0.56560326,0.0,0.0,0.0,1.0
1893116000,1893116000,-0.0035923526,-0.0093269255,0.005679059,0.5718226,0.0,0.0,0.0,1.0
1893220000,1893220000,-0.0002163644,-0.003451679,0.0048400126,0.5691045,0.0,0.0,0.0,1.0
1893320000,1893320000,-0.00015886454,-0.00763846,0.004893857,0.5706385,0.0,0.0,0.0,1.0
1893416000,1893416000,-0.001630266,-0.0045175143,0.0023212973,0.56942016,0.0,0.0,0.0,1.0
1893516000,1893516000,-0.0017289214,-0.0034926338,0.0020853523,0.57114136,0.0,0.0,0.0,1.0
1893620000,1893620000,-0.0016908228,-0.00892316,0.0017986456,0.5700997,0.0,0.0,0.0,1.0
1893716000,1893716000,0.0016747129,-0.0055978294,0.000977994,0.5706934,0.0,0.0,0.0,1.0
1893820000,1893820000,0.0012121139,-0.005369195,-5.8484264e-05,0.57202375,0.0,0.0,0.0,1.0
1893916000,1893916000,-0.0028311864,-0.006489506,0.0004932266,0.57061934,0.0,0.0,0.0,1.0
1894016000,1894016000,0.003111619,-0.0036955327,0.00052421866,0.5715565,0.0,0.0,0.0,1.0
1894120000,1894120000,0.0008180897,-0.0069162454,0.0008064732,0.5707453,0.0,0.0,0.0,1.0
1894220000,1894220000,0.0036019387,-0.00599112,-0.000108135864,0.57161343,0.0,0.0,0.0,1.0
1894320000,1894320000,-0.0005627321,-0.007377473,0.0011921101,0.5721931,0.0,0.0,0.0,1.0
1894420000,1894420000,0.0018583876,-0.0053166766,0.00055637443,0.5736225,0.0,0.0,0.0,1.0
1894520000,1894520000,0.0002434146,-0.008963772,3.4084544e-05,0.57412136,0.0,0.0,0.0,1.0
1894616000,1894616000,0.0010564403,-0.010525896,0.00046700332,0.57348496,0.0,0.0,0.0,1.0
1894716000,1894716000,0.0010613443,-0.0057911156,0.00031114044,0.5731934,0.0,0.0,0.0,1.0
1894820000,1894820000,0.0043797456,-0.0061234003,0.0002791928,0.57442564,0.0,0.0,0.0,1.0
1894920000,1894920000,-0.00067995826,-0.0071781306,0.00013439776,0.5742229,0.0,0.0,0.0,1.0
1895020000,1895020000,0.0032837777,-0.009627472,0.00072022015,0.5750648,0.0,0.0,0.0,1.0
1895116000,1895116000,0.0028975126,-0.0077952426,5.5711716e-05,0.5747425,0.0,0.0,0.0,1.0
1895216000,1895216000,-0.0013853398,-0.006162796,-0.0008162414,0.5752991,0.0,0.0,0.0,1.0
1895320000,1895320000,0.0028034986,-0.007642622,-0.0010804448,0.57657105,0.0,0.0,0.0,1.0
1895420000,1895420000,0.0020871125,-0.009556108,-0.00072228024,0.5757576,0.0,0.0,0.0,1.0
1895520000,1895520000,0.0018961438,-0.009200612,0.00040269503,0.57840455,0.0,0.0,0.0,1.0
1895620000,1895620000,0.0026280761,-0.012516858,-0.00021646591,0.5791445,0.0,0.0,0.0,1.0
1895720000,1895720000,0.0042452104,-0.008156813,0.00041366788,0.5785418,0.0,0.0,0.0,1.0
1895820000,1895820000,-3.262877e-05,-0.005830697,-0.0006447353,0.578789,0.0,0.0,0.0,1.0
1895916000,1895916000,0.00020130549,-0.010172875,-0.00014581741,0.58131605,0.0,0.0,0.0,1.0
1896020000,1896020000,0.0029354193,-0.013006778,-3.234949e-06,0.5816266,0.0,0.0,0.0,1.0
1896116000,1896116000,0.0041652303,-0.010469369,-0.00022661453,0.5802429,0.0,0.0,0.0,1.0
1896220000,1896220000,-0.00095255487,-0.01354469,0.0002860555,0.5803826,0.0,0.0,0.0,1.0
1896316000,1896316000,0.0033757058,-0.00896035,-0.00034088152,0.58355695,0.0,0.0,0.0,1.0
1896420000,1896420000,0.0016697161,-0.012692329,-0.00035953638,0.5833322,0.0,0.0,0.0,1.0
1896520000,1896520000,0.0013391724,-0.010479172,0.0010989908,0.58511776,0.0,0.0,0.0,1.0
1896620000,1896620000,0.005666867,-0.013839206,0.00038737885,0.5853784,0.0,0.0,0.0,1.0
1896716000,1896716000,0.00074094883,-0.01462554,-0.00050318055,0.58762705,0.0,0.0,0.0,1.0
1896816000,1896816000,-5.189632e-05,-0.016234834,0.00036932703,0.5885755,0.0,0.0,0.0,1.0
1896920000,1896920000,0.0012159604,-0.014855863,-0.00063608325,0.5883264,0.0,0.0,0.0,1.0
1897016000,1897016000,0.0016715054,-0.016102657,-0.0011097109,0.5894316,0.0,0.0,0.0,1.0
1897116000,1897116000,0.0022168597,-0.015916944,-0.00093259686,0.5926499,0.0,0.0,0.0,1.0
1897220000,1897220000,-4.1415216e-05,-0.0155816525,-0.0003181221,0.59251964,0.0,0.0,0.0,1.0
1897316000,1897316000,0.0035127993,-0.015879245,-1.3852725e-05,0.5951146,0.0,0.0,0.0,1.0
1897420000,1897420000,0.0030019367,-0.020156318,0.0003213178,0.59738934,0.0,0.0,0.0,1.0
1897520000,1897520000,0.0011851237,-0.020147586,0.00012183539,0.5983241,0.0,0.0,0.0,1.0
1897616000,1897616000,0.00203079,-0.020924212,1.7314567e-05,0.59906906,0.0,0.0,0.0,1.0
1897720000,1897720000,0.0024513411,-0.017006224,-0.0008778898,0.6004725,0.0,0.0,0.0,1.0
1897816000,1897816000,0.0020649044,-0.02143496,-0.00014748494,0.6012391,0.0,0.0,0.0,1.0
1897920000,1897920000,0.0022577827,-0.02224148,-0.00052197976,0.60413575,0.0,0.0,0.0,1.0
1898020000,1898020000,0.0023578461,-0.020836325,-0.00055944774,0.6066542,0.0,0.0,0.0,1.0
1898120000,1898120000,-0.0003745152,-0.021190962,-0.00083816884,0.60761887,0.0,0.0,0.0,1.0
1898216000,1898216000,0.0012851416,-0.018651212,-0.002513092,0.61054045,0.0,0.0,0.0,1.0
1898316000,1898316000,0.0017597192,-0.024798792,-0.00049948465,0.61245596,0.0,0.0,0.0,1.0
1898420000,1898420000,0.0011522794,-0.027146092,-0.0011316008,0.61518735,0.0,0.0,0.0,1.0
1898520000,1898520000,-0.00018968829,-0.02661384,-0.0002789257,0.6180404,0.0,0.0,0.0,1.0
1898620000,1898620000,0.0025406452,-0.028144289,-8.3925726e-05,0.62040997,0.0,0.0,0.0,1.0
1898720000,1898720000,0.0026436667,-0.024637515,-0.0006934372,0.6246037,0.0,0.0,0.0,1.0
1898820000,1898820000,0.00052989984,-0.026256375,-0.00034945877,0.62926024,0.0,0.0,0.0,1.0
1898920000,1898920000,0.0020772633,-0.032353133,-0.0011746904,0.63267374,0.0,0.0,0.0,1.0
1899020000,1899020000,0.0013579667,-0.027544335,-0.00036177126,0.6351202,0.0,0.0,0.0,1.0
1899120000,1899120000,0.0005599059,-0.027672762,-0.000360045,0.638282,0.0,0.0,0.0,1.0
1899216000,1899216000,0.0016070225,-0.030215457,-0.0006539569,0.6420435,0.0,0.0,0.0,1.0
1899320000,1899320000,0.0019184332,-0.03219129,-0.0013235987,0.64742786,0.0,0.0,0.0,1.0
1899420000,1899420000,-0.001498355,-0.039798908,-0.0015308347,0.6519342,0.0,0.0,0.0,1.0
1899520000,1899520000,0.002192922,-0.02936605,-0.0006814039,0.6571311,0.0,0.0,0.0,1.0
1899620000,1899620000,0.005073757,-0.027269157,-0.0014448412,0.66147846,0.0,0.0,0.0,1.0
1899716000,1899716000,0.0034580184,-0.038823254,-0.001573991,0.6659798,0.0,0.0,0.0,1.0
1899816000,1899816000,0.0013511359,-0.039840598,-0.0014625521,0.672958,0.0,0.0,0.0,1.0
1899920000,1899920000,-0.00053490174,-0.015180521,-0.0016294253,0.66566324,0.0,0.0,0.0,1.0
1900020000,1900020000,-0.0014371555,-0.020424394,-8.6810905e-07,0.6702992,0.0,0.0,0.0,1.0
1900120000,1900120000,0.0046551335,-0.047930583,-0.0015907414,0.6726448,0.0,0.0,0.0,1.0
1900220000,1900220000,0.0016358516,-0.058039617,-0.00016844622,0.67128086,0.0,0.0,0.0,1.0
1900316000,1900316000,0.0006696379,-0.051223945,-0.0009787919,0.6697475,0.0,0.0,0.0,1.0
1900416000,1900416000,0.00097459834,-0.041771606,-0.0022743815,0.6664364,0.0,0.0,0.0,1.0
1900520000,1900520000,-0.00035793567,-0.03642458,-0.00039174262,0.6672363,0.0,0.0,0.0,1.0
1900620000,1900620000,-9.692798e-05,-0.039452486,-0.00026787724,0.6696323,0.0,0.0,0.0,1.0
1900716000,1900716000,0.002318405,-0.044102024,-0.00095748587,0.670805,0.0,0.0,0.0,1.0
1900820000,1900820000,-0.00019659486,-0.045064006,-0.0022825056,0.6710383,0.0,0.0,0.0,1.0
1900920000,1900920000,0.005823346,-0.04521782,-0.0015966203,0.669872,0.0,0.0,0.0,1.0
1901020000,1901020000,0.002109685,-0.043782398,-0.00051140244,0.67021435,0.0,0.0,0.0,1.0
1901120000,1901120000,0.002270943,-0.040255394,-0.0008407162,0.6701044,0.0,0.0,0.0,1.0
1901220000,1901220000,0.0033329492,-0.04539017,-0.0015132169,0.6694136,0.0,0.0,0.0,1.0
1901320000,1901320000,0.0012924166,-0.042205695,-0.0017500176,0.67020196,0.0,0.0,0.0,1.0
1901420000,1901420000,0.0026471755,-0.043598257,-0.0007043956,0.6709922,0.0,0.0,0.0,1.0
1901516000,1901516000,0.004528487,-0.039998256,-0.0011514431,0.6736108,0.0,0.0,0.0,1.0
1901620000,1901620000,0.0008879802,-0.044018835,-0.0009783091,0.6749351,0.0,0.0,0.0,1.0
1901716000,1901716000,0.0033647905,-0.045478467,-0.0015575141,0.67216337,0.0,0.0,0.0,1.0
1901816000,1901816000,-0.00047835358,-0.043580223,-0.00016728352,0.67237526,0.0,0.0,0.0,1.0
1901920000,1901920000,-0.00097323477,-0.04502852,-0.00068990316,0.672203,0.0,0.0,0.0,1.0
1902016000,1902016000,0.00092944887,-0.044363793,-0.00047423184,0.6731167,0.0,0.0,0.0,1.0
1902120000,1902120000,-0.0029060724,-0.043216243,-0.0011158489,0.67361134,0.0,0.0,0.0,1.0
1902220000,1902220000,0.00091250986,-0.043980204,-0.0012067509,0.67377627,0.0,0.0,0.0,1.0
1902320000,1902320000,0.0026156465,-0.04499886,-0.0014386302,0.6741516,0.0,0.0,0.0,1.0
1902420000,1902420000,0.0019288964,-0.047177974,-4.3378444e-05,0.6746946,0.0,0.0,0.0,1.0
1902520000,1902520000,0.0019401432,-0.043785788,-0.001273628,0.6759318,0.0,0.0,0.0,1.0
1902616000,1902616000,0.0003536645,-0.044325616,-0.0007700841,0.67584735,0.0,0.0,0.0,1.0
1902720000,1902720000,0.0029002507,-0.044625398,-0.0009974984,0.6756699,0.0,0.0,0.0,1.0
1902820000,1902820000,0.0030539706,-0.04976951,-0.0019691421,0.67587894,0.0,0.0,0.0,1.0
1902920000,1902920000,0.0010271377,-0.043947432,-0.00095960725,0.6744891,0.0,0.0,0.0,1.0
1903020000,1903020000,0.0008039885,-0.044369835,-9.376218e-05,0.6761315,0.0,0.0,0.0,1.0
1903120000,1903120000,0.0023075752,-0.046538442,-0.0013693594,0.6752734,0.0,0.0,0.0,1.0
1903216000,1903216000,0.0011983671,-0.04436646,-0.0015626431,0.67735153,0.0,0.0,0.0,1.0
1903320000,1903320000,0.0025405379,-0.048855416,-0.00062871806,0.6757418,0.0,0.0,0.0,1.0
1903420000,1903420000,-0.0006220803,-0.04525465,-0.0013697745,0.67747194,0.0,0.0,0.0,1.0
1903520000,1903520000,0.0024966043,-0.048384797,-0.00091999857,0.67722523,0.0,0.0,0.0,1.0
1903620000,1903620000,-0.0005983326,-0.048149366,-0.00038453972,0.67752856,0.0,0.0,0.0,1.0
1903720000,1903720000,0.002011159,-0.044926558,-0.0012002428,0.6772885,0.0,0.0,0.0,1.0
1903820000,1903820000,0.0012505696,-0.045710884,-0.00084230263,0.67842853,0.0,0.0,0.0,1.0
1903920000,1903920000,-0.0030383724,-0.04607945,-0.0017436938,0.678463,0.0,0.0,0.0,1.0
1904020000,1904020000,0.0022295404,-0.04353787,-0.0009052345,0.67757165,0.0,0.0,0.0,1.0
1904120000,1904120000,-0.0011286988,-0.04752604,-0.0017348186,0.67801756,0.0,0.0,0.0,1.0
1904216000,1904216000,0.0018167403,-0.045108248,-0.001871796,0.67937195,0.0,0.0,0.0,1.0
1904320000,1904320000,0.0029535529,-0.04704159,-0.00091939175,0.6782954,0.0,0.0,0.0,1.0
1904420000,1904420000,0.0009552163,-0.044235334,0.0007084365,0.67853737,0.0,0.0,0.0,1.0
1904520000,1904520000,0.0023529422,-0.047691904,-0.002333365,0.67844194,0.0,0.0,0.0,1.0
1904620000,1904620000,0.005258763,-0.047332488,-0.0016021634,0.6780998,0.0,0.0,0.0,1.0
1904720000,1904720000,0.0011234051,-0.045350045,-0.00084574,0.67684203,0.0,0.0,0.0,1.0
1904820000,1904820000,0.0011040749,-0.045356482,-0.0010339164,0.6787421,0.0,0.0,0.0,1.0
1904920000,1904920000,0.0011491468,-0.049858306,-0.001900167,0.6785121,0.0,0.0,0.0,1.0
1905020000,1905020000,0.00022492826,-0.0464562,-0.0016889954,0.6792211,0.0,0.0,0.0,1.0
1905120000,1905120000,0.0017709346,-0.050189544,-0.00070454914,0.67892534,0.0,0.0,0.0,1.0
1905220000,1905220000,-8.844421e-05,-0.05078908,-0.00096924446,0.67839324,0.0,0.0,0.0,1.0
1905320000,1905320000,0.0008120956,-0.04519096,-0.0010946185,0.67890286,0.0,0.0,0.0,1.0
1905420000,1905420000,-0.0015325055,-0.04415006,-0.0010319364,0.6782612,0.0,0.0,0.0,1.0
1905520000,1905520000,-0.0008856155,-0.04694373,0.00043557386,0.67962885,0.0,0.0,0.0,1.0
1905620000,1905620000,-0.0012101469,-0.04552575,-0.0012555794,0.6806192,0.0,0.0,0.0,1.0
1905716000,1905716000,0.00028894702,-0.047111444,-0.000534367,0.6795491,0.0,0.0,0.0,1.0
1905820000,1905820000,0.00020610215,-0.04440829,-0.0014553084,0.6794755,0.0,0.0,0.0,1.0
1905920000,1905920000,0.0010659721,-0.046090502,-0.0011431889,0.6790851,0.0,0.0,0.0,1.0
1906020000,1906020000,0.00352842,-0.04546974,-0.001024596,0.6791438,0.0,0.0,0.0,1.0
1906120000,1906120000,-0.000825978,-0.04752066,-0.0022642384,0.6806782,0.0,0.0,0.0,1.0
1906220000,1906220000,0.0004038657,-0.046581525,-0.0017163428,0.6811654,0.0,0.0,0.0,1.0
1906316000,1906316000,0.0019307405,-0.047227766,-0.00038640905,0.68120843,0.0,0.0,0.0,1.0
1906420000,1906420000,-0.0005860466,-0.04668179,-0.0012927587,0.6821763,0.0,0.0,0.0,1.0
1906520000,1906520000,-0.0008057301,-0.046287317,-0.001315757,0.68127394,0.0,0.0,0.0,1.0
1906616000,1906616000,5.844771e-05,-0.04384986,-0.0007656701,0.68117017,0.0,0.0,0.0,1.0
1906720000,1906720000,0.003514143,-0.04496849,-0.0015091136,0.6820712,0.0,0.0,0.0,1.0
1906816000,1906816000,0.004187729,-0.044558574,-0.00032287592,0.6820782,0.0,0.0,0.0,1.0
1906916000,1906916000,-0.00024648488,-0.044938713,-0.0020759366,0.6830832,0.0,0.0,0.0,1.0
1907020000,1907020000,0.001127108,-0.049383245,-0.0021872944,0.68183047,0.0,0.0,0.0,1.0
1907120000,1907120000,0.0025031064,-0.04761566,-0.0018423831,0.68285453,0.0,0.0,0.0,1.0
1907216000,1907216000,0.001209288,-0.04645538,-0.0017888478,0.6822628,0.0,0.0,0.0,1.0
1907320000,1907320000,0.00011456432,-0.046505727,-0.0008353964,0.6821957,0.0,0.0,0.0,1.0
1907420000,1907420000,0.0017142714,-0.046336554,0.00047477894,0.68270326,0.0,0.0,0.0,1.0
1907520000,1907520000,-0.001315024,-0.04962679,-0.00080591836,0.6829155,0.0,0.0,0.0,1.0
1907620000,1907620000,0.0012682314,-0.049646866,-0.0016274692,0.68315214,0.0,0.0,0.0,1.0
1907720000,1907720000,0.001134657,-0.049665324,-0.00024643907,0.68325984,0.0,0.0,0.0,1.0
1907820000,1907820000,-0.00069379294,-0.045976643,-0.00093838206,0.6825985,0.0,0.0,0.0,1.0
1907916000,1907916000,-0.0023387847,-0.045502916,-0.00021679053,0.6841836,0.0,0.0,0.0,1.0
1908020000,1908020000,0.0009014994,-0.04764559,-0.0014684391,0.6837854,0.0,0.0,0.0,1.0
1908120000,1908120000,0.0011182862,-0.047158077,-0.000353528,0.6832881,0.0,0.0,0.0,1.0
1908216000,1908216000,0.0025038254,-0.04702864,-0.002081818,0.682246,0.0,0.0,0.0,1.0
1908320000,1908320000,-0.00032525498,-0.046803016,-0.0013820397,0.6837416,0.0,0.0,0.0,1.0
1908420000,1908420000,0.0043139644,-0.048333023,-0.0005484772,0.6832561,0.0,0.0,0.0,1.0
1908516000,1908516000,0.0016530373,-0.047224652,-0.0004611453,0.6842057,0.0,0.0,0.0,1.0
1908620000,1908620000,0.00030450092,-0.048250854,-0.00074095244,0.6833837,0.0,0.0,0.0,1.0
1908716000,1908716000,0.00062637194,-0.04820882,-0.0015993149,0.68440926,0.0,0.0,0.0,1.0
1908820000,1908820000,0.0028322719,-0.04785945,-0.0023415666,0.68306494,0.0,0.0,0.0,1.0
1908920000,1908920000,-0.0033961826,-0.049836043,-0.0011494749,0.6837918,0.0,0.0,0.0,1.0
1909020000,1909020000,0.0027523031,-0.04447742,-0.0012438864,0.68456364,0.0,0.0,0.0,1.0
1909120000,1909120000,-0.0003399466,-0.04959921,-0.0010619211,0.6858922,0.0,0.0,0.0,1.0
1909220000,1909220000,4.368456e-05,-0.049874626,-0.00054108625,0.6839305,0.0,0.0,0.0,1.0
1909320000,1909320000,0.00046216286,-0.044758227,-0.0011308142,0.6825982,0.0,0.0,0.0,1.0
1909420000,1909420000,0.00067742186,-0.043429933,-0.0021374975,0.6849831,0.0,0.0,0.0,1.0
1909520000,1909520000,0.00010122504,-0.050553862,-0.0008652656,0.6826367,0.0,0.0,0.0,1.0
1909616000,1909616000,0.0013698686,-0.04793532,-0.0010158118,0.6825929,0.0,0.0,0.0,1.0
1909716000,1909716000,-0.0018059614,-0.04495758,-0.0011477306,0.68362516,0.0,0.0,0.0,1.0
1909820000,1909820000,0.00107385,-0.047041453,-0.002158849,0.6826292,0.0,0.0,0.0,1.0
1909920000,1909920000,0.00066433643,-0.049431503,0.00011482986,0.6830973,0.0,0.0,0.0,1.0
1910020000,1910020000,-0.0011715791,-0.04781581,-0.0009115834,0.6834338,0.0,0.0,0.0,1.0
1910120000,1910120000,0.0007660345,-0.043659005,-0.0011982295,0.6831899,0.0,0.0,0.0,1.0
1910216000,1910216000,0.00034774022,-0.046053715,-0.0012810875,0.68621486,0.0,0.0,0.0,1.0
1910320000,1910320000,-0.00017497787,-0.047976393,-0.001059212,0.6846244,0.0,0.0,0.0,1.0
1910420000,1910420000,-0.0011628405,-0.04952633,-0.0009584104,0.68496007,0.0,0.0,0.0,1.0
1910520000,1910520000,0.001174039,-0.049514897,-0.0008652501,0.68485224,0.0,0.0,0.0,1.0
1910620000,1910620000,-0.0013630122,-0.045928102,-0.0014570593,0.6839167,0.0,0.0,0.0,1.0
1910720000,1910720000,0.0011995386,-0.04381008,-0.0010342376,0.6851284,0.0,0.0,0.0,1.0
1910820000,1910820000,-0.0016885961,-0.046791207,-0.0009534282,0.68609303,0.0,0.0,0.0,1.0
1910916000,1910916000,0.001187716,-0.046690825,-0.001490918,0.68789756,0.0,0.0,0.0,1.0
1911020000,1911020000,-0.0013969956,-0.050226673,-0.0018835113,0.6868861,0.0,0.0,0.0,1.0
1911120000,1911120000,0.00209186,-0.014879439,-0.0012098368,0.67470634,0.0,0.0,0.0,1.0
1911216000,1911216000,-0.0007646997,-0.024957497,0.00061073573,0.66893744,0.0,0.0,0.0,1.0
1911320000,1911320000,0.00060291967,-0.052311633,-0.00035114033,0.674189,0.0,0.0,0.0,1.0
1911420000,1911420000,-0.0014373928,-0.07099435,-0.00036593876,0.6652792,0.0,0.0,0.0,1.0
1911520000,1911520000,0.0014948798,-0.06739629,-4.5652327e-05,0.65578556,0.0,0.0,0.0,1.0
1911616000,1911616000,-0.00026341848,-0.04442068,0.00016520906,0.6482398,0.0,0.0,0.0,1.0
1911720000,1911720000,0.0014836574,-0.035320465,-0.0010051781,0.6437556,0.0,0.0,0.0,1.0
1911816000,1911816000,0.00062620244,-0.04434024,-0.00065591297,0.64110047,0.0,0.0,0.0,1.0
1911920000,1911920000,-0.00023514853,-0.043330483,0.0003661092,0.6385988,0.0,0.0,0.0,1.0
1912016000,1912016000,0.0012369755,-0.049528863,0.0010780427,0.6342907,0.0,0.0,0.0,1.0
1912116000,1912116000,-0.002868597,-0.037474006,-5.699601e-05,0.62941116,0.0,0.0,0.0,1.0
1912220000,1912220000,-0.00061647646,-0.033854883,0.00029968662,0.623847,0.0,0.0,0.0,1.0
1912316000,1912316000,0.00022656075,-0.034576416,-0.0005458616,0.61993754,0.0,0.0,0.0,1.0
1912420000,1912420000,0.00045276966,-0.038400665,-0.0005374822,0.61872756,0.0,0.0,0.0,1.0
1912520000,1912520000,0.0012151999,-0.037563074,0.00014690496,0.61410046,0.0,0.0,0.0,1.0
1912620000,1912620000,-0.0028836315,-0.030320205,9.345234e-05,0.6096468,0.0,0.0,0.0,1.0
1912720000,1912720000,0.00090545585,-0.02533308,-0.0013178096,0.6079649,0.0,0.0,0.0,1.0
1912820000,1912820000,0.0010747188,-0.0315189,0.0006119387,0.60630876,0.0,0.0,0.0,1.0
1912920000,1912920000,-0.0020926897,-0.034497425,-0.00056947046,0.60611725,0.0,0.0,0.0,1.0
1913020000,1913020000,0.000577154,-0.029113598,0.0007906916,0.60288334,0.0,0.0,0.0,1.0
1913116000,1913116000,0.0018433894,-0.02141868,0.0010614448,0.6004254,0.0,0.0,0.0,1.0
1913220000,1913220000,-0.0020201423,-0.025940634,0.0005225849,0.5971941,0.0,0.0,0.0,1.0
1913320000,1913320000,-0.00013614143,-0.024099737,-0.0007117237,0.5949215,0.0,0.0,0.0,1.0
1913420000,1913420000,0.004931069,-0.021878172,-0.00060807733,0.59304,0.0,0.0,0.0,1.0
1913520000,1913520000,0.00016721393,-0.018986102,0.0009064004,0.59142244,0.0,0.0,0.0,1.0
1913620000,1913620000,-0.0037660182,-0.02142216,0.0005381075,0.5922029,0.0,0.0,0.0,1.0
1913720000,1913720000,0.002117627,-0.021399267,0.00034466403,0.58895206,0.0,0.0,0.0,1.0
1913820000,1913820000,-0.0016230645,-0.0219687,-0.00012004538,0.58919626,0.0,0.0,0.0,1.0
1913916000,1913916000,0.0047088666,-0.019506961,0.00017354898,0.5898845,0.0,0.0,0.0,1.0
1914020000,1914020000,0.0038988236,-0.0137299495,5.693546e-05,0.5864223,0.0,0.0,0.0,1.0
1914116000,1914116000,0.004687362,-0.013223016,0.001032961,0.5863395,0.0,0.0,0.0,1.0
1914220000,1914220000,0.054264955,0.0291431,0.00012238839,0.5878048,0.0,0.0,0.0,1.0
1914320000,1914320000,-0.14889258,-0.07642166,0.009256414,0.58117604,0.0,0.0,0.0,1.0
1914420000,1914420000,0.16430347,-0.04802195,-0.017065592,0.5073139,0.0,0.0,0.0,1.0
1914516000,1914516000,0.10670527,-0.034426503,0.0013027906,0.5720472,0.0,0.0,0.0,1.0
1914620000,1914620000,-0.021330858,-0.0028523821,0.0019309246,0.5947741,0.0,0.0,0.0,1.0
1914716000,1914716000,-0.048923492,0.00338554,-0.0014367525,0.5794633,0.0,0.0,0.0,1.0
1914820000,1914820000,-0.02726145,-0.0012986641,-0.003600712,0.5768814,0.0,0.0,0.0,1.0
1914920000,1914920000,-0.013856657,0.00012958795,-0.0011786385,0.5779331,0.0,0.0,0.0,1.0
1915020000,1915020000,-0.0043175425,-0.0049068946,0.0008785368,0.57557136,0.0,0.0,0.0,1.0
1915120000,1915120000,-0.006254078,-0.003846582,0.0023176926,0.5764532,0.0,0.0,0.0,1.0
1915220000,1915220000,-0.0074248384,-0.0043969816,0.0009829331,0.5754103,0.0,0.0,0.0,1.0
1915316000,1915316000,-0.0061144773,-0.0026025446,0.0011447878,0.5771236,0.0,0.0,0.0,1.0
1915420000,1915420000,-0.010831746,-0.0038791858,0.0005235014,0.57471937,0.0,0.0,0.0,1.0
1915520000,1915520000,-0.009363479,0.0049406784,0.001922027,0.57582307,0.0,0.0,0.0,1.0
1915616000,1915616000,-0.0076307505,-0.0025938256,0.0017837933,0.5763609,0.0,0.0,0.0,1.0
1915716000,1915716000,-0.0077283075,-0.00043372624,0.0009802543,0.5756862,0.0,0.0,0.0,1.0
1915816000,1915816000,-0.008587996,-0.00027522258,-7.627957e-05,0.5762453,0.0,0.0,0.0,1.0
1915916000,1915916000,-0.0064070397,-0.002361535,0.0019871846,0.5755145,0.0,0.0,0.0,1.0
1916020000,1916020000,-0.0075114407,-0.0017657094,0.00077258365,0.57669526,0.0,0.0,0.0,1.0
1916120000,1916120000,-0.0070204996,0.0013917768,0.0008534911,0.57624674,0.0,0.0,0.0,1.0
1916220000,1916220000,-0.0126807485,-0.0004534442,0.00069328805,0.5769929,0.0,0.0,0.0,1.0
1916316000,1916316000,-0.0049922247,0.0010309387,0.0012402601,0.57681763,0.0,0.0,0.0,1.0
1916420000,1916420000,-0.010529407,0.0017836657,0.0009886491,0.57596755,0.0,0.0,0.0,1.0
1916520000,1916520000,-0.0066479994,-0.0016420013,0.0014955314,0.5784849,0.0,0.0,0.0,1.0
1916620000,1916620000,-0.009026097,0.0015329407,0.00014749677,0.57669336,0.0,0.0,0.0,1.0
1916716000,1916716000,-0.0053392,0.0011443631,0.00067739794,0.57734686,0.0,0.0,0.0,1.0
1916816000,1916816000,-0.010846103,0.0009594881,0.0004386859,0.5777126,0.0,0.0,0.0,1.0
1916920000,1916920000,-0.0065700263,-0.0009257628,0.0016943887,0.5775142,0.0,0.0,0.0,1.0
1917020000,1917020000,-0.00782106,0.0026423715,0.0011350658,0.5773907,0.0,0.0,0.0,1.0
1917120000,1917120000,-0.011219382,0.00032522785,0.0014442082,0.5772923,0.0,0.0,0.0,1.0
1917220000,1917220000,-0.0071633593,-0.0037036294,0.0024126396,0.5774313,0.0,0.0,0.0,1.0
1917316000,1917316000,-0.011106092,0.0008742355,0.001386119,0.5793044,0.0,0.0,0.0,1.0
1917416000,1917416000,-0.006447225,0.0019020902,0.0017699781,0.5780154,0.0,0.0,0.0,1.0
1917520000,1917520000,-0.0074495887,0.0018984904,0.0010707593,0.5793559,0.0,0.0,0.0,1.0
1917620000,1917620000,-0.007839684,0.0031932197,0.0023291432,0.5794253,0.0,0.0,0.0,1.0
1917720000,1917720000,-0.008251916,0.0018865268,0.0011967323,0.5771512,0.0,0.0,0.0,1.0
1917816000,1917816000,-0.008250046,0.0020349505,0.000890028,0.57928884,0.0,0.0,0.0,1.0
1917920000,1917920000,-0.008887064,0.002242377,0.00013106468,0.5787977,0.0,0.0,0.0,1.0
1918016000,1918016000,-0.0090804715,0.0011567705,0.000116782205,0.5802872,0.0,0.0,0.0,1.0
1918120000,1918120000,-0.010921882,0.0011873294,0.0023076828,0.5778263,0.0,0.0,0.0,1.0
1918216000,1918216000,-0.007888251,0.0010164196,0.0010192225,0.5796795,0.0,0.0,0.0,1.0
1918320000,1918320000,-0.010102602,-0.0015163531,0.000721813,0.57918954,0.0,0.0,0.0,1.0
1918416000,1918416000,-0.011115946,0.0010591964,0.0004589088,0.57958245,0.0,0.0,0.0,1.0
1918520000,1918520000,-0.010078911,0.0025034698,0.00039695523,0.5794389,0.0,0.0,0.0,1.0
1918620000,1918620000,-0.010550501,0.0017213695,0.0009373514,0.5806749,0.0,0.0,0.0,1.0
1918720000,1918720000,-0.007009371,-0.0007349014,0.0012520328,0.5799595,0.0,0.0,0.0,1.0
1918820000,1918820000,-0.010224684,-0.00021346865,0.0016437441,0.5803464,0.0,0.0,0.0,1.0
1918920000,1918920000,-0.013277077,-0.0009556122,0.0023624653,0.57901394,0.0,0.0,0.0,1.0
1919020000,1919020000,-0.0070806365,-0.0008448531,0.0009650052,0.5790472,0.0,0.0,0.0,1.0
1919120000,1919120000,-0.005837977,0.0016408147,0.0014359723,0.5788243,0.0,0.0,0.0,1.0
1919220000,1919220000,-0.009102357,-0.0017877212,0.001237246,0.5804399,0.0,0.0,0.0,1.0
1919316000,1919316000,-0.012609928,-0.001510653,0.0015329418,0.57871985,0.0,0.0,0.0,1.0
1919420000,1919420000,-0.009874937,-0.0013909027,0.0017440409,0.5780622,0.0,0.0,0.0,1.0
1919516000,1919516000,-0.010708056,0.002392668,0.0013866823,0.57970893,0.0,0.0,0.0,1.0
1919620000,1919620000,-0.009374208,3.159781e-05,0.00044849305,0.57968044,0.0,0.0,0.0,1.0
1919720000,1919720000,-0.008297067,0.001006585,0.0016738337,0.57923996,0.0,0.0,0.0,1.0
1919820000,1919820000,-0.009043908,0.000577437,0.00031628704,0.58042204,0.0,0.0,0.0,1.0
1919920000,1919920000,-0.01064049,-0.0020301966,0.0013485529,0.5792322,0.0,0.0,0.0,1.0
1920020000,1920020000,-0.008599324,-0.0017965905,0.0015008834,0.5780958,0.0,0.0,0.0,1.0
1920120000,1920120000,-0.008224398,0.0011638138,0.0008943608,0.5790966,0.0,0.0,0.0,1.0
1920220000,1920220000,-0.005668343,-0.0017625673,0.0020841153,0.5785596,0.0,0.0,0.0,1.0
1920320000,1920320000,-0.008864079,0.0016622387,0.0012686691,0.57900023,0.0,0.0,0.0,1.0
1920420000,1920420000,-0.011721467,0.00028958256,0.0003680074,0.5797159,0.0,0.0,0.0,1.0
1920520000,1920520000,-0.010887713,-0.0032773544,0.001106816,0.5792896,0.0,0.0,0.0,1.0
1920620000,1920620000,-0.010727396,-0.0002054425,0.0013207978,0.57927036,0.0,0.0,0.0,1.0
1920720000,1920720000,-0.0053673526,-0.003069484,0.0007076629,0.57838404,0.0,0.0,0.0,1.0
1920816000,1920816000,-0.010346235,0.0022477685,0.002118778,0.57703537,0.0,0.0,0.0,1.0
1920920000,1920920000,-0.009183011,0.00066518417,0.0013370654,0.57814664,0.0,0.0,0.0,1.0
1921020000,1921020000,-0.00850192,0.00036642593,0.000913227,0.578523,0.0,0.0,0.0,1.0
1921120000,1921120000,-0.009143169,-0.0005803735,0.0019809396,0.57889813,0.0,0.0,0.0,1.0
1921220000,1921220000,-0.008358837,0.0007279877,0.00088000734,0.5793564,0.0,0.0,0.0,1.0
1921320000,1921320000,-0.009969483,-0.00136526,0.0015634667,0.5791919,0.0,0.0,0.0,1.0
1921420000,1921420000,-0.008276829,-0.0010671986,0.0019260525,0.57826805,0.0,0.0,0.0,1.0
1921520000,1921520000,-0.010309718,0.00019167375,0.0009801439,0.5786908,0.0,0.0,0.0,1.0
1921620000,1921620000,-0.008515441,-0.00087865035,0.0007382581,0.5774567,0.0,0.0,0.0,1.0
1921716000,1921716000,-0.012726734,0.0004460485,0.0008417554,0.5795519,0.0,0.0,0.0,1.0
1921816000,1921816000,-0.010010612,-0.0007008697,0.0013755278,0.5788609,0.0,0.0,0.0,1.0
1921920000,1921920000,-0.008178371,-0.00043592296,0.001137368,0.57978386,0.0,0.0,0.0,1.0
1922020000,1922020000,-0.012442276,0.0003482272,0.0008910649,0.5782442,0.0,0.0,0.0,1.0
1922116000,1922116000,-0.012070123,-0.0006437792,0.0019752826,0.5780549,0.0,0.0,0.0,1.0
1922216000,1922216000,-0.010970293,0.004254197,0.00059013045,0.5789187,0.0,0.0,0.0,1.0
1922320000,1922320000,-0.011704214,8.223973e-05,0.0016900243,0.57809174,0.0,0.0,0.0,1.0
1922420000,1922420000,-0.0107902605,-0.0022261485,0.00085366075,0.57791024,0.0,0.0,0.0,1.0
1922520000,1922520000,-0.009336205,0.001020474,0.0015433511,0.5792338,0.0,0.0,0.0,1.0
1922616000,1922616000,-0.008422277,-0.002010782,0.0013249195,0.57744104,0.0,0.0,0.0,1.0
1922720000,1922720000,-0.010849707,-0.0006726866,0.0013585726,0.57825094,0.0,0.0,0.0,1.0
1922820000,1922820000,-0.008961851,0.0005750864,0.0008509522,0.57833946,0.0,0.0,0.0,1.0
1922916000,1922916000,-0.013124507,8.564217e-05,0.0014128095,0.5789511,0.0,0.0,0.0,1.0
1923020000,1923020000,-0.013418396,0.001892489,0.0014078832,0.57762754,0.0,0.0,0.0,1.0
1923116000,1923116000,-0.007985055,0.00054002507,0.0020945247,0.57711184,0.0,0.0,0.0,1.0
1923216000,1923216000,-0.010506362,-0.0027730137,0.0018919392,0.5788322,0.0,0.0,0.0,1.0
1923320000,1923320000,-0.008891984,-0.00096582714,0.0022455128,0.57803875,0.0,0.0,0.0,1.0
1923416000,1923416000,-0.00852536,-9.328348e-05,0.0011503708,0.5778476,0.0,0.0,0.0,1.0
1923520000,1923520000,-0.0080738375,0.0017301429,0.0022234672,0.57797235,0.0,0.0,0.0,1.0
1923620000,1923620000,-0.009874797,-0.0028948572,0.0013221725,0.5786824,0.0,0.0,0.0,1.0
1923720000,1923720000,-0.011087591,0.00018540623,0.00012497732,0.57821935,0.0,0.0,0.0,1.0
1923820000,1923820000,-0.0077868616,-0.0004426093,0.001158139,0.577755,0.0,0.0,0.0,1.0
1923916000,1923916000,-0.008040104,-0.00013160391,-0.00017664384,0.5778042,0.0,0.0,0.0,1.0
1924020000,1924020000,-0.008428744,-0.003148053,0.0021858052,0.5773027,0.0,0.0,0.0,1.0
1924120000,1924120000,-0.010191626,0.0024148654,0.0015259117,0.5780099,0.0,0.0,0.0,1.0
1924220000,1924220000,-0.009589218,-0.0024766158,0.0008482986,0.5768964,0.0,0.0,0.0,1.0
1924316000,1924316000,-0.012024001,-0.0008557099,0.0017868982,0.5794588,0.0,0.0,0.0,1.0
1924420000,1924420000,-0.0074145696,-0.0013559835,0.0010551708,0.57842255,0.0,0.0,0.0,1.0
1924516000,1924516000,-0.009768499,-0.00052129827,0.0014759813,0.57934606,0.0,0.0,0.0,1.0
1924620000,1924620000,-0.013103868,0.00025837077,0.0015270062,0.5781784,0.0,0.0,0.0,1.0
1924716000,1924716000,-0.008481268,0.0010556857,0.0013466813,0.57850575,0.0,0.0,0.0,1.0
1924816000,1924816000,-0.011689309,-0.0007123304,0.0013426258,0.57808053,0.0,0.0,0.0,1.0
1924920000,1924920000,-0.009159363,-0.0027478882,0.0016455402,0.5785094,0.0,0.0,0.0,1.0
1925016000,1925016000,-0.0071300687,0.0030753661,0.0002452149,0.57859135,0.0,0.0,0.0,1.0
1925120000,1925120000,-0.011973793,0.0014841955,0.0023903789,0.5796877,0.0,0.0,0.0,1.0
1925216000,1925216000,-0.00951995,2.5065652e-05,0.00079837756,0.57968605,0.0,0.0,0.0,1.0
1925316000,1925316000,-0.010616264,-0.0003174952,0.0019527028,0.5788211,0.0,0.0,0.0,1.0
1925420000,1925420000,-0.011811381,0.00073023,0.0020560334,0.5795689,0.0,0.0,0.0,1.0
1925516000,1925516000,-0.011328858,-0.0014519271,0.0010300771,0.5785879,0.0,0.0,0.0,1.0
1925620000,1925620000,-0.012902314,0.00034006994,0.0005968677,0.58000684,0.0,0.0,0.0,1.0
1925716000,1925716000,-0.012766918,-0.00024433978,0.0020056008,0.5799396,0.0,0.0,0.0,1.0
1925820000,1925820000,-0.009673767,0.00047097495,0.00077502127,0.5797777,0.0,0.0,0.0,1.0
1925916000,1925916000,-0.007344929,0.00065814774,0.0018271557,0.58165854,0.0,0.0,0.0,1.0
1926020000,1926020000,-0.011476927,-0.0011936126,0.0011673402,0.5795623,0.0,0.0,0.0,1.0
1926120000,1926120000,-0.01015628,0.00029088728,0.000898978,0.580464,0.0,0.0,0.0,1.0
1926220000,1926220000,-0.010101135,0.0007157761,0.0009633824,0.579617,0.0,0.0,0.0,1.0
1926316000,1926316000,-0.0125474725,0.0010604656,0.0008384775,0.5807495,0.0,0.0,0.0,1.0
1926416000,1926416000,-0.011283278,-0.0032038828,0.0011715915,0.5807807,0.0,0.0,0.0,1.0
