timestamp,noutputs,output[0],output[1],output[2],output[3],output[4],output[5],output[6],output[7],output[8],output[9],output[10],output[11],output[12],output[13],output[14],output[15]
1859220000,6,900.0,900.0,900.0,900.0,900.0,900.0,nan,nan,nan,nan,nan,nan,nan,nan,nan,nan
1859320000,6,1000.0,1000.0,1000.0,1000.0,1500.0,1500.0,nan,nan,nan,nan,nan,nan,nan,nan,nan,nan
1859420000,6,1000.0,1000.0,1000.0,1000.0,1500.0,1500.0,nan,nan,nan,nan,nan,nan,nan,nan,nan,nan
1859520000,6,1000.0,1000.0,1000.0,1000.0,1500.0,1500.0,nan,nan,nan,nan,nan,nan,nan,nan,nan,nan
1859616000,6,1000.0,1000.0,1000.0,1000.0,1500.0,1500.0,nan,nan,nan,nan,nan,nan,nan,nan,nan,nan
1859716000,6,1000.0,1000.0,1000.0,1000.0,1500.0,1500.0,nan,nan,nan,nan,nan,nan,nan,nan,nan,nan
1859816000,6,1000.0,1000.0,1000.0,1000.0,1500.0,1500.0,nan,nan,nan,nan,nan,nan,nan,nan,nan,nan
1859916000,6,1000.0,1000.0,1000.0,1000.0,1500.0,1500.0,nan,nan,nan,nan,nan,nan,nan,nan,nan,nan
1860016000,6,1000.0,1000.0,1000.0,1000.0,1500.0,1500.0,nan,nan,nan,nan,nan,nan,nan,nan,nan,nan
1860120000,6,1000.0,1000.0,1000.0,1000.0,1500.0,1500.0,nan,nan,nan,nan,nan,nan,nan,nan,nan,nan
1860216000,6,1000.0,1000.0,1000.0,1000.0,1500.0,1500.0,nan,nan,nan,nan,nan,nan,nan,nan,nan,nan
1860316000,6,1127.5203,1113.7749,1117.6902,1121.0789,1500.0,1500.0,nan,nan,nan,nan,nan,nan,nan,nan,nan,nan
1860416000,6,1136.8826,1143.3776,1116.3003,1163.6321,1500.0,1500.0,nan,nan,nan,nan,nan,nan,nan,nan,nan,nan
1860516000,6,1200.742,1220.5215,1186.3713,1232.1895,1500.0,1500.0,nan,nan,nan,nan,nan,nan,nan,nan,nan,nan
1860616000,6,1280.16,1304.3845,1267.8945,1317.0095,1500.0,1500.0,nan,nan,nan,nan,nan,nan,nan,nan,nan,nan
1860716000,6,1345.0363,1375.8185,1337.429,1381.8231,1500.0,1500.0,nan,nan,nan,nan,nan,nan,nan,nan,nan,nan
1860816000,6,1411.0641,1444.4915,1405.9519,1447.6346,1500.0,1500.0,nan,nan,nan,nan,nan,nan,nan,nan,nan,nan
1860916000,6,1495.2999,1531.1578,1491.2548,1531.4646,1500.0,1500.0,nan,nan,nan,nan,nan,nan,nan,nan,nan,nan
1861016000,6,1573.3492,1605.1306,1571.4219,1607.3984,1500.0,1500.0,nan,nan,nan,nan,nan,nan,nan,nan,nan,nan
1861116000,6,1623.2385,1614.0614,1620.993,1614.7483,1500.0,1500.0,nan,nan,nan,nan,nan,nan,nan,nan,nan,nan
1861216000,6,1607.3873,1601.6177,1609.197,1601.3452,1500.0,1500.0,nan,nan,nan,nan,nan,nan,nan,nan,nan,nan
1861316000,6,1610.3102,1607.2866,1611.2842,1611.0088,1500.0,1500.0,nan,nan,nan,nan,nan,nan,nan,nan,nan,nan
1861420000,6,1610.4043,1614.3069,1610.6564,1611.737,1500.0,1500.0,nan,nan,nan,nan,nan,nan,nan,nan,nan,nan
1861520000,6,1615.2946,1619.5972,1617.4465,1617.0055,1500.0,1500.0,nan,nan,nan,nan,nan,nan,nan,nan,nan,nan
1861616000,6,1616.549,1615.711,1617.7084,1616.8307,1500.0,1500.0,nan,nan,nan,nan,nan,nan,nan,nan,nan,nan
1861720000,6,1619.3064,1617.7268,1618.314,1617.3986,1500.0,1500.0,nan,nan,nan,nan,nan,nan,nan,nan,nan,nan
1861816000,6,1618.723,1617.5708,1617.8732,1617.1547,1500.0,1500.0,nan,nan,nan,nan,nan,nan,nan,nan,nan,nan
1861916000,6,1620.1512,1622.4858,1621.2538,1617.4336,1500.0,1500.0,nan,nan,nan,nan,nan,nan,nan,nan,nan,nan
1862016000,6,1629.7672,1626.1998,1625.4458,1626.2921,1500.0,1500.0,nan,nan,nan,nan,nan,nan,nan,nan,nan,nan
1862116000,6,1624.0806,1627.4996,1625.0114,1630.967,1500.0,1500.0,nan,nan,nan,nan,nan,nan,nan,nan,nan,nan
1862216000,6,1624.2476,1624.5518,1626.8628,1624.175,1500.0,1500.0,nan,nan,nan,nan,nan,nan,nan,nan,nan,nan
1862316000,6,1629.914,1628.0168,1627.6677,1627.3651,1500.0,1500.0,nan,nan,nan,nan,nan,nan,nan,nan,nan,nan
1862416000,6,1636.0531,1636.1299,1636.8016,1635.075,1500.0,1500.0,nan,nan,nan,nan,nan,nan,nan,nan,nan,nan
1862516000,6,1639.0922,1638.2383,1636.997,1639.7522,1500.0,1500.0,nan,nan,nan,nan,nan,nan,nan,nan,nan,nan
1862616000,6,1636.337,1638.6772,1637.6722,1639.3777,1500.0,1500.0,nan,nan,nan,nan,nan,nan,nan,nan,nan,nan
1862716000,6,1634.4539,1631.5134,1638.4191,1637.7314,1500.0,1500.0,nan,nan,nan,nan,nan,nan,nan,nan,nan,nan
1862816000,6,1638.5164,1636.3616,1639.2559,1639.7715,1500.0,1500.0,nan,nan,nan,nan,nan,nan,nan,nan,nan,nan
1862920000,6,1643.44,1643.3677,1640.8337,1643.2218,1500.0,1500.0,nan,nan,nan,nan,nan,nan,nan,nan,nan,nan
1863016000,6,1535.0188,1543.4622,1538.2146,1536.1398,1500.0,1500.0,nan,nan,nan,nan,nan,nan,nan,nan,nan,nan
1863120000,6,1564.8533,1564.1127,1562.032,1564.4108,1500.0,1500.0,nan,nan,nan,nan,nan,nan,nan,nan,nan,nan
1863216000,6,1565.6278,1572.1089,1564.7888,1570.9481,1500.0,1500.0,nan,nan,nan,nan,nan,nan,nan,nan,nan,nan
1863320000,6,1561.3064,1565.3446,1563.5413,1562.1168,1500.0,1500.0,nan,nan,nan,nan,nan,nan,nan,nan,nan,nan
1863416000,6,1576.5461,1575.1254,1573.409,1575.9857,1500.0,1500.0,nan,nan,nan,nan,nan,nan,nan,nan,nan,nan
1863520000,6,1570.7946,1572.9141,1571.6433,1569.7843,1500.0,1500.0,nan,nan,nan,nan,nan,nan,nan,nan,nan,nan
1863616000,6,1570.2687,1575.4058,1569.3005,1574.6812,1500.0,1500.0,nan,nan,nan,nan,nan,nan,nan,nan,nan,nan
1863716000,6,1568.0593,1569.2708,1569.3041,1567.2192,1500.0,1500.0,nan,nan,nan,nan,nan,nan,nan,nan,nan,nan
1863816000,6,1575.1868,1579.5604,1576.4695,1578.8824,1500.0,1500.0,nan,nan,nan,nan,nan,nan,nan,nan,nan,nan
1863916000,6,1576.3934,1573.473,1578.5568,1575.1797,1500.0,1500.0,nan,nan,nan,nan,nan,nan,nan,nan,nan,nan
1864016000,6,1575.9878,1577.2944,1575.9973,1576.1941,1500.0,1500.0,nan,nan,nan,nan,nan,nan,nan,nan,nan,nan
1864120000,6,1577.3136,1577.7693,1578.7133,1578.5702,1500.0,1500.0,nan,nan,nan,nan,nan,nan,nan,nan,nan,nan
1864220000,6,1574.2662,1574.9966,1572.8314,1577.7384,1500.0,1500.0,nan,nan,nan,nan,nan,nan,nan,nan,nan,nan
1864316000,6,1582.4578,1581.9878,1580.791,1583.6316,1500.0,1500.0,nan,nan,nan,nan,nan,nan,nan,nan,nan,nan
1864416000,6,1581.4408,1580.5576,1581.1393,1581.4701,1500.0,1500.0,nan,nan,nan,nan,nan,nan,nan,nan,nan,nan
1864520000,6,1577.1608,1580.4757,1576.9543,1582.1741,1500.0,1500.0,nan,nan,nan,nan,nan,nan,nan,nan,nan,nan
1864616000,6,1576.8353,1577.1951,1575.5889,1574.9274,1500.0,1500.0,nan,nan,nan,nan,nan,nan,nan,nan,nan,nan
1864720000,6,1576.1437,1578.157,1576.735,1579.3539,1500.0,1500.0,nan,nan,nan,nan,nan,nan,nan,nan,nan,nan
1864816000,6,1583.0656,1582.2006,1583.879,1583.7864,1500.0,1500.0,nan,nan,nan,nan,nan,nan,nan,nan,nan,nan
1864916000,6,1581.104,1580.8243,1580.2198,1580.5037,1500.0,1500.0,nan,nan,nan,nan,nan,nan,nan,nan,nan,nan
1865020000,6,1580.3496,1580.4756,1578.7739,1581.807,1500.0,1500.0,nan,nan,nan,nan,nan,nan,nan,nan,nan,nan
1865116000,6,1581.1946,1581.113,1578.8527,1577.3744,1500.0,1500.0,nan,nan,nan,nan,nan,nan,nan,nan,nan,nan
1865216000,6,1588.504,1582.7896,1586.9089,1585.0912,1500.0,1500.0,nan,nan,nan,nan,nan,nan,nan,nan,nan,nan
1865316000,6,1582.0048,1583.0033,1584.0183,1582.2014,1500.0,1500.0,nan,nan,nan,nan,nan,nan,nan,nan,nan,nan
1865416000,6,1591.4454,1590.2139,1591.7482,1589.2156,1500.0,1500.0,nan,nan,nan,nan,nan,nan,nan,nan,nan,nan
1865520000,6,1584.4883,1587.7606,1585.3942,1587.8413,1500.0,1500.0,nan,nan,nan,nan,nan,nan,nan,nan,nan,nan
1865616000,6,1579.1349,1580.0643,1575.579,1582.5065,1500.0,1500.0,nan,nan,nan,nan,nan,nan,nan,nan,nan,nan
1865716000,6,1577.2057,1577.2869,1575.82,1575.8413,1500.0,1500.0,nan,nan,nan,nan,nan,nan,nan,nan,nan,nan
1865820000,6,1577.8126,1578.2715,1577.5167,1578.7018,1500.0,1500.0,nan,nan,nan,nan,nan,nan,nan,nan,nan,nan
1865920000,6,1582.3213,1584.5724,1582.5679,1585.0247,1500.0,1500.0,nan,nan,nan,nan,nan,nan,nan,nan,nan,nan
1866020000,6,1579.5791,1577.6804,1577.6671,1580.677,1500.0,1500.0,nan,nan,nan,nan,nan,nan,nan,nan,nan,nan
1866116000,6,1576.718,1577.7607,1577.6306,1575.6334,1500.0,1500.0,nan,nan,nan,nan,nan,nan,nan,nan,nan,nan
1866220000,6,1584.082,1579.491,1583.6561,1580.6167,1500.0,1500.0,nan,nan,nan,nan,nan,nan,nan,nan,nan,nan
1866316000,6,1577.4462,1582.7181,1580.5125,1581.154,1500.0,1500.0,nan,nan,nan,nan,nan,nan,nan,nan,nan,nan
1866416000,6,1582.3082,1582.9529,1580.4796,1586.5093,1500.0,1500.0,nan,nan,nan,nan,nan,nan,nan,nan,nan,nan
1866516000,6,1578.6455,1581.6709,1579.6528,1577.2202,1500.0,1500.0,nan,nan,nan,nan,nan,nan,nan,nan,nan,nan
1866616000,6,1578.8455,1581.1406,1577.8811,1578.6506,1500.0,1500.0,nan,nan,nan,nan,nan,nan,nan,nan,nan,nan
1866716000,6,1576.6285,1581.3541,1577.9607,1578.9927,1500.0,1500.0,nan,nan,nan,nan,nan,nan,nan,nan,nan,nan
1866816000,6,1587.0201,1585.6117,1587.8628,1583.2872,1500.0,1500.0,nan,nan,nan,nan,nan,nan,nan,nan,nan,nan
1866916000,6,1580.9116,1584.7529,1582.7385,1584.9108,1500.0,1500.0,nan,nan,nan,nan,nan,nan,nan,nan,nan,nan
1867016000,6,1582.9104,1580.1124,1584.0654,1580.8964,1500.0,1500.0,nan,nan,nan,nan,nan,nan,nan,nan,nan,nan
1867120000,6,1581.4023,1580.9774,1581.8025,1581.7697,1500.0,1500.0,nan,nan,nan,nan,nan,nan,nan,nan,nan,nan
1867216000,6,1582.2692,1584.7268,1580.7346,1586.57,1500.0,1500.0,nan,nan,nan,nan,nan,nan,nan,nan,nan,nan
1867316000,6,1583.4519,1588.3119,1584.3667,1588.2169,1500.0,1500.0,nan,nan,nan,nan,nan,nan,nan,nan,nan,nan
1867416000,6,1581.1805,1582.3016,1582.0546,1579.454,1500.0,1500.0,nan,nan,nan,nan,nan,nan,nan,nan,nan,nan
1867516000,6,1599.6969,1600.2172,1598.646,1595.8829,1500.0,1500.0,nan,nan,nan,nan,nan,nan,nan,nan,nan,nan
1867616000,6,1623.6996,1626.1995,1624.0419,1625.9319,1500.0,1500.0,nan,nan,nan,nan,nan,nan,nan,nan,nan,nan
1867716000,6,1658.1211,1659.2583,1659.7109,1658.7446,1500.0,1500.0,nan,nan,nan,nan,nan,nan,nan,nan,nan,nan
1867820000,6,1673.0902,1677.5803,1674.4578,1678.5535,1500.0,1500.0,nan,nan,nan,nan,nan,nan,nan,nan,nan,nan
1867916000,6,1716.5027,1715.0865,1714.712,1716.565,1500.0,1500.0,nan,nan,nan,nan,nan,nan,nan,nan,nan,nan
1868016000,6,1682.6438,1682.7676,1678.799,1681.0474,1500.0,1500.0,nan,nan,nan,nan,nan,nan,nan,nan,nan,nan
1868120000,6,1657.9149,1653.1744,1656.6785,1652.4426,1500.0,1500.0,nan,nan,nan,nan,nan,nan,nan,nan,nan,nan
1868220000,6,1627.8103,1628.5408,1630.8438,1627.3573,1500.0,1500.0,nan,nan,nan,nan,nan,nan,nan,nan,nan,nan
1868316000,6,1614.9519,1619.3651,1615.176,1621.266,1500.0,1500.0,nan,nan,nan,nan,nan,nan,nan,nan,nan,nan
1868420000,6,1606.609,1601.0721,1604.6758,1602.7605,1500.0,1500.0,nan,nan,nan,nan,nan,nan,nan,nan,nan,nan
1868516000,6,1604.0469,1607.8247,1600.3364,1607.1622,1500.0,1500.0,nan,nan,nan,nan,nan,nan,nan,nan,nan,nan
1868620000,6,1600.2816,1601.9214,1602.9,1601.7373,1500.0,1500.0,nan,nan,nan,nan,nan,nan,nan,nan,nan,nan
1868716000,6,1595.0612,1596.5498,1595.0223,1594.0243,1500.0,1500.0,nan,nan,nan,nan,nan,nan,nan,nan,nan,nan
1868816000,6,1608.5956,1606.9233,1611.6675,1607.5925,1500.0,1500.0,nan,nan,nan,nan,nan,nan,nan,nan,nan,nan
1868920000,6,1602.6357,1604.4587,1603.5455,1601.6196,1500.0,1500.0,nan,nan,nan,nan,nan,nan,nan,nan,nan,nan
1869016000,6,1603.9237,1599.1184,1604.8639,1599.7736,1500.0,1500.0,nan,nan,nan,nan,nan,nan,nan,nan,nan,nan
1869120000,6,1597.4462,1594.9465,1598.1581,1593.0825,1500.0,1500.0,nan,nan,nan,nan,nan,nan,nan,nan,nan,nan
1869216000,6,1607.6057,1606.3264,1607.5265,1607.7775,1500.0,1500.0,nan,nan,nan,nan,nan,nan,nan,nan,nan,nan
1869316000,6,1611.0188,1606.804,1608.7885,1610.394,1500.0,1500.0,nan,nan,nan,nan,nan,nan,nan,nan,nan,nan
1869416000,6,1604.2294,1599.2115,1600.3407,1602.1951,1500.0,1500.0,nan,nan,nan,nan,nan,nan,nan,nan,nan,nan
1869516000,6,1592.795,1598.0353,1595.8246,1596.994,1500.0,1500.0,nan,nan,nan,nan,nan,nan,nan,nan,nan,nan
1869620000,6,1596.5654,1595.2073,1600.1606,1594.4879,1500.0,1500.0,nan,nan,nan,nan,nan,nan,nan,nan,nan,nan
1869716000,6,1611.0847,1608.614,1610.6195,1607.3064,1500.0,1500.0,nan,nan,nan,nan,nan,nan,nan,nan,nan,nan
1869820000,6,1612.002,1609.5759,1609.3115,1610.8998,1500.0,1500.0,nan,nan,nan,nan,nan,nan,nan,nan,nan,nan
1869920000,6,1601.6133,1602.6761,1601.6332,1604.4227,1500.0,1500.0,nan,nan,nan,nan,nan,nan,nan,nan,nan,nan
1870020000,6,1596.5374,1594.934,1595.3542,1595.137,1500.0,1500.0,nan,nan,nan,nan,nan,nan,nan,nan,nan,nan
1870116000,6,1597.2272,1597.6464,1598.8315,1597.3597,1500.0,1500.0,nan,nan,nan,nan,nan,nan,nan,nan,nan,nan
1870216000,6,1612.9404,1608.2794,1609.7496,1608.5741,1500.0,1500.0,nan,nan,nan,nan,nan,nan,nan,nan,nan,nan
1870316000,6,1602.7039,1600.9412,1602.4581,1602.1863,1500.0,1500.0,nan,nan,nan,nan,nan,nan,nan,nan,nan,nan
1870416000,6,1599.9432,1603.931,1603.2314,1602.6191,1500.0,1500.0,nan,nan,nan,nan,nan,nan,nan,nan,nan,nan
1870516000,6,1597.459,1596.5051,1597.3643,1593.9714,1500.0,1500.0,nan,nan,nan,nan,nan,nan,nan,nan,nan,nan
1870616000,6,1613.7174,1605.9354,1609.1464,1611.2871,1500.0,1500.0,nan,nan,nan,nan,nan,nan,nan,nan,nan,nan
1870716000,6,1610.7405,1611.1967,1610.9646,1613.1389,1500.0,1500.0,nan,nan,nan,nan,nan,nan,nan,nan,nan,nan
1870816000,6,1604.4683,1604.1348,1604.7076,1602.8507,1500.0,1500.0,nan,nan,nan,nan,nan,nan,nan,nan,nan,nan
1870916000,6,1606.4229,1602.0171,1603.7246,1604.9298,1500.0,1500.0,nan,nan,nan,nan,nan,nan,nan,nan,nan,nan
1871016000,6,1597.9098,1597.7102,1597.5098,1594.8888,1500.0,1500.0,nan,nan,nan,nan,nan,nan,nan,nan,nan,nan
1871116000,6,1613.0261,1611.1461,1614.13,1610.8257,1500.0,1500.0,nan,nan,nan,nan,nan,nan,nan,nan,nan,nan
1871220000,6,1608.7384,1611.6132,1607.9985,1612.1211,1500.0,1500.0,nan,nan,nan,nan,nan,nan,nan,nan,nan,nan
1871316000,6,1610.044,1606.5961,1608.7538,1612.3026,1500.0,1500.0,nan,nan,nan,nan,nan,nan,nan,nan,nan,nan
1871420000,6,1573.0399,1574.7814,1577.0306,1573.7178,1500.0,1500.0,nan,nan,nan,nan,nan,nan,nan,nan,nan,nan
1871516000,6,1561.7526,1564.2078,1565.5869,1564.2509,1500.0,1500.0,nan,nan,nan,nan,nan,nan,nan,nan,nan,nan
1871620000,6,1568.6147,1568.4268,1568.8868,1567.707,1500.0,1500.0,nan,nan,nan,nan,nan,nan,nan,nan,nan,nan
1871720000,6,1575.2158,1575.969,1576.0771,1572.2618,1500.0,1500.0,nan,nan,nan,nan,nan,nan,nan,nan,nan,nan
1871820000,6,1574.9559,1571.2899,1572.4589,1574.8937,1500.0,1500.0,nan,nan,nan,nan,nan,nan,nan,nan,nan,nan
1871920000,6,1571.9084,1568.1475,1568.4237,1567.598,1500.0,1500.0,nan,nan,nan,nan,nan,nan,nan,nan,nan,nan
1872016000,6,1565.4469,1566.9353,1566.8745,1565.8525,1500.0,1500.0,nan,nan,nan,nan,nan,nan,nan,nan,nan,nan
1872116000,6,1564.0107,1565.5787,1567.2195,1564.7849,1500.0,1500.0,nan,nan,nan,nan,nan,nan,nan,nan,nan,nan
1872216000,6,1573.9548,1573.9083,1572.3407,1574.5026,1500.0,1500.0,nan,nan,nan,nan,nan,nan,nan,nan,nan,nan
1872316000,6,1568.1976,1568.8859,1574.241,1564.4142,1500.0,1500.0,nan,nan,nan,nan,nan,nan,nan,nan,nan,nan
1872420000,6,1567.7728,1571.2705,1566.4053,1571.8916,1500.0,1500.0,nan,nan,nan,nan,nan,nan,nan,nan,nan,nan
1872516000,6,1567.1871,1564.6869,1565.1462,1564.7587,1500.0,1500.0,nan,nan,nan,nan,nan,nan,nan,nan,nan,nan
1872616000,6,1570.0166,1572.654,1570.9862,1571.5984,1500.0,1500.0,nan,nan,nan,nan,nan,nan,nan,nan,nan,nan
1872716000,6,1575.8029,1569.6637,1574.3296,1570.5524,1500.0,1500.0,nan,nan,nan,nan,nan,nan,nan,nan,nan,nan
1872816000,6,1570.9341,1569.2717,1569.1173,1569.5349,1500.0,1500.0,nan,nan,nan,nan,nan,nan,nan,nan,nan,nan
1872920000,6,1570.1603,1568.917,1569.0878,1568.7687,1500.0,1500.0,nan,nan,nan,nan,nan,nan,nan,nan,nan,nan
1873016000,6,1568.3524,1566.7645,1566.9143,1566.8589,1500.0,1500.0,nan,nan,nan,nan,nan,nan,nan,nan,nan,nan
1873116000,6,1574.3269,1571.4224,1573.3718,1572.5167,1500.0,1500.0,nan,nan,nan,nan,nan,nan,nan,nan,nan,nan
1873220000,6,1572.947,1574.7858,1573.7532,1572.1144,1500.0,1500.0,nan,nan,nan,nan,nan,nan,nan,nan,nan,nan
1873316000,6,1568.2299,1566.504,1567.4012,1566.8184,1500.0,1500.0,nan,nan,nan,nan,nan,nan,nan,nan,nan,nan
1873416000,6,1564.8403,1568.3428,1565.1809,1568.9341,1500.0,1500.0,nan,nan,nan,nan,nan,nan,nan,nan,nan,nan
1873516000,6,1570.2397,1561.8711,1568.089,1560.8622,1500.0,1500.0,nan,nan,nan,nan,nan,nan,nan,nan,nan,nan
1873616000,6,1569.1764,1568.9403,1570.0366,1568.2301,1500.0,1500.0,nan,nan,nan,nan,nan,nan,nan,nan,nan,nan
1873720000,6,1569.4622,1570.481,1569.146,1568.2181,1500.0,1500.0,nan,nan,nan,nan,nan,nan,nan,nan,nan,nan
1873816000,6,1569.4653,1565.165,1569.2257,1566.3342,1500.0,1500.0,nan,nan,nan,nan,nan,nan,nan,nan,nan,nan
1873916000,6,1566.9148,1562.1434,1565.2465,1562.9299,1500.0,1500.0,nan,nan,nan,nan,nan,nan,nan,nan,nan,nan
1874016000,6,1567.2336,1571.5302,1565.1345,1572.624,1500.0,1500.0,nan,nan,nan,nan,nan,nan,nan,nan,nan,nan
1874116000,6,1566.3114,1568.9003,1567.9146,1567.6786,1500.0,1500.0,nan,nan,nan,nan,nan,nan,nan,nan,nan,nan
1874216000,6,1568.3156,1566.0568,1567.7627,1567.9198,1500.0,1500.0,nan,nan,nan,nan,nan,nan,nan,nan,nan,nan
1874316000,6,1564.8793,1564.8278,1566.8088,1561.2506,1500.0,1500.0,nan,nan,nan,nan,nan,nan,nan,nan,nan,nan
1874416000,6,1564.8098,1564.5037,1563.4453,1563.5481,1500.0,1500.0,nan,nan,nan,nan,nan,nan,nan,nan,nan,nan
1874516000,6,1564.7964,1565.3975,1564.1423,1566.9893,1500.0,1500.0,nan,nan,nan,nan,nan,nan,nan,nan,nan,nan
1874620000,6,1564.5232,1563.4545,1566.0166,1563.4412,1500.0,1500.0,nan,nan,nan,nan,nan,nan,nan,nan,nan,nan
1874716000,6,1568.5879,1566.9713,1565.0376,1567.3972,1500.0,1500.0,nan,nan,nan,nan,nan,nan,nan,nan,nan,nan
1874820000,6,1566.8347,1571.2584,1568.127,1564.9794,1500.0,1500.0,nan,nan,nan,nan,nan,nan,nan,nan,nan,nan
1874916000,6,1569.8036,1563.2177,1568.6278,1564.259,1500.0,1500.0,nan,nan,nan,nan,nan,nan,nan,nan,nan,nan
1875020000,6,1562.1364,1563.8865,1563.658,1563.621,1500.0,1500.0,nan,nan,nan,nan,nan,nan,nan,nan,nan,nan
1875116000,6,1572.3517,1565.8002,1568.0463,1569.2112,1500.0,1500.0,nan,nan,nan,nan,nan,nan,nan,nan,nan,nan
1875216000,6,1565.7062,1567.2871,1567.6311,1566.64,1500.0,1500.0,nan,nan,nan,nan,nan,nan,nan,nan,nan,nan
1875316000,6,1566.6189,1567.7615,1566.9816,1566.4753,1500.0,1500.0,nan,nan,nan,nan,nan,nan,nan,nan,nan,nan
1875416000,6,1566.4658,1563.332,1565.2344,1565.7449,1500.0,1500.0,nan,nan,nan,nan,nan,nan,nan,nan,nan,nan
1875516000,6,1562.0134,1562.6919,1566.4048,1557.7909,1500.0,1500.0,nan,nan,nan,nan,nan,nan,nan,nan,nan,nan
1875616000,6,1565.5574,1565.7146,1568.078,1567.5901,1500.0,1500.0,nan,nan,nan,nan,nan,nan,nan,nan,nan,nan
1875720000,6,1562.7091,1567.9214,1566.9524,1565.0981,1500.0,1500.0,nan,nan,nan,nan,nan,nan,nan,nan,nan,nan
1875816000,6,1563.3054,1563.2083,1562.4862,1564.163,1500.0,1500.0,nan,nan,nan,nan,nan,nan,nan,nan,nan,nan
1875916000,6,1564.5475,1563.2625,1564.4403,1565.0321,1500.0,1500.0,nan,nan,nan,nan,nan,nan,nan,nan,nan,nan
1876016000,6,1565.4967,1565.9841,1566.6096,1565.5044,1500.0,1500.0,nan,nan,nan,nan,nan,nan,nan,nan,nan,nan
1876120000,6,1566.7217,1562.4451,1568.6129,1566.2899,1500.0,1500.0,nan,nan,nan,nan,nan,nan,nan,nan,nan,nan
1876216000,6,1563.9224,1564.4906,1565.4302,1564.6389,1500.0,1500.0,nan,nan,nan,nan,nan,nan,nan,nan,nan,nan
1876316000,6,1562.7064,1566.8112,1563.3893,1566.7913,1500.0,1500.0,nan,nan,nan,nan,nan,nan,nan,nan,nan,nan
1876420000,6,1562.6008,1565.8774,1563.2659,1565.7297,1500.0,1500.0,nan,nan,nan,nan,nan,nan,nan,nan,nan,nan
1876520000,6,1568.6962,1563.7932,1568.0957,1565.9474,1500.0,1500.0,nan,nan,nan,nan,nan,nan,nan,nan,nan,nan
1876616000,6,1567.5619,1565.2408,1567.6777,1565.0043,1500.0,1500.0,nan,nan,nan,nan,nan,nan,nan,nan,nan,nan
1876716000,6,1567.5039,1564.2103,1566.9075,1563.4883,1500.0,1500.0,nan,nan,nan,nan,nan,nan,nan,nan,nan,nan
1876816000,6,1562.7932,1566.4175,1564.6648,1564.898,1500.0,1500.0,nan,nan,nan,nan,nan,nan,nan,nan,nan,nan
1876916000,6,1564.9204,1562.9609,1564.8854,1563.2046,1500.0,1500.0,nan,nan,nan,nan,nan,nan,nan,nan,nan,nan
1877020000,6,1565.1239,1562.0873,1564.1709,1565.1703,1500.0,1500.0,nan,nan,nan,nan,nan,nan,nan,nan,nan,nan
1877116000,6,1566.5549,1566.3031,1567.1975,1563.5905,1500.0,1500.0,nan,nan,nan,nan,nan,nan,nan,nan,nan,nan
1877216000,6,1567.1125,1564.6426,1567.6853,1562.3517,1500.0,1500.0,nan,nan,nan,nan,nan,nan,nan,nan,nan,nan
1877320000,6,1564.8079,1564.5144,1567.5144,1561.0082,1500.0,1500.0,nan,nan,nan,nan,nan,nan,nan,nan,nan,nan
1877420000,6,1566.4197,1565.4253,1564.7896,1568.9626,1500.0,1500.0,nan,nan,nan,nan,nan,nan,nan,nan,nan,nan
1877516000,6,1563.3826,1565.1575,1562.3136,1564.1187,1500.0,1500.0,nan,nan,nan,nan,nan,nan,nan,nan,nan,nan
1877620000,6,1563.9456,1566.0048,1566.6744,1561.386,1500.0,1500.0,nan,nan,nan,nan,nan,nan,nan,nan,nan,nan
1877716000,6,1562.6807,1565.0281,1562.8628,1565.4902,1500.0,1500.0,nan,nan,nan,nan,nan,nan,nan,nan,nan,nan
1877820000,6,1564.0482,1564.0183,1565.6233,1563.6642,1500.0,1500.0,nan,nan,nan,nan,nan,nan,nan,nan,nan,nan
1877916000,6,1566.2156,1563.9907,1564.1455,1566.0435,1500.0,1500.0,nan,nan,nan,nan,nan,nan,nan,nan,nan,nan
1878016000,6,1562.8058,1560.8007,1562.951,1565.3806,1500.0,1500.0,nan,nan,nan,nan,nan,nan,nan,nan,nan,nan
1878116000,6,1561.1398,1564.9349,1563.1096,1562.9224,1500.0,1500.0,nan,nan,nan,nan,nan,nan,nan,nan,nan,nan
1878216000,6,1565.7897,1563.5891,1564.6632,1563.9467,1500.0,1500.0,nan,nan,nan,nan,nan,nan,nan,nan,nan,nan
1878316000,6,1566.9435,1565.5596,1565.3535,1563.9008,1500.0,1500.0,nan,nan,nan,nan,nan,nan,nan,nan,nan,nan
1878420000,6,1562.6155,1567.8186,1562.9906,1566.9868,1500.0,1500.0,nan,nan,nan,nan,nan,nan,nan,nan,nan,nan
1878520000,6,1568.675,1562.1108,1566.9509,1563.5096,1500.0,1500.0,nan,nan,nan,nan,nan,nan,nan,nan,nan,nan
1878616000,6,1563.168,1562.6417,1561.9767,1562.9844,1500.0,1500.0,nan,nan,nan,nan,nan,nan,nan,nan,nan,nan
1878716000,6,1564.7449,1566.5986,1561.554,1568.9761,1500.0,1500.0,nan,nan,nan,nan,nan,nan,nan,nan,nan,nan
1878820000,6,1564.8423,1565.1812,1563.8998,1564.2736,1500.0,1500.0,nan,nan,nan,nan,nan,nan,nan,nan,nan,nan
1878916000,6,1565.2133,1563.8872,1562.7489,1565.8428,1500.0,1500.0,nan,nan,nan,nan,nan,nan,nan,nan,nan,nan
1879016000,6,1563.1377,1565.9363,1563.7753,1566.6062,1500.0,1500.0,nan,nan,nan,nan,nan,nan,nan,nan,nan,nan
1879116000,6,1563.7986,1565.0961,1564.121,1565.1934,1500.0,1500.0,nan,nan,nan,nan,nan,nan,nan,nan,nan,nan
1879216000,6,1561.5415,1565.5944,1561.9939,1564.394,1500.0,1500.0,nan,nan,nan,nan,nan,nan,nan,nan,nan,nan
1879316000,6,1563.2286,1564.7258,1564.4808,1563.0688,1500.0,1500.0,nan,nan,nan,nan,nan,nan,nan,nan,nan,nan
1879420000,6,1562.1562,1566.4222,1563.6011,1565.1742,1500.0,1500.0,nan,nan,nan,nan,nan,nan,nan,nan,nan,nan
1879520000,6,1563.84,1560.6935,1564.249,1560.2025,1500.0,1500.0,nan,nan,nan,nan,nan,nan,nan,nan,nan,nan
1879620000,6,1563.4198,1561.3711,1565.8799,1562.7714,1500.0,1500.0,nan,nan,nan,nan,nan,nan,nan,nan,nan,nan
1879716000,6,1566.8118,1563.156,1566.4822,1563.0837,1500.0,1500.0,nan,nan,nan,nan,nan,nan,nan,nan,nan,nan
1879820000,6,1565.9502,1561.2305,1565.1028,1562.1753,1500.0,1500.0,nan,nan,nan,nan,nan,nan,nan,nan,nan,nan
1879916000,6,1563.9751,1561.2815,1564.8441,1562.4136,1500.0,1500.0,nan,nan,nan,nan,nan,nan,nan,nan,nan,nan
1880020000,6,1564.0618,1565.0175,1565.3539,1561.7382,1500.0,1500.0,nan,nan,nan,nan,nan,nan,nan,nan,nan,nan
1880116000,6,1561.9872,1562.7742,1566.0652,1561.1912,1500.0,1500.0,nan,nan,nan,nan,nan,nan,nan,nan,nan,nan
1880216000,6,1563.7517,1561.5094,1563.9156,1561.876,1500.0,1500.0,nan,nan,nan,nan,nan,nan,nan,nan,nan,nan
1880320000,6,1564.231,1565.7893,1565.9945,1564.2964,1500.0,1500.0,nan,nan,nan,nan,nan,nan,nan,nan,nan,nan
1880420000,6,1563.6195,1561.8405,1564.072,1562.6702,1500.0,1500.0,nan,nan,nan,nan,nan,nan,nan,nan,nan,nan
1880516000,6,1562.212,1562.064,1563.6812,1563.5068,1500.0,1500.0,nan,nan,nan,nan,nan,nan,nan,nan,nan,nan
1880616000,6,1564.5955,1560.4863,1564.0667,1563.7285,1500.0,1500.0,nan,nan,nan,nan,nan,nan,nan,nan,nan,nan
1880720000,6,1562.9708,1563.876,1563.229,1565.5431,1500.0,1500.0,nan,nan,nan,nan,nan,nan,nan,nan,nan,nan
1880816000,6,1565.7662,1561.313,1565.4932,1563.8516,1500.0,1500.0,nan,nan,nan,nan,nan,nan,nan,nan,nan,nan
1880920000,6,1562.069,1565.255,1563.7881,1562.3241,1500.0,1500.0,nan,nan,nan,nan,nan,nan,nan,nan,nan,nan
1881016000,6,1563.6421,1563.5702,1562.6964,1562.4974,1500.0,1500.0,nan,nan,nan,nan,nan,nan,nan,nan,nan,nan
1881116000,6,1563.0123,1565.036,1563.33,1562.7231,1500.0,1500.0,nan,nan,nan,nan,nan,nan,nan,nan,nan,nan
1881216000,6,1562.6583,1562.8396,1564.5044,1562.5673,1500.0,1500.0,nan,nan,nan,nan,nan,nan,nan,nan,nan,nan
1881316000,6,1563.9318,1566.0154,1563.8048,1562.6053,1500.0,1500.0,nan,nan,nan,nan,nan,nan,nan,nan,nan,nan
1881416000,6,1564.7954,1562.3691,1564.2035,1561.0425,1500.0,1500.0,nan,nan,nan,nan,nan,nan,nan,nan,nan,nan
1881516000,6,1563.2095,1563.714,1564.8029,1563.6188,1500.0,1500.0,nan,nan,nan,nan,nan,nan,nan,nan,nan,nan
1881620000,6,1563.4355,1563.2179,1563.5216,1561.6825,1500.0,1500.0,nan,nan,nan,nan,nan,nan,nan,nan,nan,nan
1881716000,6,1564.4556,1565.4844,1564.2739,1565.0104,1500.0,1500.0,nan,nan,nan,nan,nan,nan,nan,nan,nan,nan
1881816000,6,1563.8579,1565.9482,1566.1907,1562.0781,1500.0,1500.0,nan,nan,nan,nan,nan,nan,nan,nan,nan,nan
1881916000,6,1563.4146,1563.659,1561.6576,1563.4733,1500.0,1500.0,nan,nan,nan,nan,nan,nan,nan,nan,nan,nan
1882016000,6,1562.2343,1564.9387,1560.8662,1565.7638,1500.0,1500.0,nan,nan,nan,nan,nan,nan,nan,nan,nan,nan
1882120000,6,1563.0627,1562.7972,1564.1835,1562.8326,1500.0,1500.0,nan,nan,nan,nan,nan,nan,nan,nan,nan,nan
1882216000,6,1564.4918,1561.8771,1566.8674,1560.7363,1500.0,1500.0,nan,nan,nan,nan,nan,nan,nan,nan,nan,nan
1882316000,6,1560.7454,1565.0122,1563.805,1564.2474,1500.0,1500.0,nan,nan,nan,nan,nan,nan,nan,nan,nan,nan
1882420000,6,1562.0964,1565.939,1563.6008,1562.0044,1500.0,1500.0,nan,nan,nan,nan,nan,nan,nan,nan,nan,nan
1882516000,6,1562.909,1564.7113,1565.1343,1565.2947,1500.0,1500.0,nan,nan,nan,nan,nan,nan,nan,nan,nan,nan
1882616000,6,1565.2507,1562.1895,1566.3759,1562.043,1500.0,1500.0,nan,nan,nan,nan,nan,nan,nan,nan,nan,nan
1882716000,6,1560.3718,1563.7091,1559.4723,1562.8926,1500.0,1500.0,nan,nan,nan,nan,nan,nan,nan,nan,nan,nan
1882820000,6,1564.2266,1562.7759,1564.6425,1561.5712,1500.0,1500.0,nan,nan,nan,nan,nan,nan,nan,nan,nan,nan
1882920000,6,1562.6888,1559.8196,1560.5885,1562.2391,1500.0,1500.0,nan,nan,nan,nan,nan,nan,nan,nan,nan,nan
1883016000,6,1562.1913,1561.0198,1562.1846,1563.5057,1500.0,1500.0,nan,nan,nan,nan,nan,nan,nan,nan,nan,nan
1883120000,6,1563.5804,1562.1083,1565.1454,1560.594,1500.0,1500.0,nan,nan,nan,nan,nan,nan,nan,nan,nan,nan
1883220000,6,1562.5549,1562.4502,1561.3601,1563.4363,1500.0,1500.0,nan,nan,nan,nan,nan,nan,nan,nan,nan,nan
1883316000,6,1562.3506,1560.1718,1560.926,1563.6963,1500.0,1500.0,nan,nan,nan,nan,nan,nan,nan,nan,nan,nan
1883420000,6,1563.9594,1564.2227,1563.7992,1565.0938,1500.0,1500.0,nan,nan,nan,nan,nan,nan,nan,nan,nan,nan
1883516000,6,1567.3206,1563.919,1563.5934,1567.9985,1500.0,1500.0,nan,nan,nan,nan,nan,nan,nan,nan,nan,nan
1883616000,6,1561.6853,1564.0281,1563.1461,1566.605,1500.0,1500.0,nan,nan,nan,nan,nan,nan,nan,nan,nan,nan
1883720000,6,1563.4102,1561.9213,1564.8883,1563.0138,1500.0,1500.0,nan,nan,nan,nan,nan,nan,nan,nan,nan,nan
1883816000,6,1564.9574,1563.3368,1564.664,1562.9662,1500.0,1500.0,nan,nan,nan,nan,nan,nan,nan,nan,nan,nan
1883920000,6,1562.1962,1565.1877,1564.1406,1561.5748,1500.0,1500.0,nan,nan,nan,nan,nan,nan,nan,nan,nan,nan
1884020000,6,1566.1183,1565.4797,1565.7968,1566.0001,1500.0,1500.0,nan,nan,nan,nan,nan,nan,nan,nan,nan,nan
1884116000,6,1564.7651,1563.7649,1565.272,1564.9376,1500.0,1500.0,nan,nan,nan,nan,nan,nan,nan,nan,nan,nan
1884216000,6,1561.6832,1566.4777,1563.176,1566.9393,1500.0,1500.0,nan,nan,nan,nan,nan,nan,nan,nan,nan,nan
1884316000,6,1562.2872,1565.2416,1563.1215,1564.5077,1500.0,1500.0,nan,nan,nan,nan,nan,nan,nan,nan,nan,nan
1884416000,6,1563.4822,1565.3547,1564.5701,1567.6396,1500.0,1500.0,nan,nan,nan,nan,nan,nan,nan,nan,nan,nan
1884516000,6,1561.9155,1565.3359,1561.5139,1563.4507,1500.0,1500.0,nan,nan,nan,nan,nan,nan,nan,nan,nan,nan
1884616000,6,1565.0413,1566.1697,1560.6719,1566.4785,1500.0,1500.0,nan,nan,nan,nan,nan,nan,nan,nan,nan,nan
1884720000,6,1565.8394,1564.3708,1565.035,1565.7928,1500.0,1500.0,nan,nan,nan,nan,nan,nan,nan,nan,nan,nan
1884816000,6,1557.6191,1567.7491,1562.4452,1563.6045,1500.0,1500.0,nan,nan,nan,nan,nan,nan,nan,nan,nan,nan
1884916000,6,1560.1608,1566.063,1560.1183,1566.8376,1500.0,1500.0,nan,nan,nan,nan,nan,nan,nan,nan,nan,nan
1885016000,6,1563.6731,1562.3064,1563.1576,1563.4336,1500.0,1500.0,nan,nan,nan,nan,nan,nan,nan,nan,nan,nan
1885116000,6,1562.244,1564.3567,1563.8064,1565.2843,1500.0,1500.0,nan,nan,nan,nan,nan,nan,nan,nan,nan,nan
1885216000,6,1564.0869,1565.3314,1565.5028,1563.7812,1500.0,1500.0,nan,nan,nan,nan,nan,nan,nan,nan,nan,nan
1885320000,6,1559.2163,1565.5411,1560.5994,1564.8091,1500.0,1500.0,nan,nan,nan,nan,nan,nan,nan,nan,nan,nan
1885420000,6,1561.5524,1562.905,1563.6251,1564.3815,1500.0,1500.0,nan,nan,nan,nan,nan,nan,nan,nan,nan,nan
1885516000,6,1563.3269,1564.0253,1564.471,1562.3394,1500.0,1500.0,nan,nan,nan,nan,nan,nan,nan,nan,nan,nan
1885616000,6,1565.9207,1562.4104,1564.3744,1564.0281,1500.0,1500.0,nan,nan,nan,nan,nan,nan,nan,nan,nan,nan
1885716000,6,1561.2472,1562.585,1567.2085,1562.9874,1500.0,1500.0,nan,nan,nan,nan,nan,nan,nan,nan,nan,nan
1885820000,6,1564.5859,1559.2245,1568.099,1562.7355,1500.0,1500.0,nan,nan,nan,nan,nan,nan,nan,nan,nan,nan
1885916000,6,1563.188,1565.761,1563.858,1565.5586,1500.0,1500.0,nan,nan,nan,nan,nan,nan,nan,nan,nan,nan
1886016000,6,1563.036,1562.4459,1563.2896,1561.3479,1500.0,1500.0,nan,nan,nan,nan,nan,nan,nan,nan,nan,nan
1886120000,6,1560.8824,1565.1741,1566.5435,1564.1093,1500.0,1500.0,nan,nan,nan,nan,nan,nan,nan,nan,nan,nan
1886220000,6,1560.5991,1566.7833,1562.545,1565.5476,1500.0,1500.0,nan,nan,nan,nan,nan,nan,nan,nan,nan,nan
1886320000,6,1561.771,1564.3622,1562.3075,1565.5707,1500.0,1500.0,nan,nan,nan,nan,nan,nan,nan,nan,nan,nan
1886416000,6,1562.6794,1565.8473,1562.2668,1564.1257,1500.0,1500.0,nan,nan,nan,nan,nan,nan,nan,nan,nan,nan
1886516000,6,1565.0505,1565.0305,1566.6179,1562.7408,1500.0,1500.0,nan,nan,nan,nan,nan,nan,nan,nan,nan,nan
1886620000,6,1561.7783,1560.2985,1561.4298,1560.7988,1500.0,1500.0,nan,nan,nan,nan,nan,nan,nan,nan,nan,nan
1886720000,6,1563.7996,1566.0692,1563.1344,1564.5719,1500.0,1500.0,nan,nan,nan,nan,nan,nan,nan,nan,nan,nan
1886816000,6,1564.3795,1564.4608,1566.1526,1564.1243,1500.0,1500.0,nan,nan,nan,nan,nan,nan,nan,nan,nan,nan
1886920000,6,1564.8757,1561.3247,1560.843,1564.1244,1500.0,1500.0,nan,nan,nan,nan,nan,nan,nan,nan,nan,nan
1887016000,6,1564.2692,1563.5815,1562.5319,1563.27,1500.0,1500.0,nan,nan,nan,nan,nan,nan,nan,nan,nan,nan
1887116000,6,1565.426,1562.0695,1562.5947,1564.1576,1500.0,1500.0,nan,nan,nan,nan,nan,nan,nan,nan,nan,nan
1887216000,6,1565.8063,1562.2513,1564.1394,1564.1836,1500.0,1500.0,nan,nan,nan,nan,nan,nan,nan,nan,nan,nan
1887316000,6,1558.9458,1567.8159,1560.1934,1567.4073,1500.0,1500.0,nan,nan,nan,nan,nan,nan,nan,nan,nan,nan
1887416000,6,1563.6174,1564.97,1561.8695,1564.1172,1500.0,1500.0,nan,nan,nan,nan,nan,nan,nan,nan,nan,nan
1887516000,6,1562.1382,1564.3816,1559.441,1564.9961,1500.0,1500.0,nan,nan,nan,nan,nan,nan,nan,nan,nan,nan
1887620000,6,1564.4396,1561.3612,1562.6584,1562.6394,1500.0,1500.0,nan,nan,nan,nan,nan,nan,nan,nan,nan,nan
1887720000,6,1559.9857,1565.3679,1560.6691,1560.3535,1500.0,1500.0,nan,nan,nan,nan,nan,nan,nan,nan,nan,nan
1887816000,6,1564.8566,1559.0344,1561.085,1562.446,1500.0,1500.0,nan,nan,nan,nan,nan,nan,nan,nan,nan,nan
1887916000,6,1560.5952,1562.1902,1562.3927,1563.0481,1500.0,1500.0,nan,nan,nan,nan,nan,nan,nan,nan,nan,nan
1888020000,6,1561.6528,1561.6294,1561.3014,1563.7458,1500.0,1500.0,nan,nan,nan,nan,nan,nan,nan,nan,nan,nan
1888116000,6,1562.5629,1561.4862,1563.5138,1562.4261,1500.0,1500.0,nan,nan,nan,nan,nan,nan,nan,nan,nan,nan
1888216000,6,1563.244,1559.7593,1561.6473,1562.172,1500.0,1500.0,nan,nan,nan,nan,nan,nan,nan,nan,nan,nan
1888316000,6,1560.6138,1564.1027,1560.757,1564.0516,1500.0,1500.0,nan,nan,nan,nan,nan,nan,nan,nan,nan,nan
1888420000,6,1562.2804,1562.8746,1564.0894,1560.609,1500.0,1500.0,nan,nan,nan,nan,nan,nan,nan,nan,nan,nan
1888516000,6,1562.1409,1560.7407,1561.4587,1561.4403,1500.0,1500.0,nan,nan,nan,nan,nan,nan,nan,nan,nan,nan
1888616000,6,1565.5707,1563.0554,1562.0757,1565.0961,1500.0,1500.0,nan,nan,nan,nan,nan,nan,nan,nan,nan,nan
1888716000,6,1561.9135,1562.4673,1561.1761,1564.2253,1500.0,1500.0,nan,nan,nan,nan,nan,nan,nan,nan,nan,nan
1888816000,6,1562.6318,1564.3036,1562.3193,1565.6304,1500.0,1500.0,nan,nan,nan,nan,nan,nan,nan,nan,nan,nan
1888920000,6,1563.6931,1563.7,1563.4459,1563.101,1500.0,1500.0,nan,nan,nan,nan,nan,nan,nan,nan,nan,nan
1889020000,6,1566.1118,1559.5209,1563.9908,1561.7599,1500.0,1500.0,nan,nan,nan,nan,nan,nan,nan,nan,nan,nan
1889116000,6,1562.0283,1563.5311,1560.9415,1565.3406,1500.0,1500.0,nan,nan,nan,nan,nan,nan,nan,nan,nan,nan
1889220000,6,1564.9016,1564.2397,1564.6262,1563.0645,1500.0,1500.0,nan,nan,nan,nan,nan,nan,nan,nan,nan,nan
1889316000,6,1564.9641,1563.728,1562.7609,1563.6823,1500.0,1500.0,nan,nan,nan,nan,nan,nan,nan,nan,nan,nan
1889416000,6,1562.9,1562.6178,1562.8773,1560.8496,1500.0,1500.0,nan,nan,nan,nan,nan,nan,nan,nan,nan,nan
1889516000,6,1562.5764,1563.9633,1560.3113,1565.9877,1500.0,1500.0,nan,nan,nan,nan,nan,nan,nan,nan,nan,nan
1889616000,6,1562.4496,1565.9202,1566.6494,1561.3162,1500.0,1500.0,nan,nan,nan,nan,nan,nan,nan,nan,nan,nan
1889720000,6,1561.974,1562.1671,1561.5216,1563.5703,1500.0,1500.0,nan,nan,nan,nan,nan,nan,nan,nan,nan,nan
1889816000,6,1564.3784,1560.8417,1564.6217,1558.8336,1500.0,1500.0,nan,nan,nan,nan,nan,nan,nan,nan,nan,nan
1889920000,6,1565.5791,1563.253,1566.7474,1559.6958,1500.0,1500.0,nan,nan,nan,nan,nan,nan,nan,nan,nan,nan
1890016000,6,1565.3016,1561.9783,1563.4995,1562.8083,1500.0,1500.0,nan,nan,nan,nan,nan,nan,nan,nan,nan,nan
1890120000,6,1560.573,1565.6425,1561.3123,1562.3807,1500.0,1500.0,nan,nan,nan,nan,nan,nan,nan,nan,nan,nan
1890220000,6,1565.5529,1561.2594,1564.7754,1563.7745,1500.0,1500.0,nan,nan,nan,nan,nan,nan,nan,nan,nan,nan
1890316000,6,1564.2869,1564.5957,1564.8954,1565.3921,1500.0,1500.0,nan,nan,nan,nan,nan,nan,nan,nan,nan,nan
1890416000,6,1563.4143,1565.2406,1563.9556,1565.0743,1500.0,1500.0,nan,nan,nan,nan,nan,nan,nan,nan,nan,nan
1890520000,6,1563.8926,1563.8713,1565.2611,1562.3038,1500.0,1500.0,nan,nan,nan,nan,nan,nan,nan,nan,nan,nan
1890620000,6,1564.7827,1563.3422,1564.6605,1564.4556,1500.0,1500.0,nan,nan,nan,nan,nan,nan,nan,nan,nan,nan
1890720000,6,1564.0801,1565.064,1563.8414,1563.2192,1500.0,1500.0,nan,nan,nan,nan,nan,nan,nan,nan,nan,nan
1890820000,6,1563.3342,1563.6179,1565.3885,1560.3585,1500.0,1500.0,nan,nan,nan,nan,nan,nan,nan,nan,nan,nan
1890916000,6,1563.3064,1565.1222,1560.296,1566.949,1500.0,1500.0,nan,nan,nan,nan,nan,nan,nan,nan,nan,nan
1891020000,6,1563.328,1562.6571,1562.8658,1563.1559,1500.0,1500.0,nan,nan,nan,nan,nan,nan,nan,nan,nan,nan
1891120000,6,1560.0735,1564.4062,1560.8718,1565.2202,1500.0,1500.0,nan,nan,nan,nan,nan,nan,nan,nan,nan,nan
1891216000,6,1562.0708,1563.5759,1560.9706,1564.4241,1500.0,1500.0,nan,nan,nan,nan,nan,nan,nan,nan,nan,nan
1891316000,6,1564.3308,1563.3933,1563.6787,1563.4331,1500.0,1500.0,nan,nan,nan,nan,nan,nan,nan,nan,nan,nan
1891416000,6,1561.2996,1565.3971,1563.8386,1561.9681,1500.0,1500.0,nan,nan,nan,nan,nan,nan,nan,nan,nan,nan
1891520000,6,1563.4674,1563.0128,1564.1805,1562.2014,1500.0,1500.0,nan,nan,nan,nan,nan,nan,nan,nan,nan,nan
1891616000,6,1563.5734,1562.6067,1567.2053,1557.3416,1500.0,1500.0,nan,nan,nan,nan,nan,nan,nan,nan,nan,nan
1891716000,6,1568.3059,1559.5367,1565.5353,1561.407,1500.0,1500.0,nan,nan,nan,nan,nan,nan,nan,nan,nan,nan
1891816000,6,1561.959,1563.7063,1564.0944,1562.0239,1500.0,1500.0,nan,nan,nan,nan,nan,nan,nan,nan,nan,nan
1891916000,6,1560.5001,1566.1843,1563.9535,1564.6504,1500.0,1500.0,nan,nan,nan,nan,nan,nan,nan,nan,nan,nan
1892020000,6,1561.7151,1565.2476,1565.7218,1562.8492,1500.0,1500.0,nan,nan,nan,nan,nan,nan,nan,nan,nan,nan
1892116000,6,1562.4674,1565.7122,1565.4102,1565.7012,1500.0,1500.0,nan,nan,nan,nan,nan,nan,nan,nan,nan,nan
1892216000,6,1565.1112,1564.815,1564.8544,1564.4948,1500.0,1500.0,nan,nan,nan,nan,nan,nan,nan,nan,nan,nan
1892316000,6,1564.2864,1565.706,1563.5983,1564.3313,1500.0,1500.0,nan,nan,nan,nan,nan,nan,nan,nan,nan,nan
1892420000,6,1561.7618,1563.4846,1564.3188,1562.9149,1500.0,1500.0,nan,nan,nan,nan,nan,nan,nan,nan,nan,nan
1892516000,6,1567.5751,1559.5304,1564.2731,1561.6593,1500.0,1500.0,nan,nan,nan,nan,nan,nan,nan,nan,nan,nan
1892620000,6,1309.8992,1367.1447,1817.1951,1625.6633,1500.0,1500.0,nan,nan,nan,nan,nan,nan,nan,nan,nan,nan
1892716000,6,1519.0459,1405.3182,1619.6134,1517.4956,1500.0,1500.0,nan,nan,nan,nan,nan,nan,nan,nan,nan,nan
1892820000,6,1600.2853,1547.7881,1589.7565,1577.9783,1500.0,1500.0,nan,nan,nan,nan,nan,nan,nan,nan,nan,nan
1892916000,6,1578.035,1582.8624,1549.208,1586.36,1500.0,1500.0,nan,nan,nan,nan,nan,nan,nan,nan,nan,nan
1893020000,6,1558.5419,1586.621,1543.4393,1573.8108,1500.0,1500.0,nan,nan,nan,nan,nan,nan,nan,nan,nan,nan
1893116000,6,1571.3533,1582.3171,1559.1017,1574.5183,1500.0,1500.0,nan,nan,nan,nan,nan,nan,nan,nan,nan,nan
1893216000,6,1570.1942,1577.7402,1563.3427,1566.1646,1500.0,1500.0,nan,nan,nan,nan,nan,nan,nan,nan,nan,nan
1893316000,6,1568.3137,1580.2461,1561.9426,1572.0515,1500.0,1500.0,nan,nan,nan,nan,nan,nan,nan,nan,nan,nan
1893416000,6,1568.8099,1574.1282,1563.6417,1571.1008,1500.0,1500.0,nan,nan,nan,nan,nan,nan,nan,nan,nan,nan
1893516000,6,1571.124,1574.8398,1566.2194,1572.3822,1500.0,1500.0,nan,nan,nan,nan,nan,nan,nan,nan,nan,nan
1893620000,6,1566.0043,1577.3704,1561.5759,1575.4484,1500.0,1500.0,nan,nan,nan,nan,nan,nan,nan,nan,nan,nan
1893716000,6,1566.6539,1576.4592,1566.8163,1572.844,1500.0,1500.0,nan,nan,nan,nan,nan,nan,nan,nan,nan,nan
1893820000,6,1567.5819,1576.3623,1568.8724,1575.2783,1500.0,1500.0,nan,nan,nan,nan,nan,nan,nan,nan,nan,nan
1893916000,6,1567.8105,1574.2988,1564.2506,1576.1174,1500.0,1500.0,nan,nan,nan,nan,nan,nan,nan,nan,nan,nan
1894016000,6,1567.8031,1576.2354,1570.0836,1572.104,1500.0,1500.0,nan,nan,nan,nan,nan,nan,nan,nan,nan,nan
1894120000,6,1566.0667,1576.8475,1565.6428,1574.4241,1500.0,1500.0,nan,nan,nan,nan,nan,nan,nan,nan,nan,nan
1894220000,6,1565.51,1577.526,1569.2441,1574.1736,1500.0,1500.0,nan,nan,nan,nan,nan,nan,nan,nan,nan,nan
1894316000,6,1567.3878,1578.7563,1565.748,1576.8801,1500.0,1500.0,nan,nan,nan,nan,nan,nan,nan,nan,nan,nan
1894416000,6,1569.281,1577.6638,1571.0472,1576.498,1500.0,1500.0,nan,nan,nan,nan,nan,nan,nan,nan,nan,nan
1894516000,6,1567.9844,1580.6699,1569.2828,1578.5483,1500.0,1500.0,nan,nan,nan,nan,nan,nan,nan,nan,nan,nan
1894616000,6,1565.8761,1581.9182,1566.208,1579.9375,1500.0,1500.0,nan,nan,nan,nan,nan,nan,nan,nan,nan,nan
1894716000,6,1568.8108,1578.1252,1569.3861,1576.4514,1500.0,1500.0,nan,nan,nan,nan,nan,nan,nan,nan,nan,nan
1894820000,6,1568.1398,1581.2043,1572.0518,1576.3066,1500.0,1500.0,nan,nan,nan,nan,nan,nan,nan,nan,nan,nan
1894916000,6,1568.9886,1579.5116,1567.8687,1580.5228,1500.0,1500.0,nan,nan,nan,nan,nan,nan,nan,nan,nan,nan
1895020000,6,1567.1816,1584.2194,1569.3326,1579.5255,1500.0,1500.0,nan,nan,nan,nan,nan,nan,nan,nan,nan,nan
1895116000,6,1567.8376,1581.7457,1570.6232,1578.7634,1500.0,1500.0,nan,nan,nan,nan,nan,nan,nan,nan,nan,nan
1895216000,6,1571.0029,1578.1543,1570.8796,1581.1593,1500.0,1500.0,nan,nan,nan,nan,nan,nan,nan,nan,nan,nan
1895316000,6,1568.8999,1582.4852,1572.9474,1581.9517,1500.0,1500.0,nan,nan,nan,nan,nan,nan,nan,nan,nan,nan
1895420000,6,1567.4137,1582.8264,1570.5872,1582.2032,1500.0,1500.0,nan,nan,nan,nan,nan,nan,nan,nan,nan,nan
1895516000,6,1571.618,1585.2513,1573.0864,1583.6624,1500.0,1500.0,nan,nan,nan,nan,nan,nan,nan,nan,nan,nan
1895620000,6,1568.8262,1589.0807,1571.7612,1586.9098,1500.0,1500.0,nan,nan,nan,nan,nan,nan,nan,nan,nan,nan
1895720000,6,1570.9877,1586.8262,1574.5605,1581.7928,1500.0,1500.0,nan,nan,nan,nan,nan,nan,nan,nan,nan,nan
1895820000,6,1574.1888,1582.251,1575.1433,1583.5728,1500.0,1500.0,nan,nan,nan,nan,nan,nan,nan,nan,nan,nan
1895916000,6,1573.9114,1588.4633,1574.334,1588.5554,1500.0,1500.0,nan,nan,nan,nan,nan,nan,nan,nan,nan,nan
1896016000,6,1571.3857,1591.8168,1574.3943,1589.0571,1500.0,1500.0,nan,nan,nan,nan,nan,nan,nan,nan,nan,nan
1896116000,6,1570.603,1589.4827,1575.0768,1585.8091,1500.0,1500.0,nan,nan,nan,nan,nan,nan,nan,nan,nan,nan
1896220000,6,1571.4958,1589.7743,1570.1143,1590.146,1500.0,1500.0,nan,nan,nan,nan,nan,nan,nan,nan,nan,nan
1896316000,6,1575.2878,1591.2242,1579.1542,1588.5615,1500.0,1500.0,nan,nan,nan,nan,nan,nan,nan,nan,nan,nan
1896416000,6,1572.3018,1593.5428,1574.8695,1592.6145,1500.0,1500.0,nan,nan,nan,nan,nan,nan,nan,nan,nan,nan
1896520000,6,1577.8856,1594.29,1577.5302,1590.7653,1500.0,1500.0,nan,nan,nan,nan,nan,nan,nan,nan,nan,nan
1896616000,6,1573.5486,1597.7032,1577.8044,1592.4574,1500.0,1500.0,nan,nan,nan,nan,nan,nan,nan,nan,nan,nan
1896716000,6,1576.5331,1597.8328,1578.0374,1598.105,1500.0,1500.0,nan,nan,nan,nan,nan,nan,nan,nan,nan,nan
1896816000,6,1577.404,1600.3988,1576.7874,1599.7117,1500.0,1500.0,nan,nan,nan,nan,nan,nan,nan,nan,nan,nan
1896920000,6,1576.7325,1598.7974,1578.9109,1598.8647,1500.0,1500.0,nan,nan,nan,nan,nan,nan,nan,nan,nan,nan
1897016000,6,1576.3679,1600.5363,1579.7225,1601.0996,1500.0,1500.0,nan,nan,nan,nan,nan,nan,nan,nan,nan,nan
1897116000,6,1579.583,1604.0704,1583.2068,1603.7393,1500.0,1500.0,nan,nan,nan,nan,nan,nan,nan,nan,nan,nan
1897220000,6,1581.2788,1603.1989,1581.7247,1603.8762,1500.0,1500.0,nan,nan,nan,nan,nan,nan,nan,nan,nan,nan
1897316000,6,1582.1355,1608.0692,1585.6371,1604.6166,1500.0,1500.0,nan,nan,nan,nan,nan,nan,nan,nan,nan,nan
1897420000,6,1581.8955,1613.4504,1584.3778,1609.8336,1500.0,1500.0,nan,nan,nan,nan,nan,nan,nan,nan,nan,nan
1897520000,6,1583.5837,1613.2795,1584.5715,1611.8617,1500.0,1500.0,nan,nan,nan,nan,nan,nan,nan,nan,nan,nan
1897616000,6,1583.2806,1614.8881,1585.2661,1612.8414,1500.0,1500.0,nan,nan,nan,nan,nan,nan,nan,nan,nan,nan
1897720000,6,1586.561,1612.8341,1590.3335,1612.1613,1500.0,1500.0,nan,nan,nan,nan,nan,nan,nan,nan,nan,nan
1897816000,6,1584.9464,1617.2714,1587.2181,1615.5204,1500.0,1500.0,nan,nan,nan,nan,nan,nan,nan,nan,nan,nan
1897916000,6,1587.3821,1621.0736,1590.4836,1617.6036,1500.0,1500.0,nan,nan,nan,nan,nan,nan,nan,nan,nan,nan
1898016000,6,1589.6506,1622.8093,1593.6528,1620.5042,1500.0,1500.0,nan,nan,nan,nan,nan,nan,nan,nan,nan,nan
1898120000,6,1592.1786,1621.5795,1593.0906,1623.6268,1500.0,1500.0,nan,nan,nan,nan,nan,nan,nan,nan,nan,nan
1898216000,6,1594.7921,1621.8524,1599.9119,1625.6053,1500.0,1500.0,nan,nan,nan,nan,nan,nan,nan,nan,nan,nan
1898316000,6,1593.6666,1630.3635,1596.1746,1629.6191,1500.0,1500.0,nan,nan,nan,nan,nan,nan,nan,nan,nan,nan
1898420000,6,1594.5553,1633.8218,1597.429,1634.9434,1500.0,1500.0,nan,nan,nan,nan,nan,nan,nan,nan,nan,nan
1898520000,6,1599.102,1636.4863,1599.3411,1637.2322,1500.0,1500.0,nan,nan,nan,nan,nan,nan,nan,nan,nan,nan
1898620000,6,1599.1862,1641.4856,1601.8318,1639.1364,1500.0,1500.0,nan,nan,nan,nan,nan,nan,nan,nan,nan,nan
1898720000,6,1605.3419,1642.6412,1609.0227,1641.4088,1500.0,1500.0,nan,nan,nan,nan,nan,nan,nan,nan,nan,nan
1898816000,6,1609.252,1648.1023,1610.4523,1649.2345,1500.0,1500.0,nan,nan,nan,nan,nan,nan,nan,nan,nan,nan
1898920000,6,1607.8685,1655.4053,1611.7247,1655.6965,1500.0,1500.0,nan,nan,nan,nan,nan,nan,nan,nan,nan,nan
1899020000,6,1614.6938,1654.908,1616.593,1654.2861,1500.0,1500.0,nan,nan,nan,nan,nan,nan,nan,nan,nan,nan
1899116000,6,1616.8724,1658.3292,1620.6776,1657.2487,1500.0,1500.0,nan,nan,nan,nan,nan,nan,nan,nan,nan,nan
1899216000,6,1619.3813,1663.5511,1621.9745,1663.2668,1500.0,1500.0,nan,nan,nan,nan,nan,nan,nan,nan,nan,nan
1899320000,6,1622.7018,1669.8174,1626.6285,1670.5637,1500.0,1500.0,nan,nan,nan,nan,nan,nan,nan,nan,nan,nan
1899420000,6,1623.3628,1677.8032,1624.2214,1682.3494,1500.0,1500.0,nan,nan,nan,nan,nan,nan,nan,nan,nan,nan
1899520000,6,1634.7583,1678.301,1637.974,1677.4911,1500.0,1500.0,nan,nan,nan,nan,nan,nan,nan,nan,nan,nan
1899620000,6,1638.577,1681.8293,1645.8154,1679.692,1500.0,1500.0,nan,nan,nan,nan,nan,nan,nan,nan,nan,nan
1899716000,6,1635.61,1693.571,1641.4453,1693.293,1500.0,1500.0,nan,nan,nan,nan,nan,nan,nan,nan,nan,nan
1899816000,6,1642.9978,1700.3363,1646.5751,1701.9229,1500.0,1500.0,nan,nan,nan,nan,nan,nan,nan,nan,nan,nan
1899916000,6,1656.295,1672.6881,1656.5833,1677.0867,1500.0,1500.0,nan,nan,nan,nan,nan,nan,nan,nan,nan,nan
1900016000,6,1651.5386,1683.7502,1652.5131,1682.7205,1500.0,1500.0,nan,nan,nan,nan,nan,nan,nan,nan,nan,nan
1900116000,6,1636.5258,1706.0479,1642.1176,1705.888,1500.0,1500.0,nan,nan,nan,nan,nan,nan,nan,nan,nan,nan
1900216000,6,1628.8406,1712.1442,1632.7385,1711.4001,1500.0,1500.0,nan,nan,nan,nan,nan,nan,nan,nan,nan,nan
1900316000,6,1632.4459,1705.3213,1634.6074,1706.6154,1500.0,1500.0,nan,nan,nan,nan,nan,nan,nan,nan,nan,nan
1900416000,6,1634.676,1694.1818,1639.1227,1697.765,1500.0,1500.0,nan,nan,nan,nan,nan,nan,nan,nan,nan,nan
1900520000,6,1641.3578,1692.4233,1641.6028,1693.5614,1500.0,1500.0,nan,nan,nan,nan,nan,nan,nan,nan,nan,nan
1900620000,6,1641.5782,1697.2136,1641.8921,1697.8453,1500.0,1500.0,nan,nan,nan,nan,nan,nan,nan,nan,nan,nan
1900716000,6,1637.7388,1702.1809,1641.5015,1701.7988,1500.0,1500.0,nan,nan,nan,nan,nan,nan,nan,nan,nan,nan
1900820000,6,1637.5238,1700.5234,1640.8228,1705.2833,1500.0,1500.0,nan,nan,nan,nan,nan,nan,nan,nan,nan,nan
1900920000,6,1633.7915,1703.134,1642.0049,1700.5576,1500.0,1500.0,nan,nan,nan,nan,nan,nan,nan,nan,nan,nan
1901020000,6,1637.8191,1701.7069,1640.692,1700.6395,1500.0,1500.0,nan,nan,nan,nan,nan,nan,nan,nan,nan,nan
1901116000,6,1639.3223,1698.8973,1642.8876,1699.3104,1500.0,1500.0,nan,nan,nan,nan,nan,nan,nan,nan,nan,nan
1901216000,6,1635.2783,1701.1503,1640.5222,1700.7037,1500.0,1500.0,nan,nan,nan,nan,nan,nan,nan,nan,nan,nan
1901316000,6,1635.8845,1701.264,1641.3815,1702.2778,1500.0,1500.0,nan,nan,nan,nan,nan,nan,nan,nan,nan,nan
1901416000,6,1638.6526,1702.6373,1642.7341,1699.9447,1500.0,1500.0,nan,nan,nan,nan,nan,nan,nan,nan,nan,nan
1901516000,6,1642.2032,1702.9857,1648.4523,1700.802,1500.0,1500.0,nan,nan,nan,nan,nan,nan,nan,nan,nan,nan
1901620000,6,1642.6205,1705.5227,1644.9977,1706.5995,1500.0,1500.0,nan,nan,nan,nan,nan,nan,nan,nan,nan,nan
1901716000,6,1637.1464,1704.4308,1642.864,1704.2122,1500.0,1500.0,nan,nan,nan,nan,nan,nan,nan,nan,nan,nan
1901816000,6,1641.6683,1702.7869,1641.4504,1703.5955,1500.0,1500.0,nan,nan,nan,nan,nan,nan,nan,nan,nan,nan
1901920000,6,1640.3171,1702.871,1640.4089,1705.2151,1500.0,1500.0,nan,nan,nan,nan,nan,nan,nan,nan,nan,nan
1902016000,6,1640.9233,1704.4729,1642.5701,1704.5005,1500.0,1500.0,nan,nan,nan,nan,nan,nan,nan,nan,nan,nan
1902120000,6,1643.6384,1701.6144,1642.4672,1706.7253,1500.0,1500.0,nan,nan,nan,nan,nan,nan,nan,nan,nan,nan
1902216000,6,1640.7289,1704.4333,1644.9374,1705.0055,1500.0,1500.0,nan,nan,nan,nan,nan,nan,nan,nan,nan,nan
1902316000,6,1638.0101,1706.169,1643.9753,1705.7903,1500.0,1500.0,nan,nan,nan,nan,nan,nan,nan,nan,nan,nan
1902420000,6,1640.346,1708.9666,1642.3235,1707.1423,1500.0,1500.0,nan,nan,nan,nan,nan,nan,nan,nan,nan,nan
1902520000,6,1643.0348,1706.5806,1646.9064,1707.2056,1500.0,1500.0,nan,nan,nan,nan,nan,nan,nan,nan,nan,nan
1902616000,6,1643.7399,1706.5955,1645.269,1707.7852,1500.0,1500.0,nan,nan,nan,nan,nan,nan,nan,nan,nan,nan
1902720000,6,1641.9148,1707.6641,1646.3152,1706.7855,1500.0,1500.0,nan,nan,nan,nan,nan,nan,nan,nan,nan,nan
1902820000,6,1637.6667,1710.615,1643.7064,1711.5276,1500.0,1500.0,nan,nan,nan,nan,nan,nan,nan,nan,nan,nan
1902916000,6,1641.199,1706.5841,1643.2998,1706.8735,1500.0,1500.0,nan,nan,nan,nan,nan,nan,nan,nan,nan,nan
1903016000,6,1643.8177,1708.3279,1643.9623,1708.418,1500.0,1500.0,nan,nan,nan,nan,nan,nan,nan,nan,nan,nan
1903120000,6,1640.1746,1707.9548,1644.5569,1708.4072,1500.0,1500.0,nan,nan,nan,nan,nan,nan,nan,nan,nan,nan
1903216000,6,1644.1902,1707.7544,1647.7693,1709.6924,1500.0,1500.0,nan,nan,nan,nan,nan,nan,nan,nan,nan,nan
1903316000,6,1639.5657,1710.8438,1642.8516,1709.706,1500.0,1500.0,nan,nan,nan,nan,nan,nan,nan,nan,nan,nan
1903420000,6,1644.7319,1707.794,1646.2122,1711.1498,1500.0,1500.0,nan,nan,nan,nan,nan,nan,nan,nan,nan,nan
1903516000,6,1643.6399,1708.6509,1645.8838,1710.7263,1500.0,1500.0,nan,nan,nan,nan,nan,nan,nan,nan,nan,nan
1903616000,6,1644.5823,1709.7123,1644.0013,1711.8184,1500.0,1500.0,nan,nan,nan,nan,nan,nan,nan,nan,nan,nan
1903720000,6,1643.6057,1708.8524,1647.4354,1709.2604,1500.0,1500.0,nan,nan,nan,nan,nan,nan,nan,nan,nan,nan
1903820000,6,1644.8419,1710.5283,1647.3701,1710.9738,1500.0,1500.0,nan,nan,nan,nan,nan,nan,nan,nan,nan,nan
1903920000,6,1646.0505,1707.7972,1645.7092,1714.2949,1500.0,1500.0,nan,nan,nan,nan,nan,nan,nan,nan,nan,nan
1904020000,6,1644.9885,1708.5569,1648.583,1708.1583,1500.0,1500.0,nan,nan,nan,nan,nan,nan,nan,nan,nan,nan
1904120000,6,1643.6431,1709.3296,1645.18,1713.9175,1500.0,1500.0,nan,nan,nan,nan,nan,nan,nan,nan,nan,nan
1904216000,6,1645.1432,1710.2964,1649.8081,1712.2401,1500.0,1500.0,nan,nan,nan,nan,nan,nan,nan,nan,nan,nan
1904320000,6,1642.8652,1712.1025,1647.1987,1711.015,1500.0,1500.0,nan,nan,nan,nan,nan,nan,nan,nan,nan,nan
1904420000,6,1647.3273,1710.9982,1647.1892,1708.6349,1500.0,1500.0,nan,nan,nan,nan,nan,nan,nan,nan,nan,nan
1904520000,6,1641.7673,1710.9974,1647.67,1713.333,1500.0,1500.0,nan,nan,nan,nan,nan,nan,nan,nan,nan,nan
1904616000,6,1641.4375,1712.4696,1647.0771,1711.415,1500.0,1500.0,nan,nan,nan,nan,nan,nan,nan,nan,nan,nan
1904716000,6,1644.035,1707.8945,1644.5923,1710.8463,1500.0,1500.0,nan,nan,nan,nan,nan,nan,nan,nan,nan,nan
1904816000,6,1645.6901,1710.7009,1648.4916,1710.0858,1500.0,1500.0,nan,nan,nan,nan,nan,nan,nan,nan,nan,nan
1904920000,6,1641.2334,1712.4363,1645.2804,1715.0981,1500.0,1500.0,nan,nan,nan,nan,nan,nan,nan,nan,nan,nan
1905020000,6,1644.9675,1710.493,1647.7756,1713.6482,1500.0,1500.0,nan,nan,nan,nan,nan,nan,nan,nan,nan,nan
1905120000,6,1642.0195,1714.5874,1644.8524,1714.242,1500.0,1500.0,nan,nan,nan,nan,nan,nan,nan,nan,nan,nan
1905216000,6,1642.5211,1713.4431,1644.3076,1713.3013,1500.0,1500.0,nan,nan,nan,nan,nan,nan,nan,nan,nan,nan
1905320000,6,1645.708,1710.1654,1648.188,1711.55,1500.0,1500.0,nan,nan,nan,nan,nan,nan,nan,nan,nan,nan
1905416000,6,1646.3048,1708.5852,1647.4631,1710.6917,1500.0,1500.0,nan,nan,nan,nan,nan,nan,nan,nan,nan,nan
1905516000,6,1647.8771,1712.1211,1646.7119,1711.8053,1500.0,1500.0,nan,nan,nan,nan,nan,nan,nan,nan,nan,nan
1905620000,6,1648.0662,1710.9557,1648.789,1714.6658,1500.0,1500.0,nan,nan,nan,nan,nan,nan,nan,nan,nan,nan
1905716000,6,1645.6842,1712.4707,1646.7883,1713.2532,1500.0,1500.0,nan,nan,nan,nan,nan,nan,nan,nan,nan,nan
1905820000,6,1646.8582,1709.5237,1649.2899,1712.2301,1500.0,1500.0,nan,nan,nan,nan,nan,nan,nan,nan,nan,nan
1905920000,6,1645.0912,1711.0608,1647.8971,1712.2911,1500.0,1500.0,nan,nan,nan,nan,nan,nan,nan,nan,nan,nan
1906020000,6,1644.4597,1712.019,1649.5239,1710.5724,1500.0,1500.0,nan,nan,nan,nan,nan,nan,nan,nan,nan,nan
1906120000,6,1645.7523,1711.6069,1648.3997,1716.9539,1500.0,1500.0,nan,nan,nan,nan,nan,nan,nan,nan,nan,nan
1906216000,6,1648.2852,1711.7754,1650.3846,1714.9961,1500.0,1500.0,nan,nan,nan,nan,nan,nan,nan,nan,nan,nan
1906316000,6,1646.5612,1715.1736,1649.0654,1714.0334,1500.0,1500.0,nan,nan,nan,nan,nan,nan,nan,nan,nan,nan
1906420000,6,1648.4683,1713.6023,1649.8663,1716.7684,1500.0,1500.0,nan,nan,nan,nan,nan,nan,nan,nan,nan,nan
1906516000,6,1647.0154,1713.9618,1649.0312,1716.1729,1500.0,1500.0,nan,nan,nan,nan,nan,nan,nan,nan,nan,nan
1906616000,6,1649.5487,1711.44,1650.7786,1712.9135,1500.0,1500.0,nan,nan,nan,nan,nan,nan,nan,nan,nan,nan
1906720000,6,1647.3778,1714.1005,1653.1694,1713.6371,1500.0,1500.0,nan,nan,nan,nan,nan,nan,nan,nan,nan,nan
1906816000,6,1648.2489,1715.3375,1652.8922,1711.8342,1500.0,1500.0,nan,nan,nan,nan,nan,nan,nan,nan,nan,nan
1906916000,6,1649.8401,1712.6616,1652.7733,1717.0576,1500.0,1500.0,nan,nan,nan,nan,nan,nan,nan,nan,nan,nan
1907020000,6,1644.679,1715.1207,1649.1436,1718.3787,1500.0,1500.0,nan,nan,nan,nan,nan,nan,nan,nan,nan,nan
1907116000,6,1646.4124,1716.4048,1652.7623,1715.8387,1500.0,1500.0,nan,nan,nan,nan,nan,nan,nan,nan,nan,nan
1907216000,6,1647.4458,1713.9219,1651.382,1716.3015,1500.0,1500.0,nan,nan,nan,nan,nan,nan,nan,nan,nan,nan
1907316000,6,1648.7377,1714.4215,1651.8031,1715.8176,1500.0,1500.0,nan,nan,nan,nan,nan,nan,nan,nan,nan,nan
1907420000,6,1649.4525,1716.7921,1650.4242,1714.1442,1500.0,1500.0,nan,nan,nan,nan,nan,nan,nan,nan,nan,nan
1907520000,6,1647.8588,1716.5496,1647.7894,1719.4644,1500.0,1500.0,nan,nan,nan,nan,nan,nan,nan,nan,nan,nan
1907620000,6,1646.1727,1717.2585,1649.9202,1719.257,1500.0,1500.0,nan,nan,nan,nan,nan,nan,nan,nan,nan,nan
1907716000,6,1648.8585,1716.9421,1650.1365,1717.1023,1500.0,1500.0,nan,nan,nan,nan,nan,nan,nan,nan,nan,nan
1907816000,6,1647.9081,1715.729,1648.2883,1718.4684,1500.0,1500.0,nan,nan,nan,nan,nan,nan,nan,nan,nan,nan
1907916000,6,1653.0009,1714.9836,1651.0155,1717.7344,1500.0,1500.0,nan,nan,nan,nan,nan,nan,nan,nan,nan,nan
1908020000,6,1648.5244,1716.4541,1651.6652,1718.4978,1500.0,1500.0,nan,nan,nan,nan,nan,nan,nan,nan,nan,nan
1908116000,6,1650.3936,1715.3975,1651.7002,1715.6613,1500.0,1500.0,nan,nan,nan,nan,nan,nan,nan,nan,nan,nan
1908216000,6,1646.1582,1714.6588,1651.8253,1716.3418,1500.0,1500.0,nan,nan,nan,nan,nan,nan,nan,nan,nan,nan
1908316000,6,1648.8635,1715.8896,1651.6467,1718.5665,1500.0,1500.0,nan,nan,nan,nan,nan,nan,nan,nan,nan,nan
1908416000,6,1646.3783,1718.5862,1652.1052,1715.9547,1500.0,1500.0,nan,nan,nan,nan,nan,nan,nan,nan,nan,nan
1908516000,6,1649.641,1717.9563,1651.9846,1717.2408,1500.0,1500.0,nan,nan,nan,nan,nan,nan,nan,nan,nan,nan
1908620000,6,1648.5472,1716.9121,1649.9832,1718.0923,1500.0,1500.0,nan,nan,nan,nan,nan,nan,nan,nan,nan,nan
1908716000,6,1648.7861,1717.209,1651.8547,1719.7871,1500.0,1500.0,nan,nan,nan,nan,nan,nan,nan,nan,nan,nan
1908820000,6,1646.0281,1715.9681,1652.4182,1717.8452,1500.0,1500.0,nan,nan,nan,nan,nan,nan,nan,nan,nan,nan
1908916000,6,1648.7803,1717.3484,1648.3835,1720.6552,1500.0,1500.0,nan,nan,nan,nan,nan,nan,nan,nan,nan,nan
1909016000,6,1648.0553,1717.3574,1652.5398,1718.3015,1500.0,1500.0,nan,nan,nan,nan,nan,nan,nan,nan,nan,nan
1909116000,6,1649.3733,1720.3184,1652.5354,1721.3418,1500.0,1500.0,nan,nan,nan,nan,nan,nan,nan,nan,nan,nan
1909216000,6,1649.1669,1718.1418,1649.2238,1719.1896,1500.0,1500.0,nan,nan,nan,nan,nan,nan,nan,nan,nan,nan
1909316000,6,1650.3169,1713.0071,1652.2542,1714.8147,1500.0,1500.0,nan,nan,nan,nan,nan,nan,nan,nan,nan,nan
1909416000,6,1650.1821,1715.7767,1657.0161,1716.9573,1500.0,1500.0,nan,nan,nan,nan,nan,nan,nan,nan,nan,nan
1909516000,6,1647.1298,1716.9438,1648.5256,1717.9475,1500.0,1500.0,nan,nan,nan,nan,nan,nan,nan,nan,nan,nan
1909616000,6,1647.2415,1716.1511,1650.1536,1716.8254,1500.0,1500.0,nan,nan,nan,nan,nan,nan,nan,nan,nan,nan
1909716000,6,1651.8516,1713.3726,1651.8191,1717.4574,1500.0,1500.0,nan,nan,nan,nan,nan,nan,nan,nan,nan,nan
1909816000,6,1648.1226,1713.4692,1649.2417,1719.6833,1500.0,1500.0,nan,nan,nan,nan,nan,nan,nan,nan,nan,nan
1909920000,6,1647.9027,1718.4946,1648.3851,1717.6067,1500.0,1500.0,nan,nan,nan,nan,nan,nan,nan,nan,nan,nan
1910016000,6,1648.7322,1716.5952,1648.6985,1719.7092,1500.0,1500.0,nan,nan,nan,nan,nan,nan,nan,nan,nan,nan
1910116000,6,1650.4087,1714.3269,1652.2583,1715.7659,1500.0,1500.0,nan,nan,nan,nan,nan,nan,nan,nan,nan,nan
1910216000,6,1652.4972,1717.671,1654.8027,1719.8885,1500.0,1500.0,nan,nan,nan,nan,nan,nan,nan,nan,nan,nan
1910320000,6,1649.9761,1717.4028,1651.4238,1719.6947,1500.0,1500.0,nan,nan,nan,nan,nan,nan,nan,nan,nan,nan
1910420000,6,1649.7822,1718.446,1650.097,1721.5149,1500.0,1500.0,nan,nan,nan,nan,nan,nan,nan,nan,nan,nan
1910516000,6,1648.9183,1718.8628,1650.952,1720.6758,1500.0,1500.0,nan,nan,nan,nan,nan,nan,nan,nan,nan,nan
1910620000,6,1651.0007,1714.2605,1651.8805,1718.525,1500.0,1500.0,nan,nan,nan,nan,nan,nan,nan,nan,nan,nan
1910716000,6,1651.5391,1717.406,1654.1863,1717.3821,1500.0,1500.0,nan,nan,nan,nan,nan,nan,nan,nan,nan,nan
1910820000,6,1653.1135,1717.3894,1652.8998,1720.9694,1500.0,1500.0,nan,nan,nan,nan,nan,nan,nan,nan,nan,nan
1910916000,6,1653.1528,1720.0105,1656.6116,1721.8154,1500.0,1500.0,nan,nan,nan,nan,nan,nan,nan,nan,nan,nan
1911020000,6,1650.621,1719.8262,1652.1199,1724.9773,1500.0,1500.0,nan,nan,nan,nan,nan,nan,nan,nan,nan,nan
1911116000,6,1663.163,1684.52,1667.7369,1683.4055,1500.0,1500.0,nan,nan,nan,nan,nan,nan,nan,nan,nan,nan
1911216000,6,1652.1361,1686.8169,1650.4436,1686.3531,1500.0,1500.0,nan,nan,nan,nan,nan,nan,nan,nan,nan,nan
1911320000,6,1636.6316,1711.1265,1637.7665,1711.2313,1500.0,1500.0,nan,nan,nan,nan,nan,nan,nan,nan,nan,nan
1911420000,6,1615.5106,1714.4019,1614.6466,1716.5579,1500.0,1500.0,nan,nan,nan,nan,nan,nan,nan,nan,nan,nan
1911520000,6,1607.3536,1704.1368,1608.9047,1702.7471,1500.0,1500.0,nan,nan,nan,nan,nan,nan,nan,nan,nan,nan
1911616000,6,1617.0865,1679.6847,1616.5726,1679.6152,1500.0,1500.0,nan,nan,nan,nan,nan,nan,nan,nan,nan,nan
1911720000,6,1617.276,1668.4608,1620.2845,1669.0012,1500.0,1500.0,nan,nan,nan,nan,nan,nan,nan,nan,nan,nan
1911816000,6,1608.935,1672.108,1610.5593,1672.7994,1500.0,1500.0,nan,nan,nan,nan,nan,nan,nan,nan,nan,nan
1911920000,6,1608.3562,1669.4877,1607.5629,1668.9885,1500.0,1500.0,nan,nan,nan,nan,nan,nan,nan,nan,nan,nan
1912016000,6,1599.4807,1671.0038,1599.0563,1667.6221,1500.0,1500.0,nan,nan,nan,nan,nan,nan,nan,nan,nan,nan
1912116000,6,1604.2904,1654.4313,1601.5356,1657.3873,1500.0,1500.0,nan,nan,nan,nan,nan,nan,nan,nan,nan,nan
1912216000,6,1598.0198,1652.0226,1595.7062,1654.322,1500.0,1500.0,nan,nan,nan,nan,nan,nan,nan,nan,nan,nan
1912316000,6,1594.9583,1643.9531,1596.0183,1644.8204,1500.0,1500.0,nan,nan,nan,nan,nan,nan,nan,nan,nan,nan
1912416000,6,1590.6672,1646.704,1592.1702,1645.3688,1500.0,1500.0,nan,nan,nan,nan,nan,nan,nan,nan,nan,nan
1912516000,6,1589.4675,1638.8752,1589.4785,1638.5806,1500.0,1500.0,nan,nan,nan,nan,nan,nan,nan,nan,nan,nan
1912616000,6,1588.9049,1631.2047,1585.9583,1632.5193,1500.0,1500.0,nan,nan,nan,nan,nan,nan,nan,nan,nan,nan
1912720000,6,1588.5946,1625.0088,1591.5088,1626.7473,1500.0,1500.0,nan,nan,nan,nan,nan,nan,nan,nan,nan,nan
1912816000,6,1583.9298,1629.5703,1585.7916,1625.9434,1500.0,1500.0,nan,nan,nan,nan,nan,nan,nan,nan,nan,nan
1912920000,6,1582.3247,1628.9044,1581.123,1632.1168,1500.0,1500.0,nan,nan,nan,nan,nan,nan,nan,nan,nan,nan
1913020000,6,1582.6161,1624.5464,1581.9778,1622.3931,1500.0,1500.0,nan,nan,nan,nan,nan,nan,nan,nan,nan,nan
1913116000,6,1585.1793,1617.5454,1585.381,1613.5961,1500.0,1500.0,nan,nan,nan,nan,nan,nan,nan,nan,nan,nan
1913216000,6,1579.1405,1615.7778,1576.9207,1616.9374,1500.0,1500.0,nan,nan,nan,nan,nan,nan,nan,nan,nan,nan
1913316000,6,1577.1528,1611.1122,1578.6993,1612.7219,1500.0,1500.0,nan,nan,nan,nan,nan,nan,nan,nan,nan,nan
1913416000,6,1575.034,1609.806,1580.6926,1606.6273,1500.0,1500.0,nan,nan,nan,nan,nan,nan,nan,nan,nan,nan
1913520000,6,1578.6082,1605.8369,1577.3864,1603.8584,1500.0,1500.0,nan,nan,nan,nan,nan,nan,nan,nan,nan,nan
1913616000,6,1578.9427,1605.4667,1576.6461,1607.756,1500.0,1500.0,nan,nan,nan,nan,nan,nan,nan,nan,nan,nan
1913716000,6,1574.3041,1604.5072,1575.6499,1601.347,1500.0,1500.0,nan,nan,nan,nan,nan,nan,nan,nan,nan,nan
1913820000,6,1574.3743,1603.8064,1572.9498,1605.6545,1500.0,1500.0,nan,nan,nan,nan,nan,nan,nan,nan,nan,nan
1913916000,6,1573.8911,1606.1843,1578.2909,1601.1718,1500.0,1500.0,nan,nan,nan,nan,nan,nan,nan,nan,nan,nan
1914016000,6,1574.1638,1598.3807,1578.4321,1594.7126,1500.0,1500.0,nan,nan,nan,nan,nan,nan,nan,nan,nan,nan
1914116000,6,1575.4579,1599.0446,1578.5209,1592.3346,1500.0,1500.0,nan,nan,nan,nan,nan,nan,nan,nan,nan,nan
1914216000,6,1582.3594,1593.7601,1639.2534,1535.8462,1500.0,1500.0,nan,nan,nan,nan,nan,nan,nan,nan,nan,nan
1914320000,6,1607.9806,1570.7119,1446.2949,1699.7168,1500.0,1500.0,nan,nan,nan,nan,nan,nan,nan,nan,nan,nan
1914420000,6,1378.9037,1605.5981,1567.8108,1476.943,1500.0,1500.0,nan,nan,nan,nan,nan,nan,nan,nan,nan,nan
1914516000,6,1495.841,1650.5532,1599.5669,1542.2277,1500.0,1500.0,nan,nan,nan,nan,nan,nan,nan,nan,nan,nan
1914616000,6,1599.8645,1594.1716,1581.4987,1603.5616,1500.0,1500.0,nan,nan,nan,nan,nan,nan,nan,nan,nan,nan
1914716000,6,1604.9935,1551.3967,1558.721,1602.7421,1500.0,1500.0,nan,nan,nan,nan,nan,nan,nan,nan,nan,nan
1914816000,6,1586.1201,1561.2234,1564.1311,1596.051,1500.0,1500.0,nan,nan,nan,nan,nan,nan,nan,nan,nan,nan
1914916000,6,1584.2928,1568.8529,1572.5266,1586.0599,1500.0,1500.0,nan,nan,nan,nan,nan,nan,nan,nan,nan,nan
1915020000,6,1574.9128,1577.7808,1569.2904,1580.3014,1500.0,1500.0,nan,nan,nan,nan,nan,nan,nan,nan,nan,nan
1915116000,6,1576.9618,1579.3851,1568.3721,1581.0939,1500.0,1500.0,nan,nan,nan,nan,nan,nan,nan,nan,nan,nan
1915216000,6,1575.0276,1577.5308,1565.849,1583.1096,1500.0,1500.0,nan,nan,nan,nan,nan,nan,nan,nan,nan,nan
1915316000,6,1579.1885,1577.0796,1571.3782,1580.8481,1500.0,1500.0,nan,nan,nan,nan,nan,nan,nan,nan,nan,nan
