timestamp,ref_timestamp,ref_lat,ref_lon,x,y,z,delta_xy[0],delta_xy[1],delta_z,vx,vy,vz,z_deriv,delta_vxy[0],delta_vxy[1],delta_vz,ax,ay,az,yaw,ref_alt,dist_bottom,dist_bottom_rate,eph,epv,evh,evv,vxy_max,vz_max,hagl_min,hagl_max,xy_valid,z_valid,v_xy_valid,v_z_valid,xy_reset_counter,z_reset_counter,vxy_reset_counter,vz_reset_counter,xy_global,z_global,dist_bottom_valid
1859220000,0,47.3977508,8.5456074,0.15567291,-0.1956978,0.72598267,0.0,0.0,0.0,0.0,0.0,0.0,0.0,0.0,0.0,0.0,0.0,0.0,0.0,0.41095158,488.83002,0.0,0.0,0.0,0.0,0.0,0.0,inf,inf,inf,inf,1,1,1,1,0,0,0,0,1,1,0
1859320000,0,47.3977508,8.5456074,0.15567291,-0.1956978,0.72598267,0.0,0.0,0.0,0.0,0.0,0.0,0.0,0.0,0.0,0.0,0.0,0.0,0.0,0.41095158,488.83002,0.0,0.0,0.0,0.0,0.0,0.0,inf,inf,inf,inf,1,1,1,1,0,0,0,0,1,1,0
1859420000,0,47.3977508,8.5456074,0.15567291,-0.1956978,0.72598267,0.0,0.0,0.0,0.0,0.0,0.0,0.0,0.0,0.0,0.0,0.0,0.0,0.0,0.41095158,488.83002,0.0,0.0,0.0,0.0,0.0,0.0,inf,inf,inf,inf,1,1,1,1,0,0,0,0,1,1,0
1859516000,0,47.3977508,8.5456074,0.15567291,-0.1956978,0.72598267,0.0,0.0,0.0,0.0,0.0,0.0,0.0,0.0,0.0,0.0,0.0,0.0,0.0,0.41095158,488.83002,0.0,0.0,0.0,0.0,0.0,0.0,inf,inf,inf,inf,1,1,1,1,0,0,0,0,1,1,0
1859620000,0,47.3977508,8.5456074,0.15567291,-0.1956978,0.72598267,0.0,0.0,0.0,0.0,0.0,0.0,0.0,0.0,0.0,0.0,0.0,0.0,0.0,0.41095158,488.83002,0.0,0.0,0.0,0.0,0.0,0.0,inf,inf,inf,inf,1,1,1,1,0,0,0,0,1,1,0
1859716000,0,47.3977508,8.5456074,0.15567291,-0.1956978,0.72598267,0.0,0.0,0.0,0.0,0.0,0.0,0.0,0.0,0.0,0.0,0.0,0.0,0.0,0.41095158,488.83002,0.0,0.0,0.0,0.0,0.0,0.0,inf,inf,inf,inf,1,1,1,1,0,0,0,0,1,1,0
1859816000,0,47.3977508,8.5456074,0.15567291,-0.1956978,0.72598267,0.0,0.0,0.0,0.0,0.0,0.0,0.0,0.0,0.0,0.0,0.0,0.0,0.0,0.41095158,488.83002,0.0,0.0,0.0,0.0,0.0,0.0,inf,inf,inf,inf,1,1,1,1,0,0,0,0,1,1,0
1859920000,0,47.3977508,8.5456074,0.15567291,-0.1956978,0.72598267,0.0,0.0,0.0,0.0,0.0,0.0,0.0,0.0,0.0,0.0,0.0,0.0,0.0,0.41095158,488.83002,0.0,0.0,0.0,0.0,0.0,0.0,inf,inf,inf,inf,1,1,1,1,0,0,0,0,1,1,0
1860020000,0,47.3977508,8.5456074,0.15567291,-0.1956978,0.72598267,0.0,0.0,0.0,0.0,0.0,0.0,0.0,0.0,0.0,0.0,0.0,0.0,0.0,0.41095158,488.83002,0.0,0.0,0.0,0.0,0.0,0.0,inf,inf,inf,inf,1,1,1,1,0,0,0,0,1,1,0
1860120000,0,47.3977508,8.5456074,0.15567291,-0.1956978,0.72598267,0.0,0.0,0.0,0.0,0.0,0.0,0.0,0.0,0.0,0.0,0.0,0.0,0.0,0.41095158,488.83002,0.0,0.0,0.0,0.0,0.0,0.0,inf,inf,inf,inf,1,1,1,1,0,0,0,0,1,1,0
1860220000,0,47.3977508,8.5456074,0.15567291,-0.1956978,0.72598267,0.0,0.0,0.0,0.0,0.0,0.0,0.0,0.0,0.0,0.0,0.0,0.0,0.0,0.41095158,488.83002,0.0,0.0,0.0,0.0,0.0,0.0,inf,inf,inf,inf,1,1,1,1,0,0,0,0,1,1,0
1860320000,0,47.3977508,8.5456074,0.15567291,-0.1956978,0.72598267,0.0,0.0,0.0,0.0,0.0,0.0,0.0,0.0,0.0,0.0,0.0,0.0,0.0,0.41095152,488.83002,0.0,0.0,0.0,0.0,0.0,0.0,inf,inf,inf,inf,1,1,1,1,0,0,0,0,1,1,0
1860420000,0,47.3977508,8.5456074,0.15567291,-0.1956978,0.72598267,0.0,0.0,0.0,0.0,0.0,0.0,0.0,0.0,0.0,0.0,0.0,0.0,0.0,0.41095152,488.83002,0.0,0.0,0.0,0.0,0.0,0.0,inf,inf,inf,inf,1,1,1,1,0,0,0,0,1,1,0
1860520000,0,47.3977508,8.5456074,0.15567291,-0.1956978,0.72598267,0.0,0.0,0.0,0.0,0.0,0.0,0.0,0.0,0.0,0.0,0.0,0.0,0.0,0.41095155,488.83002,0.0,0.0,0.0,0.0,0.0,0.0,inf,inf,inf,inf,1,1,1,1,0,0,0,0,1,1,0
1860620000,0,47.3977508,8.5456074,0.15567291,-0.1956978,0.72598267,0.0,0.0,0.0,0.0,0.0,0.0,0.0,0.0,0.0,0.0,0.0,0.0,0.0,0.41095155,488.83002,0.0,0.0,0.0,0.0,0.0,0.0,inf,inf,inf,inf,1,1,1,1,0,0,0,0,1,1,0
1860716000,0,47.3977508,8.5456074,0.15567291,-0.1956978,0.72598267,0.0,0.0,0.0,0.0,0.0,0.0,0.0,0.0,0.0,0.0,0.0,0.0,0.0,0.41095155,488.83002,0.0,0.0,0.0,0.0,0.0,0.0,inf,inf,inf,inf,1,1,1,1,0,0,0,0,1,1,0
1860816000,0,47.3977508,8.5456074,0.15567291,-0.1956978,0.72598267,0.0,0.0,0.0,0.0,0.0,0.0,0.0,0.0,0.0,0.0,0.0,0.0,0.0,0.41095155,488.83002,0.0,0.0,0.0,0.0,0.0,0.0,inf,inf,inf,inf,1,1,1,1,0,0,0,0,1,1,0
1860920000,0,47.3977508,8.5456074,0.15567291,-0.1956978,0.72598267,0.0,0.0,0.0,0.0,0.0,0.0,0.0,0.0,0.0,0.0,0.0,0.0,0.0,0.41095152,488.83002,0.0,0.0,0.0,0.0,0.0,0.0,inf,inf,inf,inf,1,1,1,1,0,0,0,0,1,1,0
1861016000,0,47.3977508,8.5456074,0.15567291,-0.1956978,0.72598267,0.0,0.0,0.0,0.0,0.0,0.0,0.0,0.0,0.0,0.0,0.0,0.0,0.0,0.41095218,488.83002,0.0,0.0,0.0,0.0,0.0,0.0,inf,inf,inf,inf,1,1,1,1,0,0,0,0,1,1,0
1861120000,0,47.3977508,8.5456074,0.15567291,-0.1956978,0.71899414,0.0,0.0,0.0,0.0,0.0,-0.13,0.0,0.0,0.0,0.0,0.0,0.0,0.0,0.4110744,488.83002,0.0,0.0,0.0,0.0,0.0,0.0,inf,inf,inf,inf,1,1,1,1,0,0,0,0,1,1,0
1861220000,0,47.3977508,8.5456074,0.15567291,-0.1956978,0.69699097,0.0,0.0,0.0,0.02,0.01,-0.26999998,0.0,0.0,0.0,0.0,0.0,0.0,0.0,0.4112273,488.83002,0.0,0.0,0.0,0.0,0.0,0.0,inf,inf,inf,inf,1,1,1,1,0,0,0,0,1,1,0
1861320000,0,47.3977508,8.5456074,0.15567291,-0.1956978,0.66400146,0.0,0.0,0.0,0.03,0.01,-0.39,0.0,0.0,0.0,0.0,0.0,0.0,0.0,0.4113645,488.83002,0.0,0.0,0.0,0.0,0.0,0.0,inf,inf,inf,inf,1,1,1,1,0,0,0,0,1,1,0
1861420000,0,47.3977508,8.5456074,0.15567291,-0.1956978,0.6170044,0.0,0.0,0.0,0.04,0.02,-0.53,0.0,0.0,0.0,0.0,0.0,0.0,0.0,0.41146347,488.83002,0.0,0.0,0.0,0.0,0.0,0.0,inf,inf,inf,inf,1,1,1,1,0,0,0,0,1,1,0
1861520000,0,47.3977508,8.5456074,0.1667924,-0.18817095,0.55700684,0.0,0.0,0.0,0.049999997,0.02,-0.65999997,0.0,0.0,0.0,0.0,0.0,0.0,0.0,0.41151208,488.83002,0.0,0.0,0.0,0.0,0.0,0.0,inf,inf,inf,inf,1,1,1,1,0,0,0,0,1,1,0
1861616000,0,47.3977508,8.5456074,0.1667924,-0.18817095,0.4869995,0.0,0.0,0.0,0.049999997,0.02,-0.78,0.0,0.0,0.0,0.0,0.0,0.0,0.0,0.41158527,488.83002,0.0,0.0,0.0,0.0,0.0,0.0,inf,inf,inf,inf,1,1,1,1,0,0,0,0,1,1,0
1861720000,0,47.3977508,8.5456074,0.17791189,-0.18064412,0.39797974,0.0,0.0,0.0,0.049999997,0.03,-0.90999997,0.0,0.0,0.0,0.0,0.0,0.0,0.0,0.41163132,488.83002,0.0,0.0,0.0,0.0,0.0,0.0,inf,inf,inf,inf,1,1,1,1,0,0,0,0,1,1,0
1861816000,0,47.3977508,8.5456074,0.17791189,-0.18064412,0.3079834,0.0,0.0,0.0,0.049999997,0.03,-1.04,0.0,0.0,0.0,0.0,0.0,0.0,0.0,0.41163725,488.83002,0.0,0.0,0.0,0.0,0.0,0.0,inf,inf,inf,inf,1,1,1,1,0,0,0,0,1,1,0
1861920000,0,47.3977508,8.5456074,0.18903138,-0.18064412,0.18798828,0.0,0.0,0.0,0.049999997,0.03,-1.17,0.0,0.0,0.0,0.0,0.0,0.0,0.0,0.41166034,488.83002,0.0,0.0,0.0,0.0,0.0,0.0,inf,inf,inf,inf,1,1,1,1,0,0,0,0,1,1,0
1862020000,0,47.3977508,8.5456074,0.18903138,-0.17311728,0.069000244,0.0,0.0,0.0,0.049999997,0.03,-1.3,0.0,0.0,0.0,0.0,0.0,0.0,0.0,0.41175655,488.83002,0.0,0.0,0.0,0.0,0.0,0.0,inf,inf,inf,inf,1,1,1,1,0,0,0,0,1,1,0
1862116000,0,47.3977508,8.5456074,0.20015088,-0.17311728,-0.067993164,0.0,0.0,0.0,0.049999997,0.03,-1.42,0.0,0.0,0.0,0.0,0.0,0.0,0.0,0.41178057,488.83002,0.0,0.0,0.0,0.0,0.0,0.0,inf,inf,inf,inf,1,1,1,1,0,0,0,0,1,1,0
1862216000,0,47.3977508,8.5456074,0.20015088,-0.16559045,-0.21801758,0.0,0.0,0.0,0.04,0.03,-1.55,0.0,0.0,0.0,0.0,0.0,0.0,0.0,0.41166884,488.83002,0.0,0.0,0.0,0.0,0.0,0.0,inf,inf,inf,inf,1,1,1,1,0,0,0,0,1,1,0
1862320000,0,47.3977508,8.5456074,0.21127036,-0.16559045,-0.3869934,0.0,0.0,0.0,0.049999997,0.04,-1.6899999,0.0,0.0,0.0,0.0,0.0,0.0,0.0,0.41159737,488.83002,0.0,0.0,0.0,0.0,0.0,0.0,inf,inf,inf,inf,1,1,1,1,0,0,0,0,1,1,0
1862420000,0,47.3977508,8.5456074,0.21127036,-0.1580636,-0.5630188,0.0,0.0,0.0,0.04,0.04,-1.8199999,0.0,0.0,0.0,0.0,0.0,0.0,0.0,0.41162395,488.83002,0.0,0.0,0.0,0.0,0.0,0.0,inf,inf,inf,inf,1,1,1,1,0,0,0,0,1,1,0
1862516000,0,47.3977508,8.5456074,0.22238986,-0.15053676,-0.74401855,0.0,0.0,0.0,0.04,0.04,-1.9399999,0.0,0.0,0.0,0.0,0.0,0.0,0.0,0.41154438,488.83002,0.0,0.0,0.0,0.0,0.0,0.0,inf,inf,inf,inf,1,1,1,1,0,0,0,0,1,1,0
1862616000,0,47.3977508,8.5456074,0.22238986,-0.15053676,-0.9460144,0.0,0.0,0.0,0.04,0.04,-2.08,0.0,0.0,0.0,0.0,0.0,0.0,0.0,0.4115005,488.83002,0.0,0.0,0.0,0.0,0.0,0.0,inf,inf,inf,inf,1,1,1,1,0,0,0,0,1,1,0
1862720000,0,47.3977508,8.5456074,0.22238986,-0.14300993,-1.1610107,0.0,0.0,0.0,0.04,0.04,-2.21,0.0,0.0,0.0,0.0,0.0,0.0,0.0,0.4114711,488.83002,0.0,0.0,0.0,0.0,0.0,0.0,inf,inf,inf,inf,1,1,1,1,0,0,0,0,1,1,0
1862816000,0,47.3977508,8.5456074,0.23350935,-0.14300993,-1.3880005,0.0,0.0,0.0,0.04,0.03,-2.33,0.0,0.0,0.0,0.0,0.0,0.0,0.0,0.41072735,488.83002,0.0,0.0,0.0,0.0,0.0,0.0,inf,inf,inf,inf,1,1,1,1,0,0,0,0,1,1,0
1862920000,0,47.3977508,8.5456074,0.23350935,-0.13548309,-1.6390076,0.0,0.0,0.0,0.04,0.03,-2.47,0.0,0.0,0.0,0.0,0.0,0.0,0.0,0.4095911,488.83002,0.0,0.0,0.0,0.0,0.0,0.0,inf,inf,inf,inf,1,1,1,1,0,0,0,0,1,1,0
1863020000,0,47.3977508,8.5456074,0.23350935,-0.13548309,-1.8890076,0.0,0.0,0.0,0.03,0.03,-2.48,0.0,0.0,0.0,0.0,0.0,0.0,0.0,0.4088307,488.83002,0.0,0.0,0.0,0.0,0.0,0.0,inf,inf,inf,inf,1,1,1,1,0,0,0,0,1,1,0
1863120000,0,47.3977508,8.5456074,0.24462885,-0.12795626,-2.130005,0.0,0.0,0.0,0.03,0.03,-2.34,0.0,0.0,0.0,0.0,0.0,0.0,0.0,0.40852553,488.83002,0.0,0.0,0.0,0.0,0.0,0.0,inf,inf,inf,inf,1,1,1,1,0,0,0,0,1,1,0
1863220000,0,47.3977508,8.5456074,0.24462885,-0.12795626,-2.3590088,0.0,0.0,0.0,0.03,0.03,-2.26,0.0,0.0,0.0,0.0,0.0,0.0,0.0,0.4086265,488.83002,0.0,0.0,0.0,0.0,0.0,0.0,inf,inf,inf,inf,1,1,1,1,0,0,0,0,1,1,0
1863320000,0,47.3977508,8.5456074,0.24462885,-0.12042941,-2.5820007,0.0,0.0,0.0,0.02,0.03,-2.19,0.0,0.0,0.0,0.0,0.0,0.0,0.0,0.40915698,488.83002,0.0,0.0,0.0,0.0,0.0,0.0,inf,inf,inf,inf,1,1,1,1,0,0,0,0,1,1,0
1863416000,0,47.3977508,8.5456074,0.25574833,-0.12042941,-2.7900085,0.0,0.0,0.0,0.02,0.03,-2.12,0.0,0.0,0.0,0.0,0.0,0.0,0.0,0.40986055,488.83002,0.0,0.0,0.0,0.0,0.0,0.0,inf,inf,inf,inf,1,1,1,1,0,0,0,0,1,1,0
1863520000,0,47.3977508,8.5456074,0.25574833,-0.112902574,-3.0079956,0.0,0.0,0.0,0.02,0.03,-2.06,0.0,0.0,0.0,0.0,0.0,0.0,0.0,0.41071457,488.83002,0.0,0.0,0.0,0.0,0.0,0.0,inf,inf,inf,inf,1,1,1,1,0,0,0,0,1,1,0
1863620000,0,47.3977508,8.5456074,0.25574833,-0.112902574,-3.2120056,0.0,0.0,0.0,0.02,0.03,-2.01,0.0,0.0,0.0,0.0,0.0,0.0,0.0,0.41162732,488.83002,0.0,0.0,0.0,0.0,0.0,0.0,inf,inf,inf,inf,1,1,1,1,0,0,0,0,1,1,0
1863716000,0,47.3977508,8.5456074,0.25574833,-0.112902574,-3.4030151,0.0,0.0,0.0,0.01,0.03,-1.9599999,0.0,0.0,0.0,0.0,0.0,0.0,0.0,0.41254526,488.83002,0.0,0.0,0.0,0.0,0.0,0.0,inf,inf,inf,inf,1,1,1,1,0,0,0,0,1,1,0
1863816000,0,47.3977508,8.5456074,0.25574833,-0.10537574,-3.5960083,0.0,0.0,0.0,0.01,0.03,-1.91,0.0,0.0,0.0,0.0,0.0,0.0,0.0,0.41338736,488.83002,0.0,0.0,0.0,0.0,0.0,0.0,inf,inf,inf,inf,1,1,1,1,0,0,0,0,1,1,0
1863916000,0,47.3977508,8.5456074,0.25574833,-0.10537574,-3.7780151,0.0,0.0,0.0,0.01,0.03,-1.87,0.0,0.0,0.0,0.0,0.0,0.0,0.0,0.41398188,488.83002,0.0,0.0,0.0,0.0,0.0,0.0,inf,inf,inf,inf,1,1,1,1,0,0,0,0,1,1,0
1864016000,0,47.3977508,8.5456074,0.26686782,-0.0978489,-3.9710083,0.0,0.0,0.0,0.01,0.03,-1.8299999,0.0,0.0,0.0,0.0,0.0,0.0,0.0,0.41424555,488.83002,0.0,0.0,0.0,0.0,0.0,0.0,inf,inf,inf,inf,1,1,1,1,0,0,0,0,1,1,0
1864120000,0,47.3977508,8.5456074,0.26686782,-0.0978489,-4.1600037,0.0,0.0,0.0,0.01,0.02,-1.8,0.0,0.0,0.0,0.0,0.0,0.0,0.0,0.41448975,488.83002,0.0,0.0,0.0,0.0,0.0,0.0,inf,inf,inf,inf,1,1,1,1,0,0,0,0,1,1,0
1864220000,0,47.3977508,8.5456074,0.26686782,-0.0978489,-4.3399963,0.0,0.0,0.0,0.01,0.02,-1.77,0.0,0.0,0.0,0.0,0.0,0.0,0.0,0.41454294,488.83002,0.0,0.0,0.0,0.0,0.0,0.0,inf,inf,inf,inf,1,1,1,1,0,0,0,0,1,1,0
1864316000,0,47.3977508,8.5456074,0.26686782,-0.09032206,-4.5090027,0.0,0.0,0.0,0.01,0.02,-1.75,0.0,0.0,0.0,0.0,0.0,0.0,0.0,0.41459414,488.83002,0.0,0.0,0.0,0.0,0.0,0.0,inf,inf,inf,inf,1,1,1,1,0,0,0,0,1,1,0
1864420000,0,47.3977508,8.5456074,0.26686782,-0.09032206,-4.6900024,0.0,0.0,0.0,0.01,0.02,-1.73,0.0,0.0,0.0,0.0,0.0,0.0,0.0,0.41466254,488.83002,0.0,0.0,0.0,0.0,0.0,0.0,inf,inf,inf,inf,1,1,1,1,0,0,0,0,1,1,0
1864520000,0,47.3977508,8.5456074,0.26686782,-0.082795225,-4.8630066,0.0,0.0,0.0,0.01,0.02,-1.7099999,0.0,0.0,0.0,0.0,0.0,0.0,0.0,0.4146962,488.83002,0.0,0.0,0.0,0.0,0.0,0.0,inf,inf,inf,inf,1,1,1,1,0,0,0,0,1,1,0
1864620000,0,47.3977508,8.5456074,0.26686782,-0.082795225,-5.03302,0.0,0.0,0.0,0.01,0.02,-1.6899999,0.0,0.0,0.0,0.0,0.0,0.0,0.0,0.4145828,488.83002,0.0,0.0,0.0,0.0,0.0,0.0,inf,inf,inf,inf,1,1,1,1,0,0,0,0,1,1,0
1864720000,0,47.3977508,8.5456074,0.26686782,-0.082795225,-5.2010193,0.0,0.0,0.0,0.01,0.02,-1.67,0.0,0.0,0.0,0.0,0.0,0.0,0.0,0.41449162,488.83002,0.0,0.0,0.0,0.0,0.0,0.0,inf,inf,inf,inf,1,1,1,1,0,0,0,0,1,1,0
1864820000,0,47.3977508,8.5456074,0.27798733,-0.07526838,-5.3680115,0.0,0.0,0.0,0.01,0.02,-1.66,0.0,0.0,0.0,0.0,0.0,0.0,0.0,0.41437453,488.83002,0.0,0.0,0.0,0.0,0.0,0.0,inf,inf,inf,inf,1,1,1,1,0,0,0,0,1,1,0
1864916000,0,47.3977508,8.5456074,0.27798733,-0.07526838,-5.527008,0.0,0.0,0.0,0.01,0.02,-1.64,0.0,0.0,0.0,0.0,0.0,0.0,0.0,0.41426796,488.83002,0.0,0.0,0.0,0.0,0.0,0.0,inf,inf,inf,inf,1,1,1,1,0,0,0,0,1,1,0
1865020000,0,47.3977508,8.5456074,0.27798733,-0.07526838,-5.697998,0.0,0.0,0.0,0.01,0.02,-1.63,0.0,0.0,0.0,0.0,0.0,0.0,0.0,0.41419348,488.83002,0.0,0.0,0.0,0.0,0.0,0.0,inf,inf,inf,inf,1,1,1,1,0,0,0,0,1,1,0
1865120000,0,47.3977508,8.5456074,0.27798733,-0.06774154,-5.860016,0.0,0.0,0.0,0.01,0.02,-1.61,0.0,0.0,0.0,0.0,0.0,0.0,0.0,0.41417065,488.83002,0.0,0.0,0.0,0.0,0.0,0.0,inf,inf,inf,inf,1,1,1,1,0,0,0,0,1,1,0
1865220000,0,47.3977508,8.5456074,0.27798733,-0.06774154,-6.022003,0.0,0.0,0.0,0.01,0.02,-1.61,0.0,0.0,0.0,0.0,0.0,0.0,0.0,0.41421136,488.83002,0.0,0.0,0.0,0.0,0.0,0.0,inf,inf,inf,inf,1,1,1,1,0,0,0,0,1,1,0
1865320000,0,47.3977508,8.5456074,0.27798733,-0.06774154,-6.175995,0.0,0.0,0.0,0.01,0.02,-1.5999999,0.0,0.0,0.0,0.0,0.0,0.0,0.0,0.4142135,488.83002,0.0,0.0,0.0,0.0,0.0,0.0,inf,inf,inf,inf,1,1,1,1,0,0,0,0,1,1,0
1865420000,0,47.3977508,8.5456074,0.27798733,-0.060214706,-6.3430176,0.0,0.0,0.0,0.01,0.02,-1.5899999,0.0,0.0,0.0,0.0,0.0,0.0,0.0,0.41421774,488.83002,0.0,0.0,0.0,0.0,0.0,0.0,inf,inf,inf,inf,1,1,1,1,0,0,0,0,1,1,0
1865520000,0,47.3977508,8.5456074,0.27798733,-0.060214706,-6.5030212,0.0,0.0,0.0,0.01,0.02,-1.5999999,0.0,0.0,0.0,0.0,0.0,0.0,0.0,0.41435468,488.83002,0.0,0.0,0.0,0.0,0.0,0.0,inf,inf,inf,inf,1,1,1,1,0,0,0,0,1,1,0
1865620000,0,47.3977508,8.5456074,0.27798733,-0.060214706,-6.6629944,0.0,0.0,0.0,0.0,0.02,-1.5899999,0.0,0.0,0.0,0.0,0.0,0.0,0.0,0.41445,488.83002,0.0,0.0,0.0,0.0,0.0,0.0,inf,inf,inf,inf,1,1,1,1,0,0,0,0,1,1,0
1865720000,0,47.3977508,8.5456074,0.28910682,-0.060214706,-6.8220215,0.0,0.0,0.0,0.0,0.02,-1.5699999,0.0,0.0,0.0,0.0,0.0,0.0,0.0,0.41446075,488.83002,0.0,0.0,0.0,0.0,0.0,0.0,inf,inf,inf,inf,1,1,1,1,0,0,0,0,1,1,0
1865820000,0,47.3977508,8.5456074,0.28910682,-0.05268787,-6.979004,0.0,0.0,0.0,0.0,0.02,-1.56,0.0,0.0,0.0,0.0,0.0,0.0,0.0,0.4143692,488.83002,0.0,0.0,0.0,0.0,0.0,0.0,inf,inf,inf,inf,1,1,1,1,0,0,0,0,1,1,0
1865920000,0,47.3977508,8.5456074,0.28910682,-0.05268787,-7.13501,0.0,0.0,0.0,0.0,0.01,-1.55,0.0,0.0,0.0,0.0,0.0,0.0,0.0,0.4143196,488.83002,0.0,0.0,0.0,0.0,0.0,0.0,inf,inf,inf,inf,1,1,1,1,0,0,0,0,1,1,0
1866016000,0,47.3977508,8.5456074,0.28910682,-0.05268787,-7.2839966,0.0,0.0,0.0,0.0,0.01,-1.54,0.0,0.0,0.0,0.0,0.0,0.0,0.0,0.41437122,488.83002,0.0,0.0,0.0,0.0,0.0,0.0,inf,inf,inf,inf,1,1,1,1,0,0,0,0,1,1,0
1866120000,0,47.3977508,8.5456074,0.28910682,-0.04516103,-7.4440002,0.0,0.0,0.0,0.0,0.01,-1.53,0.0,0.0,0.0,0.0,0.0,0.0,0.0,0.41452897,488.83002,0.0,0.0,0.0,0.0,0.0,0.0,inf,inf,inf,inf,1,1,1,1,0,0,0,0,1,1,0
1866220000,0,47.3977508,8.5456074,0.28910682,-0.04516103,-7.5910034,0.0,0.0,0.0,0.0,0.01,-1.52,0.0,0.0,0.0,0.0,0.0,0.0,0.0,0.41466138,488.83002,0.0,0.0,0.0,0.0,0.0,0.0,inf,inf,inf,inf,1,1,1,1,0,0,0,0,1,1,0
1866316000,0,47.3977508,8.5456074,0.28910682,-0.04516103,-7.7420044,0.0,0.0,0.0,0.0,0.01,-1.5,0.0,0.0,0.0,0.0,0.0,0.0,0.0,0.4146869,488.83002,0.0,0.0,0.0,0.0,0.0,0.0,inf,inf,inf,inf,1,1,1,1,0,0,0,0,1,1,0
1866416000,0,47.3977508,8.5456074,0.27798733,-0.04516103,-7.8930054,0.0,0.0,0.0,0.0,0.01,-1.49,0.0,0.0,0.0,0.0,0.0,0.0,0.0,0.4147205,488.83002,0.0,0.0,0.0,0.0,0.0,0.0,inf,inf,inf,inf,1,1,1,1,0,0,0,0,1,1,0
1866520000,0,47.3977508,8.5456074,0.27798733,-0.03763419,-8.048004,0.0,0.0,0.0,-0.01,0.01,-1.48,0.0,0.0,0.0,0.0,0.0,0.0,0.0,0.41480458,488.83002,0.0,0.0,0.0,0.0,0.0,0.0,inf,inf,inf,inf,1,1,1,1,0,0,0,0,1,1,0
1866620000,0,47.3977508,8.5456074,0.27798733,-0.03763419,-8.190002,0.0,0.0,0.0,-0.01,0.01,-1.4699999,0.0,0.0,0.0,0.0,0.0,0.0,0.0,0.4149515,488.83002,0.0,0.0,0.0,0.0,0.0,0.0,inf,inf,inf,inf,1,1,1,1,0,0,0,0,1,1,0
1866716000,0,47.3977508,8.5456074,0.27798733,-0.03763419,-8.338013,0.0,0.0,0.0,-0.01,0.01,-1.4699999,0.0,0.0,0.0,0.0,0.0,0.0,0.0,0.4151208,488.83002,0.0,0.0,0.0,0.0,0.0,0.0,inf,inf,inf,inf,1,1,1,1,0,0,0,0,1,1,0
1866820000,0,47.3977508,8.5456074,0.27798733,-0.03763419,-8.490997,0.0,0.0,0.0,-0.01,0.01,-1.4699999,0.0,0.0,0.0,0.0,0.0,0.0,0.0,0.4153113,488.83002,0.0,0.0,0.0,0.0,0.0,0.0,inf,inf,inf,inf,1,1,1,1,0,0,0,0,1,1,0
1866920000,0,47.3977508,8.5456074,0.27798733,-0.03763419,-8.6380005,0.0,0.0,0.0,-0.01,0.01,-1.4699999,0.0,0.0,0.0,0.0,0.0,0.0,0.0,0.41555893,488.83002,0.0,0.0,0.0,0.0,0.0,0.0,inf,inf,inf,inf,1,1,1,1,0,0,0,0,1,1,0
1867020000,0,47.3977508,8.5456074,0.27798733,-0.03763419,-8.785004,0.0,0.0,0.0,-0.01,0.0,-1.4699999,0.0,0.0,0.0,0.0,0.0,0.0,0.0,0.41577825,488.83002,0.0,0.0,0.0,0.0,0.0,0.0,inf,inf,inf,inf,1,1,1,1,0,0,0,0,1,1,0
1867120000,0,47.3977508,8.5456074,0.27798733,-0.030107353,-8.932007,0.0,0.0,0.0,-0.01,0.0,-1.4699999,0.0,0.0,0.0,0.0,0.0,0.0,0.0,0.4158649,488.83002,0.0,0.0,0.0,0.0,0.0,0.0,inf,inf,inf,inf,1,1,1,1,0,0,0,0,1,1,0
1867216000,0,47.3977508,8.5456074,0.26686782,-0.030107353,-9.074005,0.0,0.0,0.0,-0.01,0.0,-1.4699999,0.0,0.0,0.0,0.0,0.0,0.0,0.0,0.4160273,488.83002,0.0,0.0,0.0,0.0,0.0,0.0,inf,inf,inf,inf,1,1,1,1,0,0,0,0,1,1,0
1867316000,0,47.3977508,8.5456074,0.26686782,-0.030107353,-9.220001,0.0,0.0,0.0,-0.02,0.0,-1.4599999,0.0,0.0,0.0,0.0,0.0,0.0,0.0,0.4161458,488.83002,0.0,0.0,0.0,0.0,0.0,0.0,inf,inf,inf,inf,1,1,1,1,0,0,0,0,1,1,0
1867420000,0,47.3977508,8.5456074,0.26686782,-0.030107353,-9.373016,0.0,0.0,0.0,-0.02,0.0,-1.4599999,0.0,0.0,0.0,0.0,0.0,0.0,0.0,0.41618547,488.83002,0.0,0.0,0.0,0.0,0.0,0.0,inf,inf,inf,inf,1,1,1,1,0,0,0,0,1,1,0
1867516000,0,47.3977508,8.5456074,0.26686782,-0.030107353,-9.5130005,0.0,0.0,0.0,-0.02,0.0,-1.4599999,0.0,0.0,0.0,0.0,0.0,0.0,0.0,0.4161701,488.83002,0.0,0.0,0.0,0.0,0.0,0.0,inf,inf,inf,inf,1,1,1,1,0,0,0,0,1,1,0
1867620000,0,47.3977508,8.5456074,0.26686782,-0.030107353,-9.667999,0.0,0.0,0.0,-0.02,0.0,-1.53,0.0,0.0,0.0,0.0,0.0,0.0,0.0,0.41626352,488.83002,0.0,0.0,0.0,0.0,0.0,0.0,inf,inf,inf,inf,1,1,1,1,0,0,0,0,1,1,0
1867720000,0,47.3977508,8.5456074,0.25574833,-0.030107353,-9.82901,0.0,0.0,0.0,-0.03,0.0,-1.68,0.0,0.0,0.0,0.0,0.0,0.0,0.0,0.41637802,488.83002,0.0,0.0,0.0,0.0,0.0,0.0,inf,inf,inf,inf,1,1,1,1,0,0,0,0,1,1,0
1867816000,0,47.3977508,8.5456074,0.25574833,-0.030107353,-10.0,0.0,0.0,0.0,-0.03,0.0,-1.89,0.0,0.0,0.0,0.0,0.0,0.0,0.0,0.41637352,488.83002,0.0,0.0,0.0,0.0,0.0,0.0,inf,inf,inf,inf,1,1,1,1,0,0,0,0,1,1,0
1867920000,0,47.3977508,8.5456074,0.25574833,-0.03763419,-10.205017,0.0,0.0,0.0,-0.03,0.0,-2.2,0.0,0.0,0.0,0.0,0.0,0.0,0.0,0.41626188,488.83002,0.0,0.0,0.0,0.0,0.0,0.0,inf,inf,inf,inf,1,1,1,1,0,0,0,0,1,1,0
1868020000,0,47.3977508,8.5456074,0.24462883,-0.03763419,-10.4410095,0.0,0.0,0.0,-0.03,0.0,-2.52,0.0,0.0,0.0,0.0,0.0,0.0,0.0,0.41623616,488.83002,0.0,0.0,0.0,0.0,0.0,0.0,inf,inf,inf,inf,1,1,1,1,0,0,0,0,1,1,0
1868120000,0,47.3977508,8.5456074,0.24462883,-0.03763419,-10.714996,0.0,0.0,0.0,-0.02,0.0,-2.74,0.0,0.0,0.0,0.0,0.0,0.0,0.0,0.41634765,488.83002,0.0,0.0,0.0,0.0,0.0,0.0,inf,inf,inf,inf,1,1,1,1,0,0,0,0,1,1,0
1868220000,0,47.3977508,8.5456074,0.24462883,-0.03763419,-10.998016,0.0,0.0,0.0,-0.02,0.0,-2.8799999,0.0,0.0,0.0,0.0,0.0,0.0,0.0,0.41642863,488.83002,0.0,0.0,0.0,0.0,0.0,0.0,inf,inf,inf,inf,1,1,1,1,0,0,0,0,1,1,0
1868320000,0,47.3977508,8.5456074,0.24462883,-0.03763419,-11.291016,0.0,0.0,0.0,-0.02,0.0,-2.96,0.0,0.0,0.0,0.0,0.0,0.0,0.0,0.41644692,488.83002,0.0,0.0,0.0,0.0,0.0,0.0,inf,inf,inf,inf,1,1,1,1,0,0,0,0,1,1,0
1868420000,0,47.3977508,8.5456074,0.23350935,-0.03763419,-11.588013,0.0,0.0,0.0,-0.02,0.0,-2.96,0.0,0.0,0.0,0.0,0.0,0.0,0.0,0.41646633,488.83002,0.0,0.0,0.0,0.0,0.0,0.0,inf,inf,inf,inf,1,1,1,1,0,0,0,0,1,1,0
1868516000,0,47.3977508,8.5456074,0.23350935,-0.03763419,-11.871002,0.0,0.0,0.0,-0.02,0.0,-2.9399998,0.0,0.0,0.0,0.0,0.0,0.0,0.0,0.41646275,488.83002,0.0,0.0,0.0,0.0,0.0,0.0,inf,inf,inf,inf,1,1,1,1,0,0,0,0,1,1,0
1868620000,0,47.3977508,8.5456074,0.23350935,-0.03763419,-12.166016,0.0,0.0,0.0,-0.02,0.0,-2.9399998,0.0,0.0,0.0,0.0,0.0,0.0,0.0,0.41657677,488.83002,0.0,0.0,0.0,0.0,0.0,0.0,inf,inf,inf,inf,1,1,1,1,0,0,0,0,1,1,0
1868720000,0,47.3977508,8.5456074,0.23350935,-0.03763419,-12.472015,0.0,0.0,0.0,-0.02,0.0,-2.9299998,0.0,0.0,0.0,0.0,0.0,0.0,0.0,0.41657105,488.83002,0.0,0.0,0.0,0.0,0.0,0.0,inf,inf,inf,inf,1,1,1,1,0,0,0,0,1,1,0
1868820000,0,47.3977508,8.5456074,0.22238985,-0.03763419,-12.765015,0.0,0.0,0.0,-0.02,0.0,-2.9299998,0.0,0.0,0.0,0.0,0.0,0.0,0.0,0.4165377,488.83002,0.0,0.0,0.0,0.0,0.0,0.0,inf,inf,inf,inf,1,1,1,1,0,0,0,0,1,1,0
1868920000,0,47.3977508,8.5456074,0.22238985,-0.03763419,-13.058014,0.0,0.0,0.0,-0.02,-0.01,-2.9199998,0.0,0.0,0.0,0.0,0.0,0.0,0.0,0.4165284,488.83002,0.0,0.0,0.0,0.0,0.0,0.0,inf,inf,inf,inf,1,1,1,1,0,0,0,0,1,1,0
1869020000,0,47.3977508,8.5456074,0.22238985,-0.03763419,-13.350006,0.0,0.0,0.0,-0.02,-0.01,-2.9099998,0.0,0.0,0.0,0.0,0.0,0.0,0.0,0.41645092,488.83002,0.0,0.0,0.0,0.0,0.0,0.0,inf,inf,inf,inf,1,1,1,1,0,0,0,0,1,1,0
1869120000,0,47.3977508,8.5456074,0.22238985,-0.04516103,-13.641998,0.0,0.0,0.0,-0.02,-0.01,-2.9099998,0.0,0.0,0.0,0.0,0.0,0.0,0.0,0.41633663,488.83002,0.0,0.0,0.0,0.0,0.0,0.0,inf,inf,inf,inf,1,1,1,1,0,0,0,0,1,1,0
1869220000,0,47.3977508,8.5456074,0.21127036,-0.04516103,-13.933014,0.0,0.0,0.0,-0.02,-0.01,-2.8999999,0.0,0.0,0.0,0.0,0.0,0.0,0.0,0.41627237,488.83002,0.0,0.0,0.0,0.0,0.0,0.0,inf,inf,inf,inf,1,1,1,1,0,0,0,0,1,1,0
1869316000,0,47.3977508,8.5456074,0.21127036,-0.04516103,-14.210999,0.0,0.0,0.0,-0.02,-0.01,-2.8899999,0.0,0.0,0.0,0.0,0.0,0.0,0.0,0.41627643,488.83002,0.0,0.0,0.0,0.0,0.0,0.0,inf,inf,inf,inf,1,1,1,1,0,0,0,0,1,1,0
1869416000,0,47.3977508,8.5456074,0.21127036,-0.04516103,-14.501007,0.0,0.0,0.0,-0.02,-0.02,-2.8899999,0.0,0.0,0.0,0.0,0.0,0.0,0.0,0.41631228,488.83002,0.0,0.0,0.0,0.0,0.0,0.0,inf,inf,inf,inf,1,1,1,1,0,0,0,0,1,1,0
1869520000,0,47.3977508,8.5456074,0.21127036,-0.05268787,-14.800995,0.0,0.0,0.0,-0.02,-0.02,-2.8799999,0.0,0.0,0.0,0.0,0.0,0.0,0.0,0.41623637,488.83002,0.0,0.0,0.0,0.0,0.0,0.0,inf,inf,inf,inf,1,1,1,1,0,0,0,0,1,1,0
1869620000,0,47.3977508,8.5456074,0.21127036,-0.05268787,-15.08902,0.0,0.0,0.0,-0.02,-0.02,-2.87,0.0,0.0,0.0,0.0,0.0,0.0,0.0,0.4162358,488.83002,0.0,0.0,0.0,0.0,0.0,0.0,inf,inf,inf,inf,1,1,1,1,0,0,0,0,1,1,0
1869716000,0,47.3977508,8.5456074,0.20015086,-0.05268787,-15.365021,0.0,0.0,0.0,-0.02,-0.02,-2.87,0.0,0.0,0.0,0.0,0.0,0.0,0.0,0.4161964,488.83002,0.0,0.0,0.0,0.0,0.0,0.0,inf,inf,inf,inf,1,1,1,1,0,0,0,0,1,1,0
1869820000,0,47.3977508,8.5456074,0.20015086,-0.060214706,-15.664001,0.0,0.0,0.0,-0.02,-0.02,-2.87,0.0,0.0,0.0,0.0,0.0,0.0,0.0,0.41615957,488.83002,0.0,0.0,0.0,0.0,0.0,0.0,inf,inf,inf,inf,1,1,1,1,0,0,0,0,1,1,0
1869920000,0,47.3977508,8.5456074,0.20015086,-0.060214706,-15.951996,0.0,0.0,0.0,-0.02,-0.02,-2.87,0.0,0.0,0.0,0.0,0.0,0.0,0.0,0.41615742,488.83002,0.0,0.0,0.0,0.0,0.0,0.0,inf,inf,inf,inf,1,1,1,1,0,0,0,0,1,1,0
1870020000,0,47.3977508,8.5456074,0.20015086,-0.060214706,-16.239014,0.0,0.0,0.0,-0.02,-0.02,-2.87,0.0,0.0,0.0,0.0,0.0,0.0,0.0,0.4160924,488.83002,0.0,0.0,0.0,0.0,0.0,0.0,inf,inf,inf,inf,1,1,1,1,0,0,0,0,1,1,0
1870116000,0,47.3977508,8.5456074,0.18903138,-0.06774154,-16.514008,0.0,0.0,0.0,-0.02,-0.02,-2.86,0.0,0.0,0.0,0.0,0.0,0.0,0.0,0.4160475,488.83002,0.0,0.0,0.0,0.0,0.0,0.0,inf,inf,inf,inf,1,1,1,1,0,0,0,0,1,1,0
1870216000,0,47.3977508,8.5456074,0.18903138,-0.06774154,-16.800995,0.0,0.0,0.0,-0.01,-0.02,-2.87,0.0,0.0,0.0,0.0,0.0,0.0,0.0,0.41602522,488.83002,0.0,0.0,0.0,0.0,0.0,0.0,inf,inf,inf,inf,1,1,1,1,0,0,0,0,1,1,0
1870320000,0,47.3977508,8.5456074,0.18903138,-0.06774154,-17.100006,0.0,0.0,0.0,-0.01,-0.02,-2.86,0.0,0.0,0.0,0.0,0.0,0.0,0.0,0.41609025,488.83002,0.0,0.0,0.0,0.0,0.0,0.0,inf,inf,inf,inf,1,1,1,1,0,0,0,0,1,1,0
1870420000,0,47.3977508,8.5456074,0.18903138,-0.07526839,-17.386993,0.0,0.0,0.0,-0.01,-0.02,-2.86,0.0,0.0,0.0,0.0,0.0,0.0,0.0,0.4160994,488.83002,0.0,0.0,0.0,0.0,0.0,0.0,inf,inf,inf,inf,1,1,1,1,0,0,0,0,1,1,0
1870516000,0,47.3977508,8.5456074,0.18903138,-0.07526839,-17.649994,0.0,0.0,0.0,-0.01,-0.03,-2.86,0.0,0.0,0.0,0.0,0.0,0.0,0.0,0.4160898,488.83002,0.0,0.0,0.0,0.0,0.0,0.0,inf,inf,inf,inf,1,1,1,1,0,0,0,0,1,1,0
1870616000,0,47.3977508,8.5456074,0.18903138,-0.082795225,-17.947021,0.0,0.0,0.0,-0.01,-0.03,-2.85,0.0,0.0,0.0,0.0,0.0,0.0,0.0,0.41605413,488.83002,0.0,0.0,0.0,0.0,0.0,0.0,inf,inf,inf,inf,1,1,1,1,0,0,0,0,1,1,0
1870720000,0,47.3977508,8.5456074,0.18903138,-0.082795225,-18.233002,0.0,0.0,0.0,-0.01,-0.03,-2.85,0.0,0.0,0.0,0.0,0.0,0.0,0.0,0.4160241,488.83002,0.0,0.0,0.0,0.0,0.0,0.0,inf,inf,inf,inf,1,1,1,1,0,0,0,0,1,1,0
1870820000,0,47.3977508,8.5456074,0.18903138,-0.082795225,-18.531006,0.0,0.0,0.0,0.0,-0.03,-2.86,0.0,0.0,0.0,0.0,0.0,0.0,0.0,0.41597047,488.83002,0.0,0.0,0.0,0.0,0.0,0.0,inf,inf,inf,inf,1,1,1,1,0,0,0,0,1,1,0
1870920000,0,47.3977508,8.5456074,0.17791188,-0.09032206,-18.817017,0.0,0.0,0.0,0.0,-0.03,-2.86,0.0,0.0,0.0,0.0,0.0,0.0,0.0,0.41589946,488.83002,0.0,0.0,0.0,0.0,0.0,0.0,inf,inf,inf,inf,1,1,1,1,0,0,0,0,1,1,0
1871020000,0,47.3977508,8.5456074,0.17791188,-0.09032206,-19.104004,0.0,0.0,0.0,0.0,-0.03,-2.86,0.0,0.0,0.0,0.0,0.0,0.0,0.0,0.41587996,488.83002,0.0,0.0,0.0,0.0,0.0,0.0,inf,inf,inf,inf,1,1,1,1,0,0,0,0,1,1,0
1871120000,0,47.3977508,8.5456074,0.17791188,-0.0978489,-19.390015,0.0,0.0,0.0,0.0,-0.03,-2.86,0.0,0.0,0.0,0.0,0.0,0.0,0.0,0.41598445,488.83002,0.0,0.0,0.0,0.0,0.0,0.0,inf,inf,inf,inf,1,1,1,1,0,0,0,0,1,1,0
1871220000,0,47.3977508,8.5456074,0.17791188,-0.0978489,-19.677002,0.0,0.0,0.0,0.0,-0.03,-2.86,0.0,0.0,0.0,0.0,0.0,0.0,0.0,0.41598803,488.83002,0.0,0.0,0.0,0.0,0.0,0.0,inf,inf,inf,inf,1,1,1,1,0,0,0,0,1,1,0
1871320000,0,47.3977508,8.5456074,0.17791188,-0.10537574,-19.963013,0.0,0.0,0.0,0.0,-0.03,-2.86,0.0,0.0,0.0,0.0,0.0,0.0,0.0,0.41603708,488.83002,0.0,0.0,0.0,0.0,0.0,0.0,inf,inf,inf,inf,1,1,1,1,0,0,0,0,1,1,0
1871420000,0,47.3977508,8.5456074,0.17791188,-0.10537574,-20.238007,0.0,0.0,0.0,0.0,-0.03,-2.84,0.0,0.0,0.0,0.0,0.0,0.0,0.0,0.4159821,488.83002,0.0,0.0,0.0,0.0,0.0,0.0,inf,inf,inf,inf,1,1,1,1,0,0,0,0,1,1,0
1871516000,0,47.3977508,8.5456074,0.17791188,-0.112902574,-20.518005,0.0,0.0,0.0,0.0,-0.03,-2.75,0.0,0.0,0.0,0.0,0.0,0.0,0.0,0.415931,488.83002,0.0,0.0,0.0,0.0,0.0,0.0,inf,inf,inf,inf,1,1,1,1,0,0,0,0,1,1,0
1871620000,0,47.3977508,8.5456074,0.17791188,-0.112902574,-20.799011,0.0,0.0,0.0,0.0,-0.03,-2.6499999,0.0,0.0,0.0,0.0,0.0,0.0,0.0,0.4158047,488.83002,0.0,0.0,0.0,0.0,0.0,0.0,inf,inf,inf,inf,1,1,1,1,0,0,0,0,1,1,0
1871720000,0,47.3977508,8.5456074,0.17791188,-0.112902574,-21.050018,0.0,0.0,0.0,0.0,-0.03,-2.57,0.0,0.0,0.0,0.0,0.0,0.0,0.0,0.41573352,488.83002,0.0,0.0,0.0,0.0,0.0,0.0,inf,inf,inf,inf,1,1,1,1,0,0,0,0,1,1,0
1871820000,0,47.3977508,8.5456074,0.17791188,-0.12042942,-21.315002,0.0,0.0,0.0,0.0,-0.03,-2.49,0.0,0.0,0.0,0.0,0.0,0.0,0.0,0.4156057,488.83002,0.0,0.0,0.0,0.0,0.0,0.0,inf,inf,inf,inf,1,1,1,1,0,0,0,0,1,1,0
1871920000,0,47.3977508,8.5456074,0.17791188,-0.12042942,-21.559998,0.0,0.0,0.0,0.0,-0.03,-2.4099998,0.0,0.0,0.0,0.0,0.0,0.0,0.0,0.4155582,488.83002,0.0,0.0,0.0,0.0,0.0,0.0,inf,inf,inf,inf,1,1,1,1,0,0,0,0,1,1,0
1872020000,0,47.3977508,8.5456074,0.17791188,-0.12795626,-21.789001,0.0,0.0,0.0,0.0,-0.03,-2.34,0.0,0.0,0.0,0.0,0.0,0.0,0.0,0.41551176,488.83002,0.0,0.0,0.0,0.0,0.0,0.0,inf,inf,inf,inf,1,1,1,1,0,0,0,0,1,1,0
1872116000,0,47.3977508,8.5456074,0.17791188,-0.12795626,-22.011017,0.0,0.0,0.0,0.0,-0.03,-2.27,0.0,0.0,0.0,0.0,0.0,0.0,0.0,0.4154145,488.83002,0.0,0.0,0.0,0.0,0.0,0.0,inf,inf,inf,inf,1,1,1,1,0,0,0,0,1,1,0
1872220000,0,47.3977508,8.5456074,0.17791188,-0.13548309,-22.252014,0.0,0.0,0.0,0.0,-0.02,-2.2,0.0,0.0,0.0,0.0,0.0,0.0,0.0,0.41530842,488.83002,0.0,0.0,0.0,0.0,0.0,0.0,inf,inf,inf,inf,1,1,1,1,0,0,0,0,1,1,0
1872316000,0,47.3977508,8.5456074,0.17791188,-0.13548309,-22.460999,0.0,0.0,0.0,0.0,-0.02,-2.1299999,0.0,0.0,0.0,0.0,0.0,0.0,0.0,0.4153722,488.83002,0.0,0.0,0.0,0.0,0.0,0.0,inf,inf,inf,inf,1,1,1,1,0,0,0,0,1,1,0
1872420000,0,47.3977508,8.5456074,0.17791188,-0.13548309,-22.679016,0.0,0.0,0.0,0.0,-0.02,-2.06,0.0,0.0,0.0,0.0,0.0,0.0,0.0,0.41546023,488.83002,0.0,0.0,0.0,0.0,0.0,0.0,inf,inf,inf,inf,1,1,1,1,0,0,0,0,1,1,0
1872516000,0,47.3977508,8.5456074,0.17791188,-0.14300993,-22.875,0.0,0.0,0.0,0.0,-0.02,-2.0,0.0,0.0,0.0,0.0,0.0,0.0,0.0,0.41534954,488.83002,0.0,0.0,0.0,0.0,0.0,0.0,inf,inf,inf,inf,1,1,1,1,0,0,0,0,1,1,0
1872620000,0,47.3977508,8.5456074,0.17791188,-0.14300993,-23.080017,0.0,0.0,0.0,0.0,-0.02,-1.9399999,0.0,0.0,0.0,0.0,0.0,0.0,0.0,0.41528058,488.83002,0.0,0.0,0.0,0.0,0.0,0.0,inf,inf,inf,inf,1,1,1,1,0,0,0,0,1,1,0
1872720000,0,47.3977508,8.5456074,0.1667924,-0.14300993,-23.270996,0.0,0.0,0.0,0.0,-0.01,-1.88,0.0,0.0,0.0,0.0,0.0,0.0,0.0,0.41530725,488.83002,0.0,0.0,0.0,0.0,0.0,0.0,inf,inf,inf,inf,1,1,1,1,0,0,0,0,1,1,0
1872820000,0,47.3977508,8.5456074,0.1667924,-0.15053678,-23.457031,0.0,0.0,0.0,0.0,-0.01,-1.8299999,0.0,0.0,0.0,0.0,0.0,0.0,0.0,0.41541606,488.83002,0.0,0.0,0.0,0.0,0.0,0.0,inf,inf,inf,inf,1,1,1,1,0,0,0,0,1,1,0
1872920000,0,47.3977508,8.5456074,0.1667924,-0.15053678,-23.637024,0.0,0.0,0.0,0.0,-0.01,-1.77,0.0,0.0,0.0,0.0,0.0,0.0,0.0,0.41558063,488.83002,0.0,0.0,0.0,0.0,0.0,0.0,inf,inf,inf,inf,1,1,1,1,0,0,0,0,1,1,0
1873016000,0,47.3977508,8.5456074,0.1667924,-0.15053678,-23.80603,0.0,0.0,0.0,0.0,-0.01,-1.73,0.0,0.0,0.0,0.0,0.0,0.0,0.0,0.41574466,488.83002,0.0,0.0,0.0,0.0,0.0,0.0,inf,inf,inf,inf,1,1,1,1,0,0,0,0,1,1,0
1873120000,0,47.3977508,8.5456074,0.1667924,-0.15053678,-23.983032,0.0,0.0,0.0,0.0,-0.01,-1.68,0.0,0.0,0.0,0.0,0.0,0.0,0.0,0.41577372,488.83002,0.0,0.0,0.0,0.0,0.0,0.0,inf,inf,inf,inf,1,1,1,1,0,0,0,0,1,1,0
1873216000,0,47.3977508,8.5456074,0.1667924,-0.15053678,-24.142029,0.0,0.0,0.0,0.0,-0.01,-1.63,0.0,0.0,0.0,0.0,0.0,0.0,0.0,0.4157932,488.83002,0.0,0.0,0.0,0.0,0.0,0.0,inf,inf,inf,inf,1,1,1,1,0,0,0,0,1,1,0
1873316000,0,47.3977508,8.5456074,0.1667924,-0.15053678,-24.304016,0.0,0.0,0.0,0.0,-0.01,-1.5899999,0.0,0.0,0.0,0.0,0.0,0.0,0.0,0.41577697,488.83002,0.0,0.0,0.0,0.0,0.0,0.0,inf,inf,inf,inf,1,1,1,1,0,0,0,0,1,1,0
1873420000,0,47.3977508,8.5456074,0.1667924,-0.1580636,-24.46698,0.0,0.0,0.0,0.0,0.0,-1.54,0.0,0.0,0.0,0.0,0.0,0.0,0.0,0.4156957,488.83002,0.0,0.0,0.0,0.0,0.0,0.0,inf,inf,inf,inf,1,1,1,1,0,0,0,0,1,1,0
1873520000,0,47.3977508,8.5456074,0.1667924,-0.1580636,-24.619019,0.0,0.0,0.0,0.0,0.0,-1.5,0.0,0.0,0.0,0.0,0.0,0.0,0.0,0.41562858,488.83002,0.0,0.0,0.0,0.0,0.0,0.0,inf,inf,inf,inf,1,1,1,1,0,0,0,0,1,1,0
1873620000,0,47.3977508,8.5456074,0.1667924,-0.1580636,-24.767029,0.0,0.0,0.0,0.0,0.0,-1.4499999,0.0,0.0,0.0,0.0,0.0,0.0,0.0,0.415592,488.83002,0.0,0.0,0.0,0.0,0.0,0.0,inf,inf,inf,inf,1,1,1,1,0,0,0,0,1,1,0
1873720000,0,47.3977508,8.5456074,0.1667924,-0.1580636,-24.910034,0.0,0.0,0.0,0.0,0.0,-1.41,0.0,0.0,0.0,0.0,0.0,0.0,0.0,0.4156326,488.83002,0.0,0.0,0.0,0.0,0.0,0.0,inf,inf,inf,inf,1,1,1,1,0,0,0,0,1,1,0
1873816000,0,47.3977508,8.5456074,0.1667924,-0.1580636,-25.04303,0.0,0.0,0.0,0.0,0.0,-1.36,0.0,0.0,0.0,0.0,0.0,0.0,0.0,0.41561973,488.83002,0.0,0.0,0.0,0.0,0.0,0.0,inf,inf,inf,inf,1,1,1,1,0,0,0,0,1,1,0
1873920000,0,47.3977508,8.5456074,0.1667924,-0.1580636,-25.182983,0.0,0.0,0.0,0.0,0.0,-1.3199999,0.0,0.0,0.0,0.0,0.0,0.0,0.0,0.4155926,488.83002,0.0,0.0,0.0,0.0,0.0,0.0,inf,inf,inf,inf,1,1,1,1,0,0,0,0,1,1,0
1874016000,0,47.3977508,8.5456074,0.1667924,-0.1580636,-25.309021,0.0,0.0,0.0,0.0,0.0,-1.28,0.0,0.0,0.0,0.0,0.0,0.0,0.0,0.41556033,488.83002,0.0,0.0,0.0,0.0,0.0,0.0,inf,inf,inf,inf,1,1,1,1,0,0,0,0,1,1,0
1874116000,0,47.3977508,8.5456074,0.1667924,-0.1580636,-25.436035,0.0,0.0,0.0,0.0,0.0,-1.24,0.0,0.0,0.0,0.0,0.0,0.0,0.0,0.4156385,488.83002,0.0,0.0,0.0,0.0,0.0,0.0,inf,inf,inf,inf,1,1,1,1,0,0,0,0,1,1,0
1874220000,0,47.3977508,8.5456074,0.1556729,-0.1580636,-25.564026,0.0,0.0,0.0,0.0,-0.01,-1.1999999,0.0,0.0,0.0,0.0,0.0,0.0,0.0,0.41573516,488.83002,0.0,0.0,0.0,0.0,0.0,0.0,inf,inf,inf,inf,1,1,1,1,0,0,0,0,1,1,0
1874320000,0,47.3977508,8.5456074,0.1556729,-0.16559045,-25.682983,0.0,0.0,0.0,0.0,-0.01,-1.17,0.0,0.0,0.0,0.0,0.0,0.0,0.0,0.41577026,488.83002,0.0,0.0,0.0,0.0,0.0,0.0,inf,inf,inf,inf,1,1,1,1,0,0,0,0,1,1,0
1874416000,0,47.3977508,8.5456074,0.1556729,-0.16559045,-25.79303,0.0,0.0,0.0,0.0,-0.01,-1.13,0.0,0.0,0.0,0.0,0.0,0.0,0.0,0.41581455,488.83002,0.0,0.0,0.0,0.0,0.0,0.0,inf,inf,inf,inf,1,1,1,1,0,0,0,0,1,1,0
1874516000,0,47.3977508,8.5456074,0.1556729,-0.16559045,-25.901001,0.0,0.0,0.0,0.0,-0.01,-1.1,0.0,0.0,0.0,0.0,0.0,0.0,0.0,0.4159338,488.83002,0.0,0.0,0.0,0.0,0.0,0.0,inf,inf,inf,inf,1,1,1,1,0,0,0,0,1,1,0
1874620000,0,47.3977508,8.5456074,0.1556729,-0.16559045,-26.018982,0.0,0.0,0.0,0.0,-0.01,-1.0699999,0.0,0.0,0.0,0.0,0.0,0.0,0.0,0.415969,488.83002,0.0,0.0,0.0,0.0,0.0,0.0,inf,inf,inf,inf,1,1,1,1,0,0,0,0,1,1,0
1874720000,0,47.3977508,8.5456074,0.1556729,-0.16559045,-26.124023,0.0,0.0,0.0,0.0,0.0,-1.03,0.0,0.0,0.0,0.0,0.0,0.0,0.0,0.41600385,488.83002,0.0,0.0,0.0,0.0,0.0,0.0,inf,inf,inf,inf,1,1,1,1,0,0,0,0,1,1,0
1874820000,0,47.3977508,8.5456074,0.1556729,-0.16559045,-26.226013,0.0,0.0,0.0,0.0,0.0,-1.0,0.0,0.0,0.0,0.0,0.0,0.0,0.0,0.4159936,488.83002,0.0,0.0,0.0,0.0,0.0,0.0,inf,inf,inf,inf,1,1,1,1,0,0,0,0,1,1,0
1874916000,0,47.3977508,8.5456074,0.1556729,-0.16559045,-26.322021,0.0,0.0,0.0,0.0,0.0,-0.97999996,0.0,0.0,0.0,0.0,0.0,0.0,0.0,0.41602045,488.83002,0.0,0.0,0.0,0.0,0.0,0.0,inf,inf,inf,inf,1,1,1,1,0,0,0,0,1,1,0
1875020000,0,47.3977508,8.5456074,0.1556729,-0.17311728,-26.423035,0.0,0.0,0.0,0.0,0.0,-0.95,0.0,0.0,0.0,0.0,0.0,0.0,0.0,0.41601193,488.83002,0.0,0.0,0.0,0.0,0.0,0.0,inf,inf,inf,inf,1,1,1,1,0,0,0,0,1,1,0
1875116000,0,47.3977508,8.5456074,0.1556729,-0.17311728,-26.513,0.0,0.0,0.0,0.0,0.0,-0.91999996,0.0,0.0,0.0,0.0,0.0,0.0,0.0,0.41596672,488.83002,0.0,0.0,0.0,0.0,0.0,0.0,inf,inf,inf,inf,1,1,1,1,0,0,0,0,1,1,0
1875220000,0,47.3977508,8.5456074,0.1556729,-0.17311728,-26.608032,0.0,0.0,0.0,0.0,0.0,-0.9,0.0,0.0,0.0,0.0,0.0,0.0,0.0,0.41602394,488.83002,0.0,0.0,0.0,0.0,0.0,0.0,inf,inf,inf,inf,1,1,1,1,0,0,0,0,1,1,0
1875316000,0,47.3977508,8.5456074,0.1556729,-0.17311728,-26.69403,0.0,0.0,0.0,0.0,0.0,-0.87,0.0,0.0,0.0,0.0,0.0,0.0,0.0,0.41604868,488.83002,0.0,0.0,0.0,0.0,0.0,0.0,inf,inf,inf,inf,1,1,1,1,0,0,0,0,1,1,0
1875420000,0,47.3977508,8.5456074,0.1556729,-0.17311728,-26.783997,0.0,0.0,0.0,0.0,0.0,-0.84999996,0.0,0.0,0.0,0.0,0.0,0.0,0.0,0.4160449,488.83002,0.0,0.0,0.0,0.0,0.0,0.0,inf,inf,inf,inf,1,1,1,1,0,0,0,0,1,1,0
1875520000,0,47.3977508,8.5456074,0.1556729,-0.17311728,-26.867981,0.0,0.0,0.0,0.0,0.0,-0.83,0.0,0.0,0.0,0.0,0.0,0.0,0.0,0.41608047,488.83002,0.0,0.0,0.0,0.0,0.0,0.0,inf,inf,inf,inf,1,1,1,1,0,0,0,0,1,1,0
1875620000,0,47.3977508,8.5456074,0.1556729,-0.17311728,-26.950012,0.0,0.0,0.0,0.0,0.0,-0.79999995,0.0,0.0,0.0,0.0,0.0,0.0,0.0,0.41616997,488.83002,0.0,0.0,0.0,0.0,0.0,0.0,inf,inf,inf,inf,1,1,1,1,0,0,0,0,1,1,0
1875720000,0,47.3977508,8.5456074,0.14455341,-0.17311728,-27.028992,0.0,0.0,0.0,0.0,0.0,-0.77,0.0,0.0,0.0,0.0,0.0,0.0,0.0,0.41624668,488.83002,0.0,0.0,0.0,0.0,0.0,0.0,inf,inf,inf,inf,1,1,1,1,0,0,0,0,1,1,0
1875820000,0,47.3977508,8.5456074,0.14455341,-0.17311728,-27.10498,0.0,0.0,0.0,0.0,0.0,-0.75,0.0,0.0,0.0,0.0,0.0,0.0,0.0,0.41627657,488.83002,0.0,0.0,0.0,0.0,0.0,0.0,inf,inf,inf,inf,1,1,1,1,0,0,0,0,1,1,0
1875916000,0,47.3977508,8.5456074,0.14455341,-0.17311728,-27.176025,0.0,0.0,0.0,0.0,0.0,-0.71999997,0.0,0.0,0.0,0.0,0.0,0.0,0.0,0.41621238,488.83002,0.0,0.0,0.0,0.0,0.0,0.0,inf,inf,inf,inf,1,1,1,1,0,0,0,0,1,1,0
1876016000,0,47.3977508,8.5456074,0.14455341,-0.17311728,-27.244995,0.0,0.0,0.0,0.0,0.0,-0.7,0.0,0.0,0.0,0.0,0.0,0.0,0.0,0.41614088,488.83002,0.0,0.0,0.0,0.0,0.0,0.0,inf,inf,inf,inf,1,1,1,1,0,0,0,0,1,1,0
1876120000,0,47.3977508,8.5456074,0.14455341,-0.17311728,-27.320007,0.0,0.0,0.0,0.0,0.0,-0.68,0.0,0.0,0.0,0.0,0.0,0.0,0.0,0.41608125,488.83002,0.0,0.0,0.0,0.0,0.0,0.0,inf,inf,inf,inf,1,1,1,1,0,0,0,0,1,1,0
1876220000,0,47.3977508,8.5456074,0.14455341,-0.17311728,-27.387024,0.0,0.0,0.0,0.0,0.0,-0.65999997,0.0,0.0,0.0,0.0,0.0,0.0,0.0,0.41593772,488.83002,0.0,0.0,0.0,0.0,0.0,0.0,inf,inf,inf,inf,1,1,1,1,0,0,0,0,1,1,0
1876320000,0,47.3977508,8.5456074,0.14455341,-0.17311728,-27.452026,0.0,0.0,0.0,-0.01,0.0,-0.64,0.0,0.0,0.0,0.0,0.0,0.0,0.0,0.4158179,488.83002,0.0,0.0,0.0,0.0,0.0,0.0,inf,inf,inf,inf,1,1,1,1,0,0,0,0,1,1,0
1876416000,0,47.3977508,8.5456074,0.14455341,-0.17311728,-27.513,0.0,0.0,0.0,-0.01,0.0,-0.62,0.0,0.0,0.0,0.0,0.0,0.0,0.0,0.41569373,488.83002,0.0,0.0,0.0,0.0,0.0,0.0,inf,inf,inf,inf,1,1,1,1,0,0,0,0,1,1,0
1876520000,0,47.3977508,8.5456074,0.14455341,-0.18064412,-27.577026,0.0,0.0,0.0,-0.01,0.0,-0.59999996,0.0,0.0,0.0,0.0,0.0,0.0,0.0,0.4156328,488.83002,0.0,0.0,0.0,0.0,0.0,0.0,inf,inf,inf,inf,1,1,1,1,0,0,0,0,1,1,0
1876616000,0,47.3977508,8.5456074,0.14455341,-0.18064412,-27.632019,0.0,0.0,0.0,-0.01,0.0,-0.58,0.0,0.0,0.0,0.0,0.0,0.0,0.0,0.41564023,488.83002,0.0,0.0,0.0,0.0,0.0,0.0,inf,inf,inf,inf,1,1,1,1,0,0,0,0,1,1,0
1876720000,0,47.3977508,8.5456074,0.14455341,-0.18064412,-27.69403,0.0,0.0,0.0,-0.01,0.0,-0.57,0.0,0.0,0.0,0.0,0.0,0.0,0.0,0.41571993,488.83002,0.0,0.0,0.0,0.0,0.0,0.0,inf,inf,inf,inf,1,1,1,1,0,0,0,0,1,1,0
1876820000,0,47.3977508,8.5456074,0.14455341,-0.18064412,-27.751038,0.0,0.0,0.0,-0.01,0.0,-0.55,0.0,0.0,0.0,0.0,0.0,0.0,0.0,0.41574913,488.83002,0.0,0.0,0.0,0.0,0.0,0.0,inf,inf,inf,inf,1,1,1,1,0,0,0,0,1,1,0
1876916000,0,47.3977508,8.5456074,0.13343391,-0.18064412,-27.804016,0.0,0.0,0.0,-0.01,0.0,-0.53999996,0.0,0.0,0.0,0.0,0.0,0.0,0.0,0.41581333,488.83002,0.0,0.0,0.0,0.0,0.0,0.0,inf,inf,inf,inf,1,1,1,1,0,0,0,0,1,1,0
1877020000,0,47.3977508,8.5456074,0.13343391,-0.18064412,-27.859009,0.0,0.0,0.0,-0.01,0.0,-0.52,0.0,0.0,0.0,0.0,0.0,0.0,0.0,0.41594893,488.83002,0.0,0.0,0.0,0.0,0.0,0.0,inf,inf,inf,inf,1,1,1,1,0,0,0,0,1,1,0
1877120000,0,47.3977508,8.5456074,0.13343391,-0.18064412,-27.91101,0.0,0.0,0.0,-0.01,0.0,-0.5,0.0,0.0,0.0,0.0,0.0,0.0,0.0,0.41598272,488.83002,0.0,0.0,0.0,0.0,0.0,0.0,inf,inf,inf,inf,1,1,1,1,0,0,0,0,1,1,0
1877216000,0,47.3977508,8.5456074,0.13343391,-0.18064412,-27.958984,0.0,0.0,0.0,-0.01,0.0,-0.48999998,0.0,0.0,0.0,0.0,0.0,0.0,0.0,0.41596684,488.83002,0.0,0.0,0.0,0.0,0.0,0.0,inf,inf,inf,inf,1,1,1,1,0,0,0,0,1,1,0
1877320000,0,47.3977508,8.5456074,0.13343391,-0.18064412,-28.009033,0.0,0.0,0.0,-0.01,0.0,-0.47,0.0,0.0,0.0,0.0,0.0,0.0,0.0,0.41590238,488.83002,0.0,0.0,0.0,0.0,0.0,0.0,inf,inf,inf,inf,1,1,1,1,0,0,0,0,1,1,0
1877420000,0,47.3977508,8.5456074,0.13343391,-0.18817097,-28.05603,0.0,0.0,0.0,-0.01,-0.01,-0.45999998,0.0,0.0,0.0,0.0,0.0,0.0,0.0,0.41580266,488.83002,0.0,0.0,0.0,0.0,0.0,0.0,inf,inf,inf,inf,1,1,1,1,0,0,0,0,1,1,0
1877516000,0,47.3977508,8.5456074,0.13343391,-0.18817097,-28.098022,0.0,0.0,0.0,-0.01,-0.01,-0.44,0.0,0.0,0.0,0.0,0.0,0.0,0.0,0.41564775,488.83002,0.0,0.0,0.0,0.0,0.0,0.0,inf,inf,inf,inf,1,1,1,1,0,0,0,0,1,1,0
1877620000,0,47.3977508,8.5456074,0.13343391,-0.18817097,-28.145996,0.0,0.0,0.0,-0.01,-0.01,-0.42999998,0.0,0.0,0.0,0.0,0.0,0.0,0.0,0.4156028,488.83002,0.0,0.0,0.0,0.0,0.0,0.0,inf,inf,inf,inf,1,1,1,1,0,0,0,0,1,1,0
1877716000,0,47.3977508,8.5456074,0.13343391,-0.18817097,-28.187012,0.0,0.0,0.0,-0.01,-0.01,-0.42,0.0,0.0,0.0,0.0,0.0,0.0,0.0,0.41563997,488.83002,0.0,0.0,0.0,0.0,0.0,0.0,inf,inf,inf,inf,1,1,1,1,0,0,0,0,1,1,0
1877820000,0,47.3977508,8.5456074,0.12231442,-0.18817097,-28.22998,0.0,0.0,0.0,-0.01,-0.01,-0.39999998,0.0,0.0,0.0,0.0,0.0,0.0,0.0,0.41567892,488.83002,0.0,0.0,0.0,0.0,0.0,0.0,inf,inf,inf,inf,1,1,1,1,0,0,0,0,1,1,0
1877920000,0,47.3977508,8.5456074,0.12231442,-0.18817097,-28.268005,0.0,0.0,0.0,-0.01,-0.01,-0.39,0.0,0.0,0.0,0.0,0.0,0.0,0.0,0.4157531,488.83002,0.0,0.0,0.0,0.0,0.0,0.0,inf,inf,inf,inf,1,1,1,1,0,0,0,0,1,1,0
1878020000,0,47.3977508,8.5456074,0.12231442,-0.18817097,-28.307983,0.0,0.0,0.0,-0.01,-0.01,-0.38,0.0,0.0,0.0,0.0,0.0,0.0,0.0,0.4157929,488.83002,0.0,0.0,0.0,0.0,0.0,0.0,inf,inf,inf,inf,1,1,1,1,0,0,0,0,1,1,0
1878116000,0,47.3977508,8.5456074,0.12231442,-0.1956978,-28.345032,0.0,0.0,0.0,-0.01,-0.01,-0.37,0.0,0.0,0.0,0.0,0.0,0.0,0.0,0.4157935,488.83002,0.0,0.0,0.0,0.0,0.0,0.0,inf,inf,inf,inf,1,1,1,1,0,0,0,0,1,1,0
1878220000,0,47.3977508,8.5456074,0.12231442,-0.1956978,-28.382996,0.0,0.0,0.0,-0.01,-0.01,-0.35,0.0,0.0,0.0,0.0,0.0,0.0,0.0,0.41591424,488.83002,0.0,0.0,0.0,0.0,0.0,0.0,inf,inf,inf,inf,1,1,1,1,0,0,0,0,1,1,0
1878316000,0,47.3977508,8.5456074,0.12231442,-0.1956978,-28.416992,0.0,0.0,0.0,-0.01,-0.01,-0.34,0.0,0.0,0.0,0.0,0.0,0.0,0.0,0.41593665,488.83002,0.0,0.0,0.0,0.0,0.0,0.0,inf,inf,inf,inf,1,1,1,1,0,0,0,0,1,1,0
1878420000,0,47.3977508,8.5456074,0.12231442,-0.1956978,-28.453003,0.0,0.0,0.0,-0.01,-0.01,-0.32999998,0.0,0.0,0.0,0.0,0.0,0.0,0.0,0.415969,488.83002,0.0,0.0,0.0,0.0,0.0,0.0,inf,inf,inf,inf,1,1,1,1,0,0,0,0,1,1,0
1878520000,0,47.3977508,8.5456074,0.12231442,-0.1956978,-28.484985,0.0,0.0,0.0,-0.01,-0.01,-0.32999998,0.0,0.0,0.0,0.0,0.0,0.0,0.0,0.41596204,488.83002,0.0,0.0,0.0,0.0,0.0,0.0,inf,inf,inf,inf,1,1,1,1,0,0,0,0,1,1,0
1878620000,0,47.3977508,8.5456074,0.11119493,-0.20322464,-28.518982,0.0,0.0,0.0,-0.01,-0.01,-0.32,0.0,0.0,0.0,0.0,0.0,0.0,0.0,0.4160227,488.83002,0.0,0.0,0.0,0.0,0.0,0.0,inf,inf,inf,inf,1,1,1,1,0,0,0,0,1,1,0
1878716000,0,47.3977508,8.5456074,0.11119493,-0.20322464,-28.549988,0.0,0.0,0.0,-0.01,-0.01,-0.31,0.0,0.0,0.0,0.0,0.0,0.0,0.0,0.4160367,488.83002,0.0,0.0,0.0,0.0,0.0,0.0,inf,inf,inf,inf,1,1,1,1,0,0,0,0,1,1,0
1878820000,0,47.3977508,8.5456074,0.11119493,-0.20322464,-28.582031,0.0,0.0,0.0,-0.01,-0.01,-0.29999998,0.0,0.0,0.0,0.0,0.0,0.0,0.0,0.4160129,488.83002,0.0,0.0,0.0,0.0,0.0,0.0,inf,inf,inf,inf,1,1,1,1,0,0,0,0,1,1,0
1878916000,0,47.3977508,8.5456074,0.11119493,-0.20322464,-28.609985,0.0,0.0,0.0,-0.01,-0.01,-0.29,0.0,0.0,0.0,0.0,0.0,0.0,0.0,0.41597927,488.83002,0.0,0.0,0.0,0.0,0.0,0.0,inf,inf,inf,inf,1,1,1,1,0,0,0,0,1,1,0
1879016000,0,47.3977508,8.5456074,0.11119493,-0.21075147,-28.640015,0.0,0.0,0.0,-0.01,-0.01,-0.29,0.0,0.0,0.0,0.0,0.0,0.0,0.0,0.41613886,488.83002,0.0,0.0,0.0,0.0,0.0,0.0,inf,inf,inf,inf,1,1,1,1,0,0,0,0,1,1,0
1879116000,0,47.3977508,8.5456074,0.11119493,-0.21075147,-28.669006,0.0,0.0,0.0,-0.01,-0.01,-0.28,0.0,0.0,0.0,0.0,0.0,0.0,0.0,0.41619572,488.83002,0.0,0.0,0.0,0.0,0.0,0.0,inf,inf,inf,inf,1,1,1,1,0,0,0,0,1,1,0
1879216000,0,47.3977508,8.5456074,0.11119493,-0.21075147,-28.697021,0.0,0.0,0.0,-0.01,-0.01,-0.26999998,0.0,0.0,0.0,0.0,0.0,0.0,0.0,0.416336,488.83002,0.0,0.0,0.0,0.0,0.0,0.0,inf,inf,inf,inf,1,1,1,1,0,0,0,0,1,1,0
1879320000,0,47.3977508,8.5456074,0.10007544,-0.21075147,-28.723999,0.0,0.0,0.0,-0.01,-0.01,-0.26,0.0,0.0,0.0,0.0,0.0,0.0,0.0,0.41647857,488.83002,0.0,0.0,0.0,0.0,0.0,0.0,inf,inf,inf,inf,1,1,1,1,0,0,0,0,1,1,0
1879420000,0,47.3977508,8.5456074,0.10007544,-0.21075147,-28.751038,0.0,0.0,0.0,-0.01,-0.01,-0.25,0.0,0.0,0.0,0.0,0.0,0.0,0.0,0.4164824,488.83002,0.0,0.0,0.0,0.0,0.0,0.0,inf,inf,inf,inf,1,1,1,1,0,0,0,0,1,1,0
1879520000,0,47.3977508,8.5456074,0.10007544,-0.21827832,-28.776978,0.0,0.0,0.0,-0.01,-0.01,-0.24,0.0,0.0,0.0,0.0,0.0,0.0,0.0,0.41639784,488.83002,0.0,0.0,0.0,0.0,0.0,0.0,inf,inf,inf,inf,1,1,1,1,0,0,0,0,1,1,0
1879620000,0,47.3977508,8.5456074,0.10007544,-0.21827832,-28.801025,0.0,0.0,0.0,-0.01,-0.01,-0.22999999,0.0,0.0,0.0,0.0,0.0,0.0,0.0,0.41627377,488.83002,0.0,0.0,0.0,0.0,0.0,0.0,inf,inf,inf,inf,1,1,1,1,0,0,0,0,1,1,0
1879716000,0,47.3977508,8.5456074,0.10007544,-0.21827832,-28.822998,0.0,0.0,0.0,-0.01,-0.01,-0.22999999,0.0,0.0,0.0,0.0,0.0,0.0,0.0,0.41604558,488.83002,0.0,0.0,0.0,0.0,0.0,0.0,inf,inf,inf,inf,1,1,1,1,0,0,0,0,1,1,0
1879820000,0,47.3977508,8.5456074,0.10007544,-0.21827832,-28.846985,0.0,0.0,0.0,-0.01,-0.01,-0.22,0.0,0.0,0.0,0.0,0.0,0.0,0.0,0.41589817,488.83002,0.0,0.0,0.0,0.0,0.0,0.0,inf,inf,inf,inf,1,1,1,1,0,0,0,0,1,1,0
1879916000,0,47.3977508,8.5456074,0.088955946,-0.21827832,-28.867004,0.0,0.0,0.0,-0.01,-0.01,-0.21,0.0,0.0,0.0,0.0,0.0,0.0,0.0,0.41583884,488.83002,0.0,0.0,0.0,0.0,0.0,0.0,inf,inf,inf,inf,1,1,1,1,0,0,0,0,1,1,0
1880020000,0,47.3977508,8.5456074,0.088955946,-0.21827832,-28.890015,0.0,0.0,0.0,-0.01,0.0,-0.19999999,0.0,0.0,0.0,0.0,0.0,0.0,0.0,0.41587844,488.83002,0.0,0.0,0.0,0.0,0.0,0.0,inf,inf,inf,inf,1,1,1,1,0,0,0,0,1,1,0
1880116000,0,47.3977508,8.5456074,0.088955946,-0.21827832,-28.910034,0.0,0.0,0.0,-0.01,0.0,-0.19999999,0.0,0.0,0.0,0.0,0.0,0.0,0.0,0.4159471,488.83002,0.0,0.0,0.0,0.0,0.0,0.0,inf,inf,inf,inf,1,1,1,1,0,0,0,0,1,1,0
1880216000,0,47.3977508,8.5456074,0.088955946,-0.22580516,-28.929993,0.0,0.0,0.0,0.0,0.0,-0.19,0.0,0.0,0.0,0.0,0.0,0.0,0.0,0.41597885,488.83002,0.0,0.0,0.0,0.0,0.0,0.0,inf,inf,inf,inf,1,1,1,1,0,0,0,0,1,1,0
1880320000,0,47.3977508,8.5456074,0.088955946,-0.22580516,-28.950012,0.0,0.0,0.0,0.0,0.0,-0.17999999,0.0,0.0,0.0,0.0,0.0,0.0,0.0,0.41599548,488.83002,0.0,0.0,0.0,0.0,0.0,0.0,inf,inf,inf,inf,1,1,1,1,0,0,0,0,1,1,0
1880420000,0,47.3977508,8.5456074,0.088955946,-0.22580516,-28.968018,0.0,0.0,0.0,0.0,0.0,-0.17999999,0.0,0.0,0.0,0.0,0.0,0.0,0.0,0.41602916,488.83002,0.0,0.0,0.0,0.0,0.0,0.0,inf,inf,inf,inf,1,1,1,1,0,0,0,0,1,1,0
1880520000,0,47.3977508,8.5456074,0.088955946,-0.22580516,-28.987,0.0,0.0,0.0,0.0,0.0,-0.17,0.0,0.0,0.0,0.0,0.0,0.0,0.0,0.41604158,488.83002,0.0,0.0,0.0,0.0,0.0,0.0,inf,inf,inf,inf,1,1,1,1,0,0,0,0,1,1,0
1880616000,0,47.3977508,8.5456074,0.088955946,-0.22580516,-29.00299,0.0,0.0,0.0,0.0,0.0,-0.17,0.0,0.0,0.0,0.0,0.0,0.0,0.0,0.41606396,488.83002,0.0,0.0,0.0,0.0,0.0,0.0,inf,inf,inf,inf,1,1,1,1,0,0,0,0,1,1,0
1880716000,0,47.3977508,8.5456074,0.088955946,-0.22580516,-29.02002,0.0,0.0,0.0,0.0,0.0,-0.16,0.0,0.0,0.0,0.0,0.0,0.0,0.0,0.4160717,488.83002,0.0,0.0,0.0,0.0,0.0,0.0,inf,inf,inf,inf,1,1,1,1,0,0,0,0,1,1,0
1880816000,0,47.3977508,8.5456074,0.088955946,-0.22580516,-29.03601,0.0,0.0,0.0,0.0,0.0,-0.16,0.0,0.0,0.0,0.0,0.0,0.0,0.0,0.4160526,488.83002,0.0,0.0,0.0,0.0,0.0,0.0,inf,inf,inf,inf,1,1,1,1,0,0,0,0,1,1,0
1880920000,0,47.3977508,8.5456074,0.088955946,-0.22580516,-29.052979,0.0,0.0,0.0,0.0,0.0,-0.14999999,0.0,0.0,0.0,0.0,0.0,0.0,0.0,0.41595608,488.83002,0.0,0.0,0.0,0.0,0.0,0.0,inf,inf,inf,inf,1,1,1,1,0,0,0,0,1,1,0
1881020000,0,47.3977508,8.5456074,0.088955946,-0.22580516,-29.067993,0.0,0.0,0.0,0.0,0.0,-0.14,0.0,0.0,0.0,0.0,0.0,0.0,0.0,0.41597557,488.83002,0.0,0.0,0.0,0.0,0.0,0.0,inf,inf,inf,inf,1,1,1,1,0,0,0,0,1,1,0
1881120000,0,47.3977508,8.5456074,0.088955946,-0.22580516,-29.082031,0.0,0.0,0.0,0.0,0.0,-0.14,0.0,0.0,0.0,0.0,0.0,0.0,0.0,0.41608414,488.83002,0.0,0.0,0.0,0.0,0.0,0.0,inf,inf,inf,inf,1,1,1,1,0,0,0,0,1,1,0
1881216000,0,47.3977508,8.5456074,0.088955946,-0.22580516,-29.096008,0.0,0.0,0.0,0.0,0.0,-0.13,0.0,0.0,0.0,0.0,0.0,0.0,0.0,0.41618273,488.83002,0.0,0.0,0.0,0.0,0.0,0.0,inf,inf,inf,inf,1,1,1,1,0,0,0,0,1,1,0
1881320000,0,47.3977508,8.5456074,0.088955946,-0.22580516,-29.109985,0.0,0.0,0.0,0.0,0.0,-0.13,0.0,0.0,0.0,0.0,0.0,0.0,0.0,0.4161199,488.83002,0.0,0.0,0.0,0.0,0.0,0.0,inf,inf,inf,inf,1,1,1,1,0,0,0,0,1,1,0
1881416000,0,47.3977508,8.5456074,0.088955946,-0.22580516,-29.122986,0.0,0.0,0.0,0.0,0.01,-0.12,0.0,0.0,0.0,0.0,0.0,0.0,0.0,0.41614336,488.83002,0.0,0.0,0.0,0.0,0.0,0.0,inf,inf,inf,inf,1,1,1,1,0,0,0,0,1,1,0
1881520000,0,47.3977508,8.5456074,0.088955946,-0.22580516,-29.13501,0.0,0.0,0.0,0.01,0.01,-0.12,0.0,0.0,0.0,0.0,0.0,0.0,0.0,0.41636282,488.83002,0.0,0.0,0.0,0.0,0.0,0.0,inf,inf,inf,inf,1,1,1,1,0,0,0,0,1,1,0
1881620000,0,47.3977508,8.5456074,0.10007544,-0.21827832,-29.14801,0.0,0.0,0.0,0.01,0.01,-0.12,0.0,0.0,0.0,0.0,0.0,0.0,0.0,0.41653082,488.83002,0.0,0.0,0.0,0.0,0.0,0.0,inf,inf,inf,inf,1,1,1,1,0,0,0,0,1,1,0
1881720000,0,47.3977508,8.5456074,0.10007544,-0.21827832,-29.160034,0.0,0.0,0.0,0.01,0.01,-0.11,0.0,0.0,0.0,0.0,0.0,0.0,0.0,0.4166096,488.83002,0.0,0.0,0.0,0.0,0.0,0.0,inf,inf,inf,inf,1,1,1,1,0,0,0,0,1,1,0
1881820000,0,47.3977508,8.5456074,0.10007544,-0.21827832,-29.17102,0.0,0.0,0.0,0.01,0.02,-0.11,0.0,0.0,0.0,0.0,0.0,0.0,0.0,0.41664383,488.83002,0.0,0.0,0.0,0.0,0.0,0.0,inf,inf,inf,inf,1,1,1,1,0,0,0,0,1,1,0
1881920000,0,47.3977508,8.5456074,0.10007544,-0.21827832,-29.182983,0.0,0.0,0.0,0.01,0.02,-0.11,0.0,0.0,0.0,0.0,0.0,0.0,0.0,0.4166704,488.83002,0.0,0.0,0.0,0.0,0.0,0.0,inf,inf,inf,inf,1,1,1,1,0,0,0,0,1,1,0
1882020000,0,47.3977508,8.5456074,0.10007544,-0.21075147,-29.19403,0.0,0.0,0.0,0.01,0.02,-0.099999994,0.0,0.0,0.0,0.0,0.0,0.0,0.0,0.41675597,488.83002,0.0,0.0,0.0,0.0,0.0,0.0,inf,inf,inf,inf,1,1,1,1,0,0,0,0,1,1,0
1882120000,0,47.3977508,8.5456074,0.10007544,-0.21075147,-29.205017,0.0,0.0,0.0,0.01,0.02,-0.099999994,0.0,0.0,0.0,0.0,0.0,0.0,0.0,0.41692314,488.83002,0.0,0.0,0.0,0.0,0.0,0.0,inf,inf,inf,inf,1,1,1,1,0,0,0,0,1,1,0
1882220000,0,47.3977508,8.5456074,0.10007544,-0.21075147,-29.215027,0.0,0.0,0.0,0.01,0.02,-0.099999994,0.0,0.0,0.0,0.0,0.0,0.0,0.0,0.4170478,488.83002,0.0,0.0,0.0,0.0,0.0,0.0,inf,inf,inf,inf,1,1,1,1,0,0,0,0,1,1,0
1882316000,0,47.3977508,8.5456074,0.11119493,-0.20322464,-29.225037,0.0,0.0,0.0,0.01,0.02,-0.099999994,0.0,0.0,0.0,0.0,0.0,0.0,0.0,0.4171904,488.83002,0.0,0.0,0.0,0.0,0.0,0.0,inf,inf,inf,inf,1,1,1,1,0,0,0,0,1,1,0
1882420000,0,47.3977508,8.5456074,0.11119493,-0.20322464,-29.234985,0.0,0.0,0.0,0.01,0.02,-0.089999996,0.0,0.0,0.0,0.0,0.0,0.0,0.0,0.4173372,488.83002,0.0,0.0,0.0,0.0,0.0,0.0,inf,inf,inf,inf,1,1,1,1,0,0,0,0,1,1,0
1882520000,0,47.3977508,8.5456074,0.11119493,-0.20322464,-29.244995,0.0,0.0,0.0,0.01,0.02,-0.089999996,0.0,0.0,0.0,0.0,0.0,0.0,0.0,0.41746032,488.83002,0.0,0.0,0.0,0.0,0.0,0.0,inf,inf,inf,inf,1,1,1,1,0,0,0,0,1,1,0
1882620000,0,47.3977508,8.5456074,0.11119493,-0.1956978,-29.254028,0.0,0.0,0.0,0.01,0.02,-0.089999996,0.0,0.0,0.0,0.0,0.0,0.0,0.0,0.41759345,488.83002,0.0,0.0,0.0,0.0,0.0,0.0,inf,inf,inf,inf,1,1,1,1,0,0,0,0,1,1,0
1882716000,0,47.3977508,8.5456074,0.11119493,-0.1956978,-29.263,0.0,0.0,0.0,0.01,0.02,-0.08,0.0,0.0,0.0,0.0,0.0,0.0,0.0,0.41765064,488.83002,0.0,0.0,0.0,0.0,0.0,0.0,inf,inf,inf,inf,1,1,1,1,0,0,0,0,1,1,0
1882820000,0,47.3977508,8.5456074,0.11119493,-0.1956978,-29.272034,0.0,0.0,0.0,0.01,0.02,-0.08,0.0,0.0,0.0,0.0,0.0,0.0,0.0,0.41766155,488.83002,0.0,0.0,0.0,0.0,0.0,0.0,inf,inf,inf,inf,1,1,1,1,0,0,0,0,1,1,0
1882920000,0,47.3977508,8.5456074,0.12231442,-0.18817097,-29.28003,0.0,0.0,0.0,0.01,0.02,-0.07,0.0,0.0,0.0,0.0,0.0,0.0,0.0,0.41768298,488.83002,0.0,0.0,0.0,0.0,0.0,0.0,inf,inf,inf,inf,1,1,1,1,0,0,0,0,1,1,0
1883020000,0,47.3977508,8.5456074,0.12231442,-0.18817097,-29.288025,0.0,0.0,0.0,0.02,0.03,-0.07,0.0,0.0,0.0,0.0,0.0,0.0,0.0,0.41774398,488.83002,0.0,0.0,0.0,0.0,0.0,0.0,inf,inf,inf,inf,1,1,1,1,0,0,0,0,1,1,0
1883120000,0,47.3977508,8.5456074,0.12231442,-0.18064412,-29.294006,0.0,0.0,0.0,0.02,0.03,-0.06,0.0,0.0,0.0,0.0,0.0,0.0,0.0,0.41794357,488.83002,0.0,0.0,0.0,0.0,0.0,0.0,inf,inf,inf,inf,1,1,1,1,0,0,0,0,1,1,0
1883220000,0,47.3977508,8.5456074,0.12231442,-0.18064412,-29.301025,0.0,0.0,0.0,0.02,0.03,-0.06,0.0,0.0,0.0,0.0,0.0,0.0,0.0,0.41817513,488.83002,0.0,0.0,0.0,0.0,0.0,0.0,inf,inf,inf,inf,1,1,1,1,0,0,0,0,1,1,0
1883320000,0,47.3977508,8.5456074,0.12231442,-0.18064412,-29.307007,0.0,0.0,0.0,0.02,0.03,-0.049999997,0.0,0.0,0.0,0.0,0.0,0.0,0.0,0.418352,488.83002,0.0,0.0,0.0,0.0,0.0,0.0,inf,inf,inf,inf,1,1,1,1,0,0,0,0,1,1,0
1883420000,0,47.3977508,8.5456074,0.13343391,-0.17311728,-29.312988,0.0,0.0,0.0,0.02,0.03,-0.049999997,0.0,0.0,0.0,0.0,0.0,0.0,0.0,0.4184091,488.83002,0.0,0.0,0.0,0.0,0.0,0.0,inf,inf,inf,inf,1,1,1,1,0,0,0,0,1,1,0
1883520000,0,47.3977508,8.5456074,0.13343391,-0.17311728,-29.317993,0.0,0.0,0.0,0.02,0.04,-0.049999997,0.0,0.0,0.0,0.0,0.0,0.0,0.0,0.41844606,488.83002,0.0,0.0,0.0,0.0,0.0,0.0,inf,inf,inf,inf,1,1,1,1,0,0,0,0,1,1,0
1883620000,0,47.3977508,8.5456074,0.13343391,-0.16559045,-29.324036,0.0,0.0,0.0,0.02,0.04,-0.049999997,0.0,0.0,0.0,0.0,0.0,0.0,0.0,0.41863275,488.83002,0.0,0.0,0.0,0.0,0.0,0.0,inf,inf,inf,inf,1,1,1,1,0,0,0,0,1,1,0
1883720000,0,47.3977508,8.5456074,0.13343391,-0.1580636,-29.32898,0.0,0.0,0.0,0.02,0.04,-0.049999997,0.0,0.0,0.0,0.0,0.0,0.0,0.0,0.4188857,488.83002,0.0,0.0,0.0,0.0,0.0,0.0,inf,inf,inf,inf,1,1,1,1,0,0,0,0,1,1,0
1883816000,0,47.3977508,8.5456074,0.13343391,-0.1580636,-29.333984,0.0,0.0,0.0,0.02,0.04,-0.049999997,0.0,0.0,0.0,0.0,0.0,0.0,0.0,0.41903418,488.83002,0.0,0.0,0.0,0.0,0.0,0.0,inf,inf,inf,inf,1,1,1,1,0,0,0,0,1,1,0
1883920000,0,47.3977508,8.5456074,0.14455341,-0.15053678,-29.340027,0.0,0.0,0.0,0.02,0.04,-0.049999997,0.0,0.0,0.0,0.0,0.0,0.0,0.0,0.41907224,488.83002,0.0,0.0,0.0,0.0,0.0,0.0,inf,inf,inf,inf,1,1,1,1,0,0,0,0,1,1,0
1884020000,0,47.3977508,8.5456074,0.14455341,-0.15053678,-29.345032,0.0,0.0,0.0,0.02,0.04,-0.049999997,0.0,0.0,0.0,0.0,0.0,0.0,0.0,0.4191889,488.83002,0.0,0.0,0.0,0.0,0.0,0.0,inf,inf,inf,inf,1,1,1,1,0,0,0,0,1,1,0
1884120000,0,47.3977508,8.5456074,0.14455341,-0.14300993,-29.351013,0.0,0.0,0.0,0.02,0.04,-0.049999997,0.0,0.0,0.0,0.0,0.0,0.0,0.0,0.41936943,488.83002,0.0,0.0,0.0,0.0,0.0,0.0,inf,inf,inf,inf,1,1,1,1,0,0,0,0,1,1,0
1884220000,0,47.3977508,8.5456074,0.14455341,-0.13548309,-29.356018,0.0,0.0,0.0,0.02,0.04,-0.049999997,0.0,0.0,0.0,0.0,0.0,0.0,0.0,0.41953945,488.83002,0.0,0.0,0.0,0.0,0.0,0.0,inf,inf,inf,inf,1,1,1,1,0,0,0,0,1,1,0
1884320000,0,47.3977508,8.5456074,0.1556729,-0.13548309,-29.362,0.0,0.0,0.0,0.02,0.04,-0.049999997,0.0,0.0,0.0,0.0,0.0,0.0,0.0,0.4196723,488.83002,0.0,0.0,0.0,0.0,0.0,0.0,inf,inf,inf,inf,1,1,1,1,0,0,0,0,1,1,0
1884416000,0,47.3977508,8.5456074,0.1556729,-0.12795626,-29.367981,0.0,0.0,0.0,0.02,0.04,-0.049999997,0.0,0.0,0.0,0.0,0.0,0.0,0.0,0.4197751,488.83002,0.0,0.0,0.0,0.0,0.0,0.0,inf,inf,inf,inf,1,1,1,1,0,0,0,0,1,1,0
1884520000,0,47.3977508,8.5456074,0.1556729,-0.12795626,-29.374023,0.0,0.0,0.0,0.02,0.04,-0.049999997,0.0,0.0,0.0,0.0,0.0,0.0,0.0,0.41979435,488.83002,0.0,0.0,0.0,0.0,0.0,0.0,inf,inf,inf,inf,1,1,1,1,0,0,0,0,1,1,0
1884620000,0,47.3977508,8.5456074,0.1556729,-0.12042942,-29.380005,0.0,0.0,0.0,0.02,0.04,-0.049999997,0.0,0.0,0.0,0.0,0.0,0.0,0.0,0.41976467,488.83002,0.0,0.0,0.0,0.0,0.0,0.0,inf,inf,inf,inf,1,1,1,1,0,0,0,0,1,1,0
1884720000,0,47.3977508,8.5456074,0.1667924,-0.12042942,-29.38501,0.0,0.0,0.0,0.02,0.04,-0.049999997,0.0,0.0,0.0,0.0,0.0,0.0,0.0,0.4197959,488.83002,0.0,0.0,0.0,0.0,0.0,0.0,inf,inf,inf,inf,1,1,1,1,0,0,0,0,1,1,0
1884816000,0,47.3977508,8.5456074,0.1667924,-0.112902574,-29.390991,0.0,0.0,0.0,0.02,0.04,-0.049999997,0.0,0.0,0.0,0.0,0.0,0.0,0.0,0.41979724,488.83002,0.0,0.0,0.0,0.0,0.0,0.0,inf,inf,inf,inf,1,1,1,1,0,0,0,0,1,1,0
1884920000,0,47.3977508,8.5456074,0.1667924,-0.112902574,-29.397034,0.0,0.0,0.0,0.02,0.03,-0.049999997,0.0,0.0,0.0,0.0,0.0,0.0,0.0,0.4199159,488.83002,0.0,0.0,0.0,0.0,0.0,0.0,inf,inf,inf,inf,1,1,1,1,0,0,0,0,1,1,0
1885020000,0,47.3977508,8.5456074,0.1667924,-0.10537574,-29.401978,0.0,0.0,0.0,0.02,0.03,-0.049999997,0.0,0.0,0.0,0.0,0.0,0.0,0.0,0.41994962,488.83002,0.0,0.0,0.0,0.0,0.0,0.0,inf,inf,inf,inf,1,1,1,1,0,0,0,0,1,1,0
1885116000,0,47.3977508,8.5456074,0.17791188,-0.10537574,-29.406982,0.0,0.0,0.0,0.02,0.03,-0.049999997,0.0,0.0,0.0,0.0,0.0,0.0,0.0,0.4198885,488.83002,0.0,0.0,0.0,0.0,0.0,0.0,inf,inf,inf,inf,1,1,1,1,0,0,0,0,1,1,0
1885220000,0,47.3977508,8.5456074,0.17791188,-0.0978489,-29.413025,0.0,0.0,0.0,0.02,0.03,-0.049999997,0.0,0.0,0.0,0.0,0.0,0.0,0.0,0.41981515,488.83002,0.0,0.0,0.0,0.0,0.0,0.0,inf,inf,inf,inf,1,1,1,1,0,0,0,0,1,1,0
1885320000,0,47.3977508,8.5456074,0.17791188,-0.0978489,-29.41803,0.0,0.0,0.0,0.02,0.03,-0.049999997,0.0,0.0,0.0,0.0,0.0,0.0,0.0,0.41980457,488.83002,0.0,0.0,0.0,0.0,0.0,0.0,inf,inf,inf,inf,1,1,1,1,0,0,0,0,1,1,0
1885420000,0,47.3977508,8.5456074,0.17791188,-0.09032206,-29.423035,0.0,0.0,0.0,0.02,0.03,-0.04,0.0,0.0,0.0,0.0,0.0,0.0,0.0,0.41991985,488.83002,0.0,0.0,0.0,0.0,0.0,0.0,inf,inf,inf,inf,1,1,1,1,0,0,0,0,1,1,0
1885516000,0,47.3977508,8.5456074,0.17791188,-0.09032206,-29.427002,0.0,0.0,0.0,0.02,0.03,-0.04,0.0,0.0,0.0,0.0,0.0,0.0,0.0,0.41998413,488.83002,0.0,0.0,0.0,0.0,0.0,0.0,inf,inf,inf,inf,1,1,1,1,0,0,0,0,1,1,0
1885620000,0,47.3977508,8.5456074,0.18903138,-0.082795225,-29.432007,0.0,0.0,0.0,0.02,0.03,-0.04,0.0,0.0,0.0,0.0,0.0,0.0,0.0,0.42005768,488.83002,0.0,0.0,0.0,0.0,0.0,0.0,inf,inf,inf,inf,1,1,1,1,0,0,0,0,1,1,0
1885716000,0,47.3977508,8.5456074,0.18903138,-0.082795225,-29.436035,0.0,0.0,0.0,0.02,0.03,-0.04,0.0,0.0,0.0,0.0,0.0,0.0,0.0,0.4202967,488.83002,0.0,0.0,0.0,0.0,0.0,0.0,inf,inf,inf,inf,1,1,1,1,0,0,0,0,1,1,0
1885820000,0,47.3977508,8.5456074,0.18903138,-0.07526839,-29.440979,0.0,0.0,0.0,0.02,0.03,-0.04,0.0,0.0,0.0,0.0,0.0,0.0,0.0,0.420404,488.83002,0.0,0.0,0.0,0.0,0.0,0.0,inf,inf,inf,inf,1,1,1,1,0,0,0,0,1,1,0
1885916000,0,47.3977508,8.5456074,0.18903138,-0.07526839,-29.445007,0.0,0.0,0.0,0.02,0.03,-0.04,0.0,0.0,0.0,0.0,0.0,0.0,0.0,0.42044985,488.83002,0.0,0.0,0.0,0.0,0.0,0.0,inf,inf,inf,inf,1,1,1,1,0,0,0,0,1,1,0
1886020000,0,47.3977508,8.5456074,0.20015086,-0.06774154,-29.449036,0.0,0.0,0.0,0.02,0.03,-0.04,0.0,0.0,0.0,0.0,0.0,0.0,0.0,0.42044133,488.83002,0.0,0.0,0.0,0.0,0.0,0.0,inf,inf,inf,inf,1,1,1,1,0,0,0,0,1,1,0
1886120000,0,47.3977508,8.5456074,0.20015086,-0.06774154,-29.453003,0.0,0.0,0.0,0.02,0.03,-0.03,0.0,0.0,0.0,0.0,0.0,0.0,0.0,0.4204738,488.83002,0.0,0.0,0.0,0.0,0.0,0.0,inf,inf,inf,inf,1,1,1,1,0,0,0,0,1,1,0
1886220000,0,47.3977508,8.5456074,0.20015086,-0.060214706,-29.457031,0.0,0.0,0.0,0.02,0.03,-0.03,0.0,0.0,0.0,0.0,0.0,0.0,0.0,0.42048728,488.83002,0.0,0.0,0.0,0.0,0.0,0.0,inf,inf,inf,inf,1,1,1,1,0,0,0,0,1,1,0
1886320000,0,47.3977508,8.5456074,0.20015086,-0.060214706,-29.460999,0.0,0.0,0.0,0.01,0.03,-0.03,0.0,0.0,0.0,0.0,0.0,0.0,0.0,0.42052972,488.83002,0.0,0.0,0.0,0.0,0.0,0.0,inf,inf,inf,inf,1,1,1,1,0,0,0,0,1,1,0
1886416000,0,47.3977508,8.5456074,0.20015086,-0.05268787,-29.465027,0.0,0.0,0.0,0.01,0.03,-0.03,0.0,0.0,0.0,0.0,0.0,0.0,0.0,0.42052704,488.83002,0.0,0.0,0.0,0.0,0.0,0.0,inf,inf,inf,inf,1,1,1,1,0,0,0,0,1,1,0
1886516000,0,47.3977508,8.5456074,0.21127036,-0.05268787,-29.468994,0.0,0.0,0.0,0.01,0.03,-0.03,0.0,0.0,0.0,0.0,0.0,0.0,0.0,0.42044914,488.83002,0.0,0.0,0.0,0.0,0.0,0.0,inf,inf,inf,inf,1,1,1,1,0,0,0,0,1,1,0
1886620000,0,47.3977508,8.5456074,0.21127036,-0.04516103,-29.473022,0.0,0.0,0.0,0.01,0.03,-0.03,0.0,0.0,0.0,0.0,0.0,0.0,0.0,0.4204592,488.83002,0.0,0.0,0.0,0.0,0.0,0.0,inf,inf,inf,inf,1,1,1,1,0,0,0,0,1,1,0
1886720000,0,47.3977508,8.5456074,0.21127036,-0.04516103,-29.476013,0.0,0.0,0.0,0.01,0.03,-0.03,0.0,0.0,0.0,0.0,0.0,0.0,0.0,0.42049313,488.83002,0.0,0.0,0.0,0.0,0.0,0.0,inf,inf,inf,inf,1,1,1,1,0,0,0,0,1,1,0
1886816000,0,47.3977508,8.5456074,0.21127036,-0.037634194,-29.479004,0.0,0.0,0.0,0.01,0.03,-0.03,0.0,0.0,0.0,0.0,0.0,0.0,0.0,0.4205986,488.83002,0.0,0.0,0.0,0.0,0.0,0.0,inf,inf,inf,inf,1,1,1,1,0,0,0,0,1,1,0
1886920000,0,47.3977508,8.5456074,0.21127036,-0.037634194,-29.483032,0.0,0.0,0.0,0.01,0.03,-0.03,0.0,0.0,0.0,0.0,0.0,0.0,0.0,0.42062744,488.83002,0.0,0.0,0.0,0.0,0.0,0.0,inf,inf,inf,inf,1,1,1,1,0,0,0,0,1,1,0
1887020000,0,47.3977508,8.5456074,0.21127036,-0.030107353,-29.486023,0.0,0.0,0.0,0.01,0.03,-0.03,0.0,0.0,0.0,0.0,0.0,0.0,0.0,0.42073578,488.83002,0.0,0.0,0.0,0.0,0.0,0.0,inf,inf,inf,inf,1,1,1,1,0,0,0,0,1,1,0
1887120000,0,47.3977508,8.5456074,0.22238985,-0.030107353,-29.48999,0.0,0.0,0.0,0.01,0.03,-0.03,0.0,0.0,0.0,0.0,0.0,0.0,0.0,0.42091307,488.83002,0.0,0.0,0.0,0.0,0.0,0.0,inf,inf,inf,inf,1,1,1,1,0,0,0,0,1,1,0
1887220000,0,47.3977508,8.5456074,0.22238985,-0.030107353,-29.492981,0.0,0.0,0.0,0.01,0.03,-0.03,0.0,0.0,0.0,0.0,0.0,0.0,0.0,0.4210332,488.83002,0.0,0.0,0.0,0.0,0.0,0.0,inf,inf,inf,inf,1,1,1,1,0,0,0,0,1,1,0
1887320000,0,47.3977508,8.5456074,0.22238985,-0.022580516,-29.496033,0.0,0.0,0.0,0.01,0.03,-0.03,0.0,0.0,0.0,0.0,0.0,0.0,0.0,0.42109692,488.83002,0.0,0.0,0.0,0.0,0.0,0.0,inf,inf,inf,inf,1,1,1,1,0,0,0,0,1,1,0
1887420000,0,47.3977508,8.5456074,0.22238985,-0.022580516,-29.499023,0.0,0.0,0.0,0.01,0.02,-0.03,0.0,0.0,0.0,0.0,0.0,0.0,0.0,0.42114937,488.83002,0.0,0.0,0.0,0.0,0.0,0.0,inf,inf,inf,inf,1,1,1,1,0,0,0,0,1,1,0
1887516000,0,47.3977508,8.5456074,0.22238985,-0.015053676,-29.502014,0.0,0.0,0.0,0.01,0.02,-0.03,0.0,0.0,0.0,0.0,0.0,0.0,0.0,0.4212196,488.83002,0.0,0.0,0.0,0.0,0.0,0.0,inf,inf,inf,inf,1,1,1,1,0,0,0,0,1,1,0
1887620000,0,47.3977508,8.5456074,0.22238985,-0.015053676,-29.505005,0.0,0.0,0.0,0.01,0.02,-0.02,0.0,0.0,0.0,0.0,0.0,0.0,0.0,0.42133892,488.83002,0.0,0.0,0.0,0.0,0.0,0.0,inf,inf,inf,inf,1,1,1,1,0,0,0,0,1,1,0
1887720000,0,47.3977508,8.5456074,0.22238985,-0.015053676,-29.507996,0.0,0.0,0.0,0.01,0.02,-0.02,0.0,0.0,0.0,0.0,0.0,0.0,0.0,0.4214306,488.83002,0.0,0.0,0.0,0.0,0.0,0.0,inf,inf,inf,inf,1,1,1,1,0,0,0,0,1,1,0
