timestamp,roll_body,pitch_body,yaw_body,yaw_sp_move_rate,q_d[0],q_d[1],q_d[2],q_d[3],thrust_body[0],thrust_body[1],thrust_body[2],q_d_valid,roll_reset_integral,pitch_reset_integral,yaw_reset_integral,fw_control_yaw,apply_flaps
1860232000,0.1233068,0.1240321,0.41549903,0.0,0.9755486,0.04741475,0.07321248,0.20173416,0.0,0.0,-0.121854186,1,0,0,0,0,0
1860328000,-0.018735407,0.006295555,0.4159013,0.0,0.9784022,-0.009815552,0.0011458489,0.20647392,0.0,0.0,-0.120023444,1,0,0,0,0,0
1860420000,-0.015837014,-0.007841179,0.4159013,0.0,0.9784243,-0.0069383727,-0.005470781,0.20641671,0.0,0.0,-0.15457146,1,0,0,0,0,0
1860532000,-0.008012583,-0.009800109,0.4159013,0.0,0.9784405,-0.002908293,-0.005621537,0.20643178,0.0,0.0,-0.23577219,1,0,0,0,0,0
1860624000,-0.0054287845,-0.010368963,0.4159013,0.0,0.9784422,-0.0015855208,-0.005633137,0.20643784,0.0,0.0,-0.3037727,1,0,0,0,0,0
1860720000,-0.0041349367,-0.007976109,0.4159013,0.0,0.9784479,-0.0011995591,-0.004328953,0.20644498,0.0,0.0,-0.37439075,1,0,0,0,0,0
1860832000,-0.0015361555,-0.0058479724,0.4159013,0.0,0.9784521,-0.00014785613,-0.0030195597,0.20645203,0.0,0.0,-0.45755634,1,0,0,0,0,0
1860924000,0.00083150377,-0.0072204135,0.4159013,0.0,0.9784493,0.0011521364,-0.003446587,0.20645523,0.0,0.0,-0.5278141,1,0,0,0,0,0
1861036000,0.0007771017,-0.0061505865,0.4159013,0.0,0.97845113,0.0010150871,-0.0029288165,0.2064553,0.0,0.0,-0.60994565,1,0,0,0,0,0
1861128000,0.0012299808,-0.0061224974,0.4159013,0.0,0.97845095,0.0012337475,-0.0028683248,0.20645599,0.0,0.0,-0.60813826,1,0,0,0,0,0
1861224000,0.0036563238,-5.8055543e-06,0.4159013,0.0,0.9784544,0.0017893743,0.000374593,0.20645478,0.0,0.0,-0.6085773,1,0,0,0,0,0
1861336000,0.0037812265,0.0044932556,0.4159013,0.0,0.97845274,0.0013860493,0.0025885461,0.2064501,0.0,0.0,-0.61724204,1,0,0,0,0,0
1861428000,0.0032878204,0.0052385707,0.4159013,0.0,0.9784523,0.0010677242,0.0029022417,0.20644994,0.0,0.0,-0.6142186,1,0,0,0,0,0
1861520000,0.0036384373,0.0038453445,0.4159013,0.0,0.9784534,0.0013830764,0.0022568319,0.20645098,0.0,0.0,-0.61180013,1,0,0,0,0,0
1861632000,0.0047425833,0.005147952,0.4159013,0.0,0.9784514,0.0017887863,0.0030080755,0.20644791,0.0,0.0,-0.614482,1,0,0,0,0,0
1861728000,0.0036758492,0.005629278,0.4159013,0.0,0.97845167,0.0012172252,0.003133439,0.20644891,0.0,0.0,-0.6216467,1,0,0,0,0,0
1861820000,0.0044453507,0.0058092703,0.4159013,0.0,0.9784509,0.0015751047,0.0033009269,0.20644745,0.0,0.0,-0.6214681,1,0,0,0,0,0
1861932000,0.0040274775,0.0043249615,0.4159013,0.0,0.9784527,0.0015238948,0.0025316318,0.20644996,0.0,0.0,-0.62346065,1,0,0,0,0,0
1862024000,0.004235142,0.0035865817,0.4159013,0.0,0.97845304,0.001701712,0.0021918337,0.20645063,0.0,0.0,-0.62154454,1,0,0,0,0,0
1862120000,0.004587002,0.0027751483,0.4159013,0.0,0.9784532,0.001957615,0.0018311805,0.20645128,0.0,0.0,-0.6303169,1,0,0,0,0,0
1862232000,0.003478641,0.003000477,0.4159013,0.0,0.97845405,0.0013921143,0.0018270056,0.20645203,0.0,0.0,-0.63209236,1,0,0,0,0,0
1862324000,0.0035574513,0.005989333,0.4159013,0.0,0.97845125,0.0011221337,0.003297366,0.20644867,0.0,0.0,-0.6315108,1,0,0,0,0,0
1862436000,0.0036913708,0.0050182403,0.4159013,0.0,0.9784523,0.0012878961,0.0028361068,0.2064496,0.0,0.0,-0.6338301,1,0,0,0,0,0
1862528000,0.002530419,0.0052231215,0.4159013,0.0,0.9784526,0.0006987783,0.0028165006,0.20645103,0.0,0.0,-0.63311964,1,0,0,0,0,0
1862624000,0.0025230695,0.0043260343,0.4159013,0.0,0.9784536,0.00078778784,0.0023768635,0.20645185,0.0,0.0,-0.6410067,1,0,0,0,0,0
1862736000,0.0033871208,0.006152975,0.4159013,0.0,0.9784511,0.001021911,0.0033598412,0.20644878,0.0,0.0,-0.6420411,1,0,0,0,0,0
1862828000,0.0035204077,0.005597935,0.4159013,0.0,0.9784517,0.0011444148,0.0031020602,0.20644921,0.0,0.0,-0.64188856,1,0,0,0,0,0
1862920000,0.0034428223,0.0056437463,0.4159013,0.0,0.9784517,0.001101729,0.0031164638,0.20644926,0.0,0.0,-0.60474145,1,0,0,0,0,0
1863032000,0.0046714223,0.007451653,0.4159013,0.0,0.97844845,0.0015161608,0.0041277553,0.20644465,0.0,0.0,-0.53391635,1,0,0,0,0,0
1863128000,0.004454581,0.0082346415,0.4159013,0.0,0.97844726,0.0013292478,0.0044884267,0.20644389,0.0,0.0,-0.5719209,1,0,0,0,0,0
1863220000,0.0044023157,0.0070356163,0.4159013,0.0,0.9784492,0.0014274549,0.0038964425,0.20644581,0.0,0.0,-0.57054114,1,0,0,0,0,0
1863332000,0.0043479004,0.008995349,0.4159013,0.0,0.9784459,0.0011985289,0.00484957,0.20644298,0.0,0.0,-0.56693965,1,0,0,0,0,0
1863424000,0.0039065685,0.0077688806,0.4159013,0.0,0.97844845,0.001109228,0.0042039994,0.20644578,0.0,0.0,-0.5685701,1,0,0,0,0,0
1863520000,0.002409087,0.009609449,0.4159013,0.0,0.9784453,0.00018662357,0.004949871,0.20644695,0.0,0.0,-0.57479674,1,0,0,0,0,0
1863632000,0.00401824,0.008198882,0.4159013,0.0,0.97844756,0.0011194712,0.0044258926,0.2064449,0.0,0.0,-0.5758682,1,0,0,0,0,0
1863724000,0.0054990537,0.008309497,0.4159013,0.0,0.97844625,0.0018325013,0.00463286,0.2064414,0.0,0.0,-0.57242024,1,0,0,0,0,0
1863836000,0.0033198334,0.006399064,0.4159013,0.0,0.97845083,0.00096358865,0.003473288,0.20644861,0.0,0.0,-0.5753682,1,0,0,0,0,0
1863928000,0.0027653016,0.0080890935,0.4159013,0.0,0.9784483,0.00051783706,0.0042428495,0.20644778,0.0,0.0,-0.5718217,1,0,0,0,0,0
1864024000,0.003154441,0.006714095,0.4159013,0.0,0.9784504,0.00085015415,0.003610336,0.20644855,0.0,0.0,-0.58059496,1,0,0,0,0,0
1864136000,0.0026034212,0.007747524,0.4159013,0.0,0.9784489,0.00047390134,0.004059036,0.20644848,0.0,0.0,-0.58166295,1,0,0,0,0,0
1864228000,0.0020059492,0.007247442,0.4159013,0.0,0.9784499,0.00023322625,0.00375271,0.20645012,0.0,0.0,-0.5783805,1,0,0,0,0,0
1864320000,0.0016678497,0.006967843,0.4159013,0.0,0.9784504,9.668202e-05,0.0035810228,0.20645097,0.0,0.0,-0.57683223,1,0,0,0,0,0
1864432000,0.0030142698,0.0074525443,0.4159013,0.0,0.97844934,0.00070534914,0.0039571347,0.20644796,0.0,0.0,-0.57737195,1,0,0,0,0,0
1864528000,0.0039052805,0.005939537,0.4159013,0.0,0.97845113,0.0012974411,0.0033089083,0.20644815,0.0,0.0,-0.58256817,1,0,0,0,0,0
1864620000,0.003366094,0.005073983,0.4159013,0.0,0.9784524,0.0011230079,0.002829801,0.20645002,0.0,0.0,-0.58003265,1,0,0,0,0,0
1864732000,0.0017187458,0.005359465,0.4159013,0.0,0.9784527,0.00028761185,0.0027994178,0.20645204,0.0,0.0,-0.58055305,1,0,0,0,0,0
1864824000,0.0018426384,0.0071367146,0.4159013,0.0,0.9784501,0.00016476066,0.0036816816,0.20645052,0.0,0.0,-0.5767805,1,0,0,0,0,0
1864920000,0.0017734113,0.0072284355,0.4159013,0.0,0.97844994,0.00012142487,0.0037194078,0.20645058,0.0,0.0,-0.58400905,1,0,0,0,0,0
1865032000,0.0016292221,0.0070595667,0.4159013,0.0,0.97845024,6.831595e-05,0.0036219093,0.20645095,0.0,0.0,-0.5836816,1,0,0,0,0,0
1865124000,0.002882489,0.006645656,0.4159013,0.0,0.97845066,0.0007241731,0.0035487826,0.20644909,0.0,0.0,-0.5833405,1,0,0,0,0,0
1865236000,0.0024656137,0.008303866,0.4159013,0.0,0.978448,0.0003490518,0.0043169865,0.20644821,0.0,0.0,-0.5820029,1,0,0,0,0,0
1865328000,0.0019335386,0.00872309,0.4159013,0.0,0.9784472,4.5472156e-05,0.0044671576,0.20644896,0.0,0.0,-0.5795351,1,0,0,0,0,0
1865420000,0.003170301,0.008855059,0.4159013,0.0,0.9784467,0.0006369022,0.004659382,0.20644598,0.0,0.0,-0.5830369,1,0,0,0,0,0
1865532000,0.003613962,0.0097743925,0.4159013,0.0,0.97844464,0.0007590485,0.0051549356,0.20644371,0.0,0.0,-0.5788634,1,0,0,0,0,0
1865628000,0.0030493892,0.009509963,0.4159013,0.0,0.97844535,0.0005101439,0.0049672956,0.20644547,0.0,0.0,-0.58271116,1,0,0,0,0,0
1865720000,0.0030714078,0.00967866,0.4159013,0.0,0.97844505,0.00050350104,0.005052098,0.2064452,0.0,0.0,-0.57989025,1,0,0,0,0,0
1865832000,0.0036067343,0.010153342,0.4159013,0.0,0.97844374,0.00071639335,0.005339579,0.20644319,0.0,0.0,-0.58172625,1,0,0,0,0,0
1865924000,0.0032650072,0.009788624,0.4159013,0.0,0.9784447,0.00058686285,0.005125878,0.20644458,0.0,0.0,-0.57649094,1,0,0,0,0,0
1866020000,0.0028582301,0.010581042,0.4159013,0.0,0.97844297,0.0003060571,0.0054715564,0.20644468,0.0,0.0,-0.5824132,1,0,0,0,0,0
1866128000,0.0034442798,0.011291006,0.4159013,0.0,0.978441,0.0005194752,0.0058793775,0.20644204,0.0,0.0,-0.57986957,1,0,0,0,0,0
1866220000,0.0029308107,0.010954077,0.4159013,0.0,0.978442,0.0003030568,0.005661545,0.20644398,0.0,0.0,-0.5755681,1,0,0,0,0,0
1866332000,0.0040868246,0.010311596,0.4159013,0.0,0.9784432,0.00093492726,0.0054665566,0.20644166,0.0,0.0,-0.5768011,1,0,0,0,0,0
1866428000,0.002817538,0.011091453,0.4159013,0.0,0.97844166,0.00023346022,0.0057170596,0.20644411,0.0,0.0,-0.5766345,1,0,0,0,0,0
1866524000,0.0020472426,0.011329817,0.4159013,0.0,0.97844106,-0.00016799034,0.0057541598,0.20644604,0.0,0.0,-0.5827363,1,0,0,0,0,0
1866616000,-0.00023585327,0.012094692,0.4159013,0.0,0.978438,-0.001363882,0.0058926805,0.20645207,0.0,0.0,-0.5828034,1,0,0,0,0,0
1866728000,1.7700682e-05,0.012414288,0.4159013,0.0,0.97843724,-0.0012728289,0.0060752057,0.20645112,0.0,0.0,-0.58232284,1,0,0,0,0,0
1866820000,5.5258715e-05,0.013105041,0.4159013,0.0,0.9784351,-0.0013257583,0.006417012,0.20645054,0.0,0.0,-0.5791326,1,0,0,0,0,0
1866932000,-0.00044905944,0.013263011,0.4159013,0.0,0.97843426,-0.0015887858,0.0064422344,0.20645206,0.0,0.0,-0.5795504,1,0,0,0,0,0
1867028000,0.0003409304,0.013569243,0.4159013,0.0,0.9784337,-0.0012339206,0.006673596,0.20644927,0.0,0.0,-0.5853253,1,0,0,0,0,0
1867120000,0.0015274355,0.014299589,0.4159013,0.0,0.9784319,-0.00072885386,0.007153368,0.20644446,0.0,0.0,-0.58438754,1,0,0,0,0,0
1867232000,0.0008236373,0.014635033,0.4159013,0.0,0.9784304,-0.0011077896,0.007244824,0.20644665,0.0,0.0,-0.5809935,1,0,0,0,0,0
1867324000,0.00021466185,0.015278771,0.4159013,0.0,0.9784277,-0.0014721594,0.0074968883,0.2064483,0.0,0.0,-0.5798685,1,0,0,0,0,0
1867420000,0.0026680247,0.015874822,0.4159013,0.0,0.9784266,-0.00033346942,0.008041725,0.20643808,0.0,0.0,-0.58396757,1,0,0,0,0,0
1867532000,0.002605376,0.01451449,0.4159013,0.0,0.9784314,-0.00022369187,0.007369766,0.20644028,0.0,0.0,-0.6089881,1,0,0,0,0,0
1867624000,0.0018940076,0.013882139,0.4159013,0.0,0.97843343,-0.0005064281,0.0069869827,0.20644362,0.0,0.0,-0.6348354,1,0,0,0,0,0
1867716000,0.0015036493,0.01306411,0.4159013,0.0,0.97843593,-0.0006129547,0.006546496,0.20644587,0.0,0.0,-0.6481923,1,0,0,0,0,0
1867832000,0.0005812887,0.012131447,0.4159013,0.0,0.9784384,-0.00096791453,0.0059950114,0.20644963,0.0,0.0,-0.69083506,1,0,0,0,0,0
1867924000,0.0007920631,0.012144534,0.4159013,0.0,0.97843844,-0.0008661504,0.00602317,0.20644896,0.0,0.0,-0.68970597,1,0,0,0,0,0
1868020000,0.00081800367,0.011048817,0.4159013,0.0,0.9784415,-0.00074035255,0.005489803,0.20644976,0.0,0.0,-0.6872563,1,0,0,0,0,0
1868132000,0.00030765784,0.01156454,0.4159013,0.0,0.9784399,-0.0010432601,0.005689423,0.20645078,0.0,0.0,-0.66205466,1,0,0,0,0,0
1868224000,0.00081233634,0.013452477,0.4159013,0.0,0.97843444,-0.0009912471,0.0066651315,0.20644777,0.0,0.0,-0.6329016,1,0,0,0,0,0
1868336000,0.0018383125,0.012891817,0.4159013,0.0,0.9784365,-0.00043144586,0.0064967517,0.20644498,0.0,0.0,-0.6034187,1,0,0,0,0,0
1868428000,0.00064336724,0.013796925,0.4159013,0.0,0.9784332,-0.0011094657,0.0068162,0.20644805,0.0,0.0,-0.59190816,1,0,0,0,0,0
1868524000,-0.00037282176,0.012905033,0.4159013,0.0,0.9784355,-0.0015145368,0.006274975,0.20645203,0.0,0.0,-0.6117742,1,0,0,0,0,0
1868636000,-0.0010187045,0.012610897,0.4159013,0.0,0.9784358,-0.0018001524,0.0060644066,0.20645414,0.0,0.0,-0.60712904,1,0,0,0,0,0
1868728000,-0.00249062,0.012693802,0.4159013,0.0,0.978434,-0.0025287964,0.0059530213,0.20645858,0.0,0.0,-0.6019268,1,0,0,0,0,0
1868820000,-0.0016663093,0.013672224,0.4159013,0.0,0.9784317,-0.0022265248,0.0065167756,0.20645581,0.0,0.0,-0.5952751,1,0,0,0,0,0
1868932000,-0.0012377419,0.013676948,0.4159013,0.0,0.9784322,-0.0020173502,0.006563326,0.2064544,0.0,0.0,-0.5971494,1,0,0,0,0,0
1869028000,-0.0015762942,0.012578413,0.4159013,0.0,0.9784354,-0.002069582,0.0059909564,0.20645586,0.0,0.0,-0.60801095,1,0,0,0,0,0
1869120000,-0.0017863681,0.012888422,0.4159013,0.0,0.97843426,-0.0022043537,0.0061209328,0.20645641,0.0,0.0,-0.6025395,1,0,0,0,0,0
1869232000,-0.0032426333,0.013702555,0.4159013,0.0,0.9784295,-0.0030008177,0.0063688913,0.20646092,0.0,0.0,-0.6011348,1,0,0,0,0,0
1869324000,-0.0018565033,0.013494512,0.4159013,0.0,0.97843206,-0.002301227,0.006410203,0.20645647,0.0,0.0,-0.5954557,1,0,0,0,0,0
1869420000,-0.0029662119,0.0140725905,0.4159013,0.0,0.97842866,-0.0029037828,0.0065784534,0.20645998,0.0,0.0,-0.60780054,1,0,0,0,0,0
1869532000,-0.0035531397,0.013613187,0.4159013,0.0,0.9784294,-0.0031434977,0.006293118,0.20646189,0.0,0.0,-0.60853165,1,0,0,0,0,0
1869624000,-0.0027495432,0.0138610285,0.4159013,0.0,0.97842973,-0.002775948,0.0064973207,0.20645931,0.0,0.0,-0.6037423,1,0,0,0,0,0
1869736000,-0.0031599007,0.011867081,0.4159013,0.0,0.9784357,-0.0027708851,0.0054794843,0.20646042,0.0,0.0,-0.6039889,1,0,0,0,0,0
1869828000,-0.00142349,0.012799433,0.4159013,0.0,0.97843486,-0.0020176421,0.006114857,0.20645534,0.0,0.0,-0.5966156,1,0,0,0,0,0
1869924000,-0.0015502325,0.010447386,0.4159013,0.0,0.9784416,-0.0018368596,0.0049511045,0.20645626,0.0,0.0,-0.60904735,1,0,0,0,0,0
1870036000,-0.0014292352,0.009906158,0.4159013,0.0,0.9784431,-0.0017217975,0.0046988144,0.206456,0.0,0.0,-0.6093828,1,0,0,0,0,0
1870128000,-0.0021612286,0.011552294,0.4159013,0.0,0.9784379,-0.0022498232,0.005428576,0.20645769,0.0,0.0,-0.6047152,1,0,0,0,0,0
1870220000,-0.0050300495,0.012213585,0.4159013,0.0,0.9784316,-0.0037215592,0.0054559424,0.20646565,0.0,0.0,-0.5961433,1,0,0,0,0,0
1870332000,-0.0052126534,0.012270194,0.4159013,0.0,0.978431,-0.0038167352,0.005464786,0.20646621,0.0,0.0,-0.5953926,1,0,0,0,0,0
1870428000,-0.0037185464,0.011373567,0.4159013,0.0,0.97843635,-0.0029932444,0.005180379,0.20646182,0.0,0.0,-0.60908854,1,0,0,0,0,0
1870520000,-0.0035018073,0.009962697,0.4159013,0.0,0.97844064,-0.0027415792,0.0045125247,0.20646077,0.0,0.0,-0.60243934,1,0,0,0,0,0
1870632000,-0.0033962992,0.010747298,0.4159013,0.0,0.9784387,-0.00277095,0.00490726,0.20646079,0.0,0.0,-0.60455245,1,0,0,0,0,0
1870724000,-0.0041740546,0.011218967,0.4159013,0.0,0.9784362,-0.003200129,0.005057722,0.2064629,0.0,0.0,-0.5983029,1,0,0,0,0,0
1870820000,-0.0034839343,0.011616763,0.4159013,0.0,0.978436,-0.0029035704,0.005323573,0.20646125,0.0,0.0,-0.61089885,1,0,0,0,0,0
1870932000,-0.004190077,0.011395069,0.4159013,0.0,0.9784356,-0.0032261445,0.0051422203,0.20646302,0.0,0.0,-0.6105396,1,0,0,0,0,0
1871024000,-0.0050355103,0.011333357,0.4159013,0.0,0.9784343,-0.0036333753,0.0050247535,0.20646515,0.0,0.0,-0.6043743,1,0,0,0,0,0
1871136000,-0.0044393884,0.011930098,0.4159013,0.0,0.9784335,-0.0034033374,0.0053782305,0.20646392,0.0,0.0,-0.6045225,1,0,0,0,0,0
1871228000,-0.003372728,0.010995455,0.4159013,0.0,0.97843796,-0.0027850335,0.0050310967,0.20646079,0.0,0.0,-0.59702015,1,0,0,0,0,0
1871324000,-0.003882981,0.010727876,0.4159013,0.0,0.978438,-0.0030070394,0.004847518,0.20646198,0.0,0.0,-0.5942291,1,0,0,0,0,0
1871420000,-0.0033703684,0.010588466,0.4159013,0.0,0.9784391,-0.00274187,0.004832234,0.2064607,0.0,0.0,-0.57390803,1,0,0,0,0,0
1871532000,-0.0030692376,0.010466847,0.4159013,0.0,0.97843987,-0.0025819966,0.00480382,0.20645994,0.0,0.0,-0.5702996,1,0,0,0,0,0
1871624000,-0.002878134,0.010230166,0.4159013,0.0,0.97844076,-0.0024640744,0.004707758,0.20645943,0.0,0.0,-0.57251394,1,0,0,0,0,0
1871716000,-0.00360816,0.01061749,0.4159013,0.0,0.9784387,-0.0028611976,0.004821884,0.20646128,0.0,0.0,-0.5656506,1,0,0,0,0,0
1871828000,-0.0022662845,0.0098813865,0.4159013,0.0,0.9784424,-0.0021287429,0.004600288,0.20645799,0.0,0.0,-0.5650407,1,0,0,0,0,0
1871924000,-0.0022703502,0.009591555,0.4159013,0.0,0.9784431,-0.0021008144,0.004458077,0.20645799,0.0,0.0,-0.57297647,1,0,0,0,0,0
1872036000,-0.001679379,0.008352855,0.4159013,0.0,0.9784465,-0.0016838341,0.003913081,0.20645669,0.0,0.0,-0.57287174,1,0,0,0,0,0
1872128000,-0.0019676783,0.007274388,0.4159013,0.0,0.9784484,-0.001713552,0.0033557077,0.20645717,0.0,0.0,-0.56919205,1,0,0,0,0,0
1872220000,-0.00055235566,0.007964612,0.4159013,0.0,0.9784481,-0.001092391,0.003839483,0.20645459,0.0,0.0,-0.5662119,1,0,0,0,0,0
1872332000,0.0008150926,0.009656814,0.4159013,0.0,0.97844493,-0.0005980839,0.004808504,0.20645079,0.0,0.0,-0.5654342,1,0,0,0,0,0
1872428000,0.0011766668,0.008248639,0.4159013,0.0,0.9784481,-0.0002758309,0.004156917,0.20645095,0.0,0.0,-0.57262576,1,0,0,0,0,0
1872520000,0.0010521152,0.009630523,0.4159013,0.0,0.9784451,-0.0004794131,0.004820109,0.20645025,0.0,0.0,-0.56855977,1,0,0,0,0,0
1872632000,0.0013302307,0.009174069,0.4159013,0.0,0.9784462,-0.00029623395,0.00462551,0.20644994,0.0,0.0,-0.56788015,1,0,0,0,0,0
1872724000,0.0026923006,0.0102038495,0.4159013,0.0,0.9784439,0.0002638183,0.0052698986,0.20644553,0.0,0.0,-0.5665949,1,0,0,0,0,0
1872820000,0.0018209334,0.009915058,0.4159013,0.0,0.9784446,-0.0001326621,0.0050386707,0.20644814,0.0,0.0,-0.57253844,1,0,0,0,0,0
1872932000,0.0017356232,0.010726999,0.4159013,0.0,0.9784426,-0.00025821303,0.005427082,0.20644754,0.0,0.0,-0.5721405,1,0,0,0,0,0
1873024000,0.0015013886,0.010719745,0.4159013,0.0,0.9784426,-0.00037205688,0.005399356,0.20644818,0.0,0.0,-0.5699308,1,0,0,0,0,0
1873136000,0.0012683471,0.010568596,0.4159013,0.0,0.9784429,-0.00047046295,0.0053013554,0.20644894,0.0,0.0,-0.570049,1,0,0,0,0,0
1873228000,0.0021294102,0.010316748,0.4159013,0.0,0.9784436,-2.3214387e-05,0.0052670278,0.20644693,0.0,0.0,-0.5665518,1,0,0,0,0,0
1873324000,0.0009055245,0.010814266,0.4159013,0.0,0.97844213,-0.0006733234,0.00538409,0.20644972,0.0,0.0,-0.5697955,1,0,0,0,0,0
1873416000,0.00041364535,0.009320599,0.4159013,0.0,0.97844565,-0.0007597744,0.0046025803,0.20645194,0.0,0.0,-0.5693157,1,0,0,0,0,0
1873528000,0.00023527675,0.0107947495,0.4159013,0.0,0.9784419,-0.0009992081,0.005305355,0.20645154,0.0,0.0,-0.5670926,1,0,0,0,0,0
1873620000,-0.00040822115,0.009581782,0.4159013,0.0,0.9784446,-0.0011888113,0.0046455194,0.20645374,0.0,0.0,-0.56498283,1,0,0,0,0,0
1873732000,0.00023885422,0.010359611,0.4159013,0.0,0.9784431,-0.00095254,0.0050928453,0.20645177,0.0,0.0,-0.56497383,1,0,0,0,0,0
1873828000,-0.00072783954,0.009811683,0.4159013,0.0,0.97844386,-0.0013689072,0.0047249985,0.20645438,0.0,0.0,-0.5700067,1,0,0,0,0,0
1873920000,-0.00088391,0.010792463,0.4159013,0.0,0.97844124,-0.0015465014,0.005188707,0.20645446,0.0,0.0,-0.5665311,1,0,0,0,0,0
1874032000,-0.0005961408,0.011422558,0.4159013,0.0,0.97843975,-0.0014707602,0.0055266675,0.20645341,0.0,0.0,-0.5662933,1,0,0,0,0,0
1874124000,0.00034535953,0.012385548,0.4159013,0.0,0.97843754,-0.0011095654,0.0060949675,0.20645013,0.0,0.0,-0.56389445,1,0,0,0,0,0
1874220000,-0.00029377686,0.010973973,0.4159013,0.0,0.9784412,-0.0012765324,0.005338423,0.2064528,0.0,0.0,-0.56910735,1,0,0,0,0,0
1874332000,0.00060637353,0.011476463,0.4159013,0.0,0.9784403,-0.00088803057,0.005677169,0.20645006,0.0,0.0,-0.56821555,1,0,0,0,0,0
1874424000,-0.00014447521,0.0105140945,0.4159013,0.0,0.9784425,-0.0011560197,0.0051288526,0.20645265,0.0,0.0,-0.56641316,1,0,0,0,0,0
1874520000,-0.0003880971,0.009504766,0.4159013,0.0,0.97844476,-0.001171016,0.0046099187,0.20645371,0.0,0.0,-0.56683344,1,0,0,0,0,0
1874632000,0.00071089715,0.010011724,0.4159013,0.0,0.97844416,-0.00068569486,0.004971378,0.20645079,0.0,0.0,-0.56611365,1,0,0,0,0,0
1874724000,-0.0019626792,0.010478724,0.4159013,0.0,0.9784411,-0.0020418721,0.0049238596,0.20645724,0.0,0.0,-0.56451786,1,0,0,0,0,0
1874820000,0.00054515584,0.010678123,0.4159013,0.0,0.97844243,-0.0008355696,0.005280286,0.20645078,0.0,0.0,-0.5697201,1,0,0,0,0,0
1874932000,5.882882e-05,0.01120458,0.4159013,0.0,0.97844076,-0.0011278352,0.005487638,0.20645174,0.0,0.0,-0.5689204,1,0,0,0,0,0
1875024000,0.0006744672,0.010153645,0.4159013,0.0,0.97844374,-0.0007181675,0.005037049,0.20645078,0.0,0.0,-0.56517196,1,0,0,0,0,0
1875116000,-0.00027487674,0.009437382,0.4159013,0.0,0.97844505,-0.0011086703,0.0045886403,0.20645344,0.0,0.0,-0.56625307,1,0,0,0,0,0
1875228000,0.00017988925,0.009161356,0.4159013,0.0,0.9784459,-0.00085769524,0.0045005456,0.20645256,0.0,0.0,-0.56501424,1,0,0,0,0,0
1875324000,0.00022338216,0.009247585,0.4159013,0.0,0.9784457,-0.0008453186,0.0045472207,0.20645246,0.0,0.0,-0.568591,1,0,0,0,0,0
1875436000,0.0014076103,0.010575537,0.4159013,0.0,0.9784429,-0.0004030489,0.0053191255,0.20644857,0.0,0.0,-0.5661337,1,0,0,0,0,0
1875528000,0.0019656662,0.010442097,0.4159013,0.0,0.9784433,-0.00011626108,0.0053114486,0.20644721,0.0,0.0,-0.5634088,1,0,0,0,0,0
1875620000,0.0022565827,0.010476652,0.4159013,0.0,0.97844326,2.2494565e-05,0.0053583826,0.20644641,0.0,0.0,-0.5644239,1,0,0,0,0,0
1875732000,0.0024843616,0.012795821,0.4159013,0.0,0.97843695,-0.00010547717,0.006516475,0.20644297,0.0,0.0,-0.5651023,1,0,0,0,0,0
1875828000,0.00093629025,0.011335549,0.4159013,0.0,0.97844076,-0.00071208255,0.005642287,0.20644918,0.0,0.0,-0.5644919,1,0,0,0,0,0
1875920000,0.00022684781,0.011280319,0.4159013,0.0,0.97844064,-0.0010534553,0.0055420357,0.20645124,0.0,0.0,-0.56518656,1,0,0,0,0,0
1876032000,-0.001140443,0.0109046465,0.4159013,0.0,0.9784407,-0.0016835827,0.005217108,0.2064551,0.0,0.0,-0.5646989,1,0,0,0,0,0
1876124000,-0.00060604187,0.012138476,0.4159013,0.0,0.97843766,-0.0015495046,0.005875886,0.20645311,0.0,0.0,-0.56405705,1,0,0,0,0,0
1876220000,-0.00014959222,0.011384258,0.4159013,0.0,0.97844017,-0.0012483462,0.005554026,0.2064522,0.0,0.0,-0.56565344,1,0,0,0,0,0
1876332000,0.00050995976,0.01128397,0.4159013,0.0,0.97844076,-0.00091532787,0.0055730464,0.20645045,0.0,0.0,-0.5663272,1,0,0,0,0,0
1876424000,-0.0017590964,0.0108129345,0.4159013,0.0,0.9784404,-0.0019767736,0.0051083784,0.20645669,0.0,0.0,-0.56526583,1,0,0,0,0,0
1876536000,-0.0009869947,0.011927204,0.4159013,0.0,0.9784379,-0.0017140658,0.005733204,0.20645434,0.0,0.0,-0.56523645,1,0,0,0,0,0
1876628000,5.611216e-06,0.012844911,0.4159013,0.0,0.9784359,-0.0013231949,0.006284627,0.20645088,0.0,0.0,-0.5655704,1,0,0,0,0,0
1876724000,-0.0005714753,0.012752106,0.4159013,0.0,0.9784358,-0.0015959358,0.006179654,0.2064527,0.0,0.0,-0.56624186,1,0,0,0,0,0
1876836000,-0.0002543842,0.012087774,0.4159013,0.0,0.9784381,-0.0013722333,0.005887382,0.20645212,0.0,0.0,-0.5670063,1,0,0,0,0,0
1876928000,-9.557133e-05,0.011195449,0.4159013,0.0,0.9784407,-0.0012024282,0.005467233,0.20645216,0.0,0.0,-0.56460804,1,0,0,0,0,0
1877020000,-0.0012768176,0.010623229,0.4159013,0.0,0.97844136,-0.0017212506,0.0050653545,0.2064555,0.0,0.0,-0.56239843,1,0,0,0,0,0
1877136000,-0.0008114901,0.010417461,0.4159013,0.0,0.9784423,-0.0014723625,0.005012723,0.20645438,0.0,0.0,-0.5652994,1,0,0,0,0,0
1877232000,-0.0027822342,0.01107524,0.4159013,0.0,0.9784385,-0.002504389,0.0051310863,0.20645931,0.0,0.0,-0.5628177,1,0,0,0,0,0
1877324000,-0.00079785654,0.0115227625,0.4159013,0.0,0.9784393,-0.0015797875,0.0055548674,0.20645396,0.0,0.0,-0.5639944,1,0,0,0,0,0
1877420000,-0.000866285,0.012386809,0.4159013,0.0,0.97843665,-0.0017024546,0.005970512,0.2064538,0.0,0.0,-0.5649975,1,0,0,0,0,0
1877532000,-0.0007589335,0.012778572,0.4159013,0.0,0.9784355,-0.0016903759,0.0061732517,0.2064533,0.0,0.0,-0.5629158,1,0,0,0,0,0
1877628000,-0.0012301418,0.013327337,0.4159013,0.0,0.9784333,-0.0019775445,0.006393075,0.20645453,0.0,0.0,-0.56567866,1,0,0,0,0,0
1877720000,-0.0025229468,0.011581313,0.4159013,0.0,0.9784374,-0.0024297785,0.005405433,0.20645869,0.0,0.0,-0.5638865,1,0,0,0,0,0
1877832000,-0.0013829814,0.0119576305,0.4159013,0.0,0.9784375,-0.0019109306,0.0057072127,0.20645545,0.0,0.0,-0.5645043,1,0,0,0,0,0
1877924000,-0.0022229615,0.013228831,0.4159013,0.0,0.9784326,-0.0024530801,0.0062423972,0.20645769,0.0,0.0,-0.5639375,1,0,0,0,0,0
1878020000,-0.0016619106,0.014577949,0.4159013,0.0,0.97842854,-0.0023178637,0.0069603254,0.20645551,0.0,0.0,-0.56384134,1,0,0,0,0,0
1878132000,-0.0018951729,0.014802478,0.4159013,0.0,0.9784274,-0.0024551551,0.007046089,0.20645626,0.0,0.0,-0.5638795,1,0,0,0,0,0
1878224000,-0.0019776388,0.013723396,0.4159013,0.0,0.97843117,-0.002384114,0.006509672,0.20645681,0.0,0.0,-0.5653469,1,0,0,0,0,0
1878336000,-0.002891866,0.014207264,0.4159013,0.0,0.97842824,-0.0028813132,0.006652014,0.20645978,0.0,0.0,-0.5646359,1,0,0,0,0,0
1878428000,-0.0017471554,0.013802988,0.4159013,0.0,0.97843117,-0.0022795736,0.0065724016,0.20645605,0.0,0.0,-0.5643812,1,0,0,0,0,0
1878524000,-0.0016860401,0.013101645,0.4159013,0.0,0.97843355,-0.002177281,0.006235602,0.20645604,0.0,0.0,-0.5659924,1,0,0,0,0,0
1878616000,-0.0015028573,0.010847912,0.4159013,0.0,0.9784406,-0.0018550268,0.0051519414,0.20645605,0.0,0.0,-0.56364524,1,0,0,0,0,0
1878728000,-0.0011197069,0.012189363,0.4159013,0.0,0.97843707,-0.0018060519,0.0058477577,0.20645462,0.0,0.0,-0.56447417,1,0,0,0,0,0
1878820000,-0.0010827134,0.014634014,0.4159013,0.0,0.97842896,-0.0020402994,0.0070475414,0.20645344,0.0,0.0,-0.5634462,1,0,0,0,0,0
1878932000,-0.00160947,0.01480346,0.4159013,0.0,0.9784277,-0.0023154865,0.0070760613,0.20645523,0.0,0.0,-0.5645079,1,0,0,0,0,0
1879028000,-0.001235728,0.014242181,0.4159013,0.0,0.97843015,-0.0020747103,0.006840056,0.20645419,0.0,0.0,-0.5651643,1,0,0,0,0,0
1879120000,-0.0013712562,0.014911127,0.4159013,0.0,0.9784276,-0.002210063,0.0071533243,0.20645435,0.0,0.0,-0.5642818,1,0,0,0,0,0
1879232000,-0.0012503336,0.013575642,0.4159013,0.0,0.9784325,-0.0020130535,0.006512467,0.2064545,0.0,0.0,-0.56235003,1,0,0,0,0,0
1879324000,-0.0010126388,0.014479668,0.4159013,0.0,0.97842956,-0.0019900857,0.006979267,0.2064533,0.0,0.0,-0.5642818,1,0,0,0,0,0
1879420000,-0.0017474982,0.013432465,0.4159013,0.0,0.9784324,-0.002241495,0.0063910997,0.20645617,0.0,0.0,-0.564234,1,0,0,0,0,0
1879532000,-0.0013360824,0.011239316,0.4159013,0.0,0.9784397,-0.0018138393,0.0053606397,0.20645545,0.0,0.0,-0.56300575,1,0,0,0,0,0
1879624000,-0.0014646393,0.012629857,0.41597754,0.0,0.97842747,-0.0020204983,0.0060275723,0.20649278,0.0,0.0,-0.5634796,1,0,0,0,0,0
1879716000,-0.001392275,0.011201758,0.41597754,0.0,0.9784318,-0.0018376561,0.005336394,0.20649298,0.0,0.0,-0.56370217,1,0,0,0,0,0
1879828000,-0.0009022194,0.0114547135,0.41597754,0.0,0.9784315,-0.0016240294,0.005510741,0.20649154,0.0,0.0,-0.5633543,1,0,0,0,0,0
1879924000,-0.00085093867,0.012755264,0.41597754,0.0,0.97842765,-0.0017332148,0.0061522853,0.20649087,0.0,0.0,-0.5635908,1,0,0,0,0,0
1880016000,-0.0022546267,0.012157485,0.41597754,0.0,0.97842807,-0.0023582026,0.005714916,0.20649523,0.0,0.0,-0.56393015,1,0,0,0,0,0
1880128000,-0.003108789,0.010488816,0.41597754,0.0,0.9784319,-0.002603797,0.0048103854,0.20649731,0.0,0.0,-0.56361973,1,0,0,0,0,0
1880220000,-0.0030278675,0.011083706,0.41597754,0.0,0.97843033,-0.0026256256,0.0051097707,0.20649728,0.0,0.0,-0.56254786,1,0,0,0,0,0
1880332000,-0.0025014782,0.011133085,0.41597754,0.0,0.97843087,-0.0023732062,0.005188277,0.2064959,0.0,0.0,-0.5644959,1,0,0,0,0,0
1880428000,-0.0010985614,0.011067957,0.41597754,0.0,0.9784325,-0.0016801531,0.005301262,0.20649226,0.0,0.0,-0.56329626,1,0,0,0,0,0
1880524000,-0.00040838454,0.011000893,0.41597754,0.0,0.97843313,-0.0013355835,0.0053397114,0.20649043,0.0,0.0,-0.56324464,1,0,0,0,0,0
1880636000,-2.1955753e-05,0.010539338,0.41597754,0.0,0.9784346,-0.0010988828,0.005153807,0.20648962,0.0,0.0,-0.56301713,1,0,0,0,0,0
1880728000,-0.00018314882,0.0094554275,0.41597754,0.0,0.9784372,-0.0010658334,0.0046068965,0.20649056,0.0,0.0,-0.5640964,1,0,0,0,0,0
1880820000,-0.00083442376,0.010034569,0.41597754,0.0,0.9784354,-0.0014442416,0.004822981,0.20649189,0.0,0.0,-0.5635739,1,0,0,0,0,0
1880932000,-0.0011500563,0.0090463525,0.41597754,0.0,0.9784375,-0.0014966277,0.0043069404,0.20649284,0.0,0.0,-0.5627476,1,0,0,0,0,0
1881028000,-0.00043907255,0.010149503,0.41597754,0.0,0.9784354,-0.0012626951,0.0049200277,0.20649086,0.0,0.0,-0.56356454,1,0,0,0,0,0
1881120000,0.0015980614,0.009889092,0.41597754,0.0,0.97843677,-0.00023920629,0.005002952,0.206486,0.0,0.0,-0.5636178,1,0,0,0,0,0
1881232000,0.0008386649,0.008903927,0.41597754,0.0,0.9784388,-0.00050900265,0.004442589,0.20648856,0.0,0.0,-0.56336534,1,0,0,0,0,0
1881324000,5.554371e-06,0.008407949,0.41597754,0.0,0.97843957,-0.0008653691,0.004113932,0.2064906,0.0,0.0,-0.56285065,1,0,0,0,0,0
1881420000,0.00015927803,0.009189677,0.41597754,0.0,0.97843796,-0.00087087415,0.0045122397,0.2064899,0.0,0.0,-0.5636718,1,0,0,0,0,0
1881532000,0.000742512,0.006783934,0.41597754,0.0,0.9784428,-0.00033716144,0.003395518,0.20649002,0.0,0.0,-0.5642156,1,0,0,0,0,0
1881624000,-0.000343285,0.007544987,0.41597754,0.0,0.9784411,-0.0009469317,0.003655738,0.20649162,0.0,0.0,-0.56333274,1,0,0,0,0,0
1881736000,0.00069774484,0.008725294,0.41597754,0.0,0.97843915,-0.0005595003,0.004340649,0.20648897,0.0,0.0,-0.56474644,1,0,0,0,0,0
1881828000,0.0006857361,0.008793062,0.41597754,0.0,0.97843903,-0.000572372,0.0043725623,0.20648894,0.0,0.0,-0.5633954,1,0,0,0,0,0
1881924000,8.762033e-05,0.01015142,0.41597754,0.0,0.97843564,-0.0010052257,0.004975344,0.20648956,0.0,0.0,-0.563639,1,0,0,0,0,0
1882036000,0.0004803034,0.009667922,0.41597754,0.0,0.978437,-0.0007631992,0.004779351,0.2064889,0.0,0.0,-0.5641113,1,0,0,0,0,0
1882128000,-0.001355972,0.008361375,0.41597754,0.0,0.97843885,-0.0015266459,0.0039505754,0.2064934,0.0,0.0,-0.5631857,1,0,0,0,0,0
1882220000,-0.0021128259,0.009191218,0.41597754,0.0,0.9784363,-0.001982589,0.004278408,0.2064949,0.0,0.0,-0.56341815,1,0,0,0,0,0
1882332000,-0.00057532283,0.008847518,0.41597754,0.0,0.9784384,-0.0011949287,0.0042690053,0.20649166,0.0,0.0,-0.56275785,1,0,0,0,0,0
1882428000,0.0005024978,0.008848061,0.41597754,0.0,0.97843885,-0.00066769426,0.004380551,0.20648934,0.0,0.0,-0.56363994,1,0,0,0,0,0
1882520000,-0.0009671898,0.009173702,0.41597754,0.0,0.9784373,-0.0014203141,0.0043881224,0.2064924,0.0,0.0,-0.56461483,1,0,0,0,0,0
1882632000,0.0007894116,0.009396193,0.41597754,0.0,0.9784377,-0.0005839228,0.00467833,0.20648833,0.0,0.0,-0.5630912,1,0,0,0,0,0
1882720000,0.0015786404,0.009578397,0.41597754,0.0,0.9784374,-0.00021662927,0.00484895,0.20648631,0.0,0.0,-0.56252533,1,0,0,0,0,0
1882832000,0.0005568989,0.008880182,0.41597754,0.0,0.9784388,-0.00064439635,0.0044018817,0.20648918,0.0,0.0,-0.56310725,1,0,0,0,0,0
1882924000,-0.00021230194,0.00849483,0.41597754,0.0,0.9784393,-0.0009809186,0.0041339435,0.20649101,0.0,0.0,-0.56199586,1,0,0,0,0,0
1883016000,0.0003124861,0.008935635,0.41597754,0.0,0.97843856,-0.0007696931,0.0044037756,0.2064897,0.0,0.0,-0.56215686,1,0,0,0,0,0
1883128000,0.00033995553,0.0076535936,0.41597754,0.0,0.9784412,-0.0006238894,0.0037794118,0.20649028,0.0,0.0,-0.5623123,1,0,0,0,0,0
1883224000,0.0011564839,0.0071441894,0.41597754,0.0,0.9784422,-0.00017183267,0.003614503,0.20648907,0.0,0.0,-0.56241244,1,0,0,0,0,0
1883316000,0.001381723,0.00749778,0.41597754,0.0,0.97844166,-9.814801e-05,0.0038107417,0.20648839,0.0,0.0,-0.5622013,1,0,0,0,0,0
1883432000,0.0012083078,0.0076551354,0.41597754,0.0,0.9784413,-0.00019923264,0.0038698188,0.20648862,0.0,0.0,-0.5651648,1,0,0,0,0,0
1883524000,-2.588867e-05,0.009480823,0.41597754,0.0,0.97843724,-0.0009915206,0.0046355566,0.20649016,0.0,0.0,-0.5653897,1,0,0,0,0,0
1883636000,0.00044506715,0.008487906,0.41597754,0.0,0.97843957,-0.000658606,0.0041984273,0.20648962,0.0,0.0,-0.56350845,1,0,0,0,0,0
1883728000,0.00071894575,0.0069398275,0.41597754,0.0,0.97844255,-0.0003647859,0.0034693517,0.20648994,0.0,0.0,-0.56346524,1,0,0,0,0,0
1883824000,0.00059941376,0.007534186,0.41597754,0.0,0.9784415,-0.00048462875,0.0037477831,0.20648988,0.0,0.0,-0.5640819,1,0,0,0,0,0
1883936000,0.0005764953,0.008253603,0.41597754,0.0,0.97844005,-0.00057011785,0.0040973704,0.2064895,0.0,0.0,-0.5637313,1,0,0,0,0,0
1884028000,7.879245e-05,0.008068285,0.41597754,0.0,0.9784403,-0.0007944708,0.0039553237,0.20649059,0.0,0.0,-0.5659809,1,0,0,0,0,0
1884120000,-0.0008242765,0.0092904745,0.41597754,0.0,0.9784371,-0.0013624543,0.0044600046,0.20649207,0.0,0.0,-0.5641908,1,0,0,0,0,0
1884232000,0.00020158813,0.008919109,0.41597754,0.0,0.97843856,-0.00082224037,0.0043842415,0.20648994,0.0,0.0,-0.56381255,1,0,0,0,0,0
1884328000,-0.0009125337,0.009281065,0.41597754,0.0,0.9784371,-0.0014046599,0.0044462895,0.20649229,0.0,0.0,-0.5644521,1,0,0,0,0,0
1884420000,-0.0010964556,0.009627051,0.41597754,0.0,0.9784362,-0.0015303587,0.004596562,0.2064926,0.0,0.0,-0.5647579,1,0,0,0,0,0
1884532000,-0.0017086262,0.009939165,0.41597754,0.0,0.97843486,-0.0018620673,0.00468605,0.20649399,0.0,0.0,-0.56329507,1,0,0,0,0,0
1884624000,-0.0023200833,0.009437813,0.41597754,0.0,0.9784355,-0.002109442,0.0043776482,0.20649536,0.0,0.0,-0.56471384,1,0,0,0,0,0
1884720000,-0.0037795636,0.010993784,0.41597754,0.0,0.9784295,-0.0029840837,0.0049881684,0.20649913,0.0,0.0,-0.56565684,1,0,0,0,0,0
1884832000,-0.0029350426,0.010938575,0.41597754,0.0,0.97843087,-0.0025652312,0.0050483546,0.206497,0.0,0.0,-0.5632347,1,0,0,0,0,0
1884924000,-0.0025979367,0.0099590495,0.41597754,0.0,0.9784339,-0.0022991863,0.0046039587,0.20649604,0.0,0.0,-0.56325376,1,0,0,0,0,0
1885016000,-0.002230866,0.010760896,0.41597754,0.0,0.9784322,-0.002202393,0.0050341357,0.20649518,0.0,0.0,-0.5629248,1,0,0,0,0,0
1885128000,-0.0009647307,0.0088270325,0.41597754,0.0,0.97843814,-0.0013833197,0.0042187786,0.2064925,0.0,0.0,-0.56462663,1,0,0,0,0,0
1885224000,-0.00097377703,0.009893087,0.41597754,0.0,0.97843564,-0.001497809,0.004739379,0.20649225,0.0,0.0,-0.563986,1,0,0,0,0,0
1885336000,-0.0013041842,0.010633554,0.41597754,0.0,0.97843343,-0.0017358981,0.005067515,0.20649289,0.0,0.0,-0.5627456,1,0,0,0,0,0
1885428000,-0.001097311,0.009214721,0.41597754,0.0,0.9784372,-0.0014882066,0.004394754,0.20649269,0.0,0.0,-0.5633878,1,0,0,0,0,0
1885520000,-0.0014005133,0.009067034,0.41597754,0.0,0.97843724,-0.0016212915,0.0042911996,0.2064934,0.0,0.0,-0.5638725,1,0,0,0,0,0
1885632000,-0.0022867576,0.009473621,0.41597754,0.0,0.97843546,-0.0020968353,0.0043986067,0.20649531,0.0,0.0,-0.5642111,1,0,0,0,0,0
1885728000,-0.00127087,0.010282292,0.41597754,0.0,0.97843444,-0.0016833346,0.0048991106,0.20649286,0.0,0.0,-0.563366,1,0,0,0,0,0
1885820000,-0.0023428085,0.011746315,0.41597754,0.0,0.97842926,-0.0023588927,0.0055046612,0.20649548,0.0,0.0,-0.56409794,1,0,0,0,0,0
1885932000,-0.0010838947,0.012534821,0.41597754,0.0,0.9784281,-0.0018244213,0.00602039,0.20649171,0.0,0.0,-0.5638995,1,0,0,0,0,0
1886024000,-0.0033519655,0.01224434,0.41597754,0.0,0.9784264,-0.0029040028,0.005644109,0.20649832,0.0,0.0,-0.5620162,1,0,0,0,0,0
1886120000,-0.0024563915,0.012628325,0.41597754,0.0,0.97842634,-0.0025055183,0.005924427,0.20649578,0.0,0.0,-0.5642677,1,0,0,0,0,0
1886232000,-0.0018194546,0.011685332,0.41597754,0.0,0.97843003,-0.0020965647,0.005528862,0.20649403,0.0,0.0,-0.5642109,1,0,0,0,0,0
1886324000,-0.0024215104,0.011179585,0.41597754,0.0,0.9784308,-0.0023388853,0.0052192817,0.20649567,0.0,0.0,-0.5633037,1,0,0,0,0,0
1886416000,-0.0028571836,0.010868047,0.41597754,0.0,0.9784311,-0.0025198602,0.00502189,0.20649679,0.0,0.0,-0.5642171,1,0,0,0,0,0
1886528000,-0.0020796517,0.012086911,0.41597754,0.0,0.97842854,-0.0022653167,0.0056984564,0.2064947,0.0,0.0,-0.56381655,1,0,0,0,0,0
1886624000,-0.0023230028,0.011075031,0.41597754,0.0,0.9784312,-0.0022798995,0.0051783035,0.20649543,0.0,0.0,-0.5615645,1,0,0,0,0,0
1886736000,-0.002753003,0.011093385,0.41597754,0.0,0.9784306,-0.0024921573,0.0051428853,0.20649655,0.0,0.0,-0.564877,1,0,0,0,0,0
1886828000,-0.0020020332,0.011263738,0.41597754,0.0,0.978431,-0.0021423588,0.0053037615,0.2064946,0.0,0.0,-0.5643475,1,0,0,0,0,0
1886920000,-0.0022811596,0.0123775685,0.41597754,0.0,0.97842735,-0.0023939046,0.0058198455,0.20649526,0.0,0.0,-0.56315124,1,0,0,0,0,0
1887032000,-0.0025493263,0.01266855,0.41597754,0.0,0.9784261,-0.002555136,0.00593451,0.206496,0.0,0.0,-0.5645295,1,0,0,0,0,0
1887128000,-0.002611075,0.0121626165,0.41597754,0.0,0.97842765,-0.0025331122,0.005680625,0.20649621,0.0,0.0,-0.56339616,1,0,0,0,0,0
1887220000,-0.003149617,0.013667359,0.41597754,0.0,0.9784219,-0.0029519224,0.0063611628,0.20649788,0.0,0.0,-0.5638847,1,0,0,0,0,0
1887332000,-0.0035947433,0.01350266,0.41597754,0.0,0.9784218,-0.0031526797,0.0062346305,0.20649926,0.0,0.0,-0.5633141,1,0,0,0,0,0
1887424000,-0.0050366903,0.013399565,0.41597754,0.0,0.97841966,-0.0038474514,0.0060353125,0.20650369,0.0,0.0,-0.56312954,1,0,0,0,0,0
1887520000,-0.0057160985,0.012354804,0.41597754,0.0,0.9784219,-0.004071969,0.005454052,0.20650491,0.0,0.0,-0.5624949,1,0,0,0,0,0
1887632000,-0.005049953,0.014828245,0.41597754,0.0,0.97841436,-0.0040014293,0.0067328713,0.20650442,0.0,0.0,-0.562884,1,0,0,0,0,0
1887724000,-0.0037544414,0.015032087,0.41597754,0.0,0.9784159,-0.0033886991,0.0069663567,0.20650005,0.0,0.0,-0.561745,1,0,0,0,0,0
1887836000,-0.005816945,0.016041132,0.41597754,0.0,0.9784078,-0.004501855,0.007247033,0.20650776,0.0,0.0,-0.5616741,1,0,0,0,0,0
1887928000,-0.004896531,0.016691687,0.41597754,0.0,0.97840697,-0.0041187434,0.0076603256,0.20650461,0.0,0.0,-0.5623148,1,0,0,0,0,0
1888024000,-0.0060125273,0.018215181,0.41597754,0.0,0.97839755,-0.004821961,0.008290398,0.20650975,0.0,0.0,-0.56227714,1,0,0,0,0,0
1888136000,-0.0048896074,0.015766844,0.41597754,0.0,0.9784109,-0.0040198825,0.0072085997,0.20650427,0.0,0.0,-0.5629412,1,0,0,0,0,0
1888228000,-0.005254167,0.01641861,0.41597754,0.0,0.9784074,-0.0042655095,0.007489807,0.20650586,0.0,0.0,-0.5618076,1,0,0,0,0,0
1888320000,-0.0059148907,0.015302038,0.41597754,0.0,0.97841066,-0.0044734734,0.0068753487,0.20650764,0.0,0.0,-0.56258583,1,0,0,0,0,0
1888432000,-0.0022320012,0.0165954,0.41597754,0.0,0.97841203,-0.0028053026,0.007888334,0.20649427,0.0,0.0,-0.56114775,1,0,0,0,0,0
1888528000,-0.0019336267,0.01633524,0.41597754,0.0,0.97841346,-0.0026324769,0.007791867,0.20649318,0.0,0.0,-0.56202626,1,0,0,0,0,0
1888620000,-0.003436281,0.016683333,0.41597754,0.0,0.97840977,-0.003403521,0.0078070117,0.20649898,0.0,0.0,-0.5639536,1,0,0,0,0,0
1888732000,-0.0033890542,0.01791368,0.41597754,0.0,0.97840446,-0.0035074316,0.008413781,0.20649873,0.0,0.0,-0.56231076,1,0,0,0,0,0
1888824000,-0.0024457008,0.017937485,0.41597754,0.0,0.97840583,-0.0030483983,0.008522826,0.2064947,0.0,0.0,-0.5635193,1,0,0,0,0,0
1888920000,-0.0024584336,0.016460959,0.41597754,0.0,0.9784123,-0.0029021949,0.007799186,0.2064952,0.0,0.0,-0.56347185,1,0,0,0,0,0
1889032000,-0.003845907,0.016402522,0.41597754,0.0,0.97841024,-0.0035749217,0.0076273424,0.20650056,0.0,0.0,-0.5631267,1,0,0,0,0,0
1889124000,-0.0035446736,0.01506727,0.41597754,0.0,0.9784162,-0.0032897112,0.007005226,0.20649932,0.0,0.0,-0.56325626,1,0,0,0,0,0
1889236000,-0.0030948583,0.014923924,0.41597754,0.0,0.97841746,-0.0030548587,0.006981542,0.20649774,0.0,0.0,-0.56502813,1,0,0,0,0,0
1889328000,-0.0038261104,0.015356911,0.41597754,0.0,0.9784145,-0.0034572936,0.007117864,0.20650034,0.0,0.0,-0.56300783,1,0,0,0,0,0
1889424000,-0.0029455256,0.017225571,0.41597754,0.0,0.9784082,-0.003219419,0.008122947,0.20649695,0.0,0.0,-0.56233615,1,0,0,0,0,0
1889536000,-0.0035896043,0.015003512,0.41597754,0.0,0.9784163,-0.003305109,0.0069693956,0.20649947,0.0,0.0,-0.56391054,1,0,0,0,0,0
1889628000,-0.0034785052,0.017382924,0.41597754,0.0,0.97840667,-0.0034963994,0.0081448965,0.20649911,0.0,0.0,-0.5635391,1,0,0,0,0,0
1889720000,-0.004231344,0.015929429,0.41597754,0.0,0.9784115,-0.0037146404,0.007356104,0.2065019,0.0,0.0,-0.5622779,1,0,0,0,0,0
1889832000,-0.0029499598,0.015587282,0.41597754,0.0,0.9784151,-0.0030524568,0.007321025,0.20649718,0.0,0.0,-0.5626332,1,0,0,0,0,0
1889928000,-0.0020023794,0.017172758,0.41597754,0.0,0.9784099,-0.0027525756,0.008194489,0.20649312,0.0,0.0,-0.56418556,1,0,0,0,0,0
1890020000,-0.0019241878,0.016069224,0.41597754,0.0,0.9784146,-0.0026003965,0.0076627047,0.20649326,0.0,0.0,-0.5626526,1,0,0,0,0,0
1890132000,-0.00040451958,0.016700339,0.41597754,0.0,0.9784137,-0.0019221202,0.008128349,0.2064869,0.0,0.0,-0.56294125,1,0,0,0,0,0
1890224000,-0.0020963445,0.015857168,0.41597754,0.0,0.9784152,-0.0026627243,0.00754119,0.20649399,0.0,0.0,-0.5647724,1,0,0,0,0,0
1890320000,-0.0024617848,0.015812073,0.41597754,0.0,0.9784149,-0.0028368447,0.007481398,0.20649537,0.0,0.0,-0.564997,1,0,0,0,0,0
1890432000,-0.0018987012,0.015602818,0.41597754,0.0,0.97841644,-0.0025397765,0.0074371654,0.20649333,0.0,0.0,-0.5638436,1,0,0,0,0,0
1890524000,-0.0032774403,0.015668925,0.41597754,0.0,0.9784142,-0.003221092,0.007327155,0.2064984,0.0,0.0,-0.5639444,1,0,0,0,0,0
1890636000,-0.0029169994,0.015738957,0.41597754,0.0,0.9784145,-0.0030519909,0.0073986296,0.20649704,0.0,0.0,-0.5640469,1,0,0,0,0,0
1890728000,-0.004135608,0.017676728,0.41597754,0.0,0.97840416,-0.0038481865,0.008220782,0.20650181,0.0,0.0,-0.5637032,1,0,0,0,0,0
1890824000,-0.0035363897,0.018103123,0.41597754,0.0,0.9784033,-0.003599065,0.008491244,0.20649932,0.0,0.0,-0.5628892,1,0,0,0,0,0
1890916000,-0.004140527,0.018204495,0.41597754,0.0,0.97840166,-0.0039050758,0.008478461,0.2065019,0.0,0.0,-0.5634347,1,0,0,0,0,0
1891028000,-0.004858806,0.01644437,0.41597754,0.0,0.97840816,-0.0040747565,0.0075432314,0.2065044,0.0,0.0,-0.5630647,1,0,0,0,0,0
1891120000,-0.0041118194,0.017172944,0.41597754,0.0,0.9784064,-0.0037845415,0.0079767825,0.20650166,0.0,0.0,-0.562689,1,0,0,0,0,0
1891232000,-0.0031710593,0.017259033,0.41597754,0.0,0.97840774,-0.0033332054,0.008116031,0.20649786,0.0,0.0,-0.56355155,1,0,0,0,0,0
1891328000,-0.0050261114,0.016490433,0.41597754,0.0,0.97840756,-0.0041613583,0.0075484915,0.20650505,0.0,0.0,-0.56425726,1,0,0,0,0,0
1891420000,-0.004451499,0.016268076,0.41597754,0.0,0.9784097,-0.003857301,0.007499043,0.20650283,0.0,0.0,-0.56279105,1,0,0,0,0,0
1891532000,-0.005081988,0.016326318,0.41597754,0.0,0.97840816,-0.004171752,0.0074624363,0.2065052,0.0,0.0,-0.56348217,1,0,0,0,0,0
1891624000,-0.003794065,0.01599084,0.41597754,0.0,0.9784121,-0.0035070605,0.0074312957,0.2065003,0.0,0.0,-0.56293833,1,0,0,0,0,0
1891720000,-0.0042580976,0.017425042,0.41597754,0.0,0.978405,-0.0038821257,0.008085007,0.20650227,0.0,0.0,-0.5637412,1,0,0,0,0,0
1891832000,-0.004113511,0.016836626,0.41597754,0.0,0.9784079,-0.0037506493,0.007812079,0.20650162,0.0,0.0,-0.5629767,1,0,0,0,0,0
1891924000,-0.004551585,0.016455997,0.41597754,0.0,0.9784087,-0.0039256634,0.0075806403,0.20650326,0.0,0.0,-0.56404376,1,0,0,0,0,0
1892020000,-0.0037250712,0.017661463,0.41597754,0.0,0.97840494,-0.003645775,0.0082557015,0.20650011,0.0,0.0,-0.5641212,1,0,0,0,0,0
1892132000,-0.0042807315,0.018194143,0.41597754,0.0,0.9784015,-0.0039725946,0.008458919,0.20650245,0.0,0.0,-0.56497973,1,0,0,0,0,0
1892224000,-0.0058797887,0.018558135,0.41597754,0.0,0.97839624,-0.004792427,0.008471877,0.20650935,0.0,0.0,-0.5646093,1,0,0,0,0,0
1892320000,-0.0057599456,0.018901039,0.41597754,0.0,0.9783948,-0.0047691986,0.0086520035,0.20650902,0.0,0.0,-0.56445175,1,0,0,0,0,0
1892432000,-0.0051113083,0.01856919,0.41597754,0.0,0.9783979,-0.004417629,0.008556634,0.20650609,0.0,0.0,-0.56288266,1,0,0,0,0,0
1892524000,-0.0057070367,0.01781092,0.41597754,0.0,0.97840023,-0.004630783,0.008124174,0.20650828,0.0,0.0,-0.5638013,1,0,0,0,0,0
1892636000,0.019040631,-0.1826852,6.166768,0.0,0.99415004,0.0041581304,-0.091608554,-0.057063684,0.0,0.0,-0.5001239,1,0,0,0,0,0
1892728000,0.015191573,-0.11408555,6.166768,0.0,0.996679,0.0042539043,-0.057354815,-0.05764714,0.0,0.0,-0.53422153,1,0,0,0,0,0
1892824000,0.004333131,-0.06982083,6.166769,0.0,0.9977002,0.00013107093,-0.03497009,-0.058064196,0.0,0.0,-0.58225137,1,0,0,0,0,0
1892916000,-0.006369501,-0.04835151,6.1667304,0.0,0.998004,-0.004585172,-0.023947028,-0.05825411,0.0,0.0,-0.5708902,1,0,0,0,0,0
1893028000,-0.007478042,-0.053372502,6.1666756,0.0,0.9979354,-0.0052848705,-0.026420021,-0.058300395,0.0,0.0,-0.5668605,1,0,0,0,0,0
1893120000,-0.006662888,-0.057373952,6.1666126,0.0,0.99788,-0.004995286,-0.028440189,-0.05832445,0.0,0.0,-0.5719575,1,0,0,0,0,0
1893232000,-0.0046819425,-0.05937213,6.1665506,0.0,0.9978534,-0.004065932,-0.029494785,-0.05832781,0.0,0.0,-0.56938565,1,0,0,0,0,0
1893328000,-0.0033994261,-0.06394776,6.166501,0.0,0.9977837,-0.003559999,-0.031814937,-0.0583334,0.0,0.0,-0.5699657,1,0,0,0,0,0
1893420000,-0.0013261589,-0.06378099,6.166459,0.0,0.9977883,-0.0025214702,-0.031792138,-0.05832142,0.0,0.0,-0.56953096,1,0,0,0,0,0
1893532000,-0.0005744261,-0.06410198,6.1663895,0.0,0.99778205,-0.0021569033,-0.03197412,-0.058343947,0.0,0.0,-0.5705254,1,0,0,0,0,0
1893624000,0.0012567381,-0.06716329,6.1663437,0.0,0.99773216,-0.0013334387,-0.033554714,-0.058333594,0.0,0.0,-0.5701745,1,0,0,0,0,0
1893720000,0.00050870597,-0.0706157,6.166292,0.0,0.99767077,-0.0018082585,-0.03525509,-0.05836792,0.0,0.0,-0.5713286,1,0,0,0,0,0
1893832000,0.0026657663,-0.07360288,6.1662407,0.0,0.997617,-0.00082044787,-0.036808062,-0.058350414,0.0,0.0,-0.5718975,1,0,0,0,0,0
1893924000,0.0013011937,-0.07695643,6.1661797,0.0,0.9975515,-0.0016002414,-0.038440913,-0.058401182,0.0,0.0,-0.5707064,1,0,0,0,0,0
1894036000,0.001914071,-0.07989481,6.1661167,0.0,0.99749273,-0.0013817016,-0.039924305,-0.05841602,0.0,0.0,-0.57113576,1,0,0,0,0,0
1894128000,0.0033253895,-0.08113586,6.1660504,0.0,0.9974666,-0.00071546965,-0.040584452,-0.0584184,0.0,0.0,-0.57018805,1,0,0,0,0,0
1894224000,0.0039755045,-0.08368152,6.166004,0.0,0.9974133,-0.0004667479,-0.041872982,-0.05842268,0.0,0.0,-0.57163113,1,0,0,0,0,0
1894336000,0.0042710747,-0.08776794,6.165928,0.0,0.997324,-0.00044074154,-0.043919418,-0.058445062,0.0,0.0,-0.57225287,1,0,0,0,0,0
1894428000,0.0048045716,-0.09053224,6.1658773,0.0,0.9972613,-0.00025690647,-0.045313396,-0.058451626,0.0,0.0,-0.57330704,1,0,0,0,0,0
1894520000,0.005067559,-0.093374,6.1658134,0.0,0.99719447,-0.0002106354,-0.046738,-0.058470104,0.0,0.0,-0.5741289,1,0,0,0,0,0
1894632000,0.0053512766,-0.09732967,6.165753,0.0,0.9970989,-0.00018677331,-0.048718452,-0.05848286,0.0,0.0,-0.5734543,1,0,0,0,0,0
1894728000,0.005593281,-0.10060116,6.1656923,0.0,0.99701667,-0.00016374481,-0.050356425,-0.058497842,0.0,0.0,-0.573586,1,0,0,0,0,0
1894820000,0.007137106,-0.10380347,6.165642,0.0,0.9969337,0.00051037397,-0.05199786,-0.05847366,0.0,0.0,-0.574636,1,0,0,0,0,0
1894932000,0.005423895,-0.107286744,6.165548,0.0,0.9968396,-0.00044853202,-0.05368392,-0.0585549,0.0,0.0,-0.5743743,1,0,0,0,0,0
1895024000,0.005886617,-0.110805325,6.1654806,0.0,0.9967423,-0.0003233137,-0.05545107,-0.05856518,0.0,0.0,-0.57569194,1,0,0,0,0,0
1895120000,0.0073909606,-0.11707186,6.165396,0.0,0.99656236,0.00023928282,-0.05861782,-0.058543466,0.0,0.0,-0.57442796,1,0,0,0,0,0
1895232000,0.008497572,-0.12157866,6.165333,0.0,0.99642664,0.0006557863,-0.060895663,-0.05852518,0.0,0.0,-0.5763195,1,0,0,0,0,0
1895324000,0.009345797,-0.12580457,6.1652927,0.0,0.99629533,0.00095231493,-0.0630257,-0.058501776,0.0,0.0,-0.57662565,1,0,0,0,0,0
1895416000,0.0080931485,-0.12973116,6.165205,0.0,0.9961685,0.00020953026,-0.0649449,-0.05856964,0.0,0.0,-0.57554066,1,0,0,0,0,0
1895528000,0.0071789636,-0.13315074,6.165124,0.0,0.9960544,-0.00034949757,-0.06662119,-0.058626957,0.0,0.0,-0.57895696,1,0,0,0,0,0
1895624000,0.006941516,-0.1406589,6.1650343,0.0,0.9957962,-0.00069275306,-0.07035289,-0.058651373,0.0,0.0,-0.57896626,1,0,0,0,0,0
1895736000,0.007946894,-0.14709638,6.16494,0.0,0.99556345,-0.0003861136,-0.073587075,-0.058636602,0.0,0.0,-0.5787027,1,0,0,0,0,0
1895828000,0.005747185,-0.15118726,6.164832,0.0,0.9954075,-0.0016061214,-0.0755586,-0.05875628,0.0,0.0,-0.57913166,1,0,0,0,0,0
1895920000,0.006460986,-0.15320596,6.164747,0.0,0.9953291,-0.0013138794,-0.07658416,-0.058763772,0.0,0.0,-0.5814446,1,0,0,0,0,0
1896032000,0.0078848,-0.15961996,6.164613,0.0,0.9950765,-0.0008008728,-0.07981744,-0.05874873,0.0,0.0,-0.5818535,1,0,0,0,0,0
1896128000,0.007897812,-0.16745718,6.1645317,0.0,0.9947555,-0.0010304598,-0.08371632,-0.05875417,0.0,0.0,-0.5798326,1,0,0,0,0,0
1896220000,0.0065666386,-0.1730309,6.1644125,0.0,0.99451506,-0.0018631241,-0.08644892,-0.058845997,0.0,0.0,-0.5813734,1,0,0,0,0,0
1896332000,0.007586113,-0.17960384,6.164302,0.0,0.99422455,-0.0015565394,-0.089746654,-0.05882735,0.0,0.0,-0.5826473,1,0,0,0,0,0
1896424000,0.00673888,-0.18399665,6.164176,0.0,0.99402153,-0.0021141071,-0.09190502,-0.05890873,0.0,0.0,-0.584074,1,0,0,0,0,0
1896520000,0.007902345,-0.19203591,6.164092,0.0,0.9936444,-0.0017793541,-0.09593388,-0.05885873,0.0,0.0,-0.5849054,1,0,0,0,0,0
1896632000,0.007912542,-0.19955067,6.1639404,0.0,0.9932742,-0.0020058295,-0.09966666,-0.058896925,0.0,0.0,-0.5858922,1,0,0,0,0,0
1896724000,0.0078214435,-0.20552616,6.163844,0.0,0.99297047,-0.0022343115,-0.10263093,-0.05891968,0.0,0.0,-0.5884216,1,0,0,0,0,0
1896820000,0.0068037994,-0.21305339,6.1637154,0.0,0.9925738,-0.0029709516,-0.10633702,-0.05899964,0.0,0.0,-0.5892038,1,0,0,0,0,0
1896932000,0.00614845,-0.22255895,6.163599,0.0,0.9920545,-0.0035862927,-0.11103353,-0.059046846,0.0,0.0,-0.58871716,1,0,0,0,0,0
1897024000,0.0054841526,-0.22714423,6.163471,0.0,0.9917931,-0.0040598824,-0.11328771,-0.059125494,0.0,0.0,-0.5899448,1,0,0,0,0,0
1897120000,0.0055605765,-0.23706749,6.1633844,0.0,0.99121803,-0.004323521,-0.11820909,-0.059116133,0.0,0.0,-0.59322006,1,0,0,0,0,0
1897232000,0.004171568,-0.24604672,6.163227,0.0,0.99067074,-0.005289507,-0.1226164,-0.059234485,0.0,0.0,-0.5931069,1,0,0,0,0,0
1897324000,0.004603668,-0.2531059,6.163126,0.0,0.9902308,-0.0052927863,-0.12612472,-0.059223663,0.0,0.0,-0.59536046,1,0,0,0,0,0
1897436000,0.004361322,-0.26422092,6.1629734,0.0,0.98951095,-0.0057550077,-0.13161816,-0.05925945,0.0,0.0,-0.59804803,1,0,0,0,0,0
1897528000,0.0036230716,-0.27125517,6.1628647,0.0,0.9890373,-0.0063378336,-0.13507524,-0.059327293,0.0,0.0,-0.59770507,1,0,0,0,0,0
1897624000,0.0025944966,-0.2807445,6.1627345,0.0,0.98837894,-0.007138978,-0.13973522,-0.05941576,0.0,0.0,-0.5998098,1,0,0,0,0,0
1897736000,0.003223693,-0.29117653,6.1626015,0.0,0.9876358,-0.007149612,-0.14490679,-0.059384447,0.0,0.0,-0.6009833,1,0,0,0,0,0
1897828000,0.0036098552,-0.30051517,6.162463,0.0,0.98694664,-0.0072487765,-0.14952761,-0.059374925,0.0,0.0,-0.6020041,1,0,0,0,0,0
1897920000,0.0013344812,-0.30698273,6.162356,0.0,0.9864463,-0.008572955,-0.15265022,-0.059566278,0.0,0.0,-0.6038974,1,0,0,0,0,0
1898032000,-0.00058408163,-0.3195318,6.162193,0.0,0.9854557,-0.0099060945,-0.15877861,-0.05973575,0.0,0.0,-0.6070385,1,0,0,0,0,0
1898128000,-0.0013346041,-0.33126718,6.162089,0.0,0.9844998,-0.010633887,-0.16453527,-0.05979289,0.0,0.0,-0.6086301,1,0,0,0,0,0
1898220000,-0.0017983578,-0.3396708,6.161942,0.0,0.98379254,-0.011124616,-0.16865589,-0.05986456,0.0,0.0,-0.61121684,1,0,0,0,0,0
1898332000,0.0002582918,-0.3515991,6.161809,0.0,0.9827758,-0.010480645,-0.17458113,-0.059693567,0.0,0.0,-0.6131848,1,0,0,0,0,0
1898424000,-0.0010312761,-0.36082202,6.1616797,0.0,0.9819493,-0.011400738,-0.17907205,-0.05982235,0.0,0.0,-0.61527663,1,0,0,0,0,0
1898520000,-0.0023783993,-0.37391183,6.16159,0.0,0.9807451,-0.01245972,-0.18545415,-0.05992197,0.0,0.0,-0.61870235,1,0,0,0,0,0
1898632000,-0.0019142255,-0.38823795,6.161436,0.0,0.9793888,-0.012672982,-0.1924876,-0.059878644,0.0,0.0,-0.62160546,1,0,0,0,0,0
1898724000,-0.0028221498,-0.39735,6.1613364,0.0,0.9784922,-0.013397992,-0.19691996,-0.059966974,0.0,0.0,-0.625849,1,0,0,0,0,0
1898836000,-0.003733445,-0.4105137,6.161192,0.0,0.9771631,-0.014248668,-0.2033278,-0.060058925,0.0,0.0,-0.62894166,1,0,0,0,0,0
1898928000,-0.0041890107,-0.42150986,6.1610904,0.0,0.9760228,-0.014807407,-0.20868309,-0.060096838,0.0,0.0,-0.63225424,1,0,0,0,0,0
1899024000,-0.005775103,-0.43567848,6.1609774,0.0,0.9745024,-0.016011588,-0.21554403,-0.060245417,0.0,0.0,-0.63580775,1,0,0,0,0,0
1899136000,-0.005502581,-0.44968197,6.1608596,0.0,0.97296566,-0.016304808,-0.22236966,-0.060198233,0.0,0.0,-0.6415584,1,0,0,0,0,0
1899228000,-0.0055957064,-0.4617184,6.1607404,0.0,0.9716034,-0.016718272,-0.22821778,-0.060199767,0.0,0.0,-0.64332104,1,0,0,0,0,0
1899320000,-0.0057327417,-0.47103953,6.1606455,0.0,0.97052366,-0.017070238,-0.23273894,-0.060208533,0.0,0.0,-0.6467282,1,0,0,0,0,0
1899432000,-0.008955343,-0.48629886,6.1605062,0.0,0.96868336,-0.019096505,-0.24003899,-0.060573295,0.0,0.0,-0.65126157,1,0,0,0,0,0
1899528000,-0.009921949,-0.5007809,6.1604147,0.0,0.9669037,-0.019997649,-0.24701765,-0.0606599,0.0,0.0,-0.65880924,1,0,0,0,0,0
1899620000,-0.01131561,-0.51254857,6.160285,0.0,0.9654118,-0.021028895,-0.2526597,-0.06083632,0.0,0.0,-0.6632145,1,0,0,0,0,0
1899732000,-0.010803495,-0.5306982,6.160164,0.0,0.96307486,-0.021323351,-0.26142597,-0.06073351,0.0,0.0,-0.66704017,1,0,0,0,0,0
1899824000,-0.011319597,-0.54114336,6.1600494,0.0,0.96168405,-0.021888888,-0.26643607,-0.060799453,0.0,0.0,-0.6719233,1,0,0,0,0,0
1899920000,-0.012754293,-0.5185615,6.1599674,0.0,0.9646206,-0.021937573,-0.25551426,-0.061142657,0.0,0.0,-0.6651536,1,0,0,0,0,0
1900032000,-0.014503084,-0.47857407,6.1598244,0.0,0.9695283,-0.021640703,-0.23611885,-0.061598856,0.0,0.0,-0.6720599,1,0,0,0,0,0
1900124000,-0.014620903,-0.46357867,6.159724,0.0,0.97127354,-0.021272652,-0.22883677,-0.061716057,0.0,0.0,-0.67304754,1,0,0,0,0,0
1900216000,-0.013172177,-0.46885386,6.1595984,0.0,0.9706757,-0.020737963,-0.23144165,-0.061590653,0.0,0.0,-0.6696999,1,0,0,0,0,0
1900328000,-0.013287343,-0.48272708,6.1594987,0.0,0.9690372,-0.021211173,-0.23816594,-0.061596025,0.0,0.0,-0.66876644,1,0,0,0,0,0
1900424000,-0.012657427,-0.48732498,6.1594353,0.0,0.96848994,-0.021048026,-0.24041224,-0.0615317,0.0,0.0,-0.66674894,1,0,0,0,0,0
1900536000,-0.013757024,-0.48603606,6.1593246,0.0,0.9686301,-0.021556154,-0.23975287,-0.061722748,0.0,0.0,-0.667848,1,0,0,0,0,0
1900628000,-0.013981295,-0.48122653,6.1592455,0.0,0.96920097,-0.021533681,-0.23741455,-0.061807346,0.0,0.0,-0.6696376,1,0,0,0,0,0
1900720000,-0.012833501,-0.47880384,6.159155,0.0,0.9694982,-0.02091714,-0.23627459,-0.0617253,0.0,0.0,-0.67081106,1,0,0,0,0,0
1900832000,-0.016070595,-0.48121718,6.159066,0.0,0.9691735,-0.022567157,-0.23734336,-0.06214224,0.0,0.0,-0.6701823,1,0,0,0,0,0
1900928000,-0.015757682,-0.48580515,6.1589847,0.0,0.96862525,-0.022559099,-0.23957531,-0.06212806,0.0,0.0,-0.6705112,1,0,0,0,0,0
1901024000,-0.015349379,-0.4871029,6.158909,0.0,0.9684712,-0.02240834,-0.24021576,-0.06211097,0.0,0.0,-0.66997606,1,0,0,0,0,0
1901136000,-0.016026534,-0.48615175,6.1587954,0.0,0.9685746,-0.022722106,-0.23973274,-0.062250692,0.0,0.0,-0.670282,1,0,0,0,0,0
1901228000,-0.016461179,-0.48638862,6.1587114,0.0,0.9685385,-0.022949573,-0.23983297,-0.062342603,0.0,0.0,-0.6695517,1,0,0,0,0,0
1901320000,-0.01841235,-0.48586002,6.1586123,0.0,0.9685762,-0.02389096,-0.23951477,-0.06262618,0.0,0.0,-0.6702995,1,0,0,0,0,0
1901432000,-0.016001778,-0.48407236,6.158512,0.0,0.9688158,-0.022683188,-0.23872286,-0.062392388,0.0,0.0,-0.67167056,1,0,0,0,0,0
1901528000,-0.017572463,-0.48320964,6.1584272,0.0,0.96889836,-0.023428962,-0.23825477,-0.062623724,0.0,0.0,-0.674244,1,0,0,0,0,0
1901620000,-0.018955871,-0.48460075,6.158353,0.0,0.96871287,-0.024148552,-0.23888454,-0.06282055,0.0,0.0,-0.6743035,1,0,0,0,0,0
1901732000,-0.018123236,-0.4883244,6.1582656,0.0,0.96827155,-0.02386441,-0.24071331,-0.06275171,0.0,0.0,-0.67106384,1,0,0,0,0,0
1901824000,-0.017927619,-0.48819438,6.158203,0.0,0.96828765,-0.023773426,-0.24065575,-0.062758826,0.0,0.0,-0.6723104,1,0,0,0,0,0
1901920000,-0.018620854,-0.4889037,6.1581364,0.0,0.96819144,-0.02413779,-0.24097669,-0.0628724,0.0,0.0,-0.6729401,1,0,0,0,0,0
1902032000,-0.018799283,-0.488782,6.1580706,0.0,0.96820194,-0.024228541,-0.24091133,-0.06292612,0.0,0.0,-0.6734432,1,0,0,0,0,0
1902124000,-0.018713437,-0.48905754,6.1580143,0.0,0.96816784,-0.024201808,-0.24104679,-0.06294218,0.0,0.0,-0.67397225,1,0,0,0,0,0
1902216000,-0.018658347,-0.4887957,6.1579676,0.0,0.9681988,-0.024173118,-0.24092112,-0.06295896,0.0,0.0,-0.6728771,1,0,0,0,0,0
1902328000,-0.019554151,-0.48973158,6.1578875,0.0,0.96807194,-0.024643742,-0.24134511,-0.06310297,0.0,0.0,-0.67449975,1,0,0,0,0,0
1902424000,-0.019859264,-0.49065533,6.15784,0.0,0.9679545,-0.024824135,-0.24178214,-0.0631603,0.0,0.0,-0.674372,1,0,0,0,0,0
1902516000,-0.019630032,-0.49008438,6.1577835,0.0,0.9680249,-0.024703318,-0.24151222,-0.06316144,0.0,0.0,-0.6759318,1,0,0,0,0,0
1902628000,-0.020365389,-0.4901847,6.157728,0.0,0.96800184,-0.025068846,-0.24153687,-0.063276745,0.0,0.0,-0.6754034,1,0,0,0,0,0
1902720000,-0.020518422,-0.49005434,6.157666,0.0,0.9680137,-0.025146596,-0.24146818,-0.06332557,0.0,0.0,-0.6759111,1,0,0,0,0,0
1902832000,-0.02175325,-0.4906773,6.157606,0.0,0.9679205,-0.025769647,-0.24172983,-0.06350226,0.0,0.0,-0.67499393,1,0,0,0,0,0
1902928000,-0.021265127,-0.49263373,6.157556,0.0,0.96768695,-0.025596498,-0.24269174,-0.063462615,0.0,0.0,-0.6748367,1,0,0,0,0,0
1903020000,-0.021061627,-0.4930663,6.157515,0.0,0.96763545,-0.025515629,-0.24290703,-0.06345665,0.0,0.0,-0.6763335,1,0,0,0,0,0
1903132000,-0.021891674,-0.4927748,6.157467,0.0,0.9676588,-0.025914576,-0.24273898,-0.06358146,0.0,0.0,-0.67534006,1,0,0,0,0,0
1903224000,-0.021902975,-0.4914442,6.1574316,0.0,0.96781975,-0.02588555,-0.24209405,-0.06360303,0.0,0.0,-0.6767157,1,0,0,0,0,0
1903320000,-0.02218408,-0.4923783,6.1573896,0.0,0.967701,-0.02605387,-0.24253672,-0.063655235,0.0,0.0,-0.67616135,1,0,0,0,0,0
1903432000,-0.024098517,-0.49163806,6.1573467,0.0,0.96776444,-0.026963875,-0.24211681,-0.06390946,0.0,0.0,-0.6772535,1,0,0,0,0,0
1903524000,-0.023356697,-0.4922223,6.157308,0.0,0.967702,-0.026626585,-0.24242277,-0.06383718,0.0,0.0,-0.6769841,1,0,0,0,0,0
1903636000,-0.023977371,-0.4935244,6.1572766,0.0,0.96753365,-0.026968533,-0.24303272,-0.0639252,0.0,0.0,-0.6765704,1,0,0,0,0,0
1903728000,-0.022863613,-0.49464834,6.157258,0.0,0.9674104,-0.026464706,-0.24361193,-0.06379642,0.0,0.0,-0.6774684,1,0,0,0,0,0
1903824000,-0.02195655,-0.4940387,6.1572456,0.0,0.9674965,-0.026009684,-0.24334571,-0.06369337,0.0,0.0,-0.6782223,1,0,0,0,0,0
1903936000,-0.022870347,-0.49410033,6.1572266,0.0,0.9674764,-0.026455842,-0.24334612,-0.06381365,0.0,0.0,-0.67805636,1,0,0,0,0,0
1904028000,-0.022590218,-0.49369478,6.1572156,0.0,0.96752936,-0.026309855,-0.2431587,-0.06378578,0.0,0.0,-0.6771624,1,0,0,0,0,0
1904120000,-0.023656,-0.4938463,6.1572046,0.0,0.96749634,-0.026831176,-0.24319781,-0.06392035,0.0,0.0,-0.67861646,1,0,0,0,0,0
1904232000,-0.02372331,-0.49597627,6.1571975,0.0,0.9672341,-0.02692652,-0.24422622,-0.0639278,0.0,0.0,-0.6782876,1,0,0,0,0,0
1904328000,-0.022303356,-0.49625748,6.157198,0.0,0.96721846,-0.026247934,-0.24440758,-0.0637535,0.0,0.0,-0.6782681,1,0,0,0,0,0
1904420000,-0.02270589,-0.49564195,6.1572046,0.0,0.967289,-0.026423853,-0.24409701,-0.063800834,0.0,0.0,-0.67847764,1,0,0,0,0,0
1904532000,-0.023869962,-0.49573183,6.157213,0.0,0.9672626,-0.026988419,-0.24410349,-0.06393857,0.0,0.0,-0.6784154,1,0,0,0,0,0
1904624000,-0.023091445,-0.495947,6.157221,0.0,0.9672469,-0.026617229,-0.24423252,-0.063839406,0.0,0.0,-0.6776605,1,0,0,0,0,0
1904720000,-0.023597749,-0.49791542,6.1572313,0.0,0.9669982,-0.026917992,-0.2451687,-0.06389215,0.0,0.0,-0.67725223,1,0,0,0,0,0
1904832000,-0.02376441,-0.49639946,6.1572504,0.0,0.9671832,-0.02695222,-0.24443035,-0.06390638,0.0,0.0,-0.67863566,1,0,0,0,0,0
1904924000,-0.02351421,-0.49663273,6.1572757,0.0,0.96715873,-0.026834907,-0.24455148,-0.063863106,0.0,0.0,-0.6789881,1,0,0,0,0,0
1905036000,-0.023482127,-0.49626273,6.157304,0.0,0.9672055,-0.02680521,-0.24437393,-0.063846335,0.0,0.0,-0.67888165,1,0,0,0,0,0
1905128000,-0.023225563,-0.49585366,6.157324,0.0,0.9672598,-0.026666803,-0.24418448,-0.06380616,0.0,0.0,-0.67851573,1,0,0,0,0,0
1905224000,-0.02286135,-0.49859342,6.157346,0.0,0.96692806,-0.026567612,-0.24552163,-0.06374504,0.0,0.0,-0.6782229,1,0,0,0,0,0
1905336000,-0.024357969,-0.4996664,6.157382,0.0,0.96677643,-0.027317787,-0.24599327,-0.06390922,0.0,0.0,-0.6782092,1,0,0,0,0,0
1905428000,-0.023188539,-0.49888742,6.1574097,0.0,0.9668894,-0.026726486,-0.24565427,-0.06375367,0.0,0.0,-0.67826456,1,0,0,0,0,0
1905520000,-0.023252603,-0.49919775,6.1574383,0.0,0.9668512,-0.026762944,-0.24580266,-0.063747056,0.0,0.0,-0.6801385,1,0,0,0,0,0
1905636000,-0.022210747,-0.5001932,6.1574783,0.0,0.9667431,-0.026283283,-0.24631773,-0.06359725,0.0,0.0,-0.68102795,1,0,0,0,0,0
1905728000,-0.022461385,-0.50108314,6.1575108,0.0,0.9666305,-0.026426278,-0.24674052,-0.06361036,0.0,0.0,-0.6794713,1,0,0,0,0,0
1905824000,-0.02411896,-0.502251,6.1575375,0.0,0.96646404,-0.027257875,-0.24725273,-0.063799635,0.0,0.0,-0.67980033,1,0,0,0,0,0
1905916000,-0.023319915,-0.503267,6.1575637,0.0,0.96634924,-0.026897917,-0.24776964,-0.06368597,0.0,0.0,-0.67920727,1,0,0,0,0,0
1906028000,-0.023517808,-0.5034866,6.157597,0.0,0.9663203,-0.026995748,-0.2478699,-0.063693896,0.0,0.0,-0.67930025,1,0,0,0,0,0
1906120000,-0.023773247,-0.5033921,6.157627,0.0,0.9663296,-0.027112715,-0.24781652,-0.063711226,0.0,0.0,-0.68092674,1,0,0,0,0,0
1906232000,-0.02299131,-0.5027789,6.1576667,0.0,0.96641773,-0.026712256,-0.24754553,-0.06359658,0.0,0.0,-0.68118894,1,0,0,0,0,0
