timestamp,ref_timestamp,ref_lat,ref_lon,x,y,z,delta_xy[0],delta_xy[1],delta_z,vx,vy,vz,z_deriv,delta_vxy[0],delta_vxy[1],delta_vz,ax,ay,az,yaw,ref_alt,dist_bottom,dist_bottom_rate,eph,epv,evh,evv,vxy_max,vz_max,hagl_min,hagl_max,xy_valid,z_valid,v_xy_valid,v_z_valid,xy_reset_counter,z_reset_counter,vxy_reset_counter,vz_reset_counter,xy_global,z_global,dist_bottom_valid
1859216000,1688000,47.3977508,8.5456074,0.16152868,-0.13627443,-0.011064864,-0.022968095,-0.0035443609,0.0,0.008994944,0.049981266,-0.0086480975,0.009385037,-0.059729103,-0.009160716,0.12626225,-0.017988741,0.041431848,0.072116956,0.41587794,0.0,0.10182418,0.0086480975,0.4201595,0.2338365,0.17373592,0.103940986,inf,inf,inf,inf,1,1,1,1,2,0,2,2,1,1,1
1859312000,1688000,47.3977508,8.5456074,0.16183901,-0.1361629,-0.009672803,-0.022968095,-0.0035443609,0.0,0.0066419872,0.047304202,-0.010662433,0.007912811,-0.059729103,-0.009160716,0.12626225,0.042670395,0.10114659,-0.04268344,0.4159265,0.0,0.10421891,0.010662433,0.4074671,0.23373082,0.1690308,0.103567325,inf,inf,inf,inf,1,1,1,1,2,0,2,2,1,1,1
1859416000,1688000,47.3977508,8.5456074,0.16131274,-0.13835703,-0.0068195593,-0.022968095,-0.0035443609,0.0,0.0040074303,0.04404125,-0.009130398,0.011263617,-0.059729103,-0.009160716,0.12626225,0.034471586,-0.018456101,-0.022124497,0.41577882,0.0,0.1057071,0.009130398,0.42008555,0.23400605,0.1737412,0.10399284,inf,inf,inf,inf,1,1,1,1,2,0,2,2,1,1,1
1859512000,1688000,47.3977508,8.5456074,0.16094793,-0.13867554,-0.004225446,-0.022968095,-0.0035443609,0.0,0.00013688488,0.039860375,-0.008651767,0.013087923,-0.059729103,-0.009160716,0.12626225,-0.07222408,-0.028352877,-0.045819204,0.41578126,0.0,0.10441614,0.008651767,0.43226206,0.23523274,0.17814568,0.10462091,inf,inf,inf,inf,1,1,1,1,2,0,2,2,1,1,1
1859616000,1688000,47.3977508,8.5456074,0.16031188,-0.13847171,-0.002709075,-0.022968095,-0.0035443609,0.0,-0.0033095593,0.035839077,-0.008507999,0.013228046,-0.059729103,-0.009160716,0.12626225,0.007723756,-0.0053229174,-0.0024130566,0.41569778,0.0,0.10289977,0.008507999,0.41881883,0.23413551,0.17304291,0.10398929,inf,inf,inf,inf,1,1,1,1,2,0,2,2,1,1,1
1859712000,1688000,47.3977508,8.5456074,0.15935884,-0.14014536,-0.0017808682,-0.022968095,-0.0035443609,0.0,-0.0051815845,0.03427562,-0.007794087,0.013441053,-0.059729103,-0.009160716,0.12626225,0.010285096,0.09993008,-0.05151238,0.41574702,0.0,0.10197156,0.007794087,0.43091562,0.23536187,0.17743526,0.10461744,inf,inf,inf,inf,1,1,1,1,2,0,2,2,1,1,1
1859816000,1688000,47.3977508,8.5456074,0.15852848,-0.14078961,-0.0006387635,-0.022968095,-0.0035443609,0.0,-0.0046753143,0.032425378,-0.007023228,0.013817763,-0.059729103,-0.009160716,0.12626225,0.0021367013,0.014619901,-0.0065164636,0.41575116,0.0,0.10082945,0.007023228,0.41766924,0.23426051,0.1724433,0.10398535,inf,inf,inf,inf,1,1,1,1,2,0,2,2,1,1,1
1859912000,1688000,47.3977508,8.5456074,0.1578186,-0.14268734,-8.928303e-05,-0.022968095,-0.0035443609,0.0,-0.0067636664,0.029719278,-0.008180066,0.011854072,-0.059729103,-0.009160716,0.12626225,-0.08932008,-0.06422483,0.073321156,0.41544414,0.0,0.100221545,0.008180066,0.42969653,0.2338711,0.17681691,0.10418876,inf,inf,inf,inf,1,1,1,1,2,0,2,2,1,1,1
1860016000,1688000,47.3977508,8.5456074,0.1568225,-0.14376882,0.0009069961,-0.022968095,-0.0035443609,0.0,-0.0076820864,0.027874112,-0.0062154783,0.0133971,-0.059729103,-0.009160716,0.12626225,0.08239093,-0.027409162,-0.030309891,0.41539362,0.0,0.1004631,0.0062154783,0.41662663,0.2343815,0.1719206,0.10398159,inf,inf,inf,inf,1,1,1,1,2,0,2,2,1,1,1
1860112000,1688000,47.3977508,8.5456074,0.15570408,-0.14596362,0.0018478045,-0.022968095,-0.0035443609,0.0,-0.008987709,0.023799803,-0.002982436,0.01606348,-0.059729103,-0.009160716,0.12626225,-0.08593615,-0.0011140546,0.01421105,0.4154058,0.0,0.10062057,0.002982436,0.4285936,0.23399822,0.17629267,0.10418882,inf,inf,inf,inf,1,1,1,1,2,0,2,2,1,1,1
1860216000,1688000,47.3977508,8.5456074,0.154441,-0.14753649,0.0024260574,-0.022968095,-0.0035443609,0.0,-0.010629354,0.019905245,-0.0011481643,0.016626554,-0.059729103,-0.009160716,0.12626225,0.022564214,0.0031905945,-0.007834285,0.41544396,0.0,0.10004231,0.0011481643,0.41568196,0.2345073,0.17147374,0.10398217,inf,inf,inf,inf,1,1,1,1,2,0,2,2,1,1,1
1860320000,1688000,47.3977508,8.5456074,0.15309605,-0.15013704,0.002639988,-0.022968095,-0.0035443609,0.0,-0.010310913,0.018588793,-0.0013678891,0.01489252,-0.059729103,-0.009160716,0.12626225,-0.042511176,-0.023789197,0.03982428,0.4155734,0.0,0.1,0.0013678891,0.42861173,0.2347626,0.17619124,0.104383335,inf,inf,inf,inf,1,1,1,1,2,0,2,2,1,1,1
1860416000,1688000,47.3977508,8.5456074,0.15213813,-0.1517766,0.004034576,-0.022968095,-0.0035443609,0.0,-0.009616889,0.014827545,-0.0009097608,0.015307817,-0.059729103,-0.009160716,0.12626225,-0.010753639,-0.006482043,-0.018700955,0.41554594,0.0,0.1,0.0009097608,0.41482618,0.23462985,0.17108348,0.103983626,inf,inf,inf,inf,1,1,1,1,2,0,2,2,1,1,1
1860512000,1688000,47.3977508,8.5456074,0.15148625,-0.15431586,0.0050017056,-0.022968095,-0.0035443609,0.0,-0.010843045,0.011867129,0.0008617686,0.016430497,-0.059729103,-0.009160716,0.12626225,-0.047718152,-0.013355114,-0.06643589,0.41549772,0.0,0.1,-0.0008617686,0.42669487,0.23424189,0.17544067,0.10419117,inf,inf,inf,inf,1,1,1,1,2,0,2,2,1,1,1
1860616000,1688000,47.3977508,8.5456074,0.15075655,-0.15625367,0.005442025,-0.022968095,-0.0035443609,0.0,-0.012915016,0.010177199,0.0012742307,0.015558964,-0.059729103,-0.009160716,0.12626225,-0.045692407,-0.04548249,-0.010686926,0.41554308,0.0,0.1,-0.0012742307,0.4140525,0.2331489,0.17075974,0.10356811,inf,inf,inf,inf,1,1,1,1,2,0,2,2,1,1,1
1860712000,1688000,47.3977508,8.5456074,0.15081306,-0.1586632,0.005739622,-0.022968095,-0.0035443609,0.0,-0.01316371,0.00938536,0.0011998427,0.014256776,-0.059729103,-0.009160716,0.12626225,0.006438094,-0.012184938,-0.0104065975,0.4155511,0.0,0.1,-0.0011998427,0.4258823,0.23435937,0.17511137,0.10419423,inf,inf,inf,inf,1,1,1,1,2,0,2,2,1,1,1
1860816000,1688000,47.3977508,8.5456074,0.150624,-0.16050704,0.006094548,-0.022968095,-0.0035443609,0.0,-0.012226808,0.0078914305,0.0007752745,0.01274458,-0.059729103,-0.009160716,0.12626225,0.0022551029,0.119841054,0.00019650905,0.4155988,0.0,0.1,-0.0007752745,0.41335392,0.233272,0.17048447,0.10357538,inf,inf,inf,inf,1,1,1,1,2,0,2,2,1,1,1
1860912000,1688000,47.3977508,8.5456074,0.15067582,-0.1632477,0.0067325197,-0.022968095,-0.0035443609,0.0,-0.011722401,0.0056538987,0.00066362356,0.012103552,-0.059729103,-0.009160716,0.12626225,-0.041336253,-0.011141058,-0.048945654,0.41553488,0.0,0.1,-0.00066362356,0.42515072,0.2344832,0.17483473,0.10420267,inf,inf,inf,inf,1,1,1,1,2,0,2,2,1,1,1
1861016000,1688000,47.3977508,8.5456074,0.15005094,-0.16546087,0.008237631,-0.022968095,-0.0035443609,0.0,-0.0144540835,0.0038793918,-0.0005807466,0.010945421,-0.059729103,-0.009160716,0.12626225,0.042046644,-0.0068577533,-0.4327027,0.41545817,0.0,0.1,0.0005807466,0.41272435,0.23339276,0.17026746,0.103584066,inf,inf,inf,inf,1,1,1,1,2,0,2,2,1,1,1
1861112000,1688000,47.3977508,8.5456074,0.14866365,-0.16773401,0.004640299,-0.022968095,-0.0035443609,0.0,-0.013216375,0.0037443636,-0.109339066,-0.09827137,-0.059729103,-0.009160716,0.12626225,0.08096519,0.0073558786,-1.6114283,0.4155629,0.0,0.10268763,0.109339066,0.4244937,0.23460478,0.1746069,0.104212694,inf,inf,inf,inf,1,1,1,1,2,0,2,2,1,1,1
1861216000,1688000,47.3977508,8.5456074,0.14795454,-0.16922888,-0.014651965,-0.022968095,-0.0035443609,0.0,-9.018226e-06,0.0059420145,-0.2607984,-0.25048044,-0.059729103,-0.009160716,0.12626225,0.16693479,0.024069598,-1.2493943,0.41566288,0.0,0.12197989,0.2607984,0.4121557,0.23351143,0.17016917,0.103594474,inf,inf,inf,inf,1,1,1,1,2,0,2,2,1,1,1
1861312000,1688000,47.3977508,8.5456074,0.14921398,-0.17056458,-0.04517289,-0.022968095,-0.0035443609,0.0,0.012826799,0.00849595,-0.37305075,-0.3637615,-0.059729103,-0.009160716,0.12626225,0.0666013,0.07646593,-1.2415228,0.41567978,0.0,0.15250081,0.37305075,0.4239177,0.23472442,0.17509177,0.10422447,inf,inf,inf,inf,1,1,1,1,2,0,2,2,1,1,1
1861416000,1688000,47.3977508,8.5456074,0.15147443,-0.1709107,-0.09105671,-0.022968095,-0.0035443609,0.0,0.018265571,0.013577436,-0.5094676,-0.501078,-0.059729103,-0.009160716,0.12626225,-0.0030903064,0.056156542,-1.4048637,0.41569468,0.0,0.19838464,0.5094676,0.41164982,0.23362835,0.17107223,0.10360641,inf,inf,inf,inf,1,1,1,1,2,0,2,2,1,1,1
1861512000,1688000,47.3977508,8.5456074,0.15391253,-0.17141713,-0.14568377,-0.022968095,-0.0035443609,0.0,0.018250117,0.013311129,-0.6366534,-0.62858725,-0.059729103,-0.009160716,0.12626225,-0.06401234,0.04495992,-1.2545911,0.41574478,0.0,0.2530117,0.6366534,0.42344266,0.23484239,0.17591114,0.10423771,inf,inf,inf,inf,1,1,1,1,2,0,2,2,1,1,1
1861616000,1688000,47.3977508,8.5456074,0.15662107,-0.17136237,-0.21932009,-0.022968095,-0.0035443609,0.0,0.01830613,0.012244949,-0.7694146,-0.7626005,-0.059729103,-0.009160716,0.12626225,0.039522395,-0.009979969,-1.3142219,0.41575453,0.0,0.326648,0.7694146,0.41123897,0.23372719,0.17183457,0.10361316,inf,inf,inf,inf,1,1,1,1,2,0,2,2,1,1,1
1861712000,1688000,47.3977508,8.5456074,0.16016,-0.17106774,-0.298966,-0.022968095,-0.0035443609,0.0,0.017147807,0.013935242,-0.89393604,-0.88748425,-0.059729103,-0.009160716,0.12626225,-0.012401349,0.0112737715,-1.2323157,0.41579044,0.0,0.40629393,0.89393604,0.42306253,0.2349259,0.17672862,0.104239136,inf,inf,inf,inf,1,1,1,1,2,0,2,2,1,1,1
1861816000,1688000,47.3977508,8.5456074,0.16355535,-0.17013447,-0.39895988,-0.022968095,-0.0035443609,0.0,0.016261533,0.013617029,-1.0262809,-1.0204891,-0.059729103,-0.009160716,0.12626225,-0.027450345,-0.029848384,-1.260111,0.41579136,0.0,0.5062878,1.0262809,0.41091087,0.23381063,0.172571,0.10361649,inf,inf,inf,inf,1,1,1,1,2,0,2,2,1,1,1
1861912000,1688000,47.3977508,8.5456074,0.1667153,-0.16905735,-0.5043662,-0.022968095,-0.0035443609,0.0,0.012329462,0.01394865,-1.1489217,-1.1446629,-0.059729103,-0.009160716,0.12626225,-0.040360525,-0.059960246,-1.3166107,0.41567492,0.0,0.61169416,1.1489217,0.42276618,0.23502061,0.1774648,0.10424869,inf,inf,inf,inf,1,1,1,1,2,0,2,2,1,1,1
1862016000,1688000,47.3977508,8.5456074,0.16936673,-0.16769485,-0.6319716,-0.022968095,-0.0035443609,0.0,0.0068562836,0.01055574,-1.2834266,-1.2805703,-0.059729103,-0.009160716,0.12626225,-0.04649623,-0.07829289,-1.3249432,0.41577035,0.0,0.73929954,1.2834266,0.41065463,0.23390527,0.17323638,0.103627704,inf,inf,inf,inf,1,1,1,1,2,0,2,2,1,1,1
1862112000,1688000,47.3977508,8.5456074,0.1721484,-0.16594568,-0.76079553,-0.022968095,-0.0035443609,0.0,0.002560977,0.007683232,-1.4065914,-1.4035634,-0.059729103,-0.009160716,0.12626225,0.00980189,-0.0003891564,-1.1891862,0.415969,0.0,0.8681235,1.4065914,0.42254147,0.23511776,0.17813148,0.10426216,inf,inf,inf,inf,1,1,1,1,2,0,2,2,1,1,1
1862216000,1688000,47.3977508,8.5456074,0.17444739,-0.16411376,-0.9142757,-0.022968095,-0.0035443609,0.0,-0.0013468368,0.00698622,-1.5417715,-1.5391301,-0.059729103,-0.009160716,0.12626225,-0.0034578987,-0.008488296,-1.357885,0.41586637,0.0,1.0216036,1.5417715,0.41045943,0.23400207,0.17386064,0.103642516,inf,inf,inf,inf,1,1,1,1,2,0,2,2,1,1,1
1862312000,1688000,47.3977508,8.5456074,0.1777709,-0.16206923,-1.0678474,-0.022968095,-0.0035443609,0.0,0.00042058586,0.008343311,-1.66416,-1.6613743,-0.059729103,-0.009160716,0.12626225,-0.015074241,0.012862255,-1.2684473,0.41569102,0.0,1.1751753,1.66416,0.42237818,0.23521712,0.17874742,0.10427902,inf,inf,inf,inf,1,1,1,1,2,0,2,2,1,1,1
1862416000,1688000,47.3977508,8.5456074,0.18082334,-0.16000961,-1.2481735,-0.022968095,-0.0035443609,0.0,-0.0010743283,0.006105358,-1.7977388,-1.7954433,-0.059729103,-0.009160716,0.12626225,-0.08734037,-0.023163002,-1.3031176,0.41575423,0.0,1.3555014,1.7977388,0.41031763,0.23410092,0.17441538,0.103660405,inf,inf,inf,inf,1,1,1,1,2,0,2,2,1,1,1
1862512000,1688000,47.3977508,8.5456074,0.18415071,-0.1580585,-1.4263915,-0.022968095,-0.0035443609,0.0,-0.0033750385,0.0072266567,-1.9219569,-1.9194757,-0.059729103,-0.009160716,0.12626225,-0.028887106,-0.05281052,-1.3082502,0.4158344,0.0,1.5337194,1.9219569,0.4222676,0.23531859,0.17930539,0.104298726,inf,inf,inf,inf,1,1,1,1,2,0,2,2,1,1,1
1862616000,1688000,47.3977508,8.5456074,0.1868737,-0.15589416,-1.632844,-0.022968095,-0.0035443609,0.0,-0.008119528,0.0057681035,-2.0560822,-2.0534692,-0.059729103,-0.009160716,0.12626225,-0.21471405,0.055083815,-1.2693944,0.41561818,0.0,1.7401719,2.0560822,0.41022116,0.23421021,0.17490573,0.10368464,inf,inf,inf,inf,1,1,1,1,2,0,2,2,1,1,1
1862720000,1688000,47.3977508,8.5456074,0.19071774,-0.15309146,-1.854637,-0.022968095,-0.0035443609,0.0,-0.008434829,0.004297447,-2.1910167,-2.1895106,-0.059729103,-0.009160716,0.12626225,-0.02809811,-0.010737116,-1.3045015,0.4213965,0.0,1.961965,2.1910167,0.4232021,0.23444597,0.1779716,0.10409106,inf,inf,inf,inf,1,1,1,1,2,0,2,2,1,1,1
1862816000,1688000,47.3977508,8.5456074,0.19330896,-0.15100318,-2.0717545,-0.022968095,-0.0035443609,0.0,-0.010345519,0.0017023075,-2.3121486,-2.3116083,-0.059729103,-0.009160716,0.12626225,-0.012722058,-0.047212776,-1.2681036,0.4203478,0.0,2.1790824,2.3121486,0.41025662,0.2343213,0.1694968,0.10371086,inf,inf,inf,inf,1,1,1,1,2,0,2,2,1,1,1
1862912000,1688000,47.3977508,8.5456074,0.19595924,-0.14899106,-2.3006184,-0.022968095,-0.0035443609,0.0,-0.013468191,0.0005623662,-2.434083,-2.4345367,-0.059729103,-0.009160716,0.12626225,0.013455122,-0.066720754,-1.2151021,0.41849345,0.0,2.4079463,2.434083,0.42187452,0.23391911,0.17065924,0.10392746,inf,inf,inf,inf,1,1,1,1,2,0,2,2,1,1,1
1863016000,1688000,47.3977508,8.5456074,0.19796458,-0.14718676,-2.5585418,-0.022968095,-0.0035443609,0.0,-0.015030097,-0.0017959767,-2.4738326,-2.4744549,-0.059729103,-0.009160716,0.12626225,0.028267635,-0.007375094,1.0113473,0.4158906,0.0,2.6658697,2.4738326,0.40998396,0.234434,0.163815,0.10374601,inf,inf,inf,inf,1,1,1,1,2,0,2,2,1,1,1
1863112000,1688000,47.3977508,8.5456074,0.20138134,-0.14538737,-2.7896645,-0.022968095,-0.0035443609,0.0,-0.012795713,-0.0023519516,-2.3341427,-2.3347993,-0.059729103,-0.009160716,0.12626225,-0.03407671,0.03521361,1.3472409,0.41423407,0.0,2.8969924,2.3341427,0.4212388,0.23403226,0.16582991,0.10396783,inf,inf,inf,inf,1,1,1,1,2,0,2,2,1,1,1
1863216000,1688000,47.3977508,8.5456074,0.20417011,-0.1437807,-3.0284603,-0.022968095,-0.0035443609,0.0,-0.016201874,-0.0046974104,-2.2445786,-2.246399,-0.059729103,-0.009160716,0.12626225,-0.06063969,-0.15156585,0.5387719,0.41246584,0.0,3.1357882,2.2445786,0.40941975,0.23454833,0.16009873,0.10379009,inf,inf,inf,inf,1,1,1,1,2,0,2,2,1,1,1
1863312000,1688000,47.3977508,8.5456074,0.20796788,-0.14169413,-3.2425277,-0.022968095,-0.0035443609,0.0,-0.01558785,-0.005232236,-2.1810067,-2.1840541,-0.059729103,-0.009160716,0.12626225,0.009395843,-0.044598773,0.7086461,0.4117275,0.0,3.3498557,2.1810067,0.4203484,0.23415595,0.16241927,0.104018584,inf,inf,inf,inf,1,1,1,1,2,0,2,2,1,1,1
1863416000,1688000,47.3977508,8.5456074,0.21063198,-0.13989784,-3.466614,-0.022968095,-0.0035443609,0.0,-0.01945852,-0.0056930566,-2.1049254,-2.1088247,-0.059729103,-0.009160716,0.12626225,-0.09080635,-0.047775462,0.6980095,0.41155815,0.0,3.573942,2.1049254,0.40862563,0.23306571,0.15766664,0.10342343,inf,inf,inf,inf,1,1,1,1,2,0,2,2,1,1,1
1863520000,1688000,47.3977508,8.5456074,0.21319015,-0.13795266,-3.6843154,-0.022968095,-0.0035443609,0.0,-0.02100828,-0.0038531772,-2.0436747,-2.0489638,-0.059729103,-0.009160716,0.12626225,0.04321021,0.0018433471,0.6751036,0.41170934,0.0,3.7916434,2.0436747,0.42017436,0.23492122,0.1609515,0.104270615,inf,inf,inf,inf,1,1,1,1,2,0,2,2,1,1,1
1863616000,1688000,47.3977508,8.5456074,0.21466051,-0.13654277,-3.8807359,-0.022968095,-0.0035443609,0.0,-0.02370859,-0.00700875,-1.9888928,-1.9964075,-0.059729103,-0.009160716,0.12626225,-0.06400513,-0.059222914,0.5367072,0.41209966,0.0,3.9880638,1.9888928,0.40766647,0.23318999,0.15680014,0.10348232,inf,inf,inf,inf,1,1,1,1,2,0,2,2,1,1,1
1863712000,1688000,47.3977508,8.5456074,0.21693937,-0.13512321,-4.0729203,-0.022968095,-0.0035443609,0.0,-0.023952156,-0.011310064,-1.93941,-1.9495628,-0.059729103,-0.009160716,0.12626225,-0.06301854,-0.09808126,0.54255867,0.412778,0.0,4.1802483,1.93941,0.4180865,0.23440905,0.16039714,0.10413824,inf,inf,inf,inf,1,1,1,1,2,0,2,2,1,1,1
1863816000,1688000,47.3977508,8.5456074,0.21814525,-0.13406269,-4.275146,-0.022968095,-0.0035443609,0.0,-0.028398613,-0.012099572,-1.8882022,-1.900153,-0.059729103,-0.009160716,0.12626225,-0.15319335,-0.003071213,0.48255453,0.41371086,0.0,4.382474,1.8882022,0.40660948,0.23331621,0.1572358,0.10354553,inf,inf,inf,inf,1,1,1,1,2,0,2,2,1,1,1
1863912000,1688000,47.3977508,8.5456074,0.21931525,-0.13207811,-4.456516,-0.022968095,-0.0035443609,0.0,-0.030466132,-0.010000828,-1.8517718,-1.8642125,-0.059729103,-0.009160716,0.12626225,-0.00079870364,-0.08658297,0.35843158,0.4147946,0.0,4.5638437,1.8517718,0.41686046,0.23453873,0.16135453,0.10420432,inf,inf,inf,inf,1,1,1,1,2,0,2,2,1,1,1
1864016000,1688000,47.3977508,8.5456074,0.21937543,-0.13042022,-4.648764,-0.022968095,-0.0035443609,0.0,-0.03350848,-0.012548402,-1.8136731,-1.826129,-0.059729103,-0.009160716,0.12626225,0.029106753,0.015996741,0.42601764,0.4151437,0.0,4.756092,1.8136731,0.405521,0.23345345,0.15873934,0.10361579,inf,inf,inf,inf,1,1,1,1,2,0,2,2,1,1,1
1864112000,1688000,47.3977508,8.5456074,0.21976805,-0.12800862,-4.8226347,-0.022968095,-0.0035443609,0.0,-0.032586023,-0.012255827,-1.7834817,-1.795761,-0.059729103,-0.009160716,0.12626225,0.0115816,-0.04310628,0.21086912,0.41565233,0.0,4.9299626,1.7834817,0.4156642,0.23467083,0.16333765,0.10427339,inf,inf,inf,inf,1,1,1,1,2,0,2,2,1,1,1
1864216000,1688000,47.3977508,8.5456074,0.21943824,-0.12614258,-5.0087194,-0.022968095,-0.0035443609,0.0,-0.03409864,-0.012252756,-1.7538227,-1.7666471,-0.059729103,-0.009160716,0.12626225,-0.075065486,-0.13158542,0.22898334,0.41570035,0.0,5.1160474,1.7538227,0.40446404,0.23359264,0.16110559,0.10368828,inf,inf,inf,inf,1,1,1,1,2,0,2,2,1,1,1
1864312000,1688000,47.3977508,8.5456074,0.21984293,-0.124109775,-5.177786,-0.022968095,-0.0035443609,0.0,-0.03529841,-0.014122485,-1.7275904,-1.7408023,-0.059729103,-0.009160716,0.12626225,-0.037291557,0.012941208,0.35877338,0.41575402,0.0,5.285114,1.7275904,0.41456172,0.23481382,0.16610044,0.10434821,inf,inf,inf,inf,1,1,1,1,2,0,2,2,1,1,1
1864416000,1688000,47.3977508,8.5456074,0.21923283,-0.1229163,-5.357963,-0.022968095,-0.0035443609,0.0,-0.03567755,-0.018328123,-1.7025102,-1.715998,-0.059729103,-0.009160716,0.12626225,-0.06610979,-0.031276796,0.27115548,0.41572946,0.0,5.465291,1.7025102,0.4034956,0.23373386,0.16408902,0.10376205,inf,inf,inf,inf,1,1,1,1,2,0,2,2,1,1,1
1864512000,1688000,47.3977508,8.5456074,0.21910924,-0.12183729,-5.5233746,-0.022968095,-0.0035443609,0.0,-0.036175046,-0.02030577,-1.6846668,-1.6994215,-0.059729103,-0.009160716,0.12626225,0.01364605,-0.06499728,0.1798151,0.41593212,0.0,5.6307025,1.6846668,0.41360757,0.23495884,0.16937755,0.10442351,inf,inf,inf,inf,1,1,1,1,2,0,2,2,1,1,1
1864616000,1688000,47.3977508,8.5456074,0.21767044,-0.12180955,-5.700935,-0.022968095,-0.0035443609,0.0,-0.03781911,-0.022394298,-1.6607199,-1.6771599,-0.059729103,-0.009160716,0.12626225,-0.076712385,-0.014056551,0.16308202,0.41596046,0.0,5.808263,1.6607199,0.42508954,0.23521051,0.17531662,0.10484088,inf,inf,inf,inf,1,1,1,1,2,0,2,2,1,1,1
1864720000,1688000,47.3977508,8.5456074,0.2158704,-0.12193259,-5.8751054,-0.022968095,-0.0035443609,0.0,-0.038083956,-0.021053506,-1.6423018,-1.659216,-0.059729103,-0.009160716,0.12626225,-0.05033449,0.020700052,0.076242715,0.4159417,0.0,5.9824333,1.6423018,0.41267717,0.23409604,0.17268108,0.10421525,inf,inf,inf,inf,1,1,1,1,2,0,2,2,1,1,1
1864816000,1688000,47.3977508,8.5456074,0.21602239,-0.120487854,-6.035003,-0.022968095,-0.0035443609,0.0,-0.03596516,-0.019727862,-1.6274865,-1.6453648,-0.059729103,-0.009160716,0.12626225,-0.03278123,-0.11351507,0.24301465,0.41596055,0.0,6.142331,1.6274865,0.4233199,0.23531646,0.17833942,0.10485846,inf,inf,inf,inf,1,1,1,1,2,0,2,2,1,1,1
1864912000,1688000,47.3977508,8.5456074,0.21550006,-0.119681925,-6.193654,-0.022968095,-0.0035443609,0.0,-0.03434103,-0.019248957,-1.6127629,-1.6317106,-0.059729103,-0.009160716,0.12626225,-0.059090544,0.08285159,0.16229412,0.4159135,0.0,6.300982,1.6127629,0.4102758,0.23357104,0.17517392,0.10404122,inf,inf,inf,inf,1,1,1,1,2,0,2,2,1,1,0
1865016000,1688000,47.3977508,8.5456074,0.21651247,-0.11767708,-6.364665,-0.022968095,-0.0035443609,0.0,-0.034180507,-0.018904014,-1.5978162,-1.6185436,-0.059729103,-0.009160716,0.12626225,-0.052465364,0.0059840316,0.09835604,0.41568422,0.0,6.471993,1.5978162,0.421861,0.23543191,0.18148124,0.10488118,inf,inf,inf,inf,1,1,1,1,2,0,2,2,1,1,0
1865112000,1688000,47.3977508,8.5456074,0.21644205,-0.11674442,-6.5200753,-0.022968095,-0.0035443609,0.0,-0.034270555,-0.021711465,-1.5813594,-1.6025325,-0.059729103,-0.009160716,0.12626225,-0.10508151,-0.103495605,0.16258655,0.41548273,0.0,6.6274033,1.5813594,0.40900615,0.23368461,0.17812148,0.10406362,inf,inf,inf,inf,1,1,1,1,2,0,2,2,1,1,0
1865216000,1688000,47.3977508,8.5456074,0.21786532,-0.115187496,-6.6870956,-0.022968095,-0.0035443609,0.0,-0.0337855,-0.02322665,-1.5732371,-1.5948131,-0.059729103,-0.009160716,0.12626225,-0.033689428,-0.050326895,0.10528601,0.41543508,0.0,6.7944236,1.5732371,0.4207145,0.23554797,0.18452178,0.10490459,inf,inf,inf,inf,1,1,1,1,2,0,2,2,1,1,0
1865312000,1688000,47.3977508,8.5456074,0.21813194,-0.11462987,-6.8404813,-0.022968095,-0.0035443609,0.0,-0.03297869,-0.02275847,-1.5642123,-1.5861019,-0.059729103,-0.009160716,0.12626225,0.009390052,0.002925752,0.22438633,0.4154129,0.0,6.947809,1.5642123,0.40800512,0.23379874,0.18092747,0.10408659,inf,inf,inf,inf,1,1,1,1,2,0,2,2,1,1,0
1865412000,1688000,47.3977508,8.5456074,0.2197899,-0.11321557,-6.992916,-0.022968095,-0.0035443609,0.0,-0.0318706,-0.023410516,-1.5563804,-1.5785192,-0.059729103,-0.009160716,0.12626225,0.018565616,-0.08230478,0.05109701,0.4153684,0.0,7.100244,1.5563804,0.41893286,0.23502006,0.1869074,0.10473242,inf,inf,inf,inf,1,1,1,1,2,0,2,2,1,1,0
1865516000,1688000,47.3977508,8.5456074,0.2204127,-0.11264889,-7.156608,-0.022968095,-0.0035443609,0.0,-0.031258088,-0.024464346,-1.5573556,-1.5785984,-0.059729103,-0.009160716,0.12626225,0.06582804,-0.06518676,0.08088722,0.41539288,0.0,7.263936,1.5573556,0.407265,0.23391338,0.18352914,0.10410981,inf,inf,inf,inf,1,1,1,1,2,0,2,2,1,1,0
1865612000,1688000,47.3977508,8.5456074,0.2222021,-0.11072306,-7.308982,-0.022968095,-0.0035443609,0.0,-0.03138637,-0.025894623,-1.5513711,-1.5733355,-0.059729103,-0.009160716,0.12626225,-0.021743907,-0.034817792,0.1341151,0.41566384,0.0,7.41631,1.5513711,0.41836047,0.23516314,0.18953003,0.104767874,inf,inf,inf,inf,1,1,1,1,2,0,2,2,1,1,0
1865716000,1688000,47.3977508,8.5456074,0.22296935,-0.10948109,-7.473022,-0.022968095,-0.0035443609,0.0,-0.032785334,-0.026470037,-1.5362078,-1.5589867,-0.059729103,-0.009160716,0.12626225,0.012630625,-0.030074151,0.054525208,0.4158392,0.0,7.58035,1.5362078,0.40685737,0.23408201,0.18594055,0.1041594,inf,inf,inf,inf,1,1,1,1,2,0,2,2,1,1,0
1865812000,1688000,47.3977508,8.5456074,0.2250161,-0.10729694,-7.6229105,-0.022968095,-0.0035443609,0.0,-0.033006098,-0.026642494,-1.5222162,-1.5455439,-0.059729103,-0.009160716,0.12626225,-0.02577117,-0.058055922,0.11721532,0.41596845,0.0,7.7302384,1.5222162,0.41814357,0.23371203,0.19189024,0.104388855,inf,inf,inf,inf,1,1,1,1,2,0,2,2,1,1,0
1865916000,1688000,47.3977508,8.5456074,0.22598962,-0.10619006,-7.784216,-0.022968095,-0.0035443609,0.0,-0.034207754,-0.029254844,-1.5133301,-1.5373586,-0.059729103,-0.009160716,0.12626225,-0.0056049535,-0.01737727,0.06626732,0.41579768,0.0,7.891544,1.5133301,0.4066722,0.23424706,0.18788783,0.104205124,inf,inf,inf,inf,1,1,1,1,2,0,2,2,1,1,0
1866012000,1688000,47.3977508,8.5456074,0.22767347,-0.104920305,-7.932537,-0.022968095,-0.0035443609,0.0,-0.03514081,-0.030140124,-1.5048321,-1.5296081,-0.059729103,-0.009160716,0.12626225,-0.022287058,0.051386554,0.1706099,0.4156315,0.0,8.039865,1.5048321,0.4181499,0.23388337,0.19377425,0.10443677,inf,inf,inf,inf,1,1,1,1,2,0,2,2,1,1,0
1866116000,1688000,47.3977508,8.5456074,0.22842842,-0.104311414,-8.093113,-0.022968095,-0.0035443609,0.0,-0.034416348,-0.030794352,-1.4905844,-1.5172421,-0.059729103,-0.009160716,0.12626225,-0.01100426,0.08484521,0.05682185,0.41557172,0.0,8.20044,1.4905844,0.40667647,0.2344081,0.18947758,0.1042475,inf,inf,inf,inf,1,1,1,1,2,0,2,2,1,1,0
1866220000,1688000,47.3977508,8.5456074,0.22981627,-0.102335006,-8.253025,-0.022968095,-0.0035443609,0.0,-0.035141885,-0.031378265,-1.4805754,-1.5093564,-0.059729103,-0.009160716,0.12626225,-0.036425952,-0.072026536,0.18281116,0.41564792,0.0,8.3603525,1.4805754,0.41934666,0.23468421,0.19579421,0.10467327,inf,inf,inf,inf,1,1,1,1,2,0,2,2,1,1,0
1866316000,1688000,47.3977508,8.5456074,0.23000161,-0.1014112,-8.399518,-0.022968095,-0.0035443609,0.0,-0.036254972,-0.034209203,-1.468656,-1.4991459,-0.059729103,-0.009160716,0.12626225,-0.021399608,0.010045185,0.19971746,0.415596,0.0,8.506845,1.468656,0.40684134,0.23457436,0.19067146,0.10429051,inf,inf,inf,inf,1,1,1,1,2,0,2,2,1,1,0
1866412000,1688000,47.3977508,8.5456074,0.23087984,-0.09928657,-8.545683,-0.022968095,-0.0035443609,0.0,-0.036414072,-0.034307707,-1.4595183,-1.4922105,-0.059729103,-0.009160716,0.12626225,0.08849401,-0.09278173,0.13219844,0.41538262,0.0,8.65301,1.4595183,0.41868776,0.23420593,0.19642854,0.10451903,inf,inf,inf,inf,1,1,1,1,2,0,2,2,1,1,0
1866516000,1688000,47.3977508,8.5456074,0.23073815,-0.09795465,-8.702192,-0.022968095,-0.0035443609,0.0,-0.037548658,-0.033373352,-1.4522707,-1.4861437,-0.059729103,-0.009160716,0.12626225,-0.037913207,-0.014852873,0.14829169,0.41517398,0.0,8.80952,1.4522707,0.40713382,0.23312789,0.19149986,0.10390801,inf,inf,inf,inf,1,1,1,1,2,0,2,2,1,1,0
1866612000,1688000,47.3977508,8.5456074,0.23145927,-0.0949906,-8.844903,-0.022968095,-0.0035443609,0.0,-0.038630456,-0.030363686,-1.4417198,-1.4756806,-0.059729103,-0.009160716,0.12626225,-0.0106002325,-0.025069235,0.12077111,0.41513434,0.0,8.95223,1.4417198,0.41914564,0.23436621,0.19716848,0.1045577,inf,inf,inf,inf,1,1,1,1,2,0,2,2,1,1,0
1866716000,1688000,47.3977508,8.5456074,0.23118126,-0.09293356,-8.998256,-0.022968095,-0.0035443609,0.0,-0.03785858,-0.030640375,-1.4392644,-1.4727037,-0.059729103,-0.009160716,0.12626225,-0.035719674,0.020859733,0.020684673,0.41520867,0.0,9.105583,1.4392644,0.40752268,0.23329195,0.19199587,0.1039478,inf,inf,inf,inf,1,1,1,1,2,0,2,2,1,1,0
1866820000,1688000,47.3977508,8.5456074,0.2315658,-0.09000068,-9.15056,-0.022968095,-0.0035443609,0.0,-0.037611637,-0.031658486,-1.437179,-1.4694332,-0.059729103,-0.009160716,0.12626225,-0.0011723532,0.009106457,0.008790753,0.41523534,0.0,9.257888,1.437179,0.42072797,0.23516575,0.19804761,0.104788825,inf,inf,inf,inf,1,1,1,1,2,0,2,2,1,1,0
1866916000,1688000,47.3977508,8.5456074,0.2310494,-0.08838827,-9.290955,-0.022968095,-0.0035443609,0.0,-0.03734135,-0.03282716,-1.4347228,-1.4660692,-0.059729103,-0.009160716,0.12626225,-0.010089068,0.009192389,0.00027939674,0.4153487,0.0,9.398282,1.4347228,0.4079789,0.23344375,0.19221377,0.10398098,inf,inf,inf,inf,1,1,1,1,2,0,2,2,1,1,0
1867020000,1688000,47.3977508,8.5456074,0.23110549,-0.08567648,-9.442386,-0.022968095,-0.0035443609,0.0,-0.035886977,-0.034233123,-1.4358311,-1.4657207,-0.059729103,-0.009160716,0.12626225,-0.00630573,0.0109596,0.07474794,0.4155994,0.0,9.549713,1.4358311,0.42132673,0.23530139,0.19818439,0.104814254,inf,inf,inf,inf,1,1,1,1,2,0,2,2,1,1,0
1867116000,1688000,47.3977508,8.5456074,0.2305755,-0.08444127,-9.581429,-0.022968095,-0.0035443609,0.0,-0.033845402,-0.036945026,-1.4319614,-1.4601899,-0.059729103,-0.009160716,0.12626225,-0.010874165,-0.061050877,-0.08295662,0.4155496,0.0,9.688756,1.4319614,0.4084784,0.23355907,0.19216336,0.10399761,inf,inf,inf,inf,1,1,1,1,2,0,2,2,1,1,0
1867212000,1688000,47.3977508,8.5456074,0.23106395,-0.08219592,-9.722027,-0.022968095,-0.0035443609,0.0,-0.0340365,-0.037863888,-1.4357626,-1.463867,-0.059729103,-0.009160716,0.12626225,0.042692784,-0.010426304,0.03741588,0.4156419,0.0,9.829354,1.4357626,0.42088282,0.23478392,0.19757198,0.10463989,inf,inf,inf,inf,1,1,1,1,2,0,2,2,1,1,0
1867316000,1688000,47.3977508,8.5456074,0.23088339,-0.08118845,-9.874569,-0.022968095,-0.0035443609,0.0,-0.033149745,-0.039106667,-1.4270016,-1.455601,-0.059729103,-0.009160716,0.12626225,0.0003185414,0.0652935,0.16976427,0.41569716,0.0,9.981896,1.4270016,0.40899834,0.23368283,0.19186807,0.10401798,inf,inf,inf,inf,1,1,1,1,2,0,2,2,1,1,0
1867420000,1688000,47.3977508,8.5456074,0.23194718,-0.07955886,-10.027103,-0.022968095,-0.0035443609,0.0,-0.029993396,-0.041924153,-1.4270226,-1.4565103,-0.059729103,-0.009160716,0.12626225,-0.017588643,0.037255555,0.027533619,0.41571888,0.0,10.134431,1.4270226,0.42256615,0.23554492,0.19761556,0.104852244,inf,inf,inf,inf,1,1,1,1,2,0,2,2,1,1,0
1867516000,1688000,47.3977508,8.5456074,0.23207656,-0.0793047,-10.167393,-0.022968095,-0.0035443609,0.0,-0.03041208,-0.04465376,-1.4265618,-1.4564289,-0.059729103,-0.009160716,0.12626225,0.022153063,0.01873626,-0.22160633,0.41566566,0.0,10.27472,1.4265618,0.40952,0.23379782,0.19131985,0.104034275,inf,inf,inf,inf,1,1,1,1,2,0,2,2,1,1,0
1867612000,1688000,47.3977508,8.5456074,0.23257358,-0.07791137,-10.309319,-0.022968095,-0.0035443609,0.0,-0.030792896,-0.044603206,-1.4774649,-1.5074115,-0.059729103,-0.009160716,0.12626225,-0.042379096,0.050031062,-1.1663091,0.41563135,0.0,10.416646,1.4774649,0.42208585,0.23502634,0.19652395,0.1046775,inf,inf,inf,inf,1,1,1,1,2,0,2,2,1,1,0
1867716000,1688000,47.3977508,8.5456074,0.23199786,-0.077654935,-10.474355,-0.022968095,-0.0035443609,0.0,-0.03292898,-0.04505056,-1.6310499,-1.6614016,-0.059729103,-0.009160716,0.12626225,0.01683124,-0.021382717,-1.7415563,0.4157641,0.0,10.581682,1.6310499,0.41002333,0.23392084,0.19063725,0.10405425,inf,inf,inf,inf,1,1,1,1,2,0,2,2,1,1,0
1867812000,1688000,47.3977508,8.5456074,0.23155491,-0.076387644,-10.644531,-0.022968095,-0.0035443609,0.0,-0.03511233,-0.044551034,-1.8298991,-1.8613681,-0.059729103,-0.009160716,0.12626225,0.0038879805,-0.08119252,-2.2878218,0.41591328,0.0,10.751859,1.8298991,0.42264766,0.23515137,0.19608109,0.104700126,inf,inf,inf,inf,1,1,1,1,2,0,2,2,1,1,0
1867916000,1688000,47.3977508,8.5456074,0.23001462,-0.0762184,-10.854441,-0.022968095,-0.0035443609,0.0,-0.0346107,-0.046075188,-2.139496,-2.171493,-0.059729103,-0.009160716,0.12626225,0.032639567,0.011024163,-3.2348156,0.41587403,0.0,10.961768,2.139496,0.4104869,0.23405275,0.1906826,0.10408362,inf,inf,inf,inf,1,1,1,1,2,0,2,2,1,1,0
1868012000,1688000,47.3977508,8.5456074,0.22818458,-0.07476477,-11.077707,-0.022968095,-0.0035443609,0.0,-0.035578284,-0.04646407,-2.448198,-2.4794798,-0.059729103,-0.009160716,0.12626225,-0.06588797,-0.06878414,-2.8238947,0.4157932,0.0,11.185035,2.448198,0.4231993,0.23528522,0.19657664,0.104732856,inf,inf,inf,inf,1,1,1,1,2,0,2,2,1,1,0
1868116000,1688000,47.3977508,8.5456074,0.22563952,-0.0747146,-11.348957,-0.022968095,-0.0035443609,0.0,-0.035233315,-0.04689238,-2.6874573,-2.7185051,-0.059729103,-0.009160716,0.12626225,-0.025478387,-0.04162447,-1.8877945,0.41582525,0.0,11.4562845,2.6874573,0.4109389,0.23417555,0.19154252,0.10411476,inf,inf,inf,inf,1,1,1,1,2,0,2,2,1,1,0
1868220000,1688000,47.3977508,8.5456074,0.22385477,-0.074171886,-11.640015,-0.022968095,-0.0035443609,0.0,-0.03172746,-0.046445202,-2.841516,-2.8721094,-0.059729103,-0.009160716,0.12626225,-0.086237796,0.00075657223,-1.2336652,0.41595086,0.0,11.747342,2.841516,0.42486572,0.23442863,0.19809267,0.10453301,inf,inf,inf,inf,1,1,1,1,2,0,2,2,1,1,0
1868316000,1688000,47.3977508,8.5456074,0.22201516,-0.07477572,-11.920015,-0.022968095,-0.0035443609,0.0,-0.03155538,-0.049526557,-2.9207072,-2.9508162,-0.059729103,-0.009160716,0.12626225,-0.062221307,-0.09565299,-0.38745716,0.41593057,0.0,12.027343,2.9207072,0.41142803,0.2343073,0.19189243,0.10414736,inf,inf,inf,inf,1,1,1,1,2,0,2,2,1,1,0
1868412000,1688000,47.3977508,8.5456074,0.22078876,-0.07433561,-12.203971,-0.022968095,-0.0035443609,0.0,-0.0307983,-0.048348892,-2.9285522,-2.958295,-0.059729103,-0.009160716,0.12626225,-0.051795296,0.0005789152,0.23983884,0.41600096,0.0,12.311298,2.9285522,0.42431864,0.23554401,0.19727333,0.10479488,inf,inf,inf,inf,1,1,1,1,2,0,2,2,1,1,0
1868516000,1688000,47.3977508,8.5456074,0.21897742,-0.07492526,-12.510606,-0.022968095,-0.0035443609,0.0,-0.031123398,-0.045938805,-2.9071214,-2.9368606,-0.059729103,-0.009160716,0.12626225,0.04663911,-0.0374546,0.137493,0.4158854,0.0,12.617933,2.9071214,0.4119138,0.23443812,0.19096652,0.10417171,inf,inf,inf,inf,1,1,1,1,2,0,2,2,1,1,0
1868620000,1688000,47.3977508,8.5456074,0.2177538,-0.07461906,-12.81667,-0.022968095,-0.0035443609,0.0,-0.029633733,-0.04403904,-2.9048457,-2.9353077,-0.059729103,-0.009160716,0.12626225,-0.09582583,-0.060118582,-0.042547468,0.4160022,0.0,12.923998,2.9048457,0.42590496,0.23469883,0.19612783,0.10458535,inf,inf,inf,inf,1,1,1,1,2,0,2,2,1,1,0
1868716000,1688000,47.3977508,8.5456074,0.2160493,-0.07501254,-13.098392,-0.022968095,-0.0035443609,0.0,-0.031116322,-0.041338418,-2.895567,-2.9261434,-0.059729103,-0.009160716,0.12626225,-0.07438257,0.062356927,0.098126,0.4160291,0.0,13.205719,2.895567,0.41234013,0.23457626,0.18920395,0.10419387,inf,inf,inf,inf,1,1,1,1,2,0,2,2,1,1,0
1868812000,1688000,47.3977508,8.5456074,0.21460328,-0.07410329,-13.37943,-0.022968095,-0.0035443609,0.0,-0.029991712,-0.041974023,-2.8899243,-2.920708,-0.059729103,-0.009160716,0.12626225,0.030288486,-0.019269016,0.037723217,0.41599,0.0,13.486757,2.8899243,0.42518905,0.23418525,0.19391575,0.10440829,inf,inf,inf,inf,1,1,1,1,2,0,2,2,1,1,0
1868916000,1688000,47.3977508,8.5456074,0.2128234,-0.07432419,-13.683321,-0.022968095,-0.0035443609,0.0,-0.02676611,-0.042219087,-2.8813775,-2.9124787,-0.059729103,-0.009160716,0.12626225,-0.04772814,0.0026706692,0.16768089,0.41597676,0.0,13.790648,2.8813775,0.41267774,0.23468699,0.18751536,0.10420442,inf,inf,inf,inf,1,1,1,1,2,0,2,2,1,1,0
1869012000,1688000,47.3977508,8.5456074,0.21105637,-0.07378443,-13.964209,-0.022968095,-0.0035443609,0.0,-0.027102582,-0.042392902,-2.877433,-2.909879,-0.059729103,-0.009160716,0.12626225,-0.0048027355,0.008614064,-0.08144881,0.4159949,0.0,14.071536,2.877433,0.42547792,0.23427834,0.19213636,0.10441123,inf,inf,inf,inf,1,1,1,1,2,0,2,2,1,1,0
1869116000,1688000,47.3977508,8.5456074,0.2089547,-0.07438116,-14.267684,-0.022968095,-0.0035443609,0.0,-0.026281124,-0.042668764,-2.8692937,-2.902787,-0.059729103,-0.009160716,0.12626225,-0.032280635,-0.019409828,0.008617527,0.4159776,0.0,14.375011,2.8692937,0.41293335,0.2347817,0.18584093,0.104208514,inf,inf,inf,inf,1,1,1,1,2,0,2,2,1,1,0
1869212000,1688000,47.3977508,8.5456074,0.20774227,-0.07400589,-14.548467,-0.022968095,-0.0035443609,0.0,-0.024589356,-0.038085837,-2.8645496,-2.9000094,-0.059729103,-0.009160716,0.12626225,0.010435781,0.04160209,0.14218035,0.41586912,0.0,14.655794,2.8645496,0.42567638,0.23438233,0.1903912,0.10442006,inf,inf,inf,inf,1,1,1,1,2,0,2,2,1,1,0
1869316000,1688000,47.3977508,8.5456074,0.20607676,-0.07465401,-14.851736,-0.022968095,-0.0035443609,0.0,-0.023602333,-0.039028637,-2.8557522,-2.8929846,-0.059729103,-0.009160716,0.12626225,-0.0104381535,-0.104359865,0.16621593,0.4158293,0.0,14.959064,2.8557522,0.4131113,0.23488675,0.18422669,0.10421805,inf,inf,inf,inf,1,1,1,1,2,0,2,2,1,1,0
1869412000,1688000,47.3977508,8.5456074,0.20454113,-0.07511568,-15.131531,-0.022968095,-0.0035443609,0.0,-0.02246527,-0.038528234,-2.8523657,-2.8914716,-0.059729103,-0.009160716,0.12626225,0.046601187,-0.024684595,0.07368158,0.41603744,0.0,15.238858,2.8523657,0.4257906,0.23447889,0.18871051,0.10442624,inf,inf,inf,inf,1,1,1,1,2,0,2,2,1,1,0
1869516000,1688000,47.3977508,8.5456074,0.2027117,-0.07669723,-15.434285,-0.022968095,-0.0035443609,0.0,-0.02185813,-0.037319828,-2.84555,-2.8866832,-0.059729103,-0.009160716,0.12626225,0.015582772,0.023599604,-0.08820369,0.41604596,0.0,15.541613,2.84555,0.4401729,0.23470983,0.1936189,0.10480973,inf,inf,inf,inf,1,1,1,1,2,0,2,2,1,1,0
1869612000,1688000,47.3977508,8.5456074,0.20085149,-0.078684784,-15.712219,-0.022968095,-0.0035443609,0.0,-0.020231443,-0.036636036,-2.8394585,-2.881206,-0.059729103,-0.009160716,0.12626225,-0.051788803,0.05741807,0.120767385,0.41603586,0.0,15.819547,2.8394585,0.42436984,0.23455398,0.18620546,0.104383774,inf,inf,inf,inf,1,1,1,1,2,0,2,2,1,1,0
1869716000,1688000,47.3977508,8.5456074,0.1994105,-0.07970555,-16.012545,-0.022968095,-0.0035443609,0.0,-0.022922507,-0.03598476,-2.8390543,-2.8809607,-0.059729103,-0.009160716,0.12626225,-0.022821622,0.006246853,0.072954215,0.41612673,0.0,16.119873,2.8390543,0.43855268,0.23477486,0.19104552,0.10476425,inf,inf,inf,inf,1,1,1,1,2,0,2,2,1,1,0
1869812000,1688000,47.3977508,8.5456074,0.19781777,-0.08152799,-16.28914,-0.022968095,-0.0035443609,0.0,-0.020638807,-0.03684339,-2.839743,-2.8812554,-0.059729103,-0.009160716,0.12626225,0.03922808,0.036079265,0.09513273,0.41600934,0.0,16.39647,2.839743,0.42303598,0.23462038,0.18394716,0.104341,inf,inf,inf,inf,1,1,1,1,2,0,2,2,1,1,0
1869916000,1688000,47.3977508,8.5456074,0.19678389,-0.08356044,-16.589806,-0.022968095,-0.0035443609,0.0,-0.02241073,-0.038584407,-2.841846,-2.8838124,-0.059729103,-0.009160716,0.12626225,-0.055490073,-0.023041036,-0.004118308,0.4160752,0.0,16.697134,2.841846,0.43703604,0.23484942,0.18874626,0.10472661,inf,inf,inf,inf,1,1,1,1,2,0,2,2,1,1,0
1870012000,1688000,47.3977508,8.5456074,0.19524623,-0.085924186,-16.866508,-0.022968095,-0.0035443609,0.0,-0.023276946,-0.037695426,-2.8432288,-2.8846147,-0.059729103,-0.009160716,0.12626225,0.069718234,0.014442833,-0.08668005,0.41612747,0.0,16.973837,2.8432288,0.42178127,0.23469593,0.18193813,0.104305826,inf,inf,inf,inf,1,1,1,1,2,0,2,2,1,1,0
1870116000,1688000,47.3977508,8.5456074,0.19350217,-0.08650538,-17.166346,-0.022968095,-0.0035443609,0.0,-0.021640822,-0.035848703,-2.8405468,-2.881519,-0.059729103,-0.009160716,0.12626225,0.02845188,0.036016714,0.009018927,0.41610432,0.0,17.273674,2.8405468,0.43561444,0.23491545,0.18669069,0.10468867,inf,inf,inf,inf,1,1,1,1,2,0,2,2,1,1,0
1870212000,1688000,47.3977508,8.5456074,0.1918084,-0.08751845,-17.443441,-0.022968095,-0.0035443609,0.0,-0.020979982,-0.029975433,-2.8449755,-2.885808,-0.059729103,-0.009160716,0.12626225,0.008096678,-0.027818806,0.056778077,0.41604415,0.0,17.55077,2.8449755,0.42060122,0.23476343,0.18012592,0.10427053,inf,inf,inf,inf,1,1,1,1,2,0,2,2,1,1,0
1870316000,1688000,47.3977508,8.5456074,0.19019918,-0.087189026,-17.744812,-0.022968095,-0.0035443609,0.0,-0.021407314,-0.028082622,-2.8464181,-2.8879986,-0.059729103,-0.009160716,0.12626225,-0.006227681,-0.024061255,0.054353844,0.41606736,0.0,17.85214,2.8464181,0.4342805,0.23499995,0.18484208,0.10466238,inf,inf,inf,inf,1,1,1,1,2,0,2,2,1,1,0
1870420000,1688000,47.3977508,8.5456074,0.18845409,-0.08773546,-18.045807,-0.022968095,-0.0035443609,0.0,-0.019086003,-0.029083911,-2.8460195,-2.887912,-0.059729103,-0.009160716,0.12626225,-0.04467341,-0.02559228,0.024585983,0.41609314,0.0,18.153135,2.8460195,0.42050838,0.23386607,0.17887503,0.10401328,inf,inf,inf,inf,1,1,1,1,2,0,2,2,1,1,0
1870516000,1688000,47.3977508,8.5456074,0.18705341,-0.088415615,-18.323769,-0.022968095,-0.0035443609,0.0,-0.020053476,-0.030948086,-2.84573,-2.8880165,-0.059729103,-0.009160716,0.12626225,-0.09236246,-0.043199047,-0.048317943,0.41605172,0.0,18.431097,2.84573,0.4330274,0.23507634,0.18319441,0.10463596,inf,inf,inf,inf,1,1,1,1,2,0,2,2,1,1,0
1870612000,1688000,47.3977508,8.5456074,0.18546982,-0.08989469,-18.601418,-0.022968095,-0.0035443609,0.0,-0.019109681,-0.031168878,-2.8438063,-2.8861327,-0.059729103,-0.009160716,0.12626225,0.025461324,-0.025708089,0.073411494,0.41611668,0.0,18.708746,2.8438063,0.41844097,0.23492658,0.17705846,0.10422267,inf,inf,inf,inf,1,1,1,1,2,0,2,2,1,1,0
1870716000,1688000,47.3977508,8.5456074,0.18466523,-0.09137913,-18.901516,-0.022968095,-0.0035443609,0.0,-0.01724706,-0.029385276,-2.8453138,-2.8871017,-0.059729103,-0.009160716,0.12626225,0.022501888,0.089736685,0.0284994,0.41606537,0.0,19.008844,2.8453138,0.43184993,0.23516223,0.18171681,0.10461714,inf,inf,inf,inf,1,1,1,1,2,0,2,2,1,1,0
1870812000,1688000,47.3977508,8.5456074,0.18378244,-0.09302548,-19.179148,-0.022968095,-0.0035443609,0.0,-0.01485007,-0.027465843,-2.849252,-2.8909116,-0.059729103,-0.009160716,0.12626225,0.036305383,-0.02001523,0.02530217,0.4160193,0.0,19.286476,2.849252,0.4174527,0.23500478,0.1757707,0.10420222,inf,inf,inf,inf,1,1,1,1,2,0,2,2,1,1,0
1870916000,1688000,47.3977508,8.5456074,0.18311623,-0.09381142,-19.480024,-0.022968095,-0.0035443609,0.0,-0.013982204,-0.026050102,-2.8514173,-2.8928893,-0.059729103,-0.009160716,0.12626225,0.06865753,-0.039614517,-0.024170613,0.41605443,0.0,19.587353,2.8514173,0.4307432,0.23524027,0.18042555,0.10459826,inf,inf,inf,inf,1,1,1,1,2,0,2,2,1,1,0
1871012000,1688000,47.3977508,8.5456074,0.18217295,-0.09497969,-19.758194,-0.022968095,-0.0035443609,0.0,-0.0157911,-0.023514304,-2.8521452,-2.8936126,-0.059729103,-0.009160716,0.12626225,0.032484725,0.019636389,0.051439736,0.4157784,0.0,19.865522,2.8521452,0.41652092,0.2334855,0.17465407,0.1037691,inf,inf,inf,inf,1,1,1,1,2,0,2,2,1,1,0
1871116000,1688000,47.3977508,8.5456074,0.1814243,-0.09614045,-20.05877,-0.022968095,-0.0035443609,0.0,-0.014222987,-0.022773623,-2.8535972,-2.894333,-0.059729103,-0.009160716,0.12626225,0.023059903,-0.023141459,-0.035778616,0.41591424,0.0,20.166098,2.8535972,0.42970476,0.23532808,0.17929915,0.10458673,inf,inf,inf,inf,1,1,1,1,2,0,2,2,1,1,0
1871212000,1688000,47.3977508,8.5456074,0.18055992,-0.09774888,-20.336443,-0.022968095,-0.0035443609,0.0,-0.013579982,-0.02410444,-2.8610466,-2.9008727,-0.059729103,-0.009160716,0.12626225,0.0030856752,0.10327263,0.04932377,0.4158222,0.0,20.443771,2.8610466,0.41564423,0.23357275,0.17368045,0.10375942,inf,inf,inf,inf,1,1,1,1,2,0,2,2,1,1,0
1871316000,1688000,47.3977508,8.5456074,0.17964415,-0.09987338,-20.637325,-0.022968095,-0.0035443609,0.0,-0.013706858,-0.023877166,-2.856997,-2.8958557,-0.059729103,-0.009160716,0.12626225,-0.028490735,0.0098601,0.1009982,0.4159538,0.0,20.744654,2.856997,0.42873102,0.23542592,0.17833124,0.1045828,inf,inf,inf,inf,1,1,1,1,2,0,2,2,1,1,0
1871412000,1688000,47.3977508,8.5456074,0.17852782,-0.102023244,-20.914442,-0.022968095,-0.0035443609,0.0,-0.013991355,-0.023732267,-2.8429718,-2.8810515,-0.059729103,-0.009160716,0.12626225,-0.0023158134,0.029268134,0.43467245,0.41579014,0.0,21.02177,2.8429718,0.41481972,0.23366934,0.1728576,0.1037568,inf,inf,inf,inf,1,1,1,1,2,0,2,2,1,1,0
1871516000,1688000,47.3977508,8.5456074,0.17738846,-0.10398704,-21.21027,-0.022968095,-0.0035443609,0.0,-0.0127149625,-0.02309912,-2.7558846,-2.793884,-0.059729103,-0.009160716,0.12626225,-0.040163625,0.03325488,1.0609105,0.41586974,0.0,21.317598,2.7558846,0.42781976,0.23551552,0.17747633,0.10457787,inf,inf,inf,inf,1,1,1,1,2,0,2,2,1,1,0
1871612000,1688000,47.3977508,8.5456074,0.17633106,-0.106006324,-21.472534,-0.022968095,-0.0035443609,0.0,-0.012743548,-0.022076728,-2.66056,-2.6971636,-0.059729103,-0.009160716,0.12626225,-0.03743756,0.0033178728,0.8188113,0.41581336,0.0,21.579863,2.66056,0.41405058,0.23375826,0.17201172,0.103753,inf,inf,inf,inf,1,1,1,1,2,0,2,2,1,1,0
1871716000,1688000,47.3977508,8.5456074,0.17534016,-0.108054005,-21.747673,-0.022968095,-0.0035443609,0.0,-0.0121422745,-0.020186339,-2.5802827,-2.6155086,-0.059729103,-0.009160716,0.12626225,-0.00952815,0.042747203,0.7933247,0.41597205,0.0,21.855001,2.5802827,0.42695922,0.23399681,0.17627333,0.10415326,inf,inf,inf,inf,1,1,1,1,2,0,2,2,1,1,0
1871812000,1688000,47.3977508,8.5456074,0.17435661,-0.11004636,-21.994421,-0.022968095,-0.0035443609,0.0,-0.011958539,-0.019673185,-2.504147,-2.5384908,-0.059729103,-0.009160716,0.12626225,0.041853264,-0.056247503,0.80763453,0.41580147,0.0,22.10175,2.504147,0.41332465,0.23385629,0.1707925,0.10375417,inf,inf,inf,inf,1,1,1,1,2,0,2,2,1,1,0
1871916000,1688000,47.3977508,8.5456074,0.17376605,-0.11223025,-22.253899,-0.022968095,-0.0035443609,0.0,-0.01184519,-0.02005651,-2.4227958,-2.456648,-0.059729103,-0.009160716,0.12626225,-0.047906406,-7.20538e-05,0.8320417,0.41574773,0.0,22.361227,2.4227958,0.4261353,0.23409481,0.1751348,0.10415606,inf,inf,inf,inf,1,1,1,1,2,0,2,2,1,1,0
1872020000,1688000,47.3977508,8.5456074,0.17277099,-0.11458064,-22.504726,-0.022968095,-0.0035443609,0.0,-0.012569489,-0.020526294,-2.3440158,-2.377283,-0.059729103,-0.009160716,0.12626225,0.0011320298,-0.049415383,0.6879968,0.41585565,0.0,22.612055,2.3440158,0.41358307,0.23458393,0.17015846,0.10394845,inf,inf,inf,inf,1,1,1,1,2,0,2,2,1,1,0
1872116000,1688000,47.3977508,8.5456074,0.17123671,-0.11677665,-22.72967,-0.022968095,-0.0035443609,0.0,-0.0138108125,-0.020071954,-2.2733872,-2.3065395,-0.059729103,-0.009160716,0.12626225,-0.03360167,-0.051134102,0.75379103,0.4159241,0.0,22.836998,2.2733872,0.42534956,0.23415995,0.1741577,0.10414718,inf,inf,inf,inf,1,1,1,1,2,0,2,2,1,1,0
1872212000,1688000,47.3977508,8.5456074,0.16977529,-0.11908858,-22.947817,-0.022968095,-0.0035443609,0.0,-0.011859843,-0.020199863,-2.2037969,-2.236885,-0.059729103,-0.009160716,0.12626225,0.06341598,-0.043064687,0.7284488,0.4158303,0.0,23.055145,2.2037969,0.41195416,0.2340144,0.16900189,0.103749074,inf,inf,inf,inf,1,1,1,1,2,0,2,2,1,1,0
1872316000,1688000,47.3977508,8.5456074,0.16926983,-0.12238597,-23.177134,-0.022968095,-0.0035443609,0.0,-0.0075363545,-0.019630814,-2.1350343,-2.1681373,-0.059729103,-0.009160716,0.12626225,-0.032807563,-0.037360694,0.69628745,0.41564336,0.0,23.284462,2.1350343,0.42460418,0.23423788,0.17336066,0.10414733,inf,inf,inf,inf,1,1,1,1,2,0,2,2,1,1,0
1872412000,1688000,47.3977508,8.5456074,0.16897896,-0.12529498,-23.38148,-0.022968095,-0.0035443609,0.0,-0.0069334637,-0.019444538,-2.0724154,-2.1045609,-0.059729103,-0.009160716,0.12626225,-0.050067794,-0.05890912,0.5932143,0.41583425,0.0,23.488808,2.0724154,0.41131717,0.23408605,0.16833274,0.10374781,inf,inf,inf,inf,1,1,1,1,2,0,2,2,1,1,0
1872516000,1688000,47.3977508,8.5456074,0.1691885,-0.12895297,-23.59595,-0.022968095,-0.0035443609,0.0,-0.0053897942,-0.017092751,-2.009348,-2.0402687,-0.059729103,-0.009160716,0.12626225,0.03084466,-0.023156218,0.5886731,0.4158068,0.0,23.703278,2.009348,0.42390186,0.23431127,0.17272843,0.10414833,inf,inf,inf,inf,1,1,1,1,2,0,2,2,1,1,0
1872612000,1688000,47.3977508,8.5456074,0.16922633,-0.13175821,-23.788115,-0.022968095,-0.0035443609,0.0,-0.006329557,-0.015096256,-1.9533229,-1.9831536,-0.059729103,-0.009160716,0.12626225,-0.07238031,0.014272617,0.57309306,0.41569424,0.0,23.895443,1.9533229,0.41071594,0.23417057,0.16781287,0.103754885,inf,inf,inf,inf,1,1,1,1,2,0,2,2,1,1,0
1872716000,1688000,47.3977508,8.5456074,0.16957909,-0.13416511,-23.98985,-0.022968095,-0.0035443609,0.0,-0.00435606,-0.014095944,-1.8899238,-1.9184538,-0.059729103,-0.009160716,0.12626225,-0.0063541587,0.0005064066,0.54839903,0.4155895,0.0,24.097178,1.8899238,0.42324558,0.23439716,0.17225564,0.10415702,inf,inf,inf,inf,1,1,1,1,2,0,2,2,1,1,0
1872812000,1688000,47.3977508,8.5456074,0.16984457,-0.136062,-24.170025,-0.022968095,-0.0035443609,0.0,-0.0030885953,-0.012299533,-1.8381233,-1.8650599,-0.059729103,-0.009160716,0.12626225,0.02512842,-0.061996683,0.5598748,0.41556308,0.0,24.277353,1.8381233,0.41015258,0.23425001,0.16744547,0.103761606,inf,inf,inf,inf,1,1,1,1,2,0,2,2,1,1,0
1872916000,1688000,47.3977508,8.5456074,0.17003047,-0.13700518,-24.359623,-0.022968095,-0.0035443609,0.0,-0.00270269,-0.010359443,-1.7826903,-1.8081102,-0.059729103,-0.009160716,0.12626225,0.00024931793,-0.01095011,0.5649691,0.4155016,0.0,24.466951,1.7826903,0.42263633,0.23448697,0.17191118,0.10416931,inf,inf,inf,inf,1,1,1,1,2,0,2,2,1,1,0
1873012000,1688000,47.3977508,8.5456074,0.17004395,-0.1379001,-24.528803,-0.022968095,-0.0035443609,0.0,-0.0021180294,-0.008101523,-1.7326355,-1.7560003,-0.059729103,-0.009160716,0.12626225,0.021355277,-0.022276705,0.55590546,0.4157609,0.0,24.636131,1.7326355,0.40962887,0.23435032,0.16718473,0.10377919,inf,inf,inf,inf,1,1,1,1,2,0,2,2,1,1,0
1873116000,1688000,47.3977508,8.5456074,0.16994135,-0.1392022,-24.706728,-0.022968095,-0.0035443609,0.0,-0.0020260888,-0.007743788,-1.6813617,-1.7026978,-0.059729103,-0.009160716,0.12626225,0.0966757,-0.062467556,0.4943609,0.41578263,0.0,24.814056,1.6813617,0.42207575,0.23457976,0.17169149,0.104184225,inf,inf,inf,inf,1,1,1,1,2,0,2,2,1,1,0
1873212000,1688000,47.3977508,8.5456074,0.16969159,-0.14026141,-24.86596,-0.022968095,-0.0035443609,0.0,-0.0024755,-0.007590458,-1.6360154,-1.6553768,-0.059729103,-0.009160716,0.12626225,0.10628635,-0.05724066,0.39409563,0.41585407,0.0,24.973288,1.6360154,0.40914622,0.23444507,0.16703993,0.10379551,inf,inf,inf,inf,1,1,1,1,2,0,2,2,1,1,0
1873316000,1688000,47.3977508,8.5456074,0.16912745,-0.14120044,-25.03468,-0.022968095,-0.0035443609,0.0,-0.0020503188,-0.0056124227,-1.5909007,-1.6091433,-0.059729103,-0.009160716,0.12626225,-0.022229323,0.003687526,0.46675184,0.41602674,0.0,25.142008,1.5909007,0.42156464,0.23468456,0.17158367,0.10420554,inf,inf,inf,inf,1,1,1,1,2,0,2,2,1,1,0
1873412000,1688000,47.3977508,8.5456074,0.16859059,-0.14190993,-25.185165,-0.022968095,-0.0035443609,0.0,-0.004084577,-0.004975789,-1.5433664,-1.5600461,-0.059729103,-0.009160716,0.12626225,-0.079698764,0.11705039,0.41855776,0.4159466,0.0,25.292494,1.5433664,0.40870494,0.23455115,0.16700411,0.10381764,inf,inf,inf,inf,1,1,1,1,2,0,2,2,1,1,0
1873516000,1688000,47.3977508,8.5456074,0.16794422,-0.14227535,-25.343752,-0.022968095,-0.0035443609,0.0,-0.0033963174,-0.003189071,-1.4995095,-1.5148848,-0.059729103,-0.009160716,0.12626225,0.051759448,0.034309004,0.43693647,0.4160179,0.0,25.45108,1.4995095,0.42110312,0.23478307,0.17157406,0.10422477,inf,inf,inf,inf,1,1,1,1,2,0,2,2,1,1,0
1873612000,1688000,47.3977508,8.5456074,0.1674112,-0.14251855,-25.486126,-0.022968095,-0.0035443609,0.0,-0.0052023698,-0.0022324251,-1.4584914,-1.4727805,-0.059729103,-0.009160716,0.12626225,0.048274703,0.01957018,0.49677116,0.41576105,0.0,25.593454,1.4584914,0.40830672,0.23305292,0.16702467,0.103421554,inf,inf,inf,inf,1,1,1,1,2,0,2,2,1,1,0
1873716000,1688000,47.3977508,8.5456074,0.16699913,-0.14271224,-25.63597,-0.022968095,-0.0035443609,0.0,-0.004122216,-0.0018869308,-1.4134085,-1.4269571,-0.059729103,-0.009160716,0.12626225,0.015691461,-0.029920103,0.4198728,0.4158754,0.0,25.743298,1.4134085,0.42069077,0.23490179,0.17164207,0.104253456,inf,inf,inf,inf,1,1,1,1,2,0,2,2,1,1,0
1873812000,1688000,47.3977508,8.5456074,0.1666664,-0.1430406,-25.769894,-0.022968095,-0.0035443609,0.0,-0.004010217,-0.0014701971,-1.372734,-1.385275,-0.059729103,-0.009160716,0.12626225,-0.08475898,0.038423482,0.3803223,0.41585442,0.0,25.877222,1.372734,0.40795046,0.23316154,0.1671238,0.10344609,inf,inf,inf,inf,1,1,1,1,2,0,2,2,1,1,0
1873916000,1688000,47.3977508,8.5456074,0.16654286,-0.14380635,-25.911179,-0.022968095,-0.0035443609,0.0,-0.0028232469,0.0011024594,-1.3313438,-1.3433931,-0.059729103,-0.009160716,0.12626225,0.043997865,-0.008468515,0.39034522,0.4159656,0.0,26.018507,1.3313438,0.4203267,0.23501365,0.17176238,0.10427929,inf,inf,inf,inf,1,1,1,1,2,0,2,2,1,1,0
1874012000,1688000,47.3977508,8.5456074,0.16658518,-0.14427732,-26.037794,-0.022968095,-0.0035443609,0.0,-0.00043653528,0.0020392137,-1.2921375,-1.3037902,-0.059729103,-0.009160716,0.12626225,-0.053175997,0.038581535,0.42958462,0.4158083,0.0,26.145123,1.2921375,0.40763506,0.23328075,0.16727194,0.10347554,inf,inf,inf,inf,1,1,1,1,2,0,2,2,1,1,0
1874116000,1688000,47.3977508,8.5456074,0.1667606,-0.14513414,-26.170958,-0.022968095,-0.0035443609,0.0,0.00013194903,0.0025653762,-1.2538235,-1.265112,-0.059729103,-0.009160716,0.12626225,0.04602843,-0.03795068,0.37079674,0.41587654,0.0,26.278286,1.2538235,0.4200096,0.23513581,0.17194419,0.10430976,inf,inf,inf,inf,1,1,1,1,2,0,2,2,1,1,0
1874212000,1688000,47.3977508,8.5456074,0.1668852,-0.14583828,-26.289938,-0.022968095,-0.0035443609,0.0,-0.00018597674,0.002566641,-1.2153771,-1.2261903,-0.059729103,-0.009160716,0.12626225,-0.100431874,0.020811446,0.3272863,0.41593316,0.0,26.397266,1.2153771,0.4073597,0.23339257,0.16747817,0.10350168,inf,inf,inf,inf,1,1,1,1,2,0,2,2,1,1,0
1874316000,1688000,47.3977508,8.5456074,0.16634445,-0.14751062,-26.415478,-0.022968095,-0.0035443609,0.0,0.0010692393,0.0027236468,-1.1781598,-1.1889969,-0.059729103,-0.009160716,0.12626225,0.036488976,0.013379026,0.34670252,0.4159031,0.0,26.522806,1.1781598,0.41973785,0.23363994,0.17217475,0.10391491,inf,inf,inf,inf,1,1,1,1,2,0,2,2,1,1,0
1874412000,1688000,47.3977508,8.5456074,0.16582912,-0.14863914,-26.527117,-0.022968095,-0.0035443609,0.0,-0.0012075239,0.003552422,-1.1450235,-1.1551001,-0.059729103,-0.009160716,0.12626225,-0.05614539,-6.645131e-05,0.4064515,0.4157425,0.0,26.634445,1.1450235,0.40712354,0.23352262,0.16771631,0.10353577,inf,inf,inf,inf,1,1,1,1,2,0,2,2,1,1,0
1874516000,1688000,47.3977508,8.5456074,0.16471973,-0.15004306,-26.644556,-0.022968095,-0.0035443609,0.0,-0.0028875046,0.004492291,-1.1087312,-1.1181786,-0.059729103,-0.009160716,0.12626225,-0.057007533,-0.036289535,0.29298848,0.41590643,0.0,26.751884,1.1087312,0.41950968,0.23376155,0.17243956,0.103945136,inf,inf,inf,inf,1,1,1,1,2,0,2,2,1,1,0
1874612000,1688000,47.3977508,8.5456074,0.1637954,-0.15091608,-26.749685,-0.022968095,-0.0035443609,0.0,-0.0018087471,0.0043075467,-1.0786585,-1.0874738,-0.059729103,-0.009160716,0.12626225,0.018312303,-0.032620713,0.35958457,0.41580227,0.0,26.857014,1.0786585,0.43146405,0.23497471,0.17687796,0.10456783,inf,inf,inf,inf,1,1,1,1,2,0,2,2,1,1,0
1874716000,1688000,47.3977508,8.5456074,0.16321303,-0.15146163,-26.860485,-0.022968095,-0.0035443609,0.0,-0.00074712926,0.007647688,-1.0451747,-1.053555,-0.059729103,-0.009160716,0.12626225,-0.031068316,0.062018555,0.35109463,0.41581702,0.0,26.967813,1.0451747,0.41815156,0.23385601,0.17206778,0.10392672,inf,inf,inf,inf,1,1,1,1,2,0,2,2,1,1,0
1874812000,1688000,47.3977508,8.5456074,0.16310532,-0.15144025,-26.958618,-0.022968095,-0.0035443609,0.0,4.6351874e-05,0.0067622745,-1.0139711,-1.0210346,-0.059729103,-0.009160716,0.12626225,0.03394109,-0.102593094,0.23970845,0.41591486,0.0,27.065947,1.0139711,0.43004113,0.23506987,0.1765238,0.10455027,inf,inf,inf,inf,1,1,1,1,2,0,2,2,1,1,0
1874916000,1688000,47.3977508,8.5456074,0.1628572,-0.1516001,-27.061646,-0.022968095,-0.0035443609,0.0,0.0012513538,0.0071313963,-0.98609126,-0.9916665,-0.059729103,-0.009160716,0.12626225,0.05913088,-0.0042263526,0.22839475,0.415956,0.0,27.168974,0.98609126,0.41693226,0.23394105,0.17181015,0.10390646,inf,inf,inf,inf,1,1,1,1,2,0,2,2,1,1,0
1875012000,1688000,47.3977508,8.5456074,0.16174349,-0.15265617,-27.154543,-0.022968095,-0.0035443609,0.0,0.0012810265,0.0062876353,-0.96277195,-0.9673616,-0.059729103,-0.009160716,0.12626225,-0.009944734,-0.09005627,0.3278693,0.41597047,0.0,27.261871,0.96277195,0.42876962,0.23515598,0.17627971,0.104531154,inf,inf,inf,inf,1,1,1,1,2,0,2,2,1,1,0
1875116000,1688000,47.3977508,8.5456074,0.16065831,-0.15353195,-27.2518,-0.022968095,-0.0035443609,0.0,-0.0010233185,0.006611008,-0.93062043,-0.93380135,-0.059729103,-0.009160716,0.12626225,-0.015906204,0.0016881021,0.3187265,0.41587743,0.0,27.359129,0.93062043,0.4158402,0.23404355,0.17166978,0.103896245,inf,inf,inf,inf,1,1,1,1,2,0,2,2,1,1,0
1875212000,1688000,47.3977508,8.5456074,0.15975527,-0.1546659,-27.339207,-0.022968095,-0.0035443609,0.0,-0.0014259013,0.0053731375,-0.9067429,-0.90904236,-0.059729103,-0.009160716,0.12626225,0.009787414,0.08509802,0.36175454,0.4157872,0.0,27.446535,0.9067429,0.4276382,0.23525067,0.17616233,0.10451819,inf,inf,inf,inf,1,1,1,1,2,0,2,2,1,1,0
1875316000,1688000,47.3977508,8.5456074,0.15904346,-0.1555707,-27.431635,-0.022968095,-0.0035443609,0.0,-0.00052255683,0.006466175,-0.8782356,-0.8800783,-0.059729103,-0.009160716,0.12626225,0.07021572,0.08970398,0.2926979,0.4158882,0.0,27.538963,0.8782356,0.4148679,0.23413703,0.17160055,0.10388457,inf,inf,inf,inf,1,1,1,1,2,0,2,2,1,1,0
1875412000,1688000,47.3977508,8.5456074,0.15867412,-0.15678927,-27.51473,-0.022968095,-0.0035443609,0.0,0.0012660671,0.0067365016,-0.85426456,-0.856116,-0.059729103,-0.009160716,0.12626225,0.08541537,0.1155581,0.17888656,0.41584486,0.0,27.622059,0.85426456,0.42663544,0.23536298,0.17610686,0.10451562,inf,inf,inf,inf,1,1,1,1,2,0,2,2,1,1,0
1875516000,1688000,47.3977508,8.5456074,0.15851973,-0.15785986,-27.603086,-0.022968095,-0.0035443609,0.0,0.0025592125,0.0057021985,-0.8295372,-0.8320376,-0.059729103,-0.009160716,0.12626225,0.006380687,0.047535386,0.3080703,0.41572487,0.0,27.710415,0.8295372,0.41400528,0.23425537,0.17158976,0.10388613,inf,inf,inf,inf,1,1,1,1,2,0,2,2,1,1,0
1875612000,1688000,47.3977508,8.5456074,0.15857308,-0.15950468,-27.681664,-0.022968095,-0.0035443609,0.0,0.0040688734,0.0058741146,-0.8016729,-0.80433166,-0.059729103,-0.009160716,0.12626225,-0.012228293,0.074178375,0.26132908,0.4157542,0.0,27.788992,0.8016729,0.425751,0.23548192,0.17611438,0.10451798,inf,inf,inf,inf,1,1,1,1,2,0,2,2,1,1,0
1875716000,1688000,47.3977508,8.5456074,0.15887839,-0.16072984,-27.764095,-0.022968095,-0.0035443609,0.0,0.0069763125,0.007053878,-0.7744576,-0.77740484,-0.059729103,-0.009160716,0.12626225,0.053091552,0.1024699,0.25738773,0.41577584,0.0,27.871424,0.7744576,0.41324344,0.23437148,0.17163731,0.10388884,inf,inf,inf,inf,1,1,1,1,2,0,2,2,1,1,0
1875812000,1688000,47.3977508,8.5456074,0.1592708,-0.16189635,-27.837967,-0.022968095,-0.0035443609,0.0,0.0068365186,0.011018129,-0.75586337,-0.7591221,-0.059729103,-0.009160716,0.12626225,-0.048820626,0.0074177855,0.19977799,0.41593206,0.0,27.945295,0.75586337,0.42497453,0.23398118,0.1761445,0.104096755,inf,inf,inf,inf,1,1,1,1,2,0,2,2,1,1,0
1875916000,1688000,47.3977508,8.5456074,0.15945947,-0.16235994,-27.915457,-0.022968095,-0.0035443609,0.0,0.005070332,0.013064832,-0.72793645,-0.73134583,-0.059729103,-0.009160716,0.12626225,0.01564568,0.046441644,0.21048541,0.415965,0.0,28.022785,0.72793645,0.41257408,0.234503,0.17169131,0.10390048,inf,inf,inf,inf,1,1,1,1,2,0,2,2,1,1,0
1876012000,1688000,47.3977508,8.5456074,0.15899712,-0.16247319,-27.984764,-0.022968095,-0.0035443609,0.0,0.0038585013,0.015639517,-0.7068737,-0.71046233,-0.059729103,-0.009160716,0.12626225,0.02020641,0.02543297,0.17085205,0.41599193,0.0,28.092093,0.7068737,0.4242971,0.23411909,0.17623493,0.10411218,inf,inf,inf,inf,1,1,1,1,2,0,2,2,1,1,0
1876116000,1688000,47.3977508,8.5456074,0.15854634,-0.16209874,-28.057547,-0.022968095,-0.0035443609,0.0,0.003972106,0.0165828,-0.6833927,-0.6871537,-0.059729103,-0.009160716,0.12626225,0.036628895,-0.0039610565,0.2449043,0.41611454,0.0,28.164875,0.6833927,0.4119894,0.23303309,0.1718047,0.1034952,inf,inf,inf,inf,1,1,1,1,2,0,2,2,1,1,0
1876212000,1688000,47.3977508,8.5456074,0.15814194,-0.16191785,-28.123117,-0.022968095,-0.0035443609,0.0,0.0051799705,0.015910063,-0.6633245,-0.66769767,-0.059729103,-0.009160716,0.12626225,-0.03114309,0.05017809,0.21194293,0.4160652,0.0,28.230446,0.6633245,0.42370963,0.23425403,0.17634827,0.104128085,inf,inf,inf,inf,1,1,1,1,2,0,2,2,1,1,0
1876316000,1688000,47.3977508,8.5456074,0.15787774,-0.16158552,-28.191298,-0.022968095,-0.0035443609,0.0,0.004747863,0.015580235,-0.64180607,-0.6460781,-0.059729103,-0.009160716,0.12626225,-0.023219915,-0.0042127026,0.14603882,0.4159953,0.0,28.298626,0.64180607,0.41148224,0.23317276,0.17193529,0.10351444,inf,inf,inf,inf,1,1,1,1,2,0,2,2,1,1,0
1876412000,1688000,47.3977508,8.5456074,0.15744029,-0.16186844,-28.251495,-0.022968095,-0.0035443609,0.0,0.004117906,0.016982285,-0.6244399,-0.6278088,-0.059729103,-0.009160716,0.12626225,-0.07029496,0.023325594,0.16346666,0.41606244,0.0,28.358824,0.6244399,0.42320463,0.23438556,0.17648485,0.10414427,inf,inf,inf,inf,1,1,1,1,2,0,2,2,1,1,0
1876516000,1688000,47.3977508,8.5456074,0.15708654,-0.16173168,-28.315374,-0.022968095,-0.0035443609,0.0,0.0057456237,0.01620104,-0.60478485,-0.60786,-0.059729103,-0.009160716,0.12626225,0.0466042,0.037396953,0.19373278,0.41590565,0.0,28.422703,0.60478485,0.41104576,0.23330094,0.17208144,0.10353047,inf,inf,inf,inf,1,1,1,1,2,0,2,2,1,1,0
