timestamp,q[0],q[1],q[2],q[3],delta_q_reset[0],delta_q_reset[1],delta_q_reset[2],delta_q_reset[3],quat_reset_counter
1859220000,0.97844726,-0.00016850897,0.0045861127,0.20644628,0.9999812,1.1641532e-10,-6.9849193e-10,0.0061260164,6
1859268000,0.9784448,-0.00013662197,0.0046404377,0.2064567,0.9999812,1.1641532e-10,-6.9849193e-10,0.0061260164,6
1859320000,0.978444,-0.00017653138,0.004641319,0.20646049,0.9999812,1.1641532e-10,-6.9849193e-10,0.0061260164,6
1859372000,0.97845846,-0.00020610259,0.004630241,0.20639187,0.9999812,1.1641532e-10,-6.9849193e-10,0.0061260164,6
1859424000,0.97845966,-0.00023885703,0.004703634,0.20638481,0.9999812,1.1641532e-10,-6.9849193e-10,0.0061260164,6
1859480000,0.978463,-0.00025678915,0.0047388086,0.20636792,0.9999812,1.1641532e-10,-6.9849193e-10,0.0061260164,6
1859528000,0.97845274,-0.0003250329,0.0047302796,0.20641638,0.9999812,1.1641532e-10,-6.9849193e-10,0.0061260164,6
1859580000,0.9784645,-0.00031848936,0.004749114,0.20636025,0.9999812,1.1641532e-10,-6.9849193e-10,0.0061260164,6
1859632000,0.9784696,-0.00035484307,0.0047946833,0.20633517,0.9999812,1.1641532e-10,-6.9849193e-10,0.0061260164,6
1859684000,0.9784633,-0.00044355815,0.0047598328,0.2063654,0.9999812,1.1641532e-10,-6.9849193e-10,0.0061260164,6
1859736000,0.97846276,-0.0005167494,0.004730144,0.20636904,0.9999812,1.1641532e-10,-6.9849193e-10,0.0061260164,6
1859788000,0.97845674,-0.0005267127,0.004678112,0.20639856,0.9999812,1.1641532e-10,-6.9849193e-10,0.0061260164,6
1859840000,0.978474,-0.000501963,0.004639539,0.20631742,0.9999812,1.1641532e-10,-6.9849193e-10,0.0061260164,6
1859892000,0.97849053,-0.0005325741,0.00465007,0.20623846,0.9999812,1.1641532e-10,-6.9849193e-10,0.0061260164,6
1859944000,0.97849,-0.00054403965,0.0045742313,0.20624319,0.9999812,1.1641532e-10,-6.9849193e-10,0.0061260164,6
1859996000,0.9785039,-0.0005581828,0.004599219,0.20617634,0.9999812,1.1641532e-10,-6.9849193e-10,0.0061260164,6
1860052000,0.9784984,-0.00053605635,0.0046300874,0.20620212,0.9999812,1.1641532e-10,-6.9849193e-10,0.0061260164,6
1860100000,0.9785006,-0.00056183245,0.004591447,0.20619205,0.9999812,1.1641532e-10,-6.9849193e-10,0.0061260164,6
1860152000,0.97849447,-0.0005464323,0.0045953016,0.20622142,0.9999812,1.1641532e-10,-6.9849193e-10,0.0061260164,6
1860204000,0.97849166,-0.00063679286,0.004491931,0.20623684,0.9999812,1.1641532e-10,-6.9849193e-10,0.0061260164,6
1860256000,0.9784845,-0.0006855925,0.0044737305,0.20627078,0.9999812,1.1641532e-10,-6.9849193e-10,0.0061260164,6
1860312000,0.97848004,-0.00071314204,0.0045042834,0.20629112,0.9999812,1.1641532e-10,-6.9849193e-10,0.0061260164,6
1860360000,0.9784718,-0.00071032735,0.0045154034,0.20633014,0.9999812,1.1641532e-10,-6.9849193e-10,0.0061260164,6
1860412000,0.97848064,-0.0006971501,0.0045538386,0.20628752,0.9999812,1.1641532e-10,-6.9849193e-10,0.0061260164,6
1860464000,0.97848606,-0.0007070937,0.0045021786,0.20626277,0.9999812,1.1641532e-10,-6.9849193e-10,0.0061260164,6
1860516000,0.97848976,-0.00073634286,0.004474526,0.20624536,0.9999812,1.1641532e-10,-6.9849193e-10,0.0061260164,6
1860568000,0.97849524,-0.0007319491,0.00445974,0.20622016,0.9999812,1.1641532e-10,-6.9849193e-10,0.0061260164,6
1860624000,0.9784799,-0.0007731166,0.004467034,0.20629224,0.9999812,1.1641532e-10,-6.9849193e-10,0.0061260164,6
1860676000,0.9784803,-0.00076786586,0.004468348,0.20629048,0.9999812,1.1641532e-10,-6.9849193e-10,0.0061260164,6
1860724000,0.97848535,-0.00083663565,0.00448727,0.20626625,0.9999812,1.1641532e-10,-6.9849193e-10,0.0061260164,6
1860780000,0.97848266,-0.0008231213,0.0044645406,0.20627923,0.9999812,1.1641532e-10,-6.9849193e-10,0.0061260164,6
1860828000,0.978476,-0.0008210758,0.0044699768,0.20631085,0.9999812,1.1641532e-10,-6.9849193e-10,0.0061260164,6
1860880000,0.9784805,-0.00077565206,0.004395656,0.20629096,0.9999812,1.1641532e-10,-6.9849193e-10,0.0061260164,6
1860932000,0.9784896,-0.00081454957,0.004431727,0.20624709,0.9999812,1.1641532e-10,-6.9849193e-10,0.0061260164,6
1860984000,0.978496,-0.0008114625,0.0044593303,0.20621584,0.9999812,1.1641532e-10,-6.9849193e-10,0.0061260164,6
1861036000,0.97849286,-0.000642217,0.003934891,0.20624253,0.9999812,1.1641532e-10,-6.9849193e-10,0.0061260164,6
1861088000,0.9784871,-0.00013671242,0.0005491731,0.20630732,0.9999812,1.1641532e-10,-6.9849193e-10,0.0061260164,6
1861140000,0.97848845,0.00028386508,-0.0025393376,0.20628579,0.9999812,1.1641532e-10,-6.9849193e-10,0.0061260164,6
1861192000,0.9784769,0.00071691204,-0.0045802193,0.2063044,0.9999812,1.1641532e-10,-6.9849193e-10,0.0061260164,6
1861244000,0.9784708,0.00085798086,-0.005245449,0.20631741,0.9999812,1.1641532e-10,-6.9849193e-10,0.0061260164,6
1861296000,0.9784765,0.001155079,-0.0046642716,0.20630239,0.9999812,1.1641532e-10,-6.9849193e-10,0.0061260164,6
1861352000,0.9784737,0.001408647,-0.003516147,0.20633735,0.9999812,1.1641532e-10,-6.9849193e-10,0.0061260164,6
1861400000,0.97846824,0.001426156,-0.0024368113,0.20637847,0.9999812,1.1641532e-10,-6.9849193e-10,0.0061260164,6
1861452000,0.9784711,0.0013205376,-0.0014812037,0.20637429,0.9999812,1.1641532e-10,-6.9849193e-10,0.0061260164,6
1861508000,0.97847056,0.0010984958,-0.00076878903,0.20638213,0.9999812,1.1641532e-10,-6.9849193e-10,0.0061260164,6
1861556000,0.9784836,0.0010472656,-0.00037353914,0.20632197,0.9999812,1.1641532e-10,-6.9849193e-10,0.0061260164,6
1861608000,0.97846967,0.0011885494,-0.00021031946,0.20638734,0.9999812,1.1641532e-10,-6.9849193e-10,0.0061260164,6
1861660000,0.9784699,0.001402607,-6.9363305e-05,0.2063851,0.9999812,1.1641532e-10,-6.9849193e-10,0.0061260164,6
1861712000,0.9784665,0.0014390456,0.00025279575,0.20640077,0.9999812,1.1641532e-10,-6.9849193e-10,0.0061260164,6
1861764000,0.9784556,0.0013572128,0.00055163214,0.20645243,0.9999812,1.1641532e-10,-6.9849193e-10,0.0061260164,6
1861816000,0.9784665,0.00127077,0.0007504716,0.20640048,0.9999812,1.1641532e-10,-6.9849193e-10,0.0061260164,6
1861868000,0.9784603,0.0012944908,0.0011010322,0.20642847,0.9999812,1.1641532e-10,-6.9849193e-10,0.0061260164,6
1861920000,0.9784819,0.0012048833,0.0012302321,0.20632589,0.9999812,1.1641532e-10,-6.9849193e-10,0.0061260164,6
1861972000,0.9784708,0.0011945182,0.0011889938,0.20637839,0.9999812,1.1641532e-10,-6.9849193e-10,0.0061260164,6
1862024000,0.97846854,0.0013390882,0.0011518009,0.20638844,0.9999812,1.1641532e-10,-6.9849193e-10,0.0061260164,6
1862076000,0.9784583,0.0013993817,0.0009955444,0.2064375,0.9999812,1.1641532e-10,-6.9849193e-10,0.0061260164,6
1862128000,0.97844493,0.0014462448,0.0008954175,0.20650145,0.9999812,1.1641532e-10,-6.9849193e-10,0.0061260164,6
1862180000,0.97845536,0.0015090563,0.00074348703,0.20645188,0.9999812,1.1641532e-10,-6.9849193e-10,0.0061260164,6
1862232000,0.9784595,0.0015561513,0.0005640037,0.20643233,0.9999812,1.1641532e-10,-6.9849193e-10,0.0061260164,6
1862284000,0.9784669,0.0015360333,0.00043323328,0.20639785,0.9999812,1.1641532e-10,-6.9849193e-10,0.0061260164,6
1862336000,0.9784741,0.0014238779,0.0006384824,0.2063637,0.9999812,1.1641532e-10,-6.9849193e-10,0.0061260164,6
1862388000,0.97847074,0.0013891448,0.001059391,0.20637852,0.9999812,1.1641532e-10,-6.9849193e-10,0.0061260164,6
1862440000,0.9784645,0.0013385989,0.0014898413,0.20640567,0.9999812,1.1641532e-10,-6.9849193e-10,0.0061260164,6
1862492000,0.9784573,0.0013543639,0.0015672125,0.20643902,0.9999812,1.1641532e-10,-6.9849193e-10,0.0061260164,6
1862544000,0.97847325,0.0012863495,0.0018275307,0.20636192,0.9999812,1.1641532e-10,-6.9849193e-10,0.0061260164,6
1862596000,0.9784885,0.0010346613,0.00189489,0.2062901,0.9999812,1.1641532e-10,-6.9849193e-10,0.0061260164,6
1862648000,0.9784717,0.00093888125,0.0017969003,0.20637152,0.9999812,1.1641532e-10,-6.9849193e-10,0.0061260164,6
1862700000,0.97787535,0.0008726072,0.0016849949,0.20917977,0.99999595,-2.3283064e-10,1.4551915e-10,0.0028673708,7
1862752000,0.977917,0.00092744804,0.001702465,0.20898487,0.99999595,-2.3283064e-10,1.4551915e-10,0.0028673708,7
1862808000,0.9779825,0.00090757594,0.0019540798,0.20867552,0.99999595,-2.3283064e-10,1.4551915e-10,0.0028673708,7
1862856000,0.97805625,0.00091164286,0.002038709,0.20832933,0.99999595,-2.3283064e-10,1.4551915e-10,0.0028673708,7
1862908000,0.9781738,0.000909303,0.002130223,0.20777556,0.99999595,-2.3283064e-10,1.4551915e-10,0.0028673708,7
1862964000,0.9783292,0.00095402135,0.0021780683,0.20704181,0.99999595,-2.3283064e-10,1.4551915e-10,0.0028673708,7
1863012000,0.9784467,0.0009537954,0.002267029,0.20648514,0.99999595,-2.3283064e-10,1.4551915e-10,0.0028673708,7
1863064000,0.9785408,0.0010156261,0.0023833548,0.20603709,0.99999595,-2.3283064e-10,1.4551915e-10,0.0028673708,7
1863120000,0.97863984,0.001199609,0.0027059747,0.20556074,0.99999595,-2.3283064e-10,1.4551915e-10,0.0028673708,7
1863168000,0.97874,0.0012893024,0.0031381391,0.20507692,0.99999595,-2.3283064e-10,1.4551915e-10,0.0028673708,7
1863220000,0.9788078,0.0014037497,0.003519926,0.20474593,0.99999595,-2.3283064e-10,1.4551915e-10,0.0028673708,7
1863272000,0.97885954,0.0014424267,0.0036393688,0.20449646,0.99999595,-2.3283064e-10,1.4551915e-10,0.0028673708,7
1863328000,0.97888917,0.0013855939,0.0037619446,0.20435292,0.99999595,-2.3283064e-10,1.4551915e-10,0.0028673708,7
1863376000,0.9788928,0.0013688703,0.0039206967,0.20433216,0.99999595,-2.3283064e-10,1.4551915e-10,0.0028673708,7
1863428000,0.9788976,0.0012426953,0.0041129505,0.20430672,0.99999595,-2.3283064e-10,1.4551915e-10,0.0028673708,7
1863480000,0.9788902,0.0011461538,0.004141825,0.20434175,0.99999595,-2.3283064e-10,1.4551915e-10,0.0028673708,7
1863536000,0.9788738,0.0009390605,0.0040859757,0.20442241,0.99999595,-2.3283064e-10,1.4551915e-10,0.0028673708,7
1863584000,0.9788579,0.0007640655,0.004078442,0.20449989,0.99999595,-2.3283064e-10,1.4551915e-10,0.0028673708,7
1863636000,0.978827,0.0007014698,0.004185653,0.2046458,0.99999595,-2.3283064e-10,1.4551915e-10,0.0028673708,7
1863688000,0.97879046,0.0008391115,0.0041430993,0.20482038,0.99999595,-2.3283064e-10,1.4551915e-10,0.0028673708,7
1863740000,0.97875124,0.0009771566,0.0040949113,0.20500836,0.99999595,-2.3283064e-10,1.4551915e-10,0.0028673708,7
1863792000,0.97870165,0.0011726196,0.004190227,0.20524152,0.99999595,-2.3283064e-10,1.4551915e-10,0.0028673708,7
1863844000,0.9786418,0.0012978069,0.0041419757,0.20552745,0.99999595,-2.3283064e-10,1.4551915e-10,0.0028673708,7
1863896000,0.9785826,0.0012721126,0.0039866325,0.2058121,0.99999595,-2.3283064e-10,1.4551915e-10,0.0028673708,7
1863948000,0.9785489,0.0011013786,0.003823595,0.20597653,0.99999595,-2.3283064e-10,1.4551915e-10,0.0028673708,7
1864000000,0.97853214,0.0008655774,0.0038101263,0.20605703,0.99999595,-2.3283064e-10,1.4551915e-10,0.0028673708,7
1864052000,0.9785119,0.0007822001,0.0036418252,0.20615661,0.99999595,-2.3283064e-10,1.4551915e-10,0.0028673708,7
1864104000,0.9784804,0.0007835805,0.0034897178,0.20630923,0.99999595,-2.3283064e-10,1.4551915e-10,0.0028673708,7
1864156000,0.97847754,0.0007036215,0.003564932,0.20632146,0.99999595,-2.3283064e-10,1.4551915e-10,0.0028673708,7
1864208000,0.9784722,0.00059268123,0.0037372008,0.20634466,0.99999595,-2.3283064e-10,1.4551915e-10,0.0028673708,7
1864260000,0.97846603,0.00048163792,0.003800951,0.20637262,0.99999595,-2.3283064e-10,1.4551915e-10,0.0028673708,7
1864312000,0.97846544,0.00036067446,0.0036899932,0.20637782,0.99999595,-2.3283064e-10,1.4551915e-10,0.0028673708,7
1864364000,0.9784702,0.00035589872,0.003611408,0.20635667,0.99999595,-2.3283064e-10,1.4551915e-10,0.0028673708,7
1864416000,0.97846854,0.0003367534,0.0035007957,0.20636635,0.99999595,-2.3283064e-10,1.4551915e-10,0.0028673708,7
1864468000,0.9784481,0.00054056774,0.0033162425,0.20646583,0.99999595,-2.3283064e-10,1.4551915e-10,0.0028673708,7
1864520000,0.978442,0.000643878,0.0033917285,0.20649299,0.99999595,-2.3283064e-10,1.4551915e-10,0.0028673708,7
1864576000,0.9784454,0.00078540697,0.0033875795,0.2064767,0.99999595,-2.3283064e-10,1.4551915e-10,0.0028673708,7
1864624000,0.9784455,0.0009281333,0.0032913128,0.20647693,0.99999595,-2.3283064e-10,1.4551915e-10,0.0028673708,7
1864676000,0.9784484,0.0010318877,0.002977439,0.20646773,0.99999595,-2.3283064e-10,1.4551915e-10,0.0028673708,7
1864728000,0.97844815,0.0009958552,0.0028990284,0.20646992,0.99999595,-2.3283064e-10,1.4551915e-10,0.0028673708,7
1864780000,0.97844636,0.00082680135,0.0028437346,0.20648043,0.99999595,-2.3283064e-10,1.4551915e-10,0.0028673708,7
1864832000,0.97845125,0.00073474075,0.0028978614,0.20645623,0.99999595,-2.3283064e-10,1.4551915e-10,0.0028673708,7
1864884000,0.97844917,0.000609738,0.0030474947,0.20646462,0.99999595,-2.3283064e-10,1.4551915e-10,0.0028673708,7
1864936000,0.97846115,0.0005045581,0.0031529171,0.20640653,0.99999595,-2.3283064e-10,1.4551915e-10,0.0028673708,7
1864988000,0.97846794,0.0005079329,0.0032784645,0.20637277,0.99999595,-2.3283064e-10,1.4551915e-10,0.0028673708,7
1865044000,0.97847307,0.00027790238,0.003549309,0.20634425,0.99999595,-2.3283064e-10,1.4551915e-10,0.0028673708,7
1865096000,0.9784801,0.00022585459,0.0036956898,0.2063078,0.99999595,-2.3283064e-10,1.4551915e-10,0.0028673708,7
1865144000,0.9785011,0.00021046335,0.0037183247,0.2062085,0.99999595,-2.3283064e-10,1.4551915e-10,0.0028673708,7
1865196000,0.97849727,0.00025517627,0.00375297,0.20622584,0.99999595,-2.3283064e-10,1.4551915e-10,0.0028673708,7
1865248000,0.97850364,0.00041488148,0.0036923285,0.20619601,0.99999595,-2.3283064e-10,1.4551915e-10,0.0028673708,7
1865300000,0.9785015,0.00050915655,0.0037878403,0.20620468,0.99999595,-2.3283064e-10,1.4551915e-10,0.0028673708,7
1865352000,0.9784981,0.000403381,0.0038763313,0.20621914,0.99999595,-2.3283064e-10,1.4551915e-10,0.0028673708,7
1865404000,0.9785042,0.00042094974,0.003988643,0.2061882,0.99999595,-2.3283064e-10,1.4551915e-10,0.0028673708,7
1865456000,0.9785158,0.00034012165,0.0042800754,0.20612742,0.99999595,-2.3283064e-10,1.4551915e-10,0.0028673708,7
1865512000,0.97850287,0.00040666183,0.0044383276,0.2061856,0.99999595,-2.3283064e-10,1.4551915e-10,0.0028673708,7
1865560000,0.97848797,0.00046853375,0.0046040816,0.20625211,0.99999595,-2.3283064e-10,1.4551915e-10,0.0028673708,7
1865612000,0.97847086,0.0004961142,0.004742033,0.20633012,0.99999595,-2.3283064e-10,1.4551915e-10,0.0028673708,7
1865664000,0.9784644,0.00063314044,0.004874114,0.20635727,0.99999595,-2.3283064e-10,1.4551915e-10,0.0028673708,7
1865716000,0.97845185,0.00060336635,0.0049604503,0.20641468,0.99999595,-2.3283064e-10,1.4551915e-10,0.0028673708,7
1865768000,0.97844064,0.00050352403,0.0048918133,0.20646973,0.99999595,-2.3283064e-10,1.4551915e-10,0.0028673708,7
1865824000,0.9784349,0.00035782554,0.004956133,0.20649594,0.99999595,-2.3283064e-10,1.4551915e-10,0.0028673708,7
1865876000,0.9784571,0.0004153219,0.005101225,0.20638719,0.99999595,-2.3283064e-10,1.4551915e-10,0.0028673708,7
1865924000,0.9784563,0.0005672549,0.0051539084,0.20638904,0.99999595,-2.3283064e-10,1.4551915e-10,0.0028673708,7
1865976000,0.9784628,0.00057011284,0.0051252767,0.20635886,0.99999595,-2.3283064e-10,1.4551915e-10,0.0028673708,7
1866028000,0.9784732,0.0006715701,0.005044681,0.20631114,0.99999595,-2.3283064e-10,1.4551915e-10,0.0028673708,7
1866080000,0.9784751,0.0006530947,0.0050578495,0.2063025,0.99999595,-2.3283064e-10,1.4551915e-10,0.0028673708,7
1866132000,0.9784771,0.00062487164,0.0052402224,0.20628755,0.99999595,-2.3283064e-10,1.4551915e-10,0.0028673708,7
1866184000,0.9784723,0.00059092423,0.0054253857,0.20630644,0.99999595,-2.3283064e-10,1.4551915e-10,0.0028673708,7
1866236000,0.97846687,0.00062909216,0.0055572735,0.20632838,0.99999595,-2.3283064e-10,1.4551915e-10,0.0028673708,7
1866288000,0.97847205,0.0005539897,0.0056440216,0.20630176,0.99999595,-2.3283064e-10,1.4551915e-10,0.0028673708,7
1866340000,0.97848016,0.0005246961,0.0056100367,0.20626386,0.99999595,-2.3283064e-10,1.4551915e-10,0.0028673708,7
1866396000,0.9784989,0.00071676564,0.0055250344,0.20617671,0.99999595,-2.3283064e-10,1.4551915e-10,0.0028673708,7
1866444000,0.9784989,0.00079535117,0.005636646,0.20617394,0.99999595,-2.3283064e-10,1.4551915e-10,0.0028673708,7
1866500000,0.9785116,0.0006037815,0.005541288,0.20611666,0.99999595,-2.3283064e-10,1.4551915e-10,0.0028673708,7
1866548000,0.97851616,0.0004423414,0.005452336,0.20609769,0.99999595,-2.3283064e-10,1.4551915e-10,0.0028673708,7
1866600000,0.9785175,0.00028581204,0.005524994,0.20609011,0.99999595,-2.3283064e-10,1.4551915e-10,0.0028673708,7
1866652000,0.97852576,-5.055901e-05,0.005584811,0.206049,0.99999595,-2.3283064e-10,1.4551915e-10,0.0028673708,7
1866704000,0.9785132,-0.0004491748,0.0056523746,0.20610666,0.99999595,-2.3283064e-10,1.4551915e-10,0.0028673708,7
1866756000,0.9785105,-0.0007118186,0.005762665,0.2061155,0.99999595,-2.3283064e-10,1.4551915e-10,0.0028673708,7
1866808000,0.97850525,-0.0007749173,0.0058707255,0.206137,0.99999595,-2.3283064e-10,1.4551915e-10,0.0028673708,7
1866864000,0.9785086,-0.00098392,0.0059540044,0.20611817,0.99999595,-2.3283064e-10,1.4551915e-10,0.0028673708,7
1866912000,0.97849756,-0.0011136943,0.0060139904,0.20616768,0.99999595,-2.3283064e-10,1.4551915e-10,0.0028673708,7
1866964000,0.97848916,-0.0011341419,0.006063227,0.20620582,0.99999595,-2.3283064e-10,1.4551915e-10,0.0028673708,7
1867020000,0.97846824,-0.001191558,0.0061502703,0.20630279,0.99999595,-2.3283064e-10,1.4551915e-10,0.0028673708,7
1867068000,0.97846735,-0.0011937687,0.006332757,0.206301,0.99999595,-2.3283064e-10,1.4551915e-10,0.0028673708,7
1867120000,0.97847074,-0.0011741007,0.0064506275,0.2062816,0.99999595,-2.3283064e-10,1.4551915e-10,0.0028673708,7
1867172000,0.9784686,-0.0010602832,0.006525686,0.20628987,0.99999595,-2.3283064e-10,1.4551915e-10,0.0028673708,7
1867228000,0.9784674,-0.00089593214,0.006709841,0.20629098,0.99999595,-2.3283064e-10,1.4551915e-10,0.0028673708,7
1867276000,0.9784633,-0.0009503901,0.0066811857,0.206311,0.99999595,-2.3283064e-10,1.4551915e-10,0.0028673708,7
1867328000,0.9784521,-0.00093250925,0.006985038,0.20635368,0.99999595,-2.3283064e-10,1.4551915e-10,0.0028673708,7
1867384000,0.9784517,-0.0009465038,0.0069903983,0.20635508,0.99999595,-2.3283064e-10,1.4551915e-10,0.0028673708,7
1867432000,0.9784471,-0.0009482594,0.0071931193,0.20637025,0.99999595,-2.3283064e-10,1.4551915e-10,0.0028673708,7
1867488000,0.97844887,-0.00077045866,0.0073835803,0.20635603,0.99999595,-2.3283064e-10,1.4551915e-10,0.0028673708,7
1867536000,0.97845906,-0.0006204692,0.007563092,0.2063019,0.99999595,-2.3283064e-10,1.4551915e-10,0.0028673708,7
1867588000,0.9784623,-0.00040195728,0.007501655,0.206289,0.99999595,-2.3283064e-10,1.4551915e-10,0.0028673708,7
1867640000,0.9784575,-0.00039175,0.007461974,0.20631282,0.99999595,-2.3283064e-10,1.4551915e-10,0.0028673708,7
1867692000,0.97845125,-0.00030896478,0.0073213694,0.20634794,0.99999595,-2.3283064e-10,1.4551915e-10,0.0028673708,7
1867744000,0.9784489,-0.00040561412,0.0070173824,0.20636956,0.99999595,-2.3283064e-10,1.4551915e-10,0.0028673708,7
1867800000,0.97843623,-0.00052009564,0.0066522458,0.2064416,0.99999595,-2.3283064e-10,1.4551915e-10,0.0028673708,7
1867848000,0.9784331,-0.00063766347,0.0065204203,0.20646039,0.99999595,-2.3283064e-10,1.4551915e-10,0.0028673708,7
1867900000,0.9784393,-0.0007867196,0.00627163,0.20643827,0.99999595,-2.3283064e-10,1.4551915e-10,0.0028673708,7
1867952000,0.97843826,-0.0007779645,0.0060894163,0.20644853,0.99999595,-2.3283064e-10,1.4551915e-10,0.0028673708,7
1868004000,0.978443,-0.0006652473,0.00588616,0.20643206,0.99999595,-2.3283064e-10,1.4551915e-10,0.0028673708,7
1868056000,0.97845066,-0.0006617846,0.005884912,0.20639609,0.99999595,-2.3283064e-10,1.4551915e-10,0.0028673708,7
1868108000,0.97844625,-0.0007255385,0.0057829977,0.20641994,0.99999595,-2.3283064e-10,1.4551915e-10,0.0028673708,7
1868164000,0.97844195,-0.00072187633,0.0054976353,0.20644805,0.99999595,-2.3283064e-10,1.4551915e-10,0.0028673708,7
1868216000,0.97843397,-0.0008370264,0.0056565437,0.20648053,0.99999595,-2.3283064e-10,1.4551915e-10,0.0028673708,7
1868264000,0.9784305,-0.0009633576,0.005917687,0.20648922,0.99999595,-2.3283064e-10,1.4551915e-10,0.0028673708,7
1868316000,0.9784339,-0.0009736984,0.0062483633,0.20646323,0.99999595,-2.3283064e-10,1.4551915e-10,0.0028673708,7
1868368000,0.9784257,-0.0007719909,0.006287309,0.20650227,0.99999595,-2.3283064e-10,1.4551915e-10,0.0028673708,7
1868420000,0.97842646,-0.00056956825,0.0062352503,0.2065008,0.99999595,-2.3283064e-10,1.4551915e-10,0.0028673708,7
1868472000,0.9784349,-0.0006393343,0.0063508577,0.20645706,0.99999595,-2.3283064e-10,1.4551915e-10,0.0028673708,7
1868524000,0.9784415,-0.0008472639,0.0063957605,0.20642345,0.99999595,-2.3283064e-10,1.4551915e-10,0.0028673708,7
1868576000,0.97844565,-0.0010061221,0.006340438,0.20640516,0.99999595,-2.3283064e-10,1.4551915e-10,0.0028673708,7
1868628000,0.9784249,-0.0012565859,0.0063369568,0.20650204,0.99999595,-2.3283064e-10,1.4551915e-10,0.0028673708,7
1868684000,0.97842073,-0.0013837575,0.0064806733,0.20651633,0.99999595,-2.3283064e-10,1.4551915e-10,0.0028673708,7
1868736000,0.9784199,-0.0016066916,0.0063170185,0.20652375,0.99999595,-2.3283064e-10,1.4551915e-10,0.0028673708,7
1868784000,0.9784298,-0.0018797878,0.00620368,0.20647782,0.99999595,-2.3283064e-10,1.4551915e-10,0.0028673708,7
1868836000,0.9784265,-0.0020765846,0.00614285,0.20649384,0.99999595,-2.3283064e-10,1.4551915e-10,0.0028673708,7
1868888000,0.9784199,-0.0020481956,0.006157829,0.206525,0.99999595,-2.3283064e-10,1.4551915e-10,0.0028673708,7
1868940000,0.9784238,-0.0019813369,0.0064007603,0.20649953,0.99999595,-2.3283064e-10,1.4551915e-10,0.0028673708,7
1868992000,0.9784255,-0.0019361305,0.0065939054,0.20648615,0.99999595,-2.3283064e-10,1.4551915e-10,0.0028673708,7
1869048000,0.9784189,-0.001943464,0.0065275403,0.20651902,0.99999595,-2.3283064e-10,1.4551915e-10,0.0028673708,7
1869096000,0.97841716,-0.001954087,0.006354457,0.20653275,0.99999595,-2.3283064e-10,1.4551915e-10,0.0028673708,7
1869148000,0.97843504,-0.0019613868,0.00625116,0.20645076,0.99999595,-2.3283064e-10,1.4551915e-10,0.0028673708,7
1869200000,0.9784428,-0.001956273,0.006245107,0.20641463,0.99999595,-2.3283064e-10,1.4551915e-10,0.0028673708,7
1869252000,0.978435,-0.0023430744,0.00631868,0.20644522,0.99999595,-2.3283064e-10,1.4551915e-10,0.0028673708,7
1869308000,0.97844213,-0.0026575697,0.0063744043,0.20640567,0.99999595,-2.3283064e-10,1.4551915e-10,0.0028673708,7
1869360000,0.97843283,-0.002628861,0.0064160954,0.20644869,0.99999595,-2.3283064e-10,1.4551915e-10,0.0028673708,7
1869408000,0.97841454,-0.0026424099,0.0064427005,0.20653473,0.99999595,-2.3283064e-10,1.4551915e-10,0.0028673708,7
1869460000,0.9784167,-0.002521211,0.0064352993,0.20652635,0.99999595,-2.3283064e-10,1.4551915e-10,0.0028673708,7
1869512000,0.97841465,-0.0025604472,0.006434784,0.20653555,0.99999595,-2.3283064e-10,1.4551915e-10,0.0028673708,7
1869564000,0.97841907,-0.0026556023,0.006578045,0.20650862,0.99999595,-2.3283064e-10,1.4551915e-10,0.0028673708,7
1869616000,0.9784116,-0.0027837732,0.00646553,0.2065463,0.99999595,-2.3283064e-10,1.4551915e-10,0.0028673708,7
1869668000,0.9784025,-0.002774179,0.0064037372,0.20659086,0.99999595,-2.3283064e-10,1.4551915e-10,0.0028673708,7
1869720000,0.9784077,-0.0027178342,0.006286321,0.20657097,0.99999595,-2.3283064e-10,1.4551915e-10,0.0028673708,7
1869776000,0.9784148,-0.00265741,0.006106078,0.20654367,0.99999595,-2.3283064e-10,1.4551915e-10,0.0028673708,7
1869824000,0.97841763,-0.0026080501,0.005917546,0.20653637,0.99999595,-2.3283064e-10,1.4551915e-10,0.0028673708,7
1869876000,0.9784119,-0.0024975876,0.00578165,0.20656863,0.99999595,-2.3283064e-10,1.4551915e-10,0.0028673708,7
1869932000,0.9784124,-0.002332807,0.005742365,0.20656936,0.99999595,-2.3283064e-10,1.4551915e-10,0.0028673708,7
1869980000,0.9784123,-0.0022120802,0.0055693733,0.20657575,0.99999595,-2.3283064e-10,1.4551915e-10,0.0028673708,7
1870032000,0.9784154,-0.0020772386,0.005343709,0.20656873,0.99999595,-2.3283064e-10,1.4551915e-10,0.0028673708,7
1870084000,0.978424,-0.0020337442,0.0050478494,0.2065357,0.99999595,-2.3283064e-10,1.4551915e-10,0.0028673708,7
1870140000,0.9784188,-0.001917801,0.004918866,0.2065644,0.99999595,-2.3283064e-10,1.4551915e-10,0.0028673708,7
1870188000,0.9784196,-0.0019558244,0.00495623,0.20655964,0.99999595,-2.3283064e-10,1.4551915e-10,0.0028673708,7
1870244000,0.9784324,-0.0022546605,0.0050749285,0.20649295,0.99999595,-2.3283064e-10,1.4551915e-10,0.0028673708,7
1870292000,0.9784235,-0.0026577972,0.0051921145,0.2065272,0.99999595,-2.3283064e-10,1.4551915e-10,0.0028673708,7
1870344000,0.9784156,-0.0030197517,0.0053011426,0.20655726,0.99999595,-2.3283064e-10,1.4551915e-10,0.0028673708,7
1870396000,0.97841334,-0.00324559,0.0052196053,0.20656629,0.99999595,-2.3283064e-10,1.4551915e-10,0.0028673708,7
1870448000,0.97841823,-0.0033307362,0.0051891794,0.20654233,0.99999595,-2.3283064e-10,1.4551915e-10,0.0028673708,7
1870500000,0.9784132,-0.0032391427,0.0051658438,0.20656838,0.99999595,-2.3283064e-10,1.4551915e-10,0.0028673708,7
1870552000,0.97841704,-0.0030262969,0.0050113257,0.20655741,0.99999595,-2.3283064e-10,1.4551915e-10,0.0028673708,7
1870604000,0.9784197,-0.0028866169,0.004809965,0.20655145,0.99999595,-2.3283064e-10,1.4551915e-10,0.0028673708,7
1870656000,0.97842205,-0.0028170098,0.0046918974,0.206544,0.99999595,-2.3283064e-10,1.4551915e-10,0.0028673708,7
1870708000,0.97842646,-0.0027673172,0.004740255,0.20652291,0.99999595,-2.3283064e-10,1.4551915e-10,0.0028673708,7
1870760000,0.97842234,-0.0027557865,0.004921622,0.20653836,0.99999595,-2.3283064e-10,1.4551915e-10,0.0028673708,7
1870816000,0.9784253,-0.002873194,0.0049903956,0.20652042,0.99999595,-2.3283064e-10,1.4551915e-10,0.0028673708,7
1870868000,0.9784275,-0.0028516776,0.0051375185,0.20650692,0.99999595,-2.3283064e-10,1.4551915e-10,0.0028673708,7
1870916000,0.97842103,-0.00291066,0.005165416,0.20653626,0.99999595,-2.3283064e-10,1.4551915e-10,0.0028673708,7
1870968000,0.9784327,-0.003008014,0.0051884027,0.20647909,0.99999595,-2.3283064e-10,1.4551915e-10,0.0028673708,7
1871020000,0.97845244,-0.0031130542,0.0051681693,0.2063844,0.99999595,-2.3283064e-10,1.4551915e-10,0.0028673708,7
1871072000,0.97843707,-0.00328931,0.005066989,0.20645663,0.99999595,-2.3283064e-10,1.4551915e-10,0.0028673708,7
1871124000,0.97843313,-0.0033233755,0.00496351,0.20647739,0.99999595,-2.3283064e-10,1.4551915e-10,0.0028673708,7
1871176000,0.97843623,-0.0032924092,0.004986393,0.20646316,0.99999595,-2.3283064e-10,1.4551915e-10,0.0028673708,7
1871228000,0.97843987,-0.0032072049,0.005080747,0.20644422,0.99999595,-2.3283064e-10,1.4551915e-10,0.0028673708,7
1871280000,0.97844803,-0.0031661792,0.0051388014,0.20640491,0.99999595,-2.3283064e-10,1.4551915e-10,0.0028673708,7
1871332000,0.9784355,-0.0029289927,0.005048248,0.2064702,0.99999595,-2.3283064e-10,1.4551915e-10,0.0028673708,7
1871388000,0.97845024,-0.002857819,0.0050660013,0.20640077,0.99999595,-2.3283064e-10,1.4551915e-10,0.0028673708,7
1871436000,0.9784504,-0.002888582,0.0049512545,0.2064027,0.99999595,-2.3283064e-10,1.4551915e-10,0.0028673708,7
1871492000,0.97844654,-0.0028413753,0.0047119814,0.20642677,0.99999595,-2.3283064e-10,1.4551915e-10,0.0028673708,7
1871540000,0.97844124,-0.002866144,0.0047857743,0.20645031,0.99999595,-2.3283064e-10,1.4551915e-10,0.0028673708,7
1871592000,0.9784449,-0.002739029,0.0049032723,0.20643224,0.99999595,-2.3283064e-10,1.4551915e-10,0.0028673708,7
1871644000,0.9784502,-0.0026632228,0.0049926215,0.20640554,0.99999595,-2.3283064e-10,1.4551915e-10,0.0028673708,7
1871696000,0.97842896,-0.0026936876,0.004944775,0.20650686,0.99999595,-2.3283064e-10,1.4551915e-10,0.0028673708,7
1871748000,0.9784353,-0.0027065417,0.0048839333,0.20647827,0.99999595,-2.3283064e-10,1.4551915e-10,0.0028673708,7
1871800000,0.9784497,-0.002682335,0.0048012286,0.20641193,0.99999595,-2.3283064e-10,1.4551915e-10,0.0028673708,7
1871852000,0.97844875,-0.0025381872,0.0047116154,0.20642102,0.99999595,-2.3283064e-10,1.4551915e-10,0.0028673708,7
1871908000,0.97845036,-0.0025685534,0.0047973143,0.20641099,0.99999595,-2.3283064e-10,1.4551915e-10,0.0028673708,7
1871956000,0.97845185,-0.0023616173,0.0046991967,0.20640814,0.99999595,-2.3283064e-10,1.4551915e-10,0.0028673708,7
1872008000,0.9784463,-0.0022752932,0.0045900224,0.20643798,0.99999595,-2.3283064e-10,1.4551915e-10,0.0028673708,7
1872060000,0.9784411,-0.0021053758,0.004443293,0.20646751,0.99999595,-2.3283064e-10,1.4551915e-10,0.0028673708,7
1872112000,0.97844434,-0.0019523321,0.0042810095,0.20645761,0.99999595,-2.3283064e-10,1.4551915e-10,0.0028673708,7
1872164000,0.9784445,-0.0019482697,0.0040210444,0.20646197,0.99999595,-2.3283064e-10,1.4551915e-10,0.0028673708,7
1872216000,0.97845656,-0.0018325681,0.003914523,0.20640785,0.99999595,-2.3283064e-10,1.4551915e-10,0.0028673708,7
1872268000,0.978469,-0.0017171555,0.0038498482,0.20635088,0.99999595,-2.3283064e-10,1.4551915e-10,0.0028673708,7
1872320000,0.97847253,-0.0014982937,0.0039558164,0.20633353,0.99999595,-2.3283064e-10,1.4551915e-10,0.0028673708,7
1872372000,0.97846174,-0.0013149827,0.004231991,0.20638087,0.99999595,-2.3283064e-10,1.4551915e-10,0.0028673708,7
1872424000,0.97845244,-0.0011011383,0.004504718,0.20642029,0.99999595,-2.3283064e-10,1.4551915e-10,0.0028673708,7
1872476000,0.9784436,-0.0008984805,0.0046879286,0.2064589,0.99999595,-2.3283064e-10,1.4551915e-10,0.0028673708,7
1872528000,0.9784635,-0.00077900593,0.004571143,0.20636812,0.99999595,-2.3283064e-10,1.4551915e-10,0.0028673708,7
1872580000,0.9784665,-0.00069430115,0.0045727435,0.20635422,0.99999595,-2.3283064e-10,1.4551915e-10,0.0028673708,7
1872632000,0.97847205,-0.0005446955,0.0046186317,0.20632704,0.99999595,-2.3283064e-10,1.4551915e-10,0.0028673708,7
1872684000,0.9784723,-0.0006014794,0.004710224,0.20632368,0.99999595,-2.3283064e-10,1.4551915e-10,0.0028673708,7
1872740000,0.9784825,-0.0004322415,0.0046493826,0.2062773,0.99999595,-2.3283064e-10,1.4551915e-10,0.0028673708,7
1872788000,0.97847337,-0.00039396615,0.004772465,0.20631771,0.99999595,-2.3283064e-10,1.4551915e-10,0.0028673708,7
1872840000,0.97848576,-0.0002551572,0.00502867,0.2062529,0.99999595,-2.3283064e-10,1.4551915e-10,0.0028673708,7
1872892000,0.9784837,-0.00016530651,0.005184917,0.20625909,0.99999595,-2.3283064e-10,1.4551915e-10,0.0028673708,7
1872944000,0.9784782,-0.00027047907,0.005299207,0.20628203,0.99999595,-2.3283064e-10,1.4551915e-10,0.0028673708,7
1872996000,0.97845453,-0.00034273605,0.0052794716,0.20639469,0.99999595,-2.3283064e-10,1.4551915e-10,0.0028673708,7
1873048000,0.97845685,-0.00035469152,0.0053018527,0.2063833,0.99999595,-2.3283064e-10,1.4551915e-10,0.0028673708,7
1873100000,0.9784559,-0.00045232475,0.0053207716,0.20638734,0.99999595,-2.3283064e-10,1.4551915e-10,0.0028673708,7
1873152000,0.97844976,-0.00040175946,0.0053518265,0.20641524,0.99999595,-2.3283064e-10,1.4551915e-10,0.0028673708,7
1873204000,0.9784435,-0.00046761998,0.0053816377,0.20644397,0.99999595,-2.3283064e-10,1.4551915e-10,0.0028673708,7
1873256000,0.97844136,-0.00044375123,0.0052866433,0.20645697,0.99999595,-2.3283064e-10,1.4551915e-10,0.0028673708,7
1873308000,0.9784335,-0.00032882523,0.0052484465,0.20649529,0.99999595,-2.3283064e-10,1.4551915e-10,0.0028673708,7
1873360000,0.9784352,-0.0002863426,0.005297679,0.20648578,0.99999595,-2.3283064e-10,1.4551915e-10,0.0028673708,7
1873412000,0.97843784,-0.00039443752,0.005406974,0.20647044,0.99999595,-2.3283064e-10,1.4551915e-10,0.0028673708,7
1873464000,0.97842634,-0.00045805774,0.0052595525,0.2065286,0.99999595,-2.3283064e-10,1.4551915e-10,0.0028673708,7
1873516000,0.97843236,-0.0005899982,0.004964485,0.20650746,0.99999595,-2.3283064e-10,1.4551915e-10,0.0028673708,7
1873568000,0.9784548,-0.0006593126,0.004816735,0.20640376,0.99999595,-2.3283064e-10,1.4551915e-10,0.0028673708,7
1873620000,0.978457,-0.00078731903,0.004817889,0.20639344,0.99999595,-2.3283064e-10,1.4551915e-10,0.0028673708,7
1873672000,0.9784488,-0.0008636618,0.004883573,0.20642999,0.99999595,-2.3283064e-10,1.4551915e-10,0.0028673708,7
1873724000,0.9784459,-0.0009819686,0.0048387623,0.20644471,0.99999595,-2.3283064e-10,1.4551915e-10,0.0028673708,7
1873776000,0.9784401,-0.001022385,0.0048878742,0.20647061,0.99999595,-2.3283064e-10,1.4551915e-10,0.0028673708,7
1873832000,0.9784424,-0.0009059861,0.004899178,0.20645972,0.99999595,-2.3283064e-10,1.4551915e-10,0.0028673708,7
1873880000,0.9784358,-0.0009663701,0.004851619,0.20649181,0.99999595,-2.3283064e-10,1.4551915e-10,0.0028673708,7
1873936000,0.97843975,-0.0010815794,0.0049555697,0.2064704,0.99999595,-2.3283064e-10,1.4551915e-10,0.0028673708,7
1873984000,0.97844297,-0.0012078848,0.005082782,0.2064516,0.99999595,-2.3283064e-10,1.4551915e-10,0.0028673708,7
1874036000,0.9784508,-0.0013079826,0.005311807,0.20640808,0.99999595,-2.3283064e-10,1.4551915e-10,0.0028673708,7
1874088000,0.9784438,-0.0013251232,0.0056322142,0.20643225,0.99999595,-2.3283064e-10,1.4551915e-10,0.0028673708,7
1874144000,0.9784478,-0.0013476448,0.005632482,0.2064136,0.99999595,-2.3283064e-10,1.4551915e-10,0.0028673708,7
1874192000,0.9784441,-0.0013287867,0.0056669936,0.20643005,0.99999595,-2.3283064e-10,1.4551915e-10,0.0028673708,7
1874244000,0.97843623,-0.0011552342,0.0058037094,0.20646463,0.99999595,-2.3283064e-10,1.4551915e-10,0.0028673708,7
1874296000,0.97843546,-0.0012447874,0.005746806,0.20646931,0.99999595,-2.3283064e-10,1.4551915e-10,0.0028673708,7
1874348000,0.978438,-0.0011283123,0.0056611765,0.20646033,0.99999595,-2.3283064e-10,1.4551915e-10,0.0028673708,7
1874404000,0.9784532,-0.0011026418,0.005621761,0.20638949,0.99999595,-2.3283064e-10,1.4551915e-10,0.0028673708,7
1874452000,0.97845745,-0.0010665407,0.0055364054,0.20637156,0.99999595,-2.3283064e-10,1.4551915e-10,0.0028673708,7
1874508000,0.9784389,-0.0011615749,0.00537908,0.20646332,0.99999595,-2.3283064e-10,1.4551915e-10,0.0028673708,7
1874560000,0.9784518,-0.0011925402,0.005274768,0.20640479,0.99999595,-2.3283064e-10,1.4551915e-10,0.0028673708,7
1874608000,0.97845465,-0.0012031782,0.0049854065,0.20639846,0.99999595,-2.3283064e-10,1.4551915e-10,0.0028673708,7
1874660000,0.9784533,-0.0010915261,0.004900096,0.20640741,0.99999595,-2.3283064e-10,1.4551915e-10,0.0028673708,7
1874712000,0.9784526,-0.0009592435,0.0049508717,0.20641021,0.99999595,-2.3283064e-10,1.4551915e-10,0.0028673708,7
1874764000,0.97844386,-0.0010187258,0.005154439,0.2064463,0.99999595,-2.3283064e-10,1.4551915e-10,0.0028673708,7
1874820000,0.9784467,-0.0013411486,0.005193085,0.20643014,0.99999595,-2.3283064e-10,1.4551915e-10,0.0028673708,7
1874872000,0.9784428,-0.0014826088,0.0052754353,0.20644535,0.99999595,-2.3283064e-10,1.4551915e-10,0.0028673708,7
1874920000,0.9784364,-0.0013094521,0.0052197897,0.20647815,0.99999595,-2.3283064e-10,1.4551915e-10,0.0028673708,7
1874972000,0.9784374,-0.001290432,0.0053396598,0.2064707,0.99999595,-2.3283064e-10,1.4551915e-10,0.0028673708,7
1875024000,0.9784287,-0.0011737183,0.0054600155,0.20650968,0.99999595,-2.3283064e-10,1.4551915e-10,0.0028673708,7
1875076000,0.9784353,-0.0012042955,0.0053725587,0.20648034,0.99999595,-2.3283064e-10,1.4551915e-10,0.0028673708,7
1875128000,0.97844696,-0.0010427195,0.0052007562,0.20643036,0.99999595,-2.3283064e-10,1.4551915e-10,0.0028673708,7
1875180000,0.9784551,-0.0011045802,0.0049149813,0.20639805,0.99999595,-2.3283064e-10,1.4551915e-10,0.0028673708,7
1875232000,0.9784481,-0.0009757327,0.0047512096,0.20643574,0.99999595,-2.3283064e-10,1.4551915e-10,0.0028673708,7
1875284000,0.97844714,-0.0007868133,0.0046376954,0.20644392,0.99999595,-2.3283064e-10,1.4551915e-10,0.0028673708,7
1875336000,0.97844774,-0.0008687411,0.0045795725,0.206442,0.99999595,-2.3283064e-10,1.4551915e-10,0.0028673708,7
1875392000,0.97845554,-0.0007988252,0.0045432136,0.20640644,0.99999595,-2.3283064e-10,1.4551915e-10,0.0028673708,7
1875440000,0.9784606,-0.0006059899,0.004623211,0.2063807,0.99999595,-2.3283064e-10,1.4551915e-10,0.0028673708,7
1875492000,0.9784584,-0.000575146,0.004781986,0.20638831,0.99999595,-2.3283064e-10,1.4551915e-10,0.0028673708,7
1875544000,0.97846437,-0.00058172527,0.004827154,0.20635876,0.99999595,-2.3283064e-10,1.4551915e-10,0.0028673708,7
1875596000,0.97846854,-0.00029948817,0.0049976576,0.20633543,0.99999595,-2.3283064e-10,1.4551915e-10,0.0028673708,7
1875648000,0.97846216,-0.00010426781,0.005093708,0.20636392,0.99999595,-2.3283064e-10,1.4551915e-10,0.0028673708,7
1875700000,0.9784631,-2.2460174e-05,0.0052558105,0.20635512,0.99999595,-2.3283064e-10,1.4551915e-10,0.0028673708,7
1875756000,0.97844553,-5.5445627e-05,0.005448556,0.20643316,0.99999595,-2.3283064e-10,1.4551915e-10,0.0028673708,7
1875808000,0.9784395,-1.7050012e-05,0.005689035,0.20645563,0.99999595,-2.3283064e-10,1.4551915e-10,0.0028673708,7
1875856000,0.9784371,-0.0002213133,0.0059376094,0.20645952,0.99999595,-2.3283064e-10,1.4551915e-10,0.0028673708,7
1875908000,0.97843575,-0.00045409906,0.005959213,0.20646474,0.99999595,-2.3283064e-10,1.4551915e-10,0.0028673708,7
1875960000,0.9784328,-0.00061068044,0.005827834,0.20648244,0.99999595,-2.3283064e-10,1.4551915e-10,0.0028673708,7
1876016000,0.9784287,-0.0008387977,0.005710912,0.20650451,0.99999595,-2.3283064e-10,1.4551915e-10,0.0028673708,7
1876064000,0.97842634,-0.0009962559,0.0055536716,0.20651917,0.99999595,-2.3283064e-10,1.4551915e-10,0.0028673708,7
1876120000,0.97841686,-0.0012500441,0.005404828,0.206567,0.99999595,-2.3283064e-10,1.4551915e-10,0.0028673708,7
1876168000,0.9784217,-0.0013097809,0.00536154,0.20654449,0.99999595,-2.3283064e-10,1.4551915e-10,0.0028673708,7
1876224000,0.9784165,-0.0013945346,0.005548532,0.20656334,0.99999595,-2.3283064e-10,1.4551915e-10,0.0028673708,7
1876272000,0.9784275,-0.0013524633,0.005728252,0.20650628,0.99999595,-2.3283064e-10,1.4551915e-10,0.0028673708,7
1876324000,0.97842795,-0.0012633054,0.0056805494,0.20650688,0.99999595,-2.3283064e-10,1.4551915e-10,0.0028673708,7
1876376000,0.9784149,-0.0012207426,0.0057196952,0.20656744,0.99999595,-2.3283064e-10,1.4551915e-10,0.0028673708,7
1876428000,0.9784329,-0.001281221,0.005674634,0.20648295,0.99999595,-2.3283064e-10,1.4551915e-10,0.0028673708,7
1876480000,0.9784405,-0.001416841,0.005630104,0.20644748,0.99999595,-2.3283064e-10,1.4551915e-10,0.0028673708,7
1876536000,0.978436,-0.0015265328,0.005431964,0.20647345,0.99999595,-2.3283064e-10,1.4551915e-10,0.0028673708,7
1876584000,0.9784447,-0.0015306049,0.0055430178,0.20642962,0.99999595,-2.3283064e-10,1.4551915e-10,0.0028673708,7
1876636000,0.97844934,-0.0014904373,0.0056178225,0.20640564,0.99999595,-2.3283064e-10,1.4551915e-10,0.0028673708,7
1876688000,0.97844446,-0.001449443,0.0058407215,0.2064226,0.99999595,-2.3283064e-10,1.4551915e-10,0.0028673708,7
1876740000,0.97844124,-0.0015139332,0.006046631,0.2064313,0.99999595,-2.3283064e-10,1.4551915e-10,0.0028673708,7
1876792000,0.97844166,-0.0015403902,0.006192776,0.20642492,0.99999595,-2.3283064e-10,1.4551915e-10,0.0028673708,7
1876844000,0.9784524,-0.0015121687,0.006267003,0.20637222,0.99999595,-2.3283064e-10,1.4551915e-10,0.0028673708,7
1876896000,0.9784612,-0.0014269458,0.0062268963,0.20633227,0.99999595,-2.3283064e-10,1.4551915e-10,0.0028673708,7
1876948000,0.9784668,-0.0013660544,0.0061082016,0.20630987,0.99999595,-2.3283064e-10,1.4551915e-10,0.0028673708,7
1877004000,0.97845995,-0.0013189556,0.0058919946,0.20634896,0.99999595,-2.3283064e-10,1.4551915e-10,0.0028673708,7
1877052000,0.9784473,-0.001434647,0.0056911684,0.20641313,0.99999595,-2.3283064e-10,1.4551915e-10,0.0028673708,7
1877104000,0.9784464,-0.001586689,0.0054645888,0.20642245,0.99999595,-2.3283064e-10,1.4551915e-10,0.0028673708,7
1877160000,0.9784508,-0.0017767416,0.005325857,0.20640372,0.99999595,-2.3283064e-10,1.4551915e-10,0.0028673708,7
1877208000,0.9784502,-0.0018170379,0.005258029,0.20640858,0.99999595,-2.3283064e-10,1.4551915e-10,0.0028673708,7
1877260000,0.97844845,-0.0018138974,0.0050204066,0.20642251,0.99999595,-2.3283064e-10,1.4551915e-10,0.0028673708,7
1877316000,0.9784479,-0.0019781364,0.0050363527,0.20642275,0.99999595,-2.3283064e-10,1.4551915e-10,0.0028673708,7
1877364000,0.97844136,-0.0020036683,0.005095025,0.20645201,0.99999595,-2.3283064e-10,1.4551915e-10,0.0028673708,7
1877416000,0.9784329,-0.0019083882,0.0052859965,0.20648864,0.99999595,-2.3283064e-10,1.4551915e-10,0.0028673708,7
1877468000,0.978439,-0.0019195316,0.0053583803,0.20645761,0.99999595,-2.3283064e-10,1.4551915e-10,0.0028673708,7
1877520000,0.97845143,-0.0018822483,0.0054833693,0.20639618,0.99999595,-2.3283064e-10,1.4551915e-10,0.0028673708,7
1877576000,0.9784587,-0.0018407428,0.0056206114,0.20635802,0.99999595,-2.3283064e-10,1.4551915e-10,0.0028673708,7
1877624000,0.9784672,-0.001898333,0.0057570627,0.20631325,0.99999595,-2.3283064e-10,1.4551915e-10,0.0028673708,7
1877676000,0.9784574,-0.0019158523,0.006010105,0.20635268,0.99999595,-2.3283064e-10,1.4551915e-10,0.0028673708,7
1877732000,0.97845566,-0.0019461326,0.006146595,0.20635638,0.99999595,-2.3283064e-10,1.4551915e-10,0.0028673708,7
1877780000,0.97845924,-0.0019189421,0.005954575,0.20634536,0.99999595,-2.3283064e-10,1.4551915e-10,0.0028673708,7
1877832000,0.9784596,-0.002101853,0.0056764367,0.20634997,0.99999595,-2.3283064e-10,1.4551915e-10,0.0028673708,7
1877884000,0.97846025,-0.0020423857,0.005623474,0.20634872,0.99999595,-2.3283064e-10,1.4551915e-10,0.0028673708,7
1877936000,0.9784551,-0.002073098,0.005706118,0.20637068,0.99999595,-2.3283064e-10,1.4551915e-10,0.0028673708,7
1877988000,0.97844553,-0.0021996303,0.0058551873,0.20641048,0.99999595,-2.3283064e-10,1.4551915e-10,0.0028673708,7
1878044000,0.9784443,-0.0021823708,0.0061311075,0.20640865,0.99999595,-2.3283064e-10,1.4551915e-10,0.0028673708,7
1878092000,0.9784666,-0.002232853,0.0062657404,0.20629826,0.99999595,-2.3283064e-10,1.4551915e-10,0.0028673708,7
1878144000,0.9784592,-0.0024430898,0.006457248,0.20632488,0.99999595,-2.3283064e-10,1.4551915e-10,0.0028673708,7
1878196000,0.9784477,-0.0025249617,0.0066156616,0.20637354,0.99999595,-2.3283064e-10,1.4551915e-10,0.0028673708,7
1878248000,0.9784465,-0.002481048,0.006630994,0.20637941,0.99999595,-2.3283064e-10,1.4551915e-10,0.0028673708,7
1878300000,0.9784475,-0.002466636,0.006514061,0.20637861,0.99999595,-2.3283064e-10,1.4551915e-10,0.0028673708,7
1878352000,0.97845006,-0.0026451082,0.006547852,0.2063631,0.99999595,-2.3283064e-10,1.4551915e-10,0.0028673708,7
1878404000,0.97843,-0.0028140615,0.0066029527,0.20645432,0.99999595,-2.3283064e-10,1.4551915e-10,0.0028673708,7
1878456000,0.97844255,-0.0026837145,0.0067056124,0.20639297,0.99999595,-2.3283064e-10,1.4551915e-10,0.0028673708,7
1878508000,0.9784487,-0.0025349925,0.006637198,0.20636782,0.99999595,-2.3283064e-10,1.4551915e-10,0.0028673708,7
1878560000,0.9784459,-0.002329609,0.0065695015,0.20638615,0.99999595,-2.3283064e-10,1.4551915e-10,0.0028673708,7
1878612000,0.97844404,-0.0023232112,0.0064852755,0.20639697,0.99999595,-2.3283064e-10,1.4551915e-10,0.0028673708,7
1878664000,0.9784345,-0.002220869,0.0060708392,0.20645642,0.99999595,-2.3283064e-10,1.4551915e-10,0.0028673708,7
1878716000,0.9784469,-0.002119383,0.005666192,0.20641024,0.99999595,-2.3283064e-10,1.4551915e-10,0.0028673708,7
1878772000,0.9784437,-0.0020358467,0.0055421987,0.20642924,0.99999595,-2.3283064e-10,1.4551915e-10,0.0028673708,7
1878820000,0.97844136,-0.0019580622,0.0056718974,0.20643745,0.99999595,-2.3283064e-10,1.4551915e-10,0.0028673708,7
1878872000,0.97845227,-0.0017501211,0.0058970056,0.20638153,0.99999595,-2.3283064e-10,1.4551915e-10,0.0028673708,7
1878924000,0.97846407,-0.0017392131,0.006354684,0.20631216,0.99999595,-2.3283064e-10,1.4551915e-10,0.0028673708,7
1878976000,0.97845906,-0.0019270832,0.0066324016,0.20632547,0.99999595,-2.3283064e-10,1.4551915e-10,0.0028673708,7
1879032000,0.9784395,-0.0021220907,0.00680629,0.20641074,0.99999595,-2.3283064e-10,1.4551915e-10,0.0028673708,7
1879080000,0.9784483,-0.0022032084,0.0069235857,0.20636424,0.99999595,-2.3283064e-10,1.4551915e-10,0.0028673708,7
1879132000,0.9784519,-0.0022456842,0.0069912765,0.20634413,0.99999595,-2.3283064e-10,1.4551915e-10,0.0028673708,7
1879184000,0.9784599,-0.002285572,0.0071281316,0.2063014,0.99999595,-2.3283064e-10,1.4551915e-10,0.0028673708,7
1879236000,0.9784468,-0.0022158797,0.007139001,0.2063638,0.99999595,-2.3283064e-10,1.4551915e-10,0.0028673708,7
1879288000,0.97844297,-0.0022137202,0.0070065614,0.20638667,0.99999595,-2.3283064e-10,1.4551915e-10,0.0028673708,7
1879344000,0.9784358,-0.0021331473,0.006845593,0.20642677,0.99999595,-2.3283064e-10,1.4551915e-10,0.0028673708,7
1879392000,0.97842866,-0.0020246876,0.006849087,0.20646165,0.99999595,-2.3283064e-10,1.4551915e-10,0.0028673708,7
1879444000,0.97843224,-0.0020047787,0.0069605596,0.20644096,0.99999595,-2.3283064e-10,1.4551915e-10,0.0028673708,7
1879496000,0.9784314,-0.0020685862,0.00677985,0.20645034,0.99999595,-2.3283064e-10,1.4551915e-10,0.0028673708,7
1879548000,0.9784289,-0.002003312,0.006520528,0.20647162,0.99999595,-2.3283064e-10,1.4551915e-10,0.0028673708,7
1879600000,0.9784164,-0.0019531522,0.006225319,0.20654026,0.99999595,-2.3283064e-10,1.4551915e-10,0.0028673708,7
1879656000,0.9784239,-0.0019983617,0.005944828,0.20651221,0.99999595,-2.3283064e-10,1.4551915e-10,0.0028673708,7
1879704000,0.9784274,-0.001984984,0.0058973227,0.2064974,0.99999595,-2.3283064e-10,1.4551915e-10,0.0028673708,7
1879756000,0.97843325,-0.002016993,0.005830453,0.20647152,0.99999595,-2.3283064e-10,1.4551915e-10,0.0028673708,7
1879808000,0.9784308,-0.0019414731,0.005717348,0.20648701,0.99999595,-2.3283064e-10,1.4551915e-10,0.0028673708,7
1879860000,0.9784395,-0.001938606,0.0056329723,0.2064478,0.99999595,-2.3283064e-10,1.4551915e-10,0.0028673708,7
1879912000,0.9784454,-0.0018223111,0.0055315634,0.20642391,0.99999595,-2.3283064e-10,1.4551915e-10,0.0028673708,7
1879964000,0.9784517,-0.0017635882,0.005613941,0.20639177,0.99999595,-2.3283064e-10,1.4551915e-10,0.0028673708,7
1880020000,0.9784541,-0.0019011626,0.0058421977,0.20637314,0.99999595,-2.3283064e-10,1.4551915e-10,0.0028673708,7
1880068000,0.9784467,-0.0020256005,0.005916588,0.20640504,0.99999595,-2.3283064e-10,1.4551915e-10,0.0028673708,7
1880120000,0.97844297,-0.002230589,0.0057874676,0.20642447,0.99999595,-2.3283064e-10,1.4551915e-10,0.0028673708,7
1880172000,0.97844005,-0.0023722048,0.005441778,0.20644571,0.99999595,-2.3283064e-10,1.4551915e-10,0.0028673708,7
1880228000,0.9784401,-0.002409494,0.0052218935,0.20645073,0.99999595,-2.3283064e-10,1.4551915e-10,0.0028673708,7
1880276000,0.9784448,-0.0025549226,0.005090972,0.20643023,0.99999595,-2.3283064e-10,1.4551915e-10,0.0028673708,7
1880328000,0.97844636,-0.0024964032,0.0049843355,0.20642601,0.99999595,-2.3283064e-10,1.4551915e-10,0.0028673708,7
1880380000,0.9784414,-0.0024237186,0.0049545523,0.20645085,0.99999595,-2.3283064e-10,1.4551915e-10,0.0028673708,7
1880436000,0.97845155,-0.0022841466,0.0049998006,0.20640337,0.99999595,-2.3283064e-10,1.4551915e-10,0.0028673708,7
1880484000,0.97844183,-0.002191261,0.005297452,0.20644335,0.99999595,-2.3283064e-10,1.4551915e-10,0.0028673708,7
1880536000,0.9784399,-0.0019199682,0.0053833285,0.20645294,0.99999595,-2.3283064e-10,1.4551915e-10,0.0028673708,7
1880588000,0.9784462,-0.0017685621,0.005320729,0.20642595,0.99999595,-2.3283064e-10,1.4551915e-10,0.0028673708,7
1880640000,0.97843736,-0.0015945283,0.0053402963,0.2064685,0.99999595,-2.3283064e-10,1.4551915e-10,0.0028673708,7
1880692000,0.9784517,-0.0015668024,0.005268321,0.20640251,0.99999595,-2.3283064e-10,1.4551915e-10,0.0028673708,7
1880748000,0.9784386,-0.0013543623,0.0052260947,0.20646746,0.99999595,-2.3283064e-10,1.4551915e-10,0.0028673708,7
1880796000,0.9784343,-0.0013078639,0.005103631,0.20649126,0.99999595,-2.3283064e-10,1.4551915e-10,0.0028673708,7
1880848000,0.97843957,-0.0012352814,0.004857021,0.20647241,0.99999595,-2.3283064e-10,1.4551915e-10,0.0028673708,7
1880904000,0.97844803,-0.0012351779,0.004779402,0.20643449,0.99999595,-2.3283064e-10,1.4551915e-10,0.0028673708,7
1880952000,0.9784521,-0.0012845128,0.004686057,0.20641708,0.99999595,-2.3283064e-10,1.4551915e-10,0.0028673708,7
1881004000,0.97846144,-0.0013013274,0.0046790875,0.20637316,0.99999595,-2.3283064e-10,1.4551915e-10,0.0028673708,7
1881056000,0.9784613,-0.001259943,0.004812415,0.20637007,0.99999595,-2.3283064e-10,1.4551915e-10,0.0028673708,7
1881112000,0.97846377,-0.0013067649,0.00492554,0.20635588,0.99999595,-2.3283064e-10,1.4551915e-10,0.0028673708,7
1881160000,0.9784652,-0.0011841877,0.004902154,0.20635045,0.99999595,-2.3283064e-10,1.4551915e-10,0.0028673708,7
1881216000,0.9784553,-0.00091825245,0.004861737,0.20639965,0.99999595,-2.3283064e-10,1.4551915e-10,0.0028673708,7
1881264000,0.97844803,-0.0006367478,0.0047743903,0.20643753,0.99999595,-2.3283064e-10,1.4551915e-10,0.0028673708,7
1881320000,0.9784636,-0.0005307617,0.004676072,0.20636594,0.99999595,-2.3283064e-10,1.4551915e-10,0.0028673708,7
1881368000,0.9784815,-0.00068229163,0.0045966166,0.20628227,0.99999595,-2.3283064e-10,1.4551915e-10,0.0028673708,7
1881420000,0.9784967,-0.00076195266,0.0044802707,0.2062123,0.99999595,-2.3283064e-10,1.4551915e-10,0.0028673708,7
1881472000,0.97848797,-0.0009316096,0.004464877,0.20625351,0.99999595,-2.3283064e-10,1.4551915e-10,0.0028673708,7
1881524000,0.97848386,-0.0009781461,0.0045019067,0.20627232,0.99999595,-2.3283064e-10,1.4551915e-10,0.0028673708,7
1881576000,0.97847646,-0.00077042746,0.004264934,0.20631285,0.99999595,-2.3283064e-10,1.4551915e-10,0.0028673708,7
1881628000,0.97848153,-0.00069212454,0.004009562,0.20629407,0.99999595,-2.3283064e-10,1.4551915e-10,0.0028673708,7
1881680000,0.9784717,-0.0007558068,0.003961156,0.20634176,0.99999595,-2.3283064e-10,1.4551915e-10,0.0028673708,7
1881732000,0.9784678,-0.00072633184,0.003932793,0.20636086,0.99999595,-2.3283064e-10,1.4551915e-10,0.0028673708,7
1881784000,0.97847056,-0.0006207574,0.004078846,0.2063454,0.99999595,-2.3283064e-10,1.4551915e-10,0.0028673708,7
1881836000,0.9784679,-0.0007274007,0.004173317,0.20635566,0.99999595,-2.3283064e-10,1.4551915e-10,0.0028673708,7
1881888000,0.97846335,-0.0008134346,0.0043587275,0.20637317,0.99999595,-2.3283064e-10,1.4551915e-10,0.0028673708,7
1881940000,0.97847146,-0.00084162754,0.0044641807,0.20633255,0.99999595,-2.3283064e-10,1.4551915e-10,0.0028673708,7
1881992000,0.97847706,-0.00094561203,0.0045522596,0.20630354,0.99999595,-2.3283064e-10,1.4551915e-10,0.0028673708,7
1882044000,0.9784827,-0.00094384456,0.004775832,0.20627154,0.99999595,-2.3283064e-10,1.4551915e-10,0.0028673708,7
1882100000,0.9784825,-0.00080099166,0.004793178,0.20627275,0.99999595,-2.3283064e-10,1.4551915e-10,0.0028673708,7
1882148000,0.97847515,-0.00096794555,0.0046337247,0.20631056,0.99999595,-2.3283064e-10,1.4551915e-10,0.0028673708,7
1882200000,0.9784852,-0.0012508611,0.0044808323,0.20626466,0.99999595,-2.3283064e-10,1.4551915e-10,0.0028673708,7
1882252000,0.97847736,-0.0015326223,0.0043559005,0.2063027,0.99999595,-2.3283064e-10,1.4551915e-10,0.0028673708,7
1882308000,0.9784885,-0.0016315349,0.0043490482,0.2062493,0.99999595,-2.3283064e-10,1.4551915e-10,0.0028673708,7
1882356000,0.97847813,-0.0016698483,0.0043682135,0.20629746,0.99999595,-2.3283064e-10,1.4551915e-10,0.0028673708,7
1882408000,0.97847694,-0.0015550316,0.0044302614,0.20630312,0.99999595,-2.3283064e-10,1.4551915e-10,0.0028673708,7
1882460000,0.97848237,-0.0014835652,0.0044718427,0.20627685,0.99999595,-2.3283064e-10,1.4551915e-10,0.0028673708,7
1882512000,0.9784869,-0.0012550119,0.0044013057,0.2062585,0.99999595,-2.3283064e-10,1.4551915e-10,0.0028673708,7
1882564000,0.9784793,-0.0011583226,0.0043853833,0.20629512,0.99999595,-2.3283064e-10,1.4551915e-10,0.0028673708,7
1882616000,0.9784725,-0.0013009888,0.004375274,0.2063275,0.99999595,-2.3283064e-10,1.4551915e-10,0.0028673708,7
1882664000,0.97846276,-0.0012368168,0.0045781075,0.20636877,0.99999595,-2.3283064e-10,1.4551915e-10,0.0028673708,7
1882720000,0.9784623,-0.0009521176,0.004699896,0.20636994,0.99999595,-2.3283064e-10,1.4551915e-10,0.0028673708,7
1882772000,0.9784623,-0.0007952638,0.0046789013,0.20637138,0.99999595,-2.3283064e-10,1.4551915e-10,0.0028673708,7
1882824000,0.978465,-0.0005896206,0.004671558,0.20635898,0.99999595,-2.3283064e-10,1.4551915e-10,0.0028673708,7
1882880000,0.97846824,-0.0006894456,0.004617064,0.20634471,0.99999595,-2.3283064e-10,1.4551915e-10,0.0028673708,7
1882928000,0.97845596,-0.0005470691,0.004506736,0.2064059,0.99999595,-2.3283064e-10,1.4551915e-10,0.0028673708,7
1882984000,0.97846466,-0.00047045999,0.00428614,0.20636982,0.99999595,-2.3283064e-10,1.4551915e-10,0.0028673708,7
1883032000,0.978474,-0.0006452766,0.00423558,0.20632583,0.99999595,-2.3283064e-10,1.4551915e-10,0.0028673708,7
1883088000,0.97847605,-0.00068589236,0.00418134,0.20631735,0.99999595,-2.3283064e-10,1.4551915e-10,0.0028673708,7
1883140000,0.97847706,-0.00075383356,0.0039958362,0.20631543,0.99999595,-2.3283064e-10,1.4551915e-10,0.0028673708,7
1883188000,0.9784795,-0.00080542447,0.0038777683,0.20630632,0.99999595,-2.3283064e-10,1.4551915e-10,0.0028673708,7
1883240000,0.9784697,-0.00067153474,0.00396571,0.20635149,0.99999595,-2.3283064e-10,1.4551915e-10,0.0028673708,7
1883292000,0.9784714,-0.00058708707,0.003949089,0.20634376,0.99999595,-2.3283064e-10,1.4551915e-10,0.0028673708,7
1883344000,0.9784595,-0.0004132092,0.003914005,0.20640147,0.99999595,-2.3283064e-10,1.4551915e-10,0.0028673708,7
1883396000,0.9784583,-0.0003406057,0.003852789,0.20640872,0.99999595,-2.3283064e-10,1.4551915e-10,0.0028673708,7
1883448000,0.9784642,-0.00022041102,0.0037911031,0.20638216,0.99999595,-2.3283064e-10,1.4551915e-10,0.0028673708,7
1883500000,0.97847605,-0.00018385742,0.0038024487,0.20632544,0.99999595,-2.3283064e-10,1.4551915e-10,0.0028673708,7
1883552000,0.97848535,-0.00034311286,0.0040925858,0.20627588,0.99999595,-2.3283064e-10,1.4551915e-10,0.0028673708,7
1883604000,0.9784933,-0.00068994256,0.0043005147,0.2062332,0.99999595,-2.3283064e-10,1.4551915e-10,0.0028673708,7
1883660000,0.9784898,-0.00096198736,0.0044355793,0.20624505,0.99999595,-2.3283064e-10,1.4551915e-10,0.0028673708,7
1883712000,0.97848123,-0.0010068851,0.0044017425,0.20628667,0.99999595,-2.3283064e-10,1.4551915e-10,0.0028673708,7
1883760000,0.9784702,-0.0009269556,0.0043872753,0.20633927,0.99999595,-2.3283064e-10,1.4551915e-10,0.0028673708,7
1883812000,0.978464,-0.00082057266,0.004109633,0.20637491,0.99999595,-2.3283064e-10,1.4551915e-10,0.0028673708,7
1883864000,0.9784631,-0.00068688963,0.0039215693,0.20638356,0.99999595,-2.3283064e-10,1.4551915e-10,0.0028673708,7
1883916000,0.97847754,-0.0006582395,0.0038594143,0.20631638,0.99999595,-2.3283064e-10,1.4551915e-10,0.0028673708,7
1883972000,0.9784778,-0.0007017418,0.003819539,0.20631604,0.99999595,-2.3283064e-10,1.4551915e-10,0.0028673708,7
1884020000,0.97848344,-0.0006559287,0.0039775013,0.20628658,0.99999595,-2.3283064e-10,1.4551915e-10,0.0028673708,7
1884076000,0.97848094,-0.0006676034,0.004125144,0.206295,0.99999595,-2.3283064e-10,1.4551915e-10,0.0028673708,7
1884124000,0.9784751,-0.0007117898,0.0041286903,0.20632239,0.99999595,-2.3283064e-10,1.4551915e-10,0.0028673708,7
1884176000,0.97848296,-0.00087634986,0.004127805,0.20628451,0.99999595,-2.3283064e-10,1.4551915e-10,0.0028673708,7
1884228000,0.9784718,-0.0012087926,0.004390593,0.20633033,0.99999595,-2.3283064e-10,1.4551915e-10,0.0028673708,7
1884280000,0.9784765,-0.0012326109,0.004507544,0.20630556,0.99999595,-2.3283064e-10,1.4551915e-10,0.0028673708,7
1884332000,0.9784681,-0.0011732782,0.0043952037,0.20634793,0.99999595,-2.3283064e-10,1.4551915e-10,0.0028673708,7
1884384000,0.97846806,-0.0012107962,0.0043016504,0.20635006,0.99999595,-2.3283064e-10,1.4551915e-10,0.0028673708,7
1884440000,0.97845715,-0.0012951595,0.004493386,0.20639697,0.99999595,-2.3283064e-10,1.4551915e-10,0.0028673708,7
1884492000,0.97843707,-0.00137851,0.004628576,0.2064892,0.99999595,-2.3283064e-10,1.4551915e-10,0.0028673708,7
1884540000,0.97845244,-0.001575209,0.0045637656,0.206416,0.99999595,-2.3283064e-10,1.4551915e-10,0.0028673708,7
1884592000,0.9784483,-0.0017227905,0.0045112306,0.20643607,0.99999595,-2.3283064e-10,1.4551915e-10,0.0028673708,7
1884644000,0.97845894,-0.0018382432,0.004626469,0.20638146,0.99999595,-2.3283064e-10,1.4551915e-10,0.0028673708,7
1884696000,0.9784393,-0.0019846598,0.004645876,0.20647298,0.99999595,-2.3283064e-10,1.4551915e-10,0.0028673708,7
1884748000,0.9784497,-0.0020936506,0.004638786,0.2064225,0.99999595,-2.3283064e-10,1.4551915e-10,0.0028673708,7
1884800000,0.978462,-0.0023402802,0.0047443593,0.2063595,0.99999595,-2.3283064e-10,1.4551915e-10,0.0028673708,7
1884852000,0.97845644,-0.002576451,0.0048967362,0.20637937,0.99999595,-2.3283064e-10,1.4551915e-10,0.0028673708,7
1884904000,0.97846216,-0.0024533698,0.004973145,0.2063522,0.99999595,-2.3283064e-10,1.4551915e-10,0.0028673708,7
1884956000,0.97843885,-0.0024267407,0.0050931443,0.20645964,0.99999595,-2.3283064e-10,1.4551915e-10,0.0028673708,7
1885008000,0.97843766,-0.0024543116,0.0049679345,0.20646846,0.99999595,-2.3283064e-10,1.4551915e-10,0.0028673708,7
1885064000,0.9784478,-0.002352315,0.004998714,0.20642029,0.99999595,-2.3283064e-10,1.4551915e-10,0.0028673708,7
1885112000,0.97844166,-0.0022691942,0.004950076,0.2064517,0.99999595,-2.3283064e-10,1.4551915e-10,0.0028673708,7
1885164000,0.978442,-0.0019874645,0.004710722,0.20645891,0.99999595,-2.3283064e-10,1.4551915e-10,0.0028673708,7
1885216000,0.97845,-0.0017785641,0.004549493,0.20642646,0.99999595,-2.3283064e-10,1.4551915e-10,0.0028673708,7
1885268000,0.9784584,-0.0014927922,0.004519901,0.20638944,0.99999595,-2.3283064e-10,1.4551915e-10,0.0028673708,7
1885320000,0.97845817,-0.0014517609,0.004590102,0.20638959,0.99999595,-2.3283064e-10,1.4551915e-10,0.0028673708,7
1885376000,0.9784759,-0.0015387872,0.004661086,0.20630257,0.99999595,-2.3283064e-10,1.4551915e-10,0.0028673708,7
1885424000,0.97845495,-0.0015260982,0.0047209878,0.20640075,0.99999595,-2.3283064e-10,1.4551915e-10,0.0028673708,7
1885476000,0.97845435,-0.0015554735,0.004680746,0.20640443,0.99999595,-2.3283064e-10,1.4551915e-10,0.0028673708,7
1885528000,0.97845244,-0.001524358,0.0046093585,0.20641524,0.99999595,-2.3283064e-10,1.4551915e-10,0.0028673708,7
1885580000,0.9784743,-0.0015273968,0.004597281,0.2063118,0.99999595,-2.3283064e-10,1.4551915e-10,0.0028673708,7
1885636000,0.9784814,-0.0014969192,0.0044834125,0.20628098,0.99999595,-2.3283064e-10,1.4551915e-10,0.0028673708,7
1885688000,0.9784732,-0.0017888893,0.0045190384,0.20631687,0.99999595,-2.3283064e-10,1.4551915e-10,0.0028673708,7
1885736000,0.9784519,-0.0019237873,0.0044923346,0.20641735,0.99999595,-2.3283064e-10,1.4551915e-10,0.0028673708,7
1885788000,0.97846353,-0.001957349,0.004624247,0.20635884,0.99999595,-2.3283064e-10,1.4551915e-10,0.0028673708,7
1885840000,0.97845334,-0.001960578,0.0048006596,0.20640348,0.99999595,-2.3283064e-10,1.4551915e-10,0.0028673708,7
1885892000,0.97845024,-0.00207194,0.005052635,0.20641072,0.99999595,-2.3283064e-10,1.4551915e-10,0.0028673708,7
1885944000,0.97845095,-0.0021013021,0.0052172067,0.20640293,0.99999595,-2.3283064e-10,1.4551915e-10,0.0028673708,7
1886000000,0.97844654,-0.002071746,0.0055272956,0.20641594,0.99999595,-2.3283064e-10,1.4551915e-10,0.0028673708,7
1886048000,0.97845405,-0.0019814395,0.005707499,0.20637634,0.99999595,-2.3283064e-10,1.4551915e-10,0.0028673708,7
1886100000,0.9784593,-0.0021268714,0.005815259,0.20634678,0.99999595,-2.3283064e-10,1.4551915e-10,0.0028673708,7
1886152000,0.9784486,-0.0023286259,0.0058049806,0.20639615,0.99999595,-2.3283064e-10,1.4551915e-10,0.0028673708,7
1886204000,0.97845656,-0.0023259234,0.0057591423,0.20635937,0.99999595,-2.3283064e-10,1.4551915e-10,0.0028673708,7
1886256000,0.9784581,-0.0022781894,0.005775675,0.2063522,0.99999595,-2.3283064e-10,1.4551915e-10,0.0028673708,7
1886308000,0.9784627,-0.002262108,0.0056617004,0.20633382,0.99999595,-2.3283064e-10,1.4551915e-10,0.0028673708,7
1886360000,0.9784494,-0.0021621725,0.0056110006,0.20639947,0.99999595,-2.3283064e-10,1.4551915e-10,0.0028673708,7
1886412000,0.9784469,-0.0022662845,0.0053619654,0.20641649,0.99999595,-2.3283064e-10,1.4551915e-10,0.0028673708,7
1886464000,0.97845435,-0.0023111359,0.0051569645,0.20638604,0.99999595,-2.3283064e-10,1.4551915e-10,0.0028673708,7
1886516000,0.9784597,-0.0024336735,0.005200802,0.2063584,0.99999595,-2.3283064e-10,1.4551915e-10,0.0028673708,7
1886568000,0.9784635,-0.0024579507,0.00525325,0.20633842,0.99999595,-2.3283064e-10,1.4551915e-10,0.0028673708,7
