timestamp,roll,pitch,yaw,thrust_body[0],thrust_body[1],thrust_body[2]
1859220000,-0.0038911784,-0.055045806,-1.1625998,0.0,0.0,0.0
1859236000,-0.0044467496,-0.054987486,-1.1626642,0.0,0.0,0.0
1859256000,-0.0044112774,-0.055055168,-1.162717,0.0,0.0,0.0
1859280000,-0.0043825875,-0.055433206,-1.1627041,0.0,0.0,0.0
1859300000,-0.004201707,-0.0554457,-1.1627591,0.0,0.0,0.0
1859320000,-0.0041483724,-0.05557981,-1.1627738,0.0,0.0,0.0
1859340000,-0.0038770637,-0.055677712,-1.1626316,0.0,0.0,0.0
1859360000,-0.0037150178,-0.05556374,-1.1624353,0.0,0.0,0.0
1859380000,-0.0035860846,-0.055567585,-1.1623259,0.0,0.0,0.0
1859396000,-0.0033998447,-0.056153797,-1.1625216,0.0,0.0,0.0
1859420000,-0.0032441271,-0.056381788,-1.1623237,0.0,0.0,0.0
1859440000,-0.0033276402,-0.05638434,-1.1622494,0.0,0.0,0.0
1859460000,-0.0032648358,-0.05649681,-1.1620849,0.0,0.0,0.0
1859476000,-0.0035887265,-0.05649739,-1.1622121,0.0,0.0,0.0
1859496000,-0.003168371,-0.056729518,-1.1622486,0.0,0.0,0.0
1859520000,-0.002745151,-0.056773387,-1.1623989,0.0,0.0,0.0
1859536000,-0.0023141266,-0.0569512,-1.1624765,0.0,0.0,0.0
1859560000,-0.0024698712,-0.05698604,-1.1624415,0.0,0.0,0.0
1859576000,-0.0024840026,-0.05694174,-1.1622925,0.0,0.0,0.0
1859600000,-0.002818244,-0.057142243,-1.1621927,0.0,0.0,0.0
1859616000,-0.0024234143,-0.05731201,-1.1620984,0.0,0.0,0.0
1859640000,-0.0019231867,-0.05768009,-1.1619575,0.0,0.0,0.0
1859660000,-0.0012197411,-0.057337895,-1.1619319,0.0,0.0,0.0
1859676000,-0.0009074501,-0.057244588,-1.1620911,0.0,0.0,0.0
1859700000,-0.00077574095,-0.057204433,-1.1622955,0.0,0.0,0.0
1859716000,-0.00046238987,-0.05700107,-1.1622603,0.0,0.0,0.0
1859740000,-0.00011687519,-0.05709932,-1.1622063,0.0,0.0,0.0
1859756000,0.00017657991,-0.057180874,-1.1621704,0.0,0.0,0.0
1859776000,-3.4917193e-06,-0.056839317,-1.1622175,0.0,0.0,0.0
1859796000,2.8574606e-05,-0.056400564,-1.1623745,0.0,0.0,0.0
1859816000,-9.802217e-05,-0.05646833,-1.1623304,0.0,0.0,0.0
1859832000,-0.00035580058,-0.05598797,-1.1620378,0.0,0.0,0.0
1859860000,0.00013731096,-0.055903595,-1.1618052,0.0,0.0,0.0
1859876000,0.0002965075,-0.056001008,-1.1616054,0.0,0.0,0.0
1859896000,0.00018216348,-0.05616533,-1.1614625,0.0,0.0,0.0
1859920000,0.0003479577,-0.05568052,-1.1614618,0.0,0.0,0.0
1859936000,0.00059690955,-0.05544657,-1.1614225,0.0,0.0,0.0
1859956000,0.0004704573,-0.05542887,-1.1613547,0.0,0.0,0.0
1859972000,0.00046705082,-0.055601515,-1.1612139,0.0,0.0,0.0
1859996000,0.00064591016,-0.05554572,-1.1611173,0.0,0.0,0.0
1860020000,0.0005368134,-0.05514604,-1.1612594,0.0,0.0,0.0
1860040000,0.00021971739,-0.05534212,-1.1613266,0.0,0.0,0.0
1860056000,0.00015779513,-0.055856835,-1.1612686,0.0,0.0,0.0
1860080000,6.409151e-05,-0.0554763,-1.161276,0.0,0.0,0.0
1860096000,0.00043176796,-0.05545704,-1.1612426,0.0,0.0,0.0
1860120000,0.00071745715,-0.055210486,-1.1613603,0.0,0.0,0.0
1860136000,0.0005014192,-0.055203862,-1.1615379,0.0,0.0,0.0
1860160000,0.00055992673,-0.055475805,-1.1613966,0.0,0.0,0.0
1860180000,0.0012950383,-0.055202045,-1.1613817,0.0,0.0,0.0
1860200000,0.0013831933,-0.054643713,-1.1615269,0.0,0.0,0.0
1860220000,0.0019628787,-0.054154687,-1.1614032,0.0,0.0,0.0
1860236000,0.73622406,0.68700534,-0.019918978,0.0,0.0,-0.121854186
1860260000,0.43300653,0.38591504,-0.0055627227,0.0,0.0,-0.12064303
1860280000,0.23761421,0.20744738,-0.00095683336,0.0,0.0,-0.1202113
1860300000,0.08523539,0.113477804,0.00042629242,0.0,0.0,-0.120059945
1860320000,-0.04676468,0.03291724,0.00095683336,0.0,0.0,-0.12001605
1860336000,-0.11520994,-0.017247045,0.0007687211,0.0,0.0,-0.120023444
1860360000,-0.10766121,-0.038327157,0.00052446127,0.0,0.0,-0.12001875
1860376000,-0.10476114,-0.06405165,0.00056272745,0.0,0.0,-0.120017365
1860400000,-0.120975465,-0.0701569,0.0006930828,0.0,0.0,-0.12921283
1860420000,-0.09795612,-0.102185294,0.00062942505,0.0,0.0,-0.15457146
1860440000,-0.089487,-0.10242529,0.0005836487,0.0,0.0,-0.16871753
1860456000,-0.08943337,-0.10240519,0.0005711317,0.0,0.0,-0.16871753
1860480000,-0.069488175,-0.11265199,0.0008279085,0.0,0.0,-0.19537358
1860496000,-0.06479415,-0.11620646,0.0007569194,0.0,0.0,-0.20995605
1860520000,-0.05363297,-0.114815265,0.00096541643,0.0,0.0,-0.22089969
1860536000,-0.050462645,-0.11321012,0.0012018085,0.0,0.0,-0.23577219
1860560000,-0.048191205,-0.11540113,0.0012398958,0.0,0.0,-0.2502391
1860576000,-0.043057084,-0.12017769,0.0010977387,0.0,0.0,-0.26213962
1860600000,-0.04317087,-0.11795963,0.0009661317,0.0,0.0,-0.2773136
1860620000,-0.04602053,-0.1108886,0.0008227229,0.0,0.0,-0.29236215
1860636000,-0.034253143,-0.11658426,0.0008391738,0.0,0.0,-0.3037727
1860660000,-0.024487555,-0.110189915,0.0008663535,0.0,0.0,-0.31920418
1860680000,-0.025235893,-0.10775446,0.000837028,0.0,0.0,-0.33452865
1860692000,-0.025806075,-0.1075702,0.0007558465,0.0,0.0,-0.3461586
1860720000,-0.026170533,-0.10245098,0.00090551376,0.0,0.0,-0.37439075
1860740000,-0.020210344,-0.10714458,0.0010546446,0.0,0.0,-0.3864383
1860756000,-0.017015405,-0.10240358,0.0011066794,0.0,0.0,-0.40122655
1860780000,-0.015627,-0.097882435,0.00091820955,0.0,0.0,-0.4160542
1860800000,-0.0146051925,-0.09588456,0.0007240176,0.0,0.0,-0.42728552
1860816000,-0.0079367515,-0.09541679,0.0007905364,0.0,0.0,-0.44234738
1860836000,-0.010724704,-0.08938579,0.0008752942,0.0,0.0,-0.45755634
1860860000,-0.007905738,-0.08663313,0.000960052,0.0,0.0,-0.4693644
1860880000,-0.0037703016,-0.090285465,0.0009561181,0.0,0.0,-0.4843741
1860896000,-0.0023762821,-0.08680088,0.0007853508,0.0,0.0,-0.5001429
1860916000,0.0026230803,-0.0926121,0.0010442734,0.0,0.0,-0.5122943
1860940000,0.0035860604,-0.09741539,0.001276195,0.0,0.0,-0.5278141
1860960000,7.260963e-05,-0.09884032,0.0014491081,0.0,0.0,-0.5438882
1860976000,0.00052947714,-0.106398344,0.0015027523,0.0,0.0,-0.5575203
1861000000,0.003815654,-0.10467632,0.0013098121,0.0,0.0,-0.5893251
1861016000,0.0037178274,-0.10374607,0.0012719035,0.0,0.0,-0.5893251
1861036000,0.0026167051,-0.086322226,0.0012170076,0.0,0.0,-0.60994565
1861056000,0.002163182,-0.08034907,0.0010455251,0.0,0.0,-0.61886066
1861072000,0.0032721441,-0.06350833,0.00090801716,0.0,0.0,-0.61886066
1861100000,0.0074364236,-0.044855684,0.00089389086,0.0,0.0,-0.61794436
1861116000,0.009477203,-0.031670857,0.0009548664,0.0,0.0,-0.6182603
1861136000,0.010060187,-0.010889572,0.0010153055,0.0,0.0,-0.60813826
1861156000,0.012559061,0.005827018,0.0009639859,0.0,0.0,-0.60855496
1861180000,0.01428744,0.024362106,0.0009037256,0.0,0.0,-0.6092389
1861200000,0.017170018,0.04505135,0.00080162287,0.0,0.0,-0.60185164
1861220000,0.020078376,0.054712497,0.0006828904,0.0,0.0,-0.6048868
1861236000,0.025124434,0.063203745,0.0006825328,0.0,0.0,-0.6085773
1861256000,0.02525392,0.08000132,0.00077855587,0.0,0.0,-0.60412675
1861276000,0.02525087,0.07724242,0.0008661747,0.0,0.0,-0.60854954
1861300000,0.026378425,0.08302388,0.0007671118,0.0,0.0,-0.6099724
1861320000,0.023556624,0.07921964,0.00043094158,0.0,0.0,-0.6139549
1861340000,0.015890473,0.0757844,0.0005416274,0.0,0.0,-0.61724204
1861360000,0.015513722,0.08080464,0.00057685375,0.0,0.0,-0.6115954
1861376000,0.00954959,0.07138322,0.00061172247,0.0,0.0,-0.6143255
1861396000,0.0071691945,0.06656232,0.0004836917,0.0,0.0,-0.6174293
1861420000,0.007524377,0.06063899,0.0005069375,0.0,0.0,-0.6117762
1861440000,0.008062879,0.055459756,0.00048744678,0.0,0.0,-0.6142186
1861456000,0.007799463,0.048781883,0.00041037798,0.0,0.0,-0.61727124
1861476000,0.011856712,0.043092467,0.0003222227,0.0,0.0,-0.61173975
1861500000,0.014081428,0.041743387,0.0002862811,0.0,0.0,-0.61504155
1861516000,0.013361933,0.039158087,0.00034028292,0.0,0.0,-0.6173359
1861536000,0.010507286,0.032234676,0.00050747395,0.0,0.0,-0.61180013
1861560000,0.01656761,0.03281848,0.0007145405,0.0,0.0,-0.618132
1861576000,0.016059218,0.03211553,0.0006759167,0.0,0.0,-0.618132
1861596000,0.01662091,0.03330312,0.0005918741,0.0,0.0,-0.61669976
1861616000,0.013901731,0.033052567,0.00035744905,0.0,0.0,-0.620157
1861640000,0.013930273,0.035820596,0.00026339293,0.0,0.0,-0.614482
1861660000,0.007996276,0.03670934,0.00034028292,0.0,0.0,-0.6173342
1861680000,0.00653165,0.03555135,0.00042414665,0.0,0.0,-0.62029505
1861696000,0.0045602843,0.037461143,0.00033956766,0.0,0.0,-0.61513865
1861720000,0.006400184,0.032475032,0.00029110909,0.0,0.0,-0.6181864
1861736000,0.004116391,0.033150744,0.00026750565,0.0,0.0,-0.6216467
1861760000,0.0058868746,0.036348987,2.5749207e-05,0.0,0.0,-0.61597925
1861780000,0.0066401605,0.032736488,-4.6491623e-06,0.0,0.0,-0.6192116
1861796000,0.008645069,0.032540284,0.00020170212,0.0,0.0,-0.6227633
1861816000,0.00840419,0.0293352,0.00024944544,0.0,0.0,-0.6178304
1861840000,0.009751055,0.028003063,0.00017684698,0.0,0.0,-0.6214681
1861860000,0.0038613477,0.024267174,8.869171e-05,0.0,0.0,-0.62033015
1861876000,0.001018425,0.022519113,0.0001219511,0.0,0.0,-0.6235157
1861896000,0.0007946149,0.021504821,0.00034207106,0.0,0.0,-0.6235157
1861912000,0.0039248355,0.018530823,0.0006056428,0.0,0.0,-0.6203311
1861940000,0.0073815524,0.014490072,0.0005248189,0.0,0.0,-0.62346065
1861960000,0.013211563,0.0115807755,0.00046044588,0.0,0.0,-0.62683
1861980000,0.010476107,0.004237951,0.00032883883,0.0,0.0,-0.6207284
1862000000,0.007709138,0.009212568,0.0001219511,0.0,0.0,-0.62389183
1862020000,0.0072371294,0.012324417,0.00034564734,0.0,0.0,-0.62692624
1862036000,0.0063911965,0.012034432,0.0002539158,0.0,0.0,-0.62154454
1862060000,0.008798429,0.013697853,2.4676323e-05,0.0,0.0,-0.6248556
1862076000,0.007987162,0.014305286,3.7550926e-05,0.0,0.0,-0.6280534
1862096000,0.004878411,0.010623451,5.310774e-05,0.0,0.0,-0.62321717
1862120000,0.005185037,0.0077120494,-0.00024050474,0.0,0.0,-0.62688965
1862140000,0.004638707,0.0061816606,-0.0002734065,0.0,0.0,-0.62515485
1862160000,0.0018516004,0.009523645,1.4305115e-05,0.0,0.0,-0.6279146
1862176000,0.0020374653,0.010415694,-0.00014913082,0.0,0.0,-0.6279146
1862196000,0.0045957905,0.010039568,0.000113368034,0.0,0.0,-0.6249593
1862216000,0.0038358963,0.012012114,2.270937e-05,0.0,0.0,-0.62852633
1862236000,0.0012024703,0.015236319,0.0001026392,0.0,0.0,-0.63209236
1862260000,0.004298132,0.025891,0.00016075373,0.0,0.0,-0.6263164
1862276000,0.0032890595,0.025870258,0.00027179718,0.0,0.0,-0.63016397
1862300000,0.0015323017,0.028395712,0.0003452897,0.0,0.0,-0.63356936
1862320000,0.0036476506,0.031733304,0.0005802512,0.0,0.0,-0.62824094
1862340000,0.0030396867,0.031968772,0.0004697442,0.0,0.0,-0.6315108
1862360000,0.005713159,0.027260335,0.00057041645,0.0,0.0,-0.6349202
1862380000,0.008959352,0.02248312,0.0005058646,0.0,0.0,-0.63300985
1862396000,0.008761851,0.02056379,0.0003041625,0.0,0.0,-0.63300985
1862420000,0.004737556,0.01742471,0.0003835559,0.0,0.0,-0.63065404
1862436000,0.0031978895,0.016738623,0.00028002262,0.0,0.0,-0.6338301
1862460000,0.0032259715,0.01752545,8.5651875e-05,0.0,0.0,-0.6373221
1862476000,-0.0031946017,0.016393084,2.5749207e-05,0.0,0.0,-0.631843
1862496000,-0.0020224352,0.01759151,5.221367e-05,0.0,0.0,-0.63513184
1862512000,-0.003437336,0.016955303,0.00016343594,0.0,0.0,-0.6385199
1862540000,-0.004609405,0.013657086,0.00046688318,0.0,0.0,-0.63311964
1862560000,-0.005764637,0.008830286,0.0007991195,0.0,0.0,-0.6367481
1862576000,-0.0023563136,0.008481902,0.0008863807,0.0,0.0,-0.6403356
1862600000,0.0018953495,0.0063612065,0.0009199977,0.0,0.0,-0.63491106
1862616000,0.0050413744,0.0063908338,0.00084614754,0.0,0.0,-0.63801605
1862640000,-0.0009688488,0.0069220928,0.0005375147,0.0,0.0,-0.6410067
1862656000,-0.0005362651,0.006388747,0.00049191713,0.0,0.0,-0.6347904
1862680000,0.003618242,0.011882262,-0.015630841,0.0,0.0,-0.6409067
1862700000,0.009439146,0.018238487,-0.015703619,0.0,0.0,-0.63552946
1862720000,0.004759606,0.019392043,-0.015411615,0.0,0.0,-0.63865364
1862732000,0.0044411817,0.01949536,-0.015183091,0.0,0.0,-0.63865364
1862756000,0.0047556786,0.014716115,-0.014514685,0.0,0.0,-0.63643515
1862780000,0.0079142,0.012699777,-0.013746679,0.0,0.0,-0.63952965
1862800000,0.007610539,0.008500452,-0.012916982,0.0,0.0,-0.643183
1862812000,0.004785066,0.012624737,-0.012612283,0.0,0.0,-0.6384763
1862840000,0.005452961,0.0119014,-0.01164937,0.0,0.0,-0.64188856
1862860000,0.0050487425,0.009584049,-0.010758519,0.0,0.0,-0.64580035
1862880000,0.003117616,0.008906467,-0.009790063,0.0,0.0,-0.6399806
1862896000,0.00054133893,0.009855764,-0.00877583,0.0,0.0,-0.64380807
1862916000,0.00037681544,0.0073403665,-0.0070007443,0.0,0.0,-0.6427158
1862936000,0.004306135,0.011033444,-0.0056022406,0.0,0.0,-0.60474145
1862956000,0.002028104,0.010752578,-0.0041781664,0.0,0.0,-0.5872216
1862976000,0.001585935,0.01467769,-0.0028027296,0.0,0.0,-0.5711722
1862996000,0.009810998,0.008738809,-0.0015002489,0.0,0.0,-0.53820884
1863020000,0.009893079,0.013443874,7.3313713e-06,0.0,0.0,-0.53823584
1863040000,0.010682488,0.019911569,0.0011265278,0.0,0.0,-0.53391635
1863060000,0.010563771,0.021843828,0.0019472837,0.0,0.0,-0.5423042
1863076000,0.012310041,0.02481643,0.0026464462,0.0,0.0,-0.5513582
1863100000,0.0077908393,0.03141821,0.0038765073,0.0,0.0,-0.55455923
1863120000,0.008409958,0.024366852,0.0048140287,0.0,0.0,-0.5638522
1863136000,0.0054448275,0.01945891,0.005787313,0.0,0.0,-0.5719209
1863160000,0.00802627,0.015855068,0.007171154,0.0,0.0,-0.56925887
1863180000,0.0071994774,0.010998218,0.008308589,0.0,0.0,-0.5735054
1863200000,0.0033750837,0.010981196,0.009003997,0.0,0.0,-0.57676333
1863220000,0.0016569046,0.005595941,0.009607673,0.0,0.0,-0.5683684
1863236000,0.0008299907,0.0039537475,0.009972453,0.0,0.0,-0.57054114
1863256000,0.002264251,0.008403875,0.010712922,0.0,0.0,-0.57232916
1863280000,-0.0005567288,0.01640508,0.01118803,0.0,0.0,-0.5669413
1863300000,-0.0006455085,0.016685592,0.0116558075,0.0,0.0,-0.5699412
1863320000,0.004371808,0.016385987,0.011705697,0.0,0.0,-0.5630773
1863336000,0.00039285212,0.013180487,0.011983037,0.0,0.0,-0.56693965
1863356000,-0.0028567063,0.013944425,0.0122151375,0.0,0.0,-0.571766
1863376000,-0.0017917422,0.010682939,0.012108207,0.0,0.0,-0.5667658
1863396000,-0.0056214533,0.008474894,0.012185633,0.0,0.0,-0.5710331
1863416000,-0.004835367,0.006430979,0.012203336,0.0,0.0,-0.5752666
1863440000,-0.0012363712,0.0011983928,0.0122256875,0.0,0.0,-0.5685701
1863460000,-0.0026995826,0.003876465,0.012100518,0.0,0.0,-0.5717508
1863480000,-0.004517571,0.0039576087,0.011987507,0.0,0.0,-0.5750666
1863500000,-0.0068682106,0.005216893,0.011944592,0.0,0.0,-0.5678656
1863520000,-0.00238456,0.006736537,0.011735916,0.0,0.0,-0.57128406
1863540000,-0.0043879948,0.017808793,0.011557102,0.0,0.0,-0.5684349
1863556000,0.0011097738,0.010592576,0.011198223,0.0,0.0,-0.57248026
1863580000,0.0033263464,0.008671312,0.011205912,0.0,0.0,-0.5761974
1863596000,0.0043424545,0.0013626129,0.011031032,0.0,0.0,-0.5687599
1863620000,0.0031051256,0.0022407528,0.01064086,0.0,0.0,-0.57241404
1863640000,0.005410813,0.0018348449,0.0103055835,0.0,0.0,-0.5758682
1863660000,0.009086395,1.5494996e-05,0.009956539,0.0,0.0,-0.56884617
1863676000,0.0065217484,0.0014255358,0.00959748,0.0,0.0,-0.5721369
1863696000,0.01047793,0.0071146945,0.0091436505,0.0,0.0,-0.5750649
1863716000,0.013479566,0.009519266,0.008612573,0.0,0.0,-0.5684633
1863732000,0.011566343,0.0042334986,0.008417487,0.0,0.0,-0.57242024
1863756000,0.0013658472,0.005385358,0.0077185035,0.0,0.0,-0.57618475
1863780000,0.0012823767,0.0023586373,0.0073208213,0.0,0.0,-0.5734656
1863796000,0.0007127628,0.002454117,0.006885588,0.0,0.0,-0.5734656
1863816000,0.0064746635,-0.0017809075,0.00622344,0.0,0.0,-0.5775248
1863836000,-0.005230476,-0.0073465635,0.0055511,0.0,0.0,-0.5753682
1863856000,-0.0055070906,-0.0069551338,0.004968703,0.0,0.0,-0.5753682
1863876000,-0.010767862,0.0010800692,0.0041538477,0.0,0.0,-0.5722543
1863900000,-0.009380624,0.0055848686,0.0036186576,0.0,0.0,-0.57590073
1863916000,-0.011977892,0.007465787,0.0030884743,0.0,0.0,-0.5787066
1863940000,-0.006377272,0.006749026,0.0027809143,0.0,0.0,-0.5718217
1863956000,-0.0060055903,0.00052021723,0.0026124716,0.0,0.0,-0.57545966
1863972000,-0.0030708045,-0.0021753071,0.0024071932,0.0,0.0,-0.5790754
1864000000,0.00043660845,-0.0021017715,0.0022893548,0.0,0.0,-0.57259405
1864020000,0.0006912856,-0.004580402,0.0021282434,0.0,0.0,-0.5763684
1864040000,0.00058444496,-0.0011064033,0.0018936396,0.0,0.0,-0.58059496
1864056000,-0.0024420926,-0.0010822815,0.0016726255,0.0,0.0,-0.5746234
1864076000,-0.0032022516,0.0056610904,0.0012967587,0.0,0.0,-0.57855296
1864096000,-0.0016398013,0.009139925,0.0008878112,0.0,0.0,-0.58170635
1864120000,-0.0017141879,0.01075286,0.00062191486,0.0,0.0,-0.5780916
1864136000,-0.0016939505,0.006844501,0.0005527139,0.0,0.0,-0.58166295
1864160000,-0.0020210235,0.009635458,0.0007186532,0.0,0.0,-0.57457834
1864176000,-0.0025675306,0.006290541,0.0006301403,0.0,0.0,-0.5779407
1864196000,-0.004039591,0.0038264666,0.00069111586,0.0,0.0,-0.5813298
1864220000,-0.010230793,0.0047386587,0.0005584359,0.0,0.0,-0.57495815
1864240000,-0.004281574,0.00056850736,0.00040519238,0.0,0.0,-0.5783805
1864260000,-0.0014562907,-0.0032929038,0.0004389882,0.0,0.0,-0.581639
1864276000,-0.0038817509,0.001374789,0.00062155724,0.0,0.0,-0.5748174
1864296000,-0.0010370335,0.0021904996,0.0005117655,0.0,0.0,-0.5781878
1864316000,-0.0011478101,4.3565684e-05,0.00041216612,0.0,0.0,-0.58221704
1864340000,-0.0041724825,-0.00026444858,0.0004924536,0.0,0.0,-0.57683223
1864356000,-0.0011368347,-0.0038124998,0.00044703484,0.0,0.0,-0.5809217
1864380000,0.0073630787,-0.0030422208,0.000680387,0.0,0.0,-0.5777945
1864400000,0.007876664,-0.001491618,0.000562191,0.0,0.0,-0.58115196
1864416000,0.006541345,0.00031452323,0.00045704842,0.0,0.0,-0.5844986
1864440000,0.005091035,0.0052505485,0.00025194883,0.0,0.0,-0.57737195
1864460000,0.005755088,0.009856451,7.7068806e-05,0.0,0.0,-0.58008933
1864480000,0.0053208247,0.0064383782,-5.9187412e-05,0.0,0.0,-0.5829236
1864500000,0.00423754,0.0027641458,-0.00020062923,0.0,0.0,-0.5758267
1864520000,0.0036385758,-0.0019702676,-0.00014609098,0.0,0.0,-0.5791912
1864540000,0.0067423675,-0.0029780744,-0.00054359436,0.0,0.0,-0.58256817
1864556000,0.0065436177,-0.008656863,-0.00020670891,0.0,0.0,-0.5748064
1864576000,0.0029901406,-0.007161214,-0.00014555454,0.0,0.0,-0.57865167
1864596000,0.004251794,-0.0061385045,-0.0001975894,0.0,0.0,-0.5823312
1864620000,0.0012441252,-0.006283803,-0.00016826391,0.0,0.0,-0.58003265
1864636000,0.0011171415,-0.0051733004,-8.2969666e-05,0.0,0.0,-0.58003265
1864660000,-0.003320456,-0.002192521,6.2584877e-06,0.0,0.0,-0.57797956
1864676000,-0.0025337802,-0.0005559285,-0.00011622906,0.0,0.0,-0.58121186
1864700000,-0.0037718152,0.0006728061,7.43866e-05,0.0,0.0,-0.5845506
1864716000,-0.0045649707,-0.00221599,-9.584427e-05,0.0,0.0,-0.5775974
1864736000,-0.008535017,0.0005105469,-0.00010585785,0.0,0.0,-0.58055305
1864756000,-0.007481322,0.0050365357,-0.00029790401,0.0,0.0,-0.5839724
1864776000,-0.002002248,0.008976944,-0.0002526641,0.0,0.0,-0.5768443
1864800000,-0.0013398877,0.012043824,-0.000119268894,0.0,0.0,-0.58006114
1864820000,-0.0054383203,0.006541298,-0.00017291307,0.0,0.0,-0.5832329
1864840000,-0.0045256494,0.01045835,-8.958578e-05,0.0,0.0,-0.5767805
1864856000,-0.0031037782,0.0064727585,-1.0728836e-06,0.0,0.0,-0.580013
1864876000,-0.00023347652,0.00780191,9.638071e-05,0.0,0.0,-0.5835767
1864900000,0.00045962795,0.008114764,-0.0001244545,0.0,0.0,-0.58066297
1864916000,0.00061243493,0.007845401,-4.2557716e-05,0.0,0.0,-0.58066297
1864936000,-0.0031389047,0.0074962415,0.00019973516,0.0,0.0,-0.58400905
1864960000,-0.0014023867,0.010071373,0.00046151876,0.0,0.0,-0.5804719
1864976000,-0.0016398034,0.008544772,0.00035852194,0.0,0.0,-0.5837118
1864996000,-0.0056558633,0.013608794,0.00043791533,0.0,0.0,-0.5772657
1865016000,-0.00428239,0.005461089,0.0006033182,0.0,0.0,-0.58035153
1865040000,-0.0026207159,0.0016106012,0.00061672926,0.0,0.0,-0.5836816
1865060000,1.9511674e-05,0.0059449812,0.00058454275,0.0,0.0,-0.57766014
1865080000,-0.0016337999,0.003966252,0.00058329105,0.0,0.0,-0.581504
1865096000,-0.00052085635,0.00077141414,0.00084632635,0.0,0.0,-0.5859467
1865116000,0.006605221,-0.00012501416,0.0012495518,0.0,0.0,-0.57963365
1865140000,0.005625044,-0.003243001,0.0014263988,0.0,0.0,-0.5833405
1865156000,0.0035873966,0.00018068048,0.0012413263,0.0,0.0,-0.586923
1865176000,0.0025224374,0.0025758839,0.0013834834,0.0,0.0,-0.5801806
1865200000,0.0053416477,0.005129207,0.0012774467,0.0,0.0,-0.58338994
1865220000,0.0038548086,0.0012798717,0.0013039112,0.0,0.0,-0.5787587
1865236000,0.0033364005,0.0014831827,0.0013782978,0.0,0.0,-0.5787587
1865256000,0.00065008574,0.007466348,0.0014135242,0.0,0.0,-0.5820029
1865276000,-0.0014939681,0.0051613026,0.0013402104,0.0,0.0,-0.57903296
1865300000,-0.0015706101,0.0057497583,0.0014160275,0.0,0.0,-0.58280694
1865320000,-0.0010936847,0.004922379,0.0013312697,0.0,0.0,-0.58581704
1865336000,-0.003096676,0.007902792,0.0014535785,0.0,0.0,-0.5795351
1865356000,-0.004929822,0.00919232,0.0013083816,0.0,0.0,-0.58316725
1865380000,-0.00021932507,0.01300258,0.0013591647,0.0,0.0,-0.5832936
1865400000,0.0012588005,0.010330468,0.0015249252,0.0,0.0,-0.5869984
1865420000,0.00081640854,0.011069654,0.0015197396,0.0,0.0,-0.59065574
1865440000,0.004600537,0.0050401343,0.0017428994,0.0,0.0,-0.5830369
1865456000,0.0040934766,0.007245332,0.0018196106,0.0,0.0,-0.5857424
1865480000,0.0035347198,0.009418583,0.0016733408,0.0,0.0,-0.5804159
1865500000,-0.0002791942,0.006228336,0.0015127659,0.0,0.0,-0.5838667
1865520000,0.0015474851,0.0013645322,0.001342535,0.0,0.0,-0.58637106
1865540000,0.0055584605,0.0066868067,0.0012309551,0.0,0.0,-0.5788634
1865552000,0.00619584,0.008450523,0.0010669827,0.0,0.0,-0.5816065
1865576000,0.0071202465,0.009892995,0.0010246038,0.0,0.0,-0.5839654
1865600000,0.0050058477,0.003029759,0.0007059574,0.0,0.0,-0.57604134
1865620000,0.0018674245,0.004235359,0.00072294474,0.0,0.0,-0.57932115
1865636000,-0.0003123558,0.0020700388,0.0005210638,0.0,0.0,-0.58271116
1865660000,-0.0033661053,0.002941045,0.0006119013,0.0,0.0,-0.5755479
1865676000,-0.004734546,9.874585e-05,0.00048047304,0.0,0.0,-0.5787776
1865700000,-0.006382625,-0.0024062344,0.00014054775,0.0,0.0,-0.58285856
1865720000,-0.00094734086,0.0013240485,0.000172019,0.0,0.0,-0.57989025
1865736000,-4.615914e-05,0.001197516,0.00015091896,0.0,0.0,-0.57989025
1865760000,3.1863805e-05,0.008905333,-7.867813e-05,0.0,0.0,-0.5776787
1865780000,0.0010125493,0.009024883,-9.816885e-05,0.0,0.0,-0.5810006
1865800000,-0.0017151092,0.009755339,-0.00017488003,0.0,0.0,-0.5842257
1865816000,-0.001984065,0.0035162712,-0.00020492077,0.0,0.0,-0.57807565
1865836000,0.0050115073,0.0035724335,-0.00018185377,0.0,0.0,-0.58172625
1865856000,0.0030026387,0.005544074,0.00019794703,0.0,0.0,-0.5854543
1865880000,0.005864861,0.0007260815,0.0003324151,0.0,0.0,-0.5783389
1865896000,0.0003154655,-0.0013303987,0.00037246943,0.0,0.0,-0.5809069
1865920000,-0.003293659,-0.0033354268,0.00029468536,0.0,0.0,-0.58362156
1865936000,-6.0071703e-05,-0.0005741841,0.00024175644,0.0,0.0,-0.57649094
1865960000,0.0034467063,-0.0020273426,0.00021368265,0.0,0.0,-0.57964414
1865980000,0.0025903378,0.0012648711,0.0004890561,0.0,0.0,-0.5829406
1865996000,0.00025797542,0.0004956347,0.00067323446,0.0,0.0,-0.5759203
1866020000,-0.0026979698,0.005893692,0.0007393956,0.0,0.0,-0.5824132
1866040000,-0.00094043417,0.010883503,0.0008009076,0.0,0.0,-0.57657176
1866060000,0.00096271886,0.01247912,0.00090265274,0.0,0.0,-0.580374
1866076000,0.0045964047,0.0131972395,0.0007760525,0.0,0.0,-0.5800015
1866100000,0.0050167693,0.008502288,0.00086152554,0.0,0.0,-0.58405036
1866120000,0.0029501596,0.003341036,0.00091695786,0.0,0.0,-0.5769357
1866140000,0.0003182874,0.007551504,0.0009332299,0.0,0.0,-0.57986957
1866156000,0.00052215764,0.0061250855,0.00086688995,0.0,0.0,-0.5832831
1866180000,8.983165e-05,0.0074030505,0.000852406,0.0,0.0,-0.57604295
1866200000,-0.0025264886,0.0046584294,0.00078588724,0.0,0.0,-0.5791578
1866220000,-0.0016626706,0.006921253,0.0007456541,0.0,0.0,-0.58196145
1866236000,-0.003557196,0.002201493,0.0006070733,0.0,0.0,-0.5755681
1866260000,-0.004954195,-0.000760704,0.00069379807,0.0,0.0,-0.5789549
1866280000,0.0010522865,0.0014021496,0.00074994564,0.0,0.0,-0.57659674
1866300000,0.0039866385,-8.6740474e-05,0.0008443594,0.0,0.0,-0.5804577
1866316000,0.0071756006,-0.004241582,0.0008917451,0.0,0.0,-0.5833409
1866340000,0.004524051,-0.002727827,0.0009253621,0.0,0.0,-0.5768011
1866352000,0.00038538594,0.0006118536,0.0012504458,0.0,0.0,-0.5797748
1866376000,-0.0007772511,0.004541576,0.0012500882,0.0,0.0,-0.5763522
1866396000,-0.0016559805,0.0042632744,0.0015057921,0.0,0.0,-0.5800286
1866412000,-0.005595377,0.0020915377,0.0014491081,0.0,0.0,-0.58306247
1866436000,-0.006535828,0.0024945159,0.0015045404,0.0,0.0,-0.5766345
1866460000,-0.0057910723,0.0002184829,0.0015676618,0.0,0.0,-0.57980776
1866480000,-0.0042296117,-0.00087581633,0.0017758012,0.0,0.0,-0.58303076
1866496000,-0.0043706456,0.0026604387,0.0017758012,0.0,0.0,-0.57635623
1866520000,-0.0053691566,0.004092074,0.0020307899,0.0,0.0,-0.57929736
1866540000,-0.007094155,0.004785658,0.001946032,0.0,0.0,-0.5827363
1866560000,-0.013785889,0.011239402,0.0021529198,0.0,0.0,-0.5770224
1866576000,-0.012918444,0.00544866,0.0021153688,0.0,0.0,-0.581077
1866600000,-0.016396498,0.0064503956,0.001971066,0.0,0.0,-0.57912946
1866620000,-0.017624803,0.0077037057,0.0021865368,0.0,0.0,-0.5828034
1866636000,-0.014954412,0.0043959646,0.0022732615,0.0,0.0,-0.5861391
1866656000,-0.009576349,0.009184964,0.0022659302,0.0,0.0,-0.5795019
1866680000,-0.007981384,0.008071663,0.0020105839,0.0,0.0,-0.5823836
1866700000,-0.004810028,0.00715746,0.0019111633,0.0,0.0,-0.58494955
1866716000,-0.004140895,0.008236423,0.0019261837,0.0,0.0,-0.57873404
1866732000,-0.006719839,0.005607546,0.0019136667,0.0,0.0,-0.58232284
1866756000,-0.004985253,0.0037430786,0.0019150972,0.0,0.0,-0.5856989
1866780000,-0.0032535796,0.006068607,0.001960516,0.0,0.0,-0.5793258
1866800000,-0.004280022,0.0053359573,0.0018448234,0.0,0.0,-0.5825895
1866820000,-0.0009987359,0.004527628,0.001801014,0.0,0.0,-0.5859454
1866840000,-0.003974574,0.007808637,0.0019606948,0.0,0.0,-0.5791326
1866856000,-0.006223334,0.0067433324,0.0019176006,0.0,0.0,-0.58242774
1866880000,-0.0037526032,0.0031586052,0.0019304752,0.0,0.0,-0.58021027
1866896000,0.0005790652,0.0014652765,0.0017473698,0.0,0.0,-0.5833285
1866920000,0.0013998155,0.0020473492,0.0015465617,0.0,0.0,-0.58651626
1866940000,-0.0039182534,0.005811294,0.0015714169,0.0,0.0,-0.5795504
1866956000,-0.0040817284,0.0086542405,0.0014181733,0.0,0.0,-0.58254856
1866980000,-0.0013659527,0.009186094,0.0011823177,0.0,0.0,-0.5856732
1867000000,0.0016468861,0.008574353,0.0010589361,0.0,0.0,-0.57890314
1867016000,0.002752596,0.008098403,0.00096720457,0.0,0.0,-0.58199614
1867036000,0.0002862881,0.005775607,0.0009099841,0.0,0.0,-0.5853253
1867060000,0.0031497236,0.0053304364,0.00086921453,0.0,0.0,-0.58008885
1867080000,0.0019783694,0.0036122322,0.00078088045,0.0,0.0,-0.5838292
1867096000,0.005489328,0.0040856935,0.0010079741,0.0,0.0,-0.587485
1867120000,0.0051925373,0.004244219,0.000983119,0.0,0.0,-0.58148795
1867136000,0.0065572597,0.0069465293,0.0011247396,0.0,0.0,-0.58438754
1867160000,0.005530395,0.0054138526,0.0010415912,0.0,0.0,-0.57887596
1867176000,0.0051402804,0.005092622,0.0009060502,0.0,0.0,-0.57887596
1867196000,0.00081590284,0.0024704863,0.0008046627,0.0,0.0,-0.58135796
1867216000,-0.0028777546,0.006817763,0.00072419643,0.0,0.0,-0.5769149
1867236000,-0.0011784565,0.0066940826,0.00093859434,0.0,0.0,-0.5809935
1867260000,-9.845663e-05,0.009575132,0.0006970167,0.0,0.0,-0.5843422
1867276000,0.0031477832,0.012128231,0.0007710457,0.0,0.0,-0.57896096
1867300000,0.0035639978,0.002572299,0.0006580353,0.0,0.0,-0.58250946
1867316000,-0.0017534159,-0.0009914635,0.00058829784,0.0,0.0,-0.58608687
1867340000,-0.004947945,0.007180113,0.0005809665,0.0,0.0,-0.5798685
1867356000,0.0025573508,0.0059879827,0.00060904026,0.0,0.0,-0.58302414
1867376000,0.0032956386,0.0069817454,0.0005325079,0.0,0.0,-0.5858232
1867400000,0.006030025,0.011728956,0.00042182207,0.0,0.0,-0.5812477
1867420000,0.009639107,0.009404501,0.00050246716,0.0,0.0,-0.58396757
1867440000,0.007787362,0.0065099644,0.00034725666,0.0,0.0,-0.5776854
1867460000,0.0071604894,0.002529357,0.00024372339,0.0,0.0,-0.5831599
1867480000,0.008125419,0.00040949517,0.00042182207,0.0,0.0,-0.5909656
1867500000,0.0070530153,0.0021135944,0.00033420324,0.0,0.0,-0.5891966
1867512000,0.008634501,-0.0011028268,0.0005232096,0.0,0.0,-0.59861076
1867540000,0.004167643,-0.003250412,0.00080645084,0.0,0.0,-0.6089881
1867556000,0.00017994968,0.00022244104,0.00085258484,0.0,0.0,-0.6070976
1867576000,0.0019690236,8.667067e-05,0.0006868243,0.0,0.0,-0.6186879
1867596000,-0.0027832193,-0.0010703055,0.00085526705,0.0,0.0,-0.6304565
1867616000,0.00049451133,-0.0028843968,0.00075888634,0.0,0.0,-0.62496823
1867640000,-0.0026546493,-0.0054345927,0.00070381165,0.0,0.0,-0.6348354
1867656000,-0.005795875,-0.003252435,0.00068968534,0.0,0.0,-0.645318
1867676000,-0.008281162,-0.0051582227,0.00071668625,0.0,0.0,-0.63531214
1867700000,-0.0058482816,-0.011514451,0.0005223155,0.0,0.0,-0.646369
1867720000,-0.0047265077,-0.0072299447,0.00039052963,0.0,0.0,-0.6481923
1867736000,-0.0052055432,-0.00260869,0.00055485964,0.0,0.0,-0.6616645
1867756000,-0.008417036,-0.004269939,0.0003232956,0.0,0.0,-0.65755045
1867780000,-0.007441479,-0.0028800687,0.00014305115,0.0,0.0,-0.6719306
1867800000,-0.008489292,-0.0060800714,2.8967857e-05,0.0,0.0,-0.68868566
1867820000,-0.0069007385,-0.009691634,-8.368492e-05,0.0,0.0,-0.6759204
1867836000,-0.005790885,-0.006166851,-8.940697e-05,0.0,0.0,-0.69083506
1867856000,-0.0054986165,-0.0056588445,-2.8967857e-05,0.0,0.0,-0.7067153
1867880000,-0.0012389249,-0.005713372,-7.009506e-05,0.0,0.0,-0.68799615
1867900000,0.0019122725,-0.004684082,4.4882298e-05,0.0,0.0,-0.70278955
1867920000,0.0031328648,-0.009032297,6.5267086e-05,0.0,0.0,-0.71571654
1867940000,-0.0010492536,-0.0013288183,4.506111e-05,0.0,0.0,-0.68970597
1867952000,-0.0027362108,-0.0023617265,-3.5762787e-07,0.0,0.0,-0.6980225
1867980000,-0.004116688,-9.940239e-05,9.655952e-06,0.0,0.0,-0.7048172
1868000000,-0.0039711487,-0.000597834,9.262562e-05,0.0,0.0,-0.6813144
1868016000,-0.004626379,-0.00045810087,0.000302732,0.0,0.0,-0.6813144
1868036000,-0.0018982342,-0.004392862,0.0002823472,0.0,0.0,-0.6872563
1868060000,-0.004353495,-0.0035499847,0.00029969215,0.0,0.0,-0.66566104
1868076000,-0.0023579746,-0.006490618,0.0001911521,0.0,0.0,-0.67210287
1868096000,-0.0034601726,0.0009778918,0.0001770258,0.0,0.0,-0.6478706
1868120000,-0.0015245103,0.0030201268,0.00019794703,0.0,0.0,-0.6550526
1868132000,-0.0032780925,0.0012328809,0.00017952919,0.0,0.0,-0.66205466
1868156000,0.0007284167,0.007958658,3.2186508e-05,0.0,0.0,-0.63949716
1868176000,-0.0022467272,0.011072431,-5.5789948e-05,0.0,0.0,-0.646054
1868196000,-0.004191664,0.011777408,-3.8444996e-05,0.0,0.0,-0.6514655
1868220000,0.0020667398,0.018010369,-0.00018292665,0.0,0.0,-0.628638
1868236000,0.001394507,0.011450204,-0.00014287233,0.0,0.0,-0.6329016
1868260000,0.0027182344,0.010405406,-0.00027787685,0.0,0.0,-0.6360537
1868276000,0.008032207,0.0033357153,-0.00019419193,0.0,0.0,-0.6128705
1868300000,0.007966818,-0.0014132524,5.5789948e-05,0.0,0.0,-0.6176897
1868316000,0.0073666996,-0.0025645238,-5.0604343e-05,0.0,0.0,-0.6176897
1868340000,0.006076567,0.0007713757,0.0001155138,0.0,0.0,-0.6034187
1868360000,0.001151619,0.0021221489,-0.0002759099,0.0,0.0,-0.60567045
1868380000,-0.003386166,0.006616473,-0.00029665232,0.0,0.0,-0.59133935
1868396000,-0.0019045919,0.004843091,-0.00042039156,0.0,0.0,-0.59752023
1868420000,-0.0017137625,0.0043039657,-0.00028824806,0.0,0.0,-0.6037794
1868436000,-0.005104924,0.0083730165,-0.00016379356,0.0,0.0,-0.59190816
1868456000,-0.008279566,0.005457514,-9.727478e-05,0.0,0.0,-0.59994036
1868480000,-0.0067259953,0.00074502896,-4.8995018e-05,0.0,0.0,-0.6077158
1868496000,-0.008157746,-0.0039452827,-0.00011497736,0.0,0.0,-0.5971471
1868516000,-0.0102057075,-0.0050053443,-1.0550022e-05,0.0,0.0,-0.60484254
1868536000,-0.007741653,0.0003518702,0.00016665459,0.0,0.0,-0.6117742
1868556000,-0.009183036,0.0074308086,0.00035601854,0.0,0.0,-0.5986403
1868576000,-0.0050822413,0.004967059,0.00024747849,0.0,0.0,-0.6046412
1868600000,-0.0059086704,0.009195953,3.504753e-05,0.0,0.0,-0.5962596
1868620000,-0.006419954,0.006677892,-0.00024193525,0.0,0.0,-0.6017101
1868640000,-0.0067216577,-0.0021450361,-0.0002991557,0.0,0.0,-0.60712904
1868660000,-0.012263951,-0.0061762556,-0.00043970346,0.0,0.0,-0.5941918
1868680000,-0.011376492,-0.0036294581,-0.00035101175,0.0,0.0,-0.6007813
1868700000,-0.010408107,-0.0028133516,-0.0004427433,0.0,0.0,-0.6076947
1868716000,-0.01064826,0.0011518411,-0.0003311634,0.0,0.0,-0.5951644
1868736000,-0.012072446,-0.0020682018,-0.00039982796,0.0,0.0,-0.6019268
1868756000,-0.009827724,-0.0008177685,-0.0002900362,0.0,0.0,-0.60827476
1868776000,-0.006308648,-0.004092947,-0.00015950203,0.0,0.0,-0.59578913
1868800000,-0.004626858,0.0018996386,-3.7550926e-05,0.0,0.0,-0.6025312
1868820000,-0.0004262058,0.0019785953,-0.00023889542,0.0,0.0,-0.60869473
1868836000,-0.0010009711,0.0047006714,-0.0001988411,0.0,0.0,-0.5952751
1868860000,-0.0006764154,0.0045214295,-7.95722e-05,0.0,0.0,-0.60177445
1868880000,0.0037593213,0.013435071,-0.00028574467,0.0,0.0,-0.59597445
1868892000,0.0033340906,0.012912615,-0.00048047304,0.0,0.0,-0.59597445
1868920000,0.004084827,0.002524008,-0.00020974874,0.0,0.0,-0.6098534
1868940000,0.00018935837,0.0021590912,-0.00027608871,0.0,0.0,-0.5971494
1868960000,0.0011607092,0.0007046069,-0.00025981665,0.0,0.0,-0.6037629
1868980000,-0.00048279064,-0.002174941,-0.00023961067,0.0,0.0,-0.6096238
1869000000,-0.0028815363,-0.0036186203,-0.00020813942,0.0,0.0,-0.59561425
1869020000,-0.0033347975,-0.004100281,-0.00026088953,0.0,0.0,-0.6019199
1869036000,-0.002860893,-0.0059220996,-0.0003016591,0.0,0.0,-0.60801095
1869056000,-0.003547213,-0.001804088,-0.00043666363,0.0,0.0,-0.59584737
1869072000,-0.0018045609,-0.0014393236,-0.0003080964,0.0,0.0,-0.60270387
1869100000,0.000133581,-0.003280995,-0.00044971704,0.0,0.0,-0.6093181
1869116000,0.0017119814,-0.00096848176,-0.0002142191,0.0,0.0,-0.59590834
1869140000,-0.006918402,0.0032477053,-1.5199184e-05,0.0,0.0,-0.60864276
1869160000,-0.014808934,0.010096749,2.3245811e-05,0.0,0.0,-0.59512526
1869176000,-0.014878417,0.010170972,0.000115692616,0.0,0.0,-0.59512526
1869196000,-0.017364582,0.008060124,0.00012338161,0.0,0.0,-0.6011577
1869220000,-0.012848108,0.009072587,0.00012516975,0.0,0.0,-0.59417665
1869236000,-0.009715249,0.0034216284,-7.867813e-06,0.0,0.0,-0.6011348
1869256000,-0.0033910875,-0.00013981713,6.651878e-05,0.0,0.0,-0.6084484
1869276000,-0.0028229915,0.0035453788,0.00013768673,0.0,0.0,-0.5956182
1869300000,-8.7888446e-05,0.0007871564,0.00029736757,0.0,0.0,-0.6025154
1869316000,-0.0018760446,0.00084373425,0.0002707243,0.0,0.0,-0.6092513
1869332000,0.0039425357,-2.623431e-05,0.00012266636,0.0,0.0,-0.5954557
1869360000,0.005767293,-0.0014831411,5.4717064e-05,0.0,0.0,-0.60240513
1869376000,0.0018414957,-0.0034146365,-8.350611e-05,0.0,0.0,-0.6085233
1869396000,-0.001233865,-0.0020658716,-0.00018024445,0.0,0.0,-0.5950351
1869416000,-0.0025424785,0.00035722344,-0.00037693977,0.0,0.0,-0.60149413
1869440000,0.0024131374,0.006488427,-0.00043594837,0.0,0.0,-0.5947128
1869460000,-0.0036026286,0.0053182663,-0.00041502714,0.0,0.0,-0.601553
1869480000,0.0014964743,0.0036425048,-0.00035458803,0.0,0.0,-0.60830075
1869500000,-0.0054046204,0.0020038525,-0.00026750565,0.0,0.0,-0.5959122
1869520000,-0.005997861,-0.002849882,-0.00040876865,0.0,0.0,-0.6022601
1869540000,-0.006655797,-0.0018907785,-0.00024336576,0.0,0.0,-0.60853165
1869560000,-0.005119158,-0.005691764,-0.00028717518,0.0,0.0,-0.5955664
1869580000,-0.0031710682,-0.0057388195,-0.00035744905,0.0,0.0,-0.6024788
1869596000,0.0006471919,-0.0029013483,-0.00046008825,0.0,0.0,-0.6088624
1869616000,0.0031167031,0.0022741081,-0.0004944205,0.0,0.0,-0.5966053
1869636000,0.0007098564,0.0007227212,-0.0005219579,0.0,0.0,-0.6037423
1869660000,0.0016541993,-0.0054146494,-0.00069594383,0.0,0.0,-0.6099537
1869680000,-0.0006209174,-0.009345389,-0.0007980466,0.0,0.0,-0.5971416
1869696000,-0.002335166,-0.010350503,-0.00074636936,0.0,0.0,-0.60343647
1869716000,-0.002629269,-0.0074765235,-0.0006349683,0.0,0.0,-0.6094062
1869740000,-0.002938033,-0.008412862,-0.0005108714,0.0,0.0,-0.6039889
1869760000,0.0040296977,-0.0063354867,-0.00049495697,0.0,0.0,-0.6106929
1869776000,0.004734705,-0.0028093269,-0.0004937053,0.0,0.0,-0.5974215
1869800000,0.0061940365,-0.0036069332,-0.00055503845,0.0,0.0,-0.6040871
1869820000,0.0030984543,-0.0020446375,-0.00030773878,0.0,0.0,-0.6104473
1869840000,0.0070028594,0.0014600228,-0.00044488907,0.0,0.0,-0.5966156
1869860000,0.0026978063,-0.0023777997,-0.00048083067,0.0,0.0,-0.6030439
1869880000,0.0008775266,-0.004271064,-0.00063443184,0.0,0.0,-0.6091442
1869896000,0.0058234837,-0.0057674986,-0.00054484606,0.0,0.0,-0.5961086
1869920000,0.004168836,-0.008262954,-0.0004942417,0.0,0.0,-0.6025863
1869940000,0.0036155018,-0.010299864,-0.00077819824,0.0,0.0,-0.60904735
1869956000,0.0020859707,-0.009393407,-0.00067573786,0.0,0.0,-0.5957506
1869976000,-0.00072771683,-0.0077537224,-0.00075155497,0.0,0.0,-0.6024027
1869992000,-3.398233e-05,-0.010756083,-0.000749588,0.0,0.0,-0.60847664
1870020000,0.00037114508,-0.006776485,-0.0006469488,0.0,0.0,-0.6022075
1870036000,0.0025820516,-0.008451909,-0.0006465912,0.0,0.0,-0.6093828
1870056000,0.0014375048,-0.0049590534,-0.0006701946,0.0,0.0,-0.5974249
1870080000,0.0016332152,-0.0011060155,-0.00054198503,0.0,0.0,-0.60422206
1870096000,-0.0024358397,-0.002861822,-0.00046259165,0.0,0.0,-0.61062413
1870116000,-0.0037642526,0.007143087,-0.0005235672,0.0,0.0,-0.5977662
1870136000,-0.0025542998,0.006769151,-0.00059598684,0.0,0.0,-0.6047152
1870160000,-0.006635021,0.007886631,-0.00073724985,0.0,0.0,-0.6110371
1870176000,-0.009605253,0.006502992,-0.00063478947,0.0,0.0,-0.59738815
1870196000,-0.015894894,0.0055219773,-0.0005427003,0.0,0.0,-0.6034584
1870216000,-0.016166694,0.0070904884,-0.00038909912,0.0,0.0,-0.60988593
1870240000,-0.016093332,0.0063431086,-0.00010460615,0.0,0.0,-0.60285306
1870260000,-0.013387468,0.0039267885,-0.00011730194,0.0,0.0,-0.60885084
1870280000,-0.011935534,0.006362145,-0.00034940243,0.0,0.0,-0.5955169
1870296000,-0.0136888465,-0.0006433998,-0.00038534403,0.0,0.0,-0.60207236
1870316000,-0.012311505,-0.0011934566,-0.00045651197,0.0,0.0,-0.60207236
1870340000,-0.009527454,0.0044566235,-0.00058704615,0.0,0.0,-0.5953926
1870360000,-0.00642751,-0.0020986316,-0.00052696466,0.0,0.0,-0.6020923
1870380000,-0.0008649174,-0.0032216152,-0.0005013943,0.0,0.0,-0.6091089
1870396000,-0.00017846888,0.0011891106,-0.00058829784,0.0,0.0,-0.5957647
1870420000,0.0019062222,0.0006441786,-0.0006181598,0.0,0.0,-0.60243124
1870436000,0.004449494,-0.000647289,-0.00048726797,0.0,0.0,-0.60908854
1870460000,0.0042937165,-0.0040490115,-0.00048422813,0.0,0.0,-0.5961238
1870476000,0.0055992077,-0.006427882,-0.0004956722,0.0,0.0,-0.60262394
1870492000,0.0057451865,-0.0087278485,-0.00061780214,0.0,0.0,-0.60899264
1870520000,0.0041023507,-0.008381672,-0.0004361272,0.0,0.0,-0.60243934
1870540000,0.002877654,-0.0076385597,-0.0005634427,0.0,0.0,-0.60243934
1870560000,0.0022598868,-0.008212216,-0.00056129694,0.0,0.0,-0.5960612
1870576000,0.0021422203,-0.0011897064,-0.00050604343,0.0,0.0,-0.602902
1870600000,0.00056171184,-0.0027303903,-0.0006355047,0.0,0.0,-0.6100216
1870620000,0.0018232148,-0.0006160699,-0.0005645156,0.0,0.0,-0.5973607
1870640000,0.0004965076,0.002133084,-0.0005298257,0.0,0.0,-0.60455245
1870660000,-0.00036343094,0.0031723834,-0.00046902895,0.0,0.0,-0.6113858
1870676000,-0.0028204126,0.0066587273,-0.0002644658,0.0,0.0,-0.59820753
1870692000,0.0010399665,0.0032745707,-0.0004388094,0.0,0.0,-0.6048611
1870716000,0.0018569925,-0.00027536298,-0.00045973063,0.0,0.0,-0.61151016
1870736000,-0.0045793075,0.0041222256,-0.00053340197,0.0,0.0,-0.5983029
1870756000,-0.0050484943,0.0051874146,-0.00042057037,0.0,0.0,-0.60451895
1870780000,-0.0030642897,0.0037255834,-0.0005931258,0.0,0.0,-0.6104059
1870796000,-0.0028429949,0.0045444146,-0.00041878223,0.0,0.0,-0.5970076
1870820000,0.00045697717,0.003868592,-0.000305593,0.0,0.0,-0.61089885
1870836000,0.0005103685,0.0032752405,-0.0004003644,0.0,0.0,-0.61089885
1870856000,-0.0013574436,-0.00014221575,-0.00045114756,0.0,0.0,-0.6043921
1870876000,-0.0017416952,-0.00025190273,-0.00021100044,0.0,0.0,-0.6043921
1870896000,-0.008297903,0.0013380437,-0.00033724308,0.0,0.0,-0.5969901
1870920000,-0.0025856523,0.001776916,-0.00042521954,0.0,0.0,-0.6042736
1870940000,-0.0030638971,0.0006890476,-6.455183e-05,0.0,0.0,-0.6105396
1870952000,-0.009247807,-0.0024062998,0.00016826391,0.0,0.0,-0.59661645
1870976000,-0.007341938,-0.0018716608,-2.4139881e-05,0.0,0.0,-0.60298556
1871000000,-0.0076543754,-0.006296833,0.000115692616,0.0,0.0,-0.60997087
1871020000,-0.0068174936,-0.001882938,0.00044292212,0.0,0.0,-0.59700465
1871036000,-0.005842354,0.0003746173,0.0003388524,0.0,0.0,-0.6043743
1871060000,-0.0014696745,-0.0016586774,7.259846e-05,0.0,0.0,-0.61124426
1871076000,-0.003771774,0.0011020924,4.0590763e-05,0.0,0.0,-0.5987815
1871096000,-0.0032408782,-0.001430135,-4.041195e-05,0.0,0.0,-0.6058546
1871120000,-0.0010761162,0.0041402495,-2.7537346e-05,0.0,0.0,-0.59868914
1871140000,2.685422e-05,0.0054749837,-8.761883e-05,0.0,0.0,-0.6045225
1871156000,4.9395952e-05,0.0054530604,-9.137392e-05,0.0,0.0,-0.6045225
1871180000,0.0042706914,-0.0017015878,-2.1457672e-06,0.0,0.0,-0.59686136
1871196000,0.0048503405,-0.0030983454,3.3080578e-05,0.0,0.0,-0.6037457
1871220000,0.00836803,-0.0020579123,0.00023961067,0.0,0.0,-0.6101178
1871240000,0.0049658404,-0.0017647594,0.00015449524,0.0,0.0,-0.59702015
1871256000,0.0064463248,-0.004302466,0.00019329786,0.0,0.0,-0.6043205
1871276000,0.00950522,0.0024162924,0.000344038,0.0,0.0,-0.59780073
1871300000,0.0033668163,-0.003204855,0.00019901991,0.0,0.0,-0.6045213
1871320000,0.00529569,-0.005764609,-0.00015574694,0.0,0.0,-0.6094241
1871340000,-0.0015396313,-0.0021048572,-6.54459e-05,0.0,0.0,-0.5942291
1871356000,-0.0023744416,-0.0049156733,0.00011265278,0.0,0.0,-0.5949858
1871376000,-0.002077204,-0.009236149,0.00035208464,0.0,0.0,-0.5943162
1871396000,-0.00128043,-0.0041133366,0.00035601854,0.0,0.0,-0.576038
1871416000,0.002035196,-0.0055176746,0.000302732,0.0,0.0,-0.5746424
1871436000,0.0013224925,-0.0018648414,0.00037443638,0.0,0.0,-0.57390803
1871456000,-0.0051027974,-0.001336375,0.00020223856,0.0,0.0,-0.56218785
1871480000,5.0760806e-05,0.0026969102,0.00011175871,0.0,0.0,-0.56606114
1871500000,0.0022041143,0.009287522,0.00026285648,0.0,0.0,-0.5583048
1871516000,0.005887719,0.005000262,0.000108003616,0.0,0.0,-0.5639495
1871536000,0.0033501643,-0.00025828765,3.451109e-05,0.0,0.0,-0.5702996
1871556000,0.001973811,0.005033485,0.000118374825,0.0,0.0,-0.56442124
1871580000,0.0016073473,0.0018928335,5.275011e-05,0.0,0.0,-0.5698092
1871600000,0.0002486715,0.00059176446,0.00020885468,0.0,0.0,-0.57542926
1871616000,0.0018900528,-0.0033590393,0.00025588274,0.0,0.0,-0.56840885
1871640000,0.0016720758,-0.0034967288,0.00022995472,0.0,0.0,-0.57251394
1871660000,0.00039525842,-0.0038130193,0.0002490878,0.0,0.0,-0.5764776
1871680000,-0.0017266022,-0.004924072,-0.00012230873,0.0,0.0,-0.5710536
1871696000,-0.0015772898,-0.004699001,-0.00021922588,0.0,0.0,-0.5710536
1871720000,-0.002411338,-0.0013641554,-0.00019991398,0.0,0.0,-0.5656506
1871740000,0.0010423721,-0.00049167126,-0.00027304888,0.0,0.0,-0.56925285
1871756000,0.001442872,-5.2590156e-05,-0.00013536215,0.0,0.0,-0.56925285
1871780000,0.0028266655,-0.003715143,2.9146671e-05,0.0,0.0,-0.5649113
1871800000,0.000868639,-0.0033140446,0.00024944544,0.0,0.0,-0.56935084
1871820000,-0.003761817,-0.0026003981,0.00025695562,0.0,0.0,-0.5733996
1871840000,0.005008246,-0.0029948156,0.00020349026,0.0,0.0,-0.5650407
1871860000,0.006272028,-0.0026115282,0.00022995472,0.0,0.0,-0.5687243
1871876000,0.003042401,-0.002828225,0.0002655387,0.0,0.0,-0.57187426
1871896000,0.0039560474,-0.0057875835,0.00018668175,0.0,0.0,-0.56463206
1871920000,0.0029769482,-0.0067572203,0.00043058395,0.0,0.0,-0.5690194
1871940000,0.0034773673,-0.004466735,0.00031757355,0.0,0.0,-0.57297647
1871956000,0.0051928144,-0.0069328174,0.00029790401,0.0,0.0,-0.56566864
1871976000,0.0041066464,-0.006766832,0.00015127659,0.0,0.0,-0.5698616
1871996000,0.0050676093,-0.006444534,0.00019973516,0.0,0.0,-0.57384735
1872020000,0.0035160219,-0.0065546287,0.00012105703,0.0,0.0,-0.56961983
1872036000,0.0031888979,-0.0059284377,0.0001155138,0.0,0.0,-0.56961983
1872060000,0.00059644436,-0.009820033,-2.7894974e-05,0.0,0.0,-0.56478167
1872080000,-0.00039138598,-0.00668529,-5.4717064e-05,0.0,0.0,-0.5684355
1872100000,0.00078800926,-0.004912734,6.169081e-05,0.0,0.0,-0.57227516
1872116000,-0.00020143809,-0.00992458,-1.0371208e-05,0.0,0.0,-0.56539845
1872140000,0.0014037809,-0.009941503,-0.00016736984,0.0,0.0,-0.56919205
1872160000,0.0030307411,-0.0072067603,-3.2544136e-05,0.0,0.0,-0.57340103
1872180000,0.005746673,-0.0036162625,-0.00010371208,0.0,0.0,-0.5669224
1872200000,0.004439703,0.0004889192,0.00020831823,0.0,0.0,-0.57033986
1872216000,0.0040484467,-0.002119985,0.0002810955,0.0,0.0,-0.5736766
1872240000,0.0080961855,-0.0025034212,0.00054359436,0.0,0.0,-0.5662119
1872256000,0.0063039875,0.00043296267,0.000574708,0.0,0.0,-0.5690538
1872280000,0.007284465,0.009448578,0.00061655045,0.0,0.0,-0.5656809
1872300000,0.010691165,0.011194291,0.0008325577,0.0,0.0,-0.5689347
1872320000,0.010524218,0.008789317,0.00072437525,0.0,0.0,-0.5722854
1872340000,0.012005682,0.00722971,0.0005965233,0.0,0.0,-0.5654342
1872356000,0.010140321,0.0069247605,0.0006106496,0.0,0.0,-0.5686
1872376000,0.008043392,0.006376419,0.00032490492,0.0,0.0,-0.57190394
1872396000,0.011812918,0.0032935506,0.00022226572,0.0,0.0,-0.5658742
1872420000,0.008077497,-0.0018777181,0.0002233386,0.0,0.0,-0.56933504
1872440000,0.00819128,-0.0069013815,0.00012284517,0.0,0.0,-0.57262576
1872456000,0.0019185618,-0.0052470765,1.9848347e-05,0.0,0.0,-0.56632465
1872476000,0.0048396094,-0.0046798466,-5.7578087e-05,0.0,0.0,-0.56946844
1872500000,0.005995133,-0.0011482169,9.942055e-05,0.0,0.0,-0.5723425
1872516000,0.004567767,0.003124809,0.00020903349,0.0,0.0,-0.5654447
1872540000,0.004029864,0.0015507923,0.00049853325,0.0,0.0,-0.571636
1872560000,0.0018268784,0.0011538726,0.0005505681,0.0,0.0,-0.5654637
1872580000,0.00020742766,0.002845733,0.00048798323,0.0,0.0,-0.5686777
1872596000,-0.000828153,0.0027506459,0.0005645156,0.0,0.0,-0.5686777
1872616000,0.0006066207,-0.004218464,0.0005813241,0.0,0.0,-0.5645833
1872636000,0.0029274398,-0.0005335866,0.0007097125,0.0,0.0,-0.56788015
1872656000,0.00457797,0.00047188986,0.0006262064,0.0,0.0,-0.57146424
1872676000,0.0011378294,0.0016997873,0.0007406473,0.0,0.0,-0.5660074
1872700000,3.1909905e-05,0.00037625124,0.00082200766,0.0,0.0,-0.5689988
1872716000,0.0045153536,0.0050448496,0.00089389086,0.0,0.0,-0.57258713
1872740000,0.009845349,0.005495713,0.0009403825,0.0,0.0,-0.5665949
1872760000,0.0066085206,0.009466175,0.00089120865,0.0,0.0,-0.56949055
1872780000,0.006594577,0.0070597054,0.0007175803,0.0,0.0,-0.57238805
1872800000,0.004027129,0.0053097815,0.00089871883,0.0,0.0,-0.56707674
1872820000,0.0021391455,0.0007783106,0.0009328723,0.0,0.0,-0.57253844
1872840000,0.0008092853,0.006288172,0.0010682344,0.0,0.0,-0.56643987
1872860000,-0.0011090403,0.004374671,0.0011780262,0.0,0.0,-0.5691415
1872880000,-0.0008437433,0.0013694551,0.0011086464,0.0,0.0,-0.57217467
1872892000,-0.0011766627,0.00065809715,0.0010796785,0.0,0.0,-0.57217467
1872916000,-0.0014459202,0.0011258665,0.0011183023,0.0,0.0,-0.5692334
1872940000,0.00040168595,0.0017435089,0.0010154843,0.0,0.0,-0.5721405
1872960000,0.0038113422,-0.00020062308,0.0009791851,0.0,0.0,-0.56681025
1872980000,-0.002549152,0.00038930378,0.0007481575,0.0,0.0,-0.56919146
1873000000,-0.00052868575,-0.00025714526,0.00030773878,0.0,0.0,-0.57244605
1873020000,-0.0054904525,0.0028371294,0.00040572882,0.0,0.0,-0.56722254
1873036000,-0.00033248356,0.001273203,0.0005148053,0.0,0.0,-0.5699308
1873056000,0.00040308712,0.00040954293,0.0003771186,0.0,0.0,-0.5727552
1873076000,0.0057776193,-0.0010555957,0.00029593706,0.0,0.0,-0.56723905
1873096000,0.0030403202,-0.00041616036,0.00042307377,0.0,0.0,-0.5701696
1873120000,0.000372753,0.0025539347,0.00037300587,0.0,0.0,-0.5675702
1873136000,-0.00064517464,-0.00012804772,0.00028574467,0.0,0.0,-0.570049
1873160000,-0.0012782821,-0.0010339753,0.000156641,0.0,0.0,-0.573222
1873176000,0.0010549603,-0.0040702866,0.00019991398,0.0,0.0,-0.567708
1873196000,0.004424203,-0.004327498,0.00026661158,0.0,0.0,-0.5707577
1873220000,-0.0005280264,-0.0032810436,0.00013536215,0.0,0.0,-0.5734001
1873240000,0.005704912,-0.0018292179,9.226799e-05,0.0,0.0,-0.5665518
1873260000,0.0034886885,0.0010366117,-4.7385693e-05,0.0,0.0,-0.56840175
1873280000,0.003941468,0.0004680796,-0.00021618605,0.0,0.0,-0.57012916
1873296000,0.003884526,0.00093911146,-0.00036227703,0.0,0.0,-0.5649183
1873312000,-0.0035982602,0.0044964934,-0.0002823472,0.0,0.0,-0.5672384
1873340000,-0.0040458944,0.0027704963,-0.0002310276,0.0,0.0,-0.5697955
1873356000,-0.003484631,0.0018067262,-0.00015556812,0.0,0.0,-0.5655387
1873376000,-0.003143679,-0.0026141163,-8.6545944e-05,0.0,0.0,-0.56826735
1873396000,-1.4306512e-05,-0.0062263245,-9.36985e-05,0.0,0.0,-0.5713897
1873416000,-0.0015096688,-0.0065691504,-0.00012284517,0.0,0.0,-0.56682456
1873432000,-0.005945773,-0.008309399,-0.00022226572,0.0,0.0,-0.5693157
1873460000,-0.0063234083,-0.0122587085,-0.0003131032,0.0,0.0,-0.56629974
1873480000,-0.0023971559,-0.00983253,-0.00046277046,0.0,0.0,-0.5682195
1873496000,-0.0025068282,-0.007159613,-0.00051891804,0.0,0.0,-0.5699976
1873520000,-0.0029569315,0.0048666587,-0.00032794476,0.0,0.0,-0.5652655
1873536000,-0.0036650375,0.005620751,-3.2007694e-05,0.0,0.0,-0.5670926
1873560000,-0.004819005,0.0007847045,0.00027412176,0.0,0.0,-0.56929874
1873576000,-0.004654915,0.003451023,0.00032794476,0.0,0.0,-0.5636906
1873600000,-0.000977682,0.0022839042,0.000305593,0.0,0.0,-0.56629884
1873620000,-0.0033737342,-0.0022936452,0.0003812313,0.0,0.0,-0.56909585
1873640000,-0.00476964,-0.0017127885,0.00029593706,0.0,0.0,-0.56498283
1873660000,-0.0068783825,-0.0036699288,0.00015217066,0.0,0.0,-0.567548
1873680000,0.0001167655,0.0016004476,0.00010192394,0.0,0.0,-0.5655456
1873696000,0.00061950507,0.001963712,-8.404255e-06,0.0,0.0,-0.5655456
1873716000,0.00096736243,-0.00017202215,7.259846e-05,0.0,0.0,-0.5693268
1873736000,0.0009480987,0.002926848,7.6532364e-05,0.0,0.0,-0.56497383
1873756000,0.0069669653,0.0003930649,6.4373016e-06,0.0,0.0,-0.5668247
1873780000,0.0031058884,-0.0029054452,-0.000102996826,0.0,0.0,-0.5691989
1873796000,0.004262302,-0.00036178407,3.2186508e-05,0.0,0.0,-0.565171
1873816000,0.00041332282,0.0014036353,0.00013142824,0.0,0.0,-0.56754756
1873840000,-0.0059165163,-0.00076345797,-2.5212765e-05,0.0,0.0,-0.5700067
1873856000,-0.0050312625,0.0051708585,2.1457672e-06,0.0,0.0,-0.5656563
1873880000,-0.0027889302,0.006527283,-0.0002079606,0.0,0.0,-0.567349
1873900000,-0.0013990402,0.0038641286,-0.00014197826,0.0,0.0,-0.5689719
1873920000,-0.0050567687,0.004589529,-0.00017935038,0.0,0.0,-0.5665311
1873940000,-0.0020682793,0.00998259,-0.0001001358,0.0,0.0,-0.56838554
1873960000,-0.0030712648,0.011395106,-7.18832e-05,0.0,0.0,-0.5645955
1873976000,0.0027628401,0.014042451,-0.00026017427,0.0,0.0,-0.5668152
1874000000,0.003925758,0.009563843,0.00021243095,0.0,0.0,-0.5691306
1874016000,-0.0008216738,0.0060485126,0.0002619624,0.0,0.0,-0.5649562
1874036000,-0.0013219267,0.0032088712,0.00023460388,0.0,0.0,-0.5662933
1874060000,-0.0032550269,0.0024244299,0.0001757741,0.0,0.0,-0.5684218
1874080000,0.001521796,0.0006007132,0.00010102987,0.0,0.0,-0.5642841
1874100000,0.0015344499,-0.0011884844,0.00011605024,0.0,0.0,-0.56590664
1874120000,0.0018303967,0.00043766806,6.937981e-05,0.0,0.0,-0.56770116
1874140000,0.0038446155,0.0050236424,0.0002129674,0.0,0.0,-0.56389445
1874160000,0.0084083835,0.0047635986,0.0002220869,0.0,0.0,-0.5659261
1874184000,0.0024007363,-5.1582232e-05,0.00023674965,0.0,0.0,-0.5653531
1874200000,0.0030203909,0.0039986046,6.0260296e-05,0.0,0.0,-0.5675137
1874220000,0.0018835478,0.0037097973,-7.742643e-05,0.0,0.0,-0.5675137
1874240000,-0.0036448608,-0.003846544,-7.331371e-05,0.0,0.0,-0.56492305
1874260000,0.0013358896,-0.0053371415,-0.00018310547,0.0,0.0,-0.5662482
1874280000,0.0045582894,-0.0021840902,-5.1677227e-05,0.0,0.0,-0.5680653
1874300000,0.007620545,0.00022820797,-0.00010049343,0.0,0.0,-0.5644416
1874320000,0.0031452463,0.001655135,-5.185604e-06,0.0,0.0,-0.5660767
1874344000,0.003457952,-0.000490659,-4.810095e-05,0.0,0.0,-0.56821555
1874360000,0.0010271855,-0.004826811,7.0273876e-05,0.0,0.0,-0.56503266
1874380000,-0.0011879085,-0.0068119047,0.00019150972,0.0,0.0,-0.56656337
1874400000,-0.003565216,-0.0034870994,0.00035387278,0.0,0.0,-0.56829536
1874420000,-0.002189254,-0.0011517521,0.0004583001,0.0,0.0,-0.5640767
1874444000,-0.002286797,-0.004683546,0.00045990944,0.0,0.0,-0.56641316
1874464000,-0.001457064,-0.0066107903,0.0004196763,0.0,0.0,-0.56704575
1874480000,-0.0011900375,-0.0064090113,0.00021547079,0.0,0.0,-0.56704575
1874500000,-0.0038734926,-0.005787496,9.423494e-05,0.0,0.0,-0.56887966
1874524000,-0.0018999127,-0.008810226,1.7344952e-05,0.0,0.0,-0.56683344
1874540000,-0.00028335094,-0.011883063,0.00025355816,0.0,0.0,-0.56893265
1874564000,-0.00088170776,-0.009512572,0.00027233362,0.0,0.0,-0.56530654
1874584000,0.002011948,-0.003666767,0.00044453144,0.0,0.0,-0.56644624
1874600000,0.0033369048,-0.001643657,0.0003157854,0.0,0.0,-0.5680119
1874624000,0.004951194,0.0017555559,0.00020241737,0.0,0.0,-0.5643589
1874640000,0.005703783,-0.00069170416,0.0003426075,0.0,0.0,-0.56611365
1874664000,0.0053424034,0.0010219716,0.00025963783,0.0,0.0,-0.5678477
1874680000,0.0040788534,0.008870283,6.723404e-05,0.0,0.0,-0.5646005
1874704000,-0.0026986152,0.007968176,9.8884106e-05,0.0,0.0,-0.5654901
1874724000,-0.0070245196,0.008327435,0.00014591217,0.0,0.0,-0.5669985
1874740000,-0.013013292,0.0011626342,6.490946e-05,0.0,0.0,-0.56451786
1874764000,-0.012152022,0.0032663697,-6.4373016e-06,0.0,0.0,-0.56687164
1874784000,-0.006895497,0.0052737324,-0.00010818243,0.0,0.0,-0.5660249
1874804000,-0.0018879664,0.0013990933,-0.00012552738,0.0,0.0,-0.56779987
1874824000,0.0061508426,-0.00022852299,0.00013357401,0.0,0.0,-0.5697201
1874840000,0.0037059453,-0.0038867618,9.530783e-05,0.0,0.0,-0.56653136
1874860000,0.0054856595,0.00025334145,0.00013929605,0.0,0.0,-0.56782675
1874880000,0.0047344607,0.0007839437,7.9751015e-05,0.0,0.0,-0.56910485
1874900000,0.0029722466,0.0042002215,-0.00014036894,0.0,0.0,-0.566477
1874920000,0.0016983524,0.0031960972,-0.00015234947,0.0,0.0,-0.5674307
1874944000,0.0027229213,0.002820487,-0.00015324354,0.0,0.0,-0.5689204
1874960000,0.007098998,0.0025550588,-0.00021779537,0.0,0.0,-0.56533563
1874980000,0.0024729688,0.0009714191,-0.00013875961,0.0,0.0,-0.5660932
1875004000,0.0004527946,-0.0019952252,-0.0002617836,0.0,0.0,-0.5668432
1875024000,0.00090991566,-0.0006661102,-0.00026768446,0.0,0.0,-0.56332546
1875040000,0.004439527,-0.0061022365,-0.0003617406,0.0,0.0,-0.56517196
1875064000,0.0026944068,-0.012487814,-0.000202775,0.0,0.0,-0.5650657
1875080000,-0.00018782378,-0.01189089,-0.00016075373,0.0,0.0,-0.5671395
1875104000,-0.0029325918,-0.011548994,2.3961067e-05,0.0,0.0,-0.5688523
1875124000,-0.0021547233,-0.0075831264,8.279085e-05,0.0,0.0,-0.56625307
1875144000,0.001045414,-0.008557319,9.459257e-05,0.0,0.0,-0.56765133
1875160000,0.002273214,-0.0050203637,0.0003029108,0.0,0.0,-0.56895477
1875180000,0.0033967725,-0.008516317,0.00031399727,0.0,0.0,-0.56582224
1875200000,0.00660682,-0.01016589,0.00032794476,0.0,0.0,-0.5668161
1875220000,0.006720134,-0.007917902,0.00028645992,0.0,0.0,-0.5680047
1875244000,0.0006434249,-0.0031574804,7.814169e-05,0.0,0.0,-0.56501424
1875264000,0.00075373217,0.0005473989,-9.852648e-05,0.0,0.0,-0.56603193
1875280000,0.0016696835,0.0018178564,6.1154366e-05,0.0,0.0,-0.567676
1875304000,0.0019123633,-0.003070634,-7.43866e-05,0.0,0.0,-0.5669593
1875324000,0.00022002077,-0.00037675572,6.401539e-05,0.0,0.0,-0.568591
1875344000,0.0055751,0.006442779,9.137392e-05,0.0,0.0,-0.56606686
1875360000,0.0064792978,0.0024801719,3.71933e-05,0.0,0.0,-0.56737447
1875380000,0.0062472057,0.0027131576,0.00039553642,0.0,0.0,-0.56737447
1875404000,0.00609384,0.002256416,0.00023335218,0.0,0.0,-0.56519425
1875424000,0.00059335213,0.004321451,0.0002142191,0.0,0.0,-0.56602657
1875440000,0.004362718,0.007589438,0.00030487776,0.0,0.0,-0.5661337
1875464000,0.004168096,0.0006510689,0.0003964305,0.0,0.0,-0.56308085
1875484000,0.007417774,-4.6393758e-05,0.0003427863,0.0,0.0,-0.56358534
1875500000,0.007827071,-0.0004937359,0.00039446354,0.0,0.0,-0.5649756
1875520000,0.006441508,0.0017170915,0.00049299,0.0,0.0,-0.5622253
1875540000,0.006761631,0.00465405,0.0005287528,0.0,0.0,-0.5634088
1875564000,0.010954066,0.00574677,0.0005028248,0.0,0.0,-0.5648895
1875584000,0.008233556,0.0019821504,0.0006104708,0.0,0.0,-0.56289613
1875600000,0.0057701734,0.0027058874,0.00064748526,0.0,0.0,-0.56469995
1875624000,0.0037823576,0.0029829796,0.0003953576,0.0,0.0,-0.5644239
1875640000,0.002689942,0.0028173367,0.00042575598,0.0,0.0,-0.5644239
1875660000,0.0027776014,0.0062292,0.0006144047,0.0,0.0,-0.5666916
1875680000,0.002712416,0.008776564,0.00064623356,0.0,0.0,-0.5643818
1875700000,0.006108925,0.008412156,0.00053071976,0.0,0.0,-0.56567025
1875724000,0.003954733,0.005400472,0.00034046173,0.0,0.0,-0.5673977
1875740000,0.0025781393,0.013660714,0.00035351515,0.0,0.0,-0.5651023
1875760000,0.0006197314,0.011902378,6.401539e-05,0.0,0.0,-0.56596553
1875780000,-0.0048515922,0.0070940545,-0.00016522408,0.0,0.0,-0.56666034
1875804000,-0.010005458,0.009615205,-0.00011408329,0.0,0.0,-0.5627654
1875816000,-0.009078022,0.0053559113,-8.547306e-05,0.0,0.0,-0.5632907
1875844000,-0.0071688183,-0.0015421748,-0.00018417835,0.0,0.0,-0.5644919
1875864000,-0.008274993,0.0006952146,-0.00015449524,0.0,0.0,-0.5629891
1875884000,-0.0069897766,-0.00537569,-0.00023764372,0.0,0.0,-0.5662786
1875900000,-0.0063434327,-0.005229691,-8.511543e-05,0.0,0.0,-0.5662786
1875920000,-0.007709472,-0.0031131401,-0.00017684698,0.0,0.0,-0.56518656
1875936000,-0.006318255,-0.002424006,-0.00027483702,0.0,0.0,-0.56518656
1875960000,-0.009345774,-0.008571496,-0.00018024445,0.0,0.0,-0.56372285
1875984000,-0.008207692,-0.0029574393,-0.000256598,0.0,0.0,-0.5648022
1875996000,-0.0067103854,0.0010369888,-0.00027644634,0.0,0.0,-0.5658987
1876024000,-0.010550693,-0.0018467495,-0.00033438206,0.0,0.0,-0.5637456
1876040000,-0.010056442,-0.0030122674,-9.4771385e-05,0.0,0.0,-0.5646989
1876064000,-0.0073227757,-0.0034047985,-0.00035190582,0.0,0.0,-0.56564766
1876080000,-0.0028444715,-0.0028534094,-0.00038391352,0.0,0.0,-0.5637995
1876100000,-0.0035060942,-0.00035109837,-0.00038176775,0.0,0.0,-0.5650885
1876124000,-0.0023900117,0.0016663981,-0.0006996989,0.0,0.0,-0.5660174
1876144000,-0.003220731,0.0067941737,-0.00063622,0.0,0.0,-0.56496936
1876164000,-0.002855481,0.006936479,-0.0005437732,0.0,0.0,-0.56496936
1876180000,0.004244027,0.008201823,-0.00051140785,0.0,0.0,-0.56562275
1876204000,0.0023497045,0.0068157027,-0.00042808056,0.0,0.0,-0.56462055
1876220000,0.0027706171,0.005986442,-0.0005296469,0.0,0.0,-0.56462055
1876244000,0.0013938057,-0.00057073147,-0.00042951107,0.0,0.0,-0.5635671
1876260000,0.0035355748,9.004242e-05,-0.0003964305,0.0,0.0,-0.56428164
1876280000,0.0030089663,0.0009160903,-0.00027376413,0.0,0.0,-0.5656396
1876304000,0.0011032526,-0.0016194466,-0.00023818016,0.0,0.0,-0.56354576
1876324000,2.56598e-05,-0.002546988,-0.00030434132,0.0,0.0,-0.56492454
1876344000,0.0036808248,-0.0024873966,-0.0006249547,0.0,0.0,-0.5663272
1876360000,-0.0009798319,0.00025980372,-0.0006932616,0.0,0.0,-0.5645643
1876384000,-0.0040616426,0.0011974555,-0.00066554546,0.0,0.0,-0.56531215
1876400000,-0.0057163937,-0.0029436126,-0.00047439337,0.0,0.0,-0.566391
1876420000,-0.006361184,-0.00184431,-0.00044095516,0.0,0.0,-0.5643685
1876440000,-0.009609156,-0.0050390884,-0.00012749434,0.0,0.0,-0.56526583
1876460000,-0.0086232945,-0.0070866896,8.7440014e-05,0.0,0.0,-0.5663806
