timestamp,timestamp_sample,xyz[0],xyz[1],xyz[2]
1859220000,1859220000,0.0007652535,0.00029585185,0.00024741923
1859232000,1859232000,0.0058340053,-0.0007093423,0.0009363271
1859244000,1859244000,0.0043257335,-0.002399093,0.0004223395
1859256000,1859256000,-0.002504806,0.0021728058,0.0015019982
1859268000,1859268000,0.0006176436,0.0055933753,-0.00072852947
1859280000,1859280000,-0.00026949623,-0.00017253542,-0.0004488575
1859292000,1859292000,-0.003121591,-0.0012312853,0.0006776455
1859300000,1859300000,-8.3333056e-05,0.0013636355,0.0017391002
1859316000,1859316000,-0.0014848365,0.0018200176,0.0014796837
1859328000,1859328000,-0.0014728471,0.0021538902,-0.0024663676
1859340000,1859340000,-0.0013277819,-0.00084755383,-0.002759654
1859352000,1859352000,-0.0018482306,-0.00264083,-0.0039114524
1859364000,1859364000,-0.0010708987,0.0012598368,-0.0007171598
1859376000,1859376000,-0.000115379225,-0.00031788787,-0.0021849135
1859388000,1859388000,-0.0014963154,0.006180848,0.002196286
1859400000,1859400000,-0.002303889,0.0030107202,0.0029914274
1859412000,1859412000,-0.00087992917,0.0006489353,-0.003117948
1859424000,1859424000,0.0037690052,0.001660774,-0.0022379828
1859436000,1859436000,0.00018878077,-0.0010956512,-0.0010319559
1859448000,1859448000,-0.0024143732,0.0018666503,-0.0027058027
1859460000,1859460000,0.0021256562,-0.00085418485,-0.002619048
1859472000,1859472000,0.004047138,-0.00095393695,0.0037398336
1859484000,1859484000,-0.0032547505,0.005155881,0.0017074827
1859496000,1859496000,-0.0023606487,-0.0017606821,0.0012488259
1859508000,1859508000,-0.004062213,-0.0020934655,-2.3684712e-05
1859520000,1859520000,-0.0019669503,0.0034480952,0.0052537317
1859528000,1859528000,-0.0037108806,0.0015085647,0.00369007
1859544000,1859544000,0.0009123718,-0.0023705591,-0.0011374754
1859556000,1859556000,0.00091505516,0.0019247704,0.00028889644
1859568000,1859568000,0.00028463005,-0.00051405793,-0.0007165347
1859580000,1859580000,0.0009773533,0.0018174835,-0.0065112566
1859592000,1859592000,0.0021335976,-0.001187528,0.00066669745
1859604000,1859604000,0.0015863618,0.002600635,-1.0180236e-05
1859616000,1859616000,-0.0035881745,0.0016820179,-0.00089108036
1859624000,1859624000,-0.0038827183,0.002476927,-0.0007527284
1859640000,1859640000,-0.005737124,0.0028195304,-0.002809525
1859648000,1859648000,-0.0064928816,0.00163349,0.00085352716
1859664000,1859664000,-0.0033660596,-0.0057704486,0.001437193
1859676000,1859676000,-0.0024422556,0.0011481335,0.0038802538
1859688000,1859688000,0.00159181,0.0007060594,0.0032893594
1859700000,1859700000,-0.004736419,-0.0020228243,0.0047431346
1859712000,1859712000,-0.00090094295,-0.00023689587,-0.00097567856
1859724000,1859724000,-0.0049869204,-0.00030727033,0.00015584922
1859736000,1859736000,-0.0014632307,0.0007634964,-0.00043655798
1859748000,1859748000,-0.0011758222,-0.0010299785,-0.0032680763
1859760000,1859760000,-0.0012530515,0.0017987606,0.0032198592
1859772000,1859772000,0.0018830397,-0.0040250565,0.0017195548
1859784000,1859784000,0.0001848503,-0.0034824633,0.0021903324
1859796000,1859796000,-0.00054049125,-0.004218027,0.0032051376
1859808000,1859808000,0.00033558765,0.0018656226,0.0014751055
1859820000,1859820000,0.005428112,-0.0034157252,-0.0038937416
1859828000,1859828000,0.0046140198,-0.0057362095,-0.0043126484
1859840000,1859840000,-0.0033625157,-0.00089195743,-0.004912022
1859856000,1859856000,-0.0026876105,-0.00070498977,-0.0012906328
1859868000,1859868000,-0.00057575805,0.00037608808,-0.0037902873
1859880000,1859880000,-0.00085353793,-0.001222977,-0.0024617454
1859892000,1859892000,0.0024598301,0.0029134508,-0.002059868
1859904000,1859904000,-0.0013815012,-0.002866658,-0.0019822503
1859916000,1859916000,-3.0523748e-05,-0.0031715664,0.0015790492
1859928000,1859928000,-0.0037179026,-0.002245218,0.0016166843
1859936000,1859936000,-1.2095377e-05,-0.002665386,-0.0013605194
1859952000,1859952000,0.0006124909,0.0015788157,-0.0007532332
1859960000,1859960000,-0.00026148115,0.0019274959,-0.0035870315
1859976000,1859976000,0.0012522214,-0.0004719682,-0.0017088978
1859988000,1859988000,-0.0030346066,-0.002232992,-0.0021899033
1859996000,1859996000,0.00029769976,0.00202505,-0.00068564934
1860012000,1860012000,-0.0009720908,-0.0031734663,0.0042234845
1860024000,1860024000,-0.001410872,-0.0037341095,0.0028423145
1860036000,1860036000,0.0025500664,0.0033762294,0.0006235825
1860048000,1860048000,0.004134294,0.0036042328,-0.00085097307
1860060000,1860060000,0.0019361293,0.0006519295,-0.0006432305
1860072000,1860072000,0.0005679962,-0.0041076317,0.0014314371
1860084000,1860084000,-0.0011546016,0.002694401,-0.0012073319
1860096000,1860096000,-0.002764597,-0.0006201393,0.00038091562
1860104000,1860104000,-0.002713819,-0.0006456226,-0.0008134761
1860120000,1860120000,-0.0022815128,-0.0037616505,0.0065399758
1860128000,1860128000,0.0021682007,-0.0014824648,0.006725347
1860144000,1860144000,-0.0021936393,0.0017640484,-0.0018984068
1860152000,1860152000,0.00251495,0.0031229255,-0.0047298465
1860168000,1860168000,-0.005302804,-0.003736224,0.00044375082
1860180000,1860180000,-0.0062067206,-0.0013565635,0.00044208753
1860188000,1860188000,-0.002779185,-0.004351933,0.0026311958
1860200000,1860200000,-0.00092316745,-0.0042843404,0.0015850875
1860216000,1860216000,-0.004897955,-0.0039480547,-0.0022112047
1860228000,1860228000,-0.0026537718,-6.1098486e-05,0.0024419776
1860236000,1860236000,0.0020760146,-0.0005816086,0.004200071
1860248000,1860248000,-0.00070601323,0.00028332276,-0.000933368
1860264000,1860264000,0.0019507012,0.0018968601,0.0057370784
1860276000,1860276000,0.001371478,0.00088009983,-0.0021142536
1860288000,1860288000,-0.0022847857,0.001338895,4.551495e-05
1860300000,1860300000,0.00028932787,-0.0016828608,0.004214841
1860312000,1860312000,-0.002677997,0.002530261,-0.0018815493
1860324000,1860324000,-0.00035302946,0.0048329956,-0.0007808396
1860336000,1860336000,-0.0001522433,0.0015278184,0.0024031687
1860344000,1860344000,-0.0008192944,0.00066132005,0.0032449295
1860360000,1860360000,0.00056908064,-0.0036695385,0.0013088483
1860372000,1860372000,0.002736178,-0.005198587,-0.002981164
1860384000,1860384000,0.0032582392,0.0033637616,-0.0017093329
1860392000,1860392000,-0.0002347267,0.0051680664,-0.003295165
1860408000,1860408000,0.00034386897,0.00069548003,0.0016547444
1860420000,1860420000,-0.0036141097,-0.0023319698,-0.0018514531
1860432000,1860432000,-0.0031977687,-0.0037866733,0.0016163075
1860440000,1860440000,0.0020150573,-0.00430177,0.0016167297
1860452000,1860452000,-0.0006161718,-0.0026823315,0.0023282606
1860468000,1860468000,0.0034970348,-6.0275197e-05,-0.00558745
1860480000,1860480000,0.0032109437,-0.0026992839,-0.0014995561
1860492000,1860492000,-0.0020688085,-0.006405325,0.0018134966
1860504000,1860504000,-0.0031525968,0.0033866242,0.0008589488
1860516000,1860516000,-0.0032696011,0.0015514032,-0.0029764643
1860528000,1860528000,0.00021428324,-0.0017764373,-0.0056108213
1860540000,1860540000,0.0005888846,-8.632522e-05,-0.0029472753
1860548000,1860548000,0.00012358895,-0.0012266943,-0.0029570458
1860564000,1860564000,0.0008753382,-0.00051636854,0.005101777
1860572000,1860572000,-0.0026123095,-0.00010833377,0.0034839567
1860588000,1860588000,-0.0002873949,0.00016976474,0.0017099063
1860600000,1860600000,-0.0030187801,0.0042147753,0.004294858
1860608000,1860608000,-0.0036933268,-0.0017232592,0.0039569973
1860624000,1860624000,0.0007890045,0.00062816264,0.0037530193
1860636000,1860636000,-0.0041090488,0.001082866,-0.0006915835
1860648000,1860648000,0.0017344069,0.0015069451,0.0017950789
1860660000,1860660000,0.0028848015,-0.0001365249,-0.0009881388
1860672000,1860672000,0.00090501737,-0.003120813,0.0015896657
1860680000,1860680000,-0.0028758068,0.00022446131,0.0002649859
1860692000,1860692000,-0.005270699,-0.0005775336,0.0021512192
1860704000,1860704000,-0.00011853734,0.00027472898,-0.0018013186
1860720000,1860720000,-0.0012804533,0.0034002422,-0.0013623902
1860732000,1860732000,-0.00029354304,0.0031405224,-0.0034399333
1860740000,1860740000,-0.00022133015,0.00023917155,-0.00025499065
1860756000,1860756000,0.0029197156,-0.0010318868,0.001987649
1860768000,1860768000,-0.0019142218,0.0042587523,0.004280313
1860780000,1860780000,0.0008519565,-0.005402635,0.0015707659
1860792000,1860792000,-0.001920932,-0.0038013635,0.0036443823
1860800000,1860800000,4.5163673e-05,0.0032178129,0.007008388
1860816000,1860816000,0.00016611803,0.0017831135,-0.0020383322
1860828000,1860828000,0.00075265986,-0.0016830205,0.0014800827
1860840000,1860840000,0.0041569383,-0.004416698,-0.004543431
1860848000,1860848000,0.0016052375,-0.003126327,-0.0026502886
1860864000,1860864000,-0.0013829155,-0.003978095,0.0035561854
1860876000,1860876000,0.0025365467,-0.0012680287,-0.00015946483
1860888000,1860888000,0.00031796948,0.00018677721,0.0039499514
1860900000,1860900000,-0.0042081615,0.0008134567,0.0008878668
1860912000,1860912000,-0.0010235787,0.0016356041,-0.0037390832
1860924000,1860924000,-0.00047850813,0.0009363671,-0.003287416
1860932000,1860932000,0.0016512114,0.0032044593,-0.00036165802
1860948000,1860948000,0.0014304859,0.0042143036,-0.001325734
1860960000,1860960000,-0.0020467646,0.0022043986,-0.0046006595
1860972000,1860972000,-0.00049567426,0.00023603486,-0.0007954878
1860984000,1860984000,0.0028080214,-0.0016665035,0.005069962
1860996000,1860996000,0.0058129225,0.002004479,0.0033719328
1861008000,1861008000,0.0013505522,0.002204216,0.00042862224
1861016000,1861016000,0.00063182425,-0.010514518,0.0019733652
1861028000,1861028000,1.9289262e-05,-0.037338942,0.0035834524
1861044000,1861044000,-0.0003378747,-0.07974095,0.0030322901
1861052000,1861052000,-0.004750467,-0.106926605,0.004124775
1861064000,1861064000,-0.010629269,-0.13240959,0.002429324
1861076000,1861076000,-0.007297308,-0.15046546,0.0022422064
1861088000,1861088000,-0.0090381075,-0.148367,0.0017701688
1861104000,1861104000,-0.011644205,-0.13773414,-0.0010064149
1861116000,1861116000,-0.0063932575,-0.12564422,-0.0011727775
1861128000,1861128000,-0.009395102,-0.11355612,-0.0020126053
1861136000,1861136000,-0.008011603,-0.101370126,0.0011006169
1861148000,1861148000,-0.004443933,-0.09988254,0.0015698832
1861164000,1861164000,-0.0028382079,-0.084822506,0.0012814843
1861176000,1861176000,0.0028827202,-0.08101095,0.0017321544
1861184000,1861184000,0.0028937538,-0.0724142,0.0006578788
1861200000,1861200000,-0.0012684593,-0.056305677,0.0025934842
1861212000,1861212000,-0.0044449056,-0.039176326,0.00545312
1861224000,1861224000,0.0036590146,-0.025654715,-0.002147101
1861236000,1861236000,-0.0009075436,-0.014293104,0.00036524396
1861248000,1861248000,0.005508377,-0.0037630815,-0.0012012055
1861260000,1861260000,0.0138236405,0.007271928,-0.0022785803
1861272000,1861272000,0.013791995,0.016522566,-0.0010872473
1861284000,1861284000,0.01811724,0.02669127,-0.0019573318
1861292000,1861292000,0.020544244,0.029563315,0.002266418
1861308000,1861308000,0.025308132,0.033535253,0.0053423825
1861320000,1861320000,0.022675715,0.03638227,0.0070897858
1861332000,1861332000,0.016009258,0.03933267,-0.0028117714
1861344000,1861344000,0.012150269,0.040283445,-0.000520516
1861356000,1861356000,0.009565956,0.042080928,-0.0005075858
1861368000,1861368000,0.013979024,0.042804576,0.00034289775
1861380000,1861380000,0.009380542,0.043503776,0.001976168
1861392000,1861392000,0.00963255,0.046465736,0.002228457
1861404000,1861404000,0.008005354,0.041588657,0.0027953335
1861416000,1861416000,0.0072208326,0.03838165,-0.0021498746
1861428000,1861428000,0.001898426,0.034396265,-0.0012589982
1861440000,1861440000,0.0018557576,0.03951873,0.0018853088
1861448000,1861448000,0.0011709133,0.036595188,0.0027513425
1861464000,1861464000,-0.0032124417,0.03262093,0.0021727004
1861476000,1861476000,-0.008181353,0.030467328,0.0004413278
1861488000,1861488000,-0.0031520508,0.025567628,0.0014590318
1861500000,1861500000,-0.00045914418,0.021266134,0.0015580237
1861512000,1861512000,0.005424259,0.020973135,-0.0023691354
1861524000,1861524000,0.0007577841,0.018781196,-0.0019389472
1861536000,1861536000,0.0027311947,0.017099198,-0.0025511184
1861548000,1861548000,0.0027055473,0.014711501,-0.0036825077
1861560000,1861560000,-0.0016405135,0.015147163,0.0008412614
1861572000,1861572000,0.005918516,0.007253477,0.0011965381
1861584000,1861584000,0.0068242135,0.004422273,-0.00033538305
1861596000,1861596000,0.007375747,0.0013282038,0.0045867856
1861608000,1861608000,0.008263073,0.0053975787,0.0061071143
1861616000,1861616000,0.009169872,0.0046435567,0.0036467768
1861632000,1861632000,0.0053019277,0.0033646156,0.0012211825
1861640000,1861640000,0.006445924,0.0026173373,0.0026845392
1861652000,1861652000,0.010234225,0.0046409853,0.0006367765
1861668000,1861668000,0.011427898,0.007753525,0.00026597438
1861680000,1861680000,0.007770285,0.010994479,-0.0026325835
1861692000,1861692000,0.0007254092,0.010959987,0.0019815473
1861700000,1861700000,5.9635844e-05,0.017063048,0.0054293512
1861716000,1861716000,0.0034529467,0.009637002,-0.0013963393
1861728000,1861728000,0.0032288304,0.010469549,0.0018212674
1861736000,1861736000,0.003791412,0.012120294,-0.0013845238
1861748000,1861748000,0.0002602216,0.013059724,0.0040858644
1861760000,1861760000,-0.0067772344,0.010779124,0.005732105
1861776000,1861776000,-0.0042054863,0.014201126,-0.00053492794
1861788000,1861788000,-0.0009670492,0.011148407,-0.003315773
1861796000,1861796000,-0.0028487337,0.007987777,-0.0039070575
1861808000,1861808000,-0.0012955279,0.005419813,-0.000328404
1861824000,1861824000,0.0020482978,0.008510641,0.0011152038
1861836000,1861836000,0.0010624158,0.009851827,0.001354383
1861848000,1861848000,0.003366493,0.014714606,0.002536312
1861860000,1861860000,0.005565246,0.014892873,9.335214e-05
1861872000,1861872000,0.005949902,0.014687865,-0.00052520924
1861884000,1861884000,0.0038373005,0.0113216415,-0.004135814
1861892000,1861892000,0.0018348449,0.008262769,-0.0040790234
1861904000,1861904000,-0.0028768717,0.0041600093,-0.003230541
1861916000,1861916000,-0.008973057,-0.00049023656,-0.004891052
1861932000,1861932000,-0.004365762,0.0016294448,0.0012271411
1861944000,1861944000,-0.0050473204,0.0009987815,0.0040895594
1861956000,1861956000,0.0007682364,0.0003840858,0.002078043
1861968000,1861968000,0.0014814562,-0.0054334532,0.00030569386
1861980000,1861980000,0.00360208,-0.0018100198,0.006277822
1861992000,1861992000,0.0008201117,0.0043248627,0.0030333165
1862004000,1862004000,0.003066494,0.0011700243,0.0017518031
1862016000,1862016000,0.011286387,-0.0073078675,-0.005634124
1862024000,1862024000,0.008529656,-0.008972266,-0.0022730099
1862040000,1862040000,0.0046507823,-0.009659508,0.004526908
1862052000,1862052000,0.00468939,-0.004698074,0.003971254
1862064000,1862064000,-0.0033883525,-0.0035818159,0.0032289668
1862076000,1862076000,-0.0036162757,-0.004661288,-0.00061584957
1862084000,1862084000,0.00050723157,-0.006463632,-0.0014790841
1862096000,1862096000,0.0015787459,-0.0030994182,0.00277353
1862112000,1862112000,0.0023480654,-7.89077e-05,0.0051014563
1862120000,1862120000,0.0027461,0.0006814352,0.0049693976
1862132000,1862132000,-0.0028854953,-0.011414375,0.0013003567
1862148000,1862148000,0.0039478373,-0.0031288904,-0.0037647667
1862160000,1862160000,0.0038682702,-0.008616667,-0.0028226555
1862168000,1862168000,-0.0004932558,-0.009928014,0.0041469513
1862184000,1862184000,0.00073135475,-0.0034083296,-0.002534821
1862196000,1862196000,0.0047163423,-0.002637853,-0.0047910055
1862204000,1862204000,0.0027462528,-0.0043455726,-0.00083062175
1862216000,1862216000,-0.0019674518,-0.008352661,0.0031344984
1862228000,1862228000,-0.0020632758,-0.008588472,-0.0021860355
1862240000,1862240000,-0.0035428414,-0.011401558,0.0012259319
1862256000,1862256000,-0.0009870687,-0.005827289,-0.00038248292
1862268000,1862268000,-0.0012134018,-0.0012349356,-0.002562166
1862276000,1862276000,-0.0011579469,-0.0033709197,-0.0010600198
1862288000,1862288000,-0.004024819,0.00015777117,-0.00061281683
1862304000,1862304000,-0.005150209,0.006599103,-0.0020165895
1862316000,1862316000,-0.0048067365,0.00804863,-0.0036105828
1862328000,1862328000,-0.0009191696,0.013359476,5.7763973e-06
1862340000,1862340000,0.0031072176,0.014589498,0.003911563
1862352000,1862352000,0.003916952,0.014433606,-0.0012938194
1862360000,1862360000,0.003662585,0.012022119,-0.00062188454
1862372000,1862372000,0.0005088515,0.017473977,0.0015018153
1862388000,1862388000,0.0024360653,0.020925332,0.003918049
1862400000,1862400000,-0.00046874676,0.019932665,0.002658078
1862412000,1862412000,-0.0018871271,0.016879987,-0.001454064
1862420000,1862420000,0.0009588306,0.014181212,0.0014577388
1862436000,1862436000,0.0031020318,0.017183017,0.004103895
1862448000,1862448000,0.0094720805,0.012602305,0.0027589803
1862460000,1862460000,0.0002270157,0.0061133457,0.004812602
1862472000,1862472000,-0.0021289831,-0.0013110428,0.0018046218
1862480000,1862480000,0.0010366808,-0.001382288,0.0030232642
1862496000,1862496000,9.1960595e-05,0.0056006443,-0.0028307813
1862508000,1862508000,0.0021095427,0.007927028,-0.0014746023
1862516000,1862516000,0.0029943548,0.007793951,-0.00076577533
1862532000,1862532000,-0.001775445,0.015503318,-0.004638476
1862544000,1862544000,-0.002331362,0.0126325805,-0.0022950908
1862556000,1862556000,-0.013568302,0.01596184,-0.006634199
1862564000,1862564000,-0.013004052,0.011564685,-0.0052538426
1862576000,1862576000,-0.011133471,7.2766095e-05,-0.00077891035
1862592000,1862592000,-0.0049944865,-0.0006078156,-0.0011228817
1862604000,1862604000,-0.00096763065,-0.00061278977,0.001371559
1862616000,1862616000,-0.0023530037,-0.00038573984,0.0037872216
1862628000,1862628000,-0.0018509012,-0.0018275538,0.0007686159
1862640000,1862640000,-0.0053568603,-0.00431667,0.010427822
1862652000,1862652000,-0.009657903,-0.004582434,0.0019051359
1862664000,1862664000,-0.00022002397,-0.0065796915,0.0017456244
1862676000,1862676000,-0.0032927261,-0.0061033983,0.00084258296
1862688000,1862688000,-0.0057996516,-0.0026482958,0.0041250978
1862700000,1862700000,-0.003241368,0.0037559979,-0.002450192
1862712000,1862712000,3.433373e-05,0.003560942,0.00039091535
1862720000,1862720000,0.0043000793,0.0015349793,-0.004843901
1862736000,1862736000,0.0029080417,-0.0012219297,-0.0054205917
1862744000,1862744000,0.0008701498,-0.0008431971,-0.0069208285
1862756000,1862756000,-0.00016177143,0.0017298721,-0.0064975214
1862768000,1862768000,-0.0040535033,0.008703029,-0.0039887954
1862784000,1862784000,-0.0012494677,0.010258739,-0.008832843
1862796000,1862796000,0.0031832447,0.009557919,-0.012598388
1862808000,1862808000,0.0075803897,0.009767607,-0.005806393
1862820000,1862820000,0.006254701,0.003657657,-0.010144866
1862828000,1862828000,3.4910103e-05,0.0044714636,-0.013858996
1862844000,1862844000,0.00067307276,0.005313323,-0.006874932
1862856000,1862856000,-0.00028155954,3.4894794e-05,-0.011128941
1862868000,1862868000,-0.0014439045,-0.00078957295,-0.007961728
1862880000,1862880000,0.0021305939,0.00408121,-0.010526426
1862892000,1862892000,0.001552807,0.0033820109,-0.010972636
1862904000,1862904000,-0.00077967445,0.0076377117,-0.010289532
1862916000,1862916000,0.0023351153,0.0016451268,-0.012833906
1862928000,1862928000,0.0031992027,0.002323585,-0.013887115
1862936000,1862936000,0.0028500617,-0.00039785914,-0.01677748
1862952000,1862952000,0.0027788624,0.0051406138,-0.008024573
1862964000,1862964000,-0.0001486651,-0.00055730855,-0.005710018
1862976000,1862976000,0.0009428197,6.5357424e-05,-0.008350161
1862984000,1862984000,0.0017973715,0.005110634,-0.007923385
1862996000,1862996000,-0.0014288587,0.0055877157,-0.005689131
1863008000,1863008000,0.0042264685,0.0026272763,-0.0061991215
1863024000,1863024000,-0.0005676581,0.003234312,-0.006376388
1863036000,1863036000,0.0064462433,0.0041372795,-0.002279592
1863048000,1863048000,0.00089334464,0.006024942,0.0007116309
1863060000,1863060000,0.0044915816,0.0029807286,0.0021381408
1863068000,1863068000,0.0044991267,0.0051648906,0.002671291
1863080000,1863080000,0.005238251,0.007864554,-0.0010571905
1863096000,1863096000,0.010459527,0.009875233,0.0004078913
1863108000,1863108000,0.008729399,0.011416318,-0.0005466875
1863120000,1863120000,0.011035059,0.012033999,0.0007381621
1863132000,1863132000,0.0068193423,0.015992556,-0.0039166827
1863140000,1863140000,0.010637959,0.01859272,-0.0059746406
1863156000,1863156000,0.00473446,0.013603678,-0.0006009743
1863168000,1863168000,0.006494262,0.019955676,-0.0007604698
1863180000,1863180000,0.007601038,0.019177746,0.0032697795
1863192000,1863192000,0.0076623172,0.016479464,0.0030777168
1863204000,1863204000,0.009519909,0.011355154,0.0038515083
1863216000,1863216000,0.0064971508,0.011383022,0.0065725925
1863228000,1863228000,0.0049364218,0.0062325783,0.008447173
1863236000,1863236000,0.0024768177,0.0063461196,0.0065028756
1863252000,1863252000,0.0006365463,0.002491632,0.004826743
1863264000,1863264000,-0.0009442832,0.0037723028,0.008051049
1863276000,1863276000,0.003854397,0.0013240152,0.0066263312
1863288000,1863288000,-0.0008632576,0.00070590153,0.0044953637
1863300000,1863300000,0.0007246313,0.001673196,0.0078066774
1863312000,1863312000,0.0010915153,0.007041361,0.012967141
1863324000,1863324000,-0.0044154776,0.010573871,0.007634995
1863336000,1863336000,-0.0018780762,0.0069610802,0.004774288
1863344000,1863344000,0.0015998213,0.008070355,0.0047116573
1863356000,1863356000,-0.000116909156,0.007885393,0.009199428
1863372000,1863372000,0.00034134305,0.0064130765,0.014143198
1863384000,1863384000,-0.0013332736,0.0049392935,0.012387016
1863396000,1863396000,-0.0040384694,0.0070234057,0.006034322
1863408000,1863408000,-0.0038277516,0.01153164,0.008678645
1863420000,1863420000,-4.496344e-05,0.007793648,0.010853301
1863432000,1863432000,-0.0050339075,0.009276975,0.007365462
1863444000,1863444000,-0.00896467,0.00735935,0.008813744
1863452000,1863452000,-0.006566652,0.005870261,0.009675819
1863468000,1863468000,-0.0029906821,-0.00070402026,0.012792128
1863480000,1863480000,0.0012740378,-0.002567151,0.006859893
1863488000,1863488000,-0.0009578524,-0.00073282653,0.0071950387
1863500000,1863500000,-0.0062322915,-0.00094761094,0.008405367
1863516000,1863516000,-0.0077299927,-0.001286814,0.01058904
1863528000,1863528000,-0.010962471,-0.0007714401,0.0078119696
1863540000,1863540000,-0.009222524,0.0019529504,0.009124858
1863552000,1863552000,-0.0060037076,-0.00035728514,0.011139812
1863564000,1863564000,-0.0009831144,-0.00078637665,0.006519327
1863572000,1863572000,-0.008006898,0.0006088214,0.0036282598
1863584000,1863584000,-0.012344665,0.0037681551,0.0065160384
1863596000,1863596000,-0.0029471926,0.007972814,0.008258646
1863612000,1863612000,-0.0045328634,5.7179015e-05,0.007933789
1863624000,1863624000,0.0014075891,0.006952687,0.011768431
1863636000,1863636000,0.00081304053,0.0054345126,0.008350738
1863648000,1863648000,0.005219849,0.0031720495,0.008906837
1863660000,1863660000,0.006092963,-0.0044021504,0.010020012
1863668000,1863668000,0.006238339,-0.0029409379,0.010986826
1863684000,1863684000,0.0031116381,-0.0035586925,0.010875247
1863692000,1863692000,0.004098119,-0.0055741286,0.008031266
1863704000,1863704000,0.0069958186,-0.008027962,0.009412117
1863720000,1863720000,0.0055164844,-0.0032866881,0.008272927
1863728000,1863728000,0.002989522,0.0006606155,0.00495245
1863740000,1863740000,0.0028122938,0.0018616575,0.0057447515
1863752000,1863752000,0.0111421,0.00373904,0.009541637
1863768000,1863768000,0.009615971,0.003984941,0.007995292
1863780000,1863780000,0.006141905,-0.000496808,0.004118199
1863792000,1863792000,0.0058654556,-0.0006646798,0.0076990156
1863804000,1863804000,0.002885441,-0.0038732332,0.0119495075
1863816000,1863816000,0.0044875513,-0.00062198704,0.0078015053
1863824000,1863824000,0.004321936,-0.0020310069,0.0069600646
1863840000,1863840000,0.0032242802,-0.0037680618,0.011757356
1863848000,1863848000,0.0038897495,-0.0030841068,0.0055323266
1863864000,1863864000,-0.003527031,-0.003488794,0.010034872
1863872000,1863872000,-0.0050375853,-0.002435564,0.011641024
1863888000,1863888000,0.0020894147,-0.0062339073,0.008247299
1863900000,1863900000,-0.005736353,-0.0104012685,0.006452248
1863912000,1863912000,-0.0077431547,-0.012806359,0.010756731
1863924000,1863924000,-0.0050965846,-0.006571835,0.0053387647
1863936000,1863936000,-0.010066781,-0.0038026469,0.001718756
1863948000,1863948000,-0.008331263,0.0052534235,0.000898601
1863960000,1863960000,-0.012964972,0.00042166328,0.0043627922
1863972000,1863972000,-0.012366264,0.0019245879,0.0021687988
1863980000,1863980000,-0.0092862835,0.0020538224,-0.0018457829
1863996000,1863996000,-0.0037923201,0.003347579,0.0023916692
1864008000,1864008000,-0.0064421818,0.0008030068,0.0030271427
1864020000,1864020000,-0.003477441,-0.0038291328,0.0025064629
1864032000,1864032000,-0.005162074,-0.006823796,0.0031431664
1864040000,1864040000,-0.010179638,-0.009151552,0.0018576237
1864056000,1864056000,-0.0015316347,-0.005170815,0.005120782
1864068000,1864068000,-0.001280725,-0.008143747,0.00398014
1864080000,1864080000,0.0009679885,-0.0051220446,0.0054260087
1864092000,1864092000,0.000809421,-0.0063628815,0.007232082
1864104000,1864104000,-0.0040238434,-0.0033001099,0.006279558
1864116000,1864116000,-0.0033008028,0.0027772074,0.0038881751
1864124000,1864124000,-0.0031600976,0.0036853948,0.0036074908
1864136000,1864136000,-0.0027427766,0.0034182516,0.0009835009
1864152000,1864152000,-0.0016180498,0.003377188,-0.0027302178
1864164000,1864164000,-0.0046160873,0.008528698,-0.00070845324
1864176000,1864176000,-0.0013930228,0.0054379404,0.0010135081
1864188000,1864188000,-0.0033232574,0.008864331,-0.0014524171
1864200000,1864200000,-0.005100853,0.009093584,0.0030481138
1864212000,1864212000,-9.546499e-05,0.00383215,0.0026859806
1864224000,1864224000,0.0014863821,0.005389112,0.0031843432
1864236000,1864236000,-0.00021248433,0.0018744129,0.0036590148
1864248000,1864248000,-0.004568562,0.0036115996,0.001575753
1864260000,1864260000,-0.011182221,0.004760897,-0.00030595597
1864268000,1864268000,-0.01365349,0.0007784236,-0.0032561214
1864280000,1864280000,-0.012230884,-0.00085857883,-0.0010807936
1864292000,1864292000,-0.004019704,-0.004089291,0.003238638
1864308000,1864308000,-0.000727468,-0.004798701,0.0022973886
1864316000,1864316000,0.0018627271,-0.0032700999,0.0007040895
1864328000,1864328000,0.005657499,-0.0023682667,-0.00029679522
1864344000,1864344000,0.0015064711,-0.0047478946,-0.00042109448
1864352000,1864352000,-0.004753365,-0.005218526,0.0019568373
1864368000,1864368000,-0.008844625,-0.0010013506,-0.0024983517
1864380000,1864380000,0.0011325277,0.0003708508,-0.0032302132
1864392000,1864392000,0.0013289726,-0.0048761875,0.0014770837
1864404000,1864404000,-0.006688481,-0.0042238,0.0037356042
1864416000,1864416000,-0.0034055156,-0.0060494025,0.0016150126
1864424000,1864424000,0.0021693495,-0.0050058425,0.0023997896
1864440000,1864440000,0.004758483,-0.009416167,0.0039793593
1864448000,1864448000,0.0064063263,-0.011114268,0.0021352258
1864464000,1864464000,0.0073536774,-0.00875218,0.0054589007
1864476000,1864476000,0.006839268,-0.0055956384,0.0020285328
1864488000,1864488000,0.0056402087,0.000106129795,0.0018226159
1864500000,1864500000,0.004142367,0.0022786423,0.0021174958
1864512000,1864512000,0.0017801981,0.0044108722,-0.002968275
1864524000,1864524000,0.0048345625,0.0066214832,0.0062959697
1864536000,1864536000,0.007888791,0.004070214,0.0066266935
1864548000,1864548000,0.006276233,-0.0014350237,-0.00487925
1864560000,1864560000,0.0037692895,-0.0015842663,-0.006204842
1864572000,1864572000,0.0014777547,-0.00474766,-0.00070569926
1864584000,1864584000,0.0029447146,-0.0059923064,0.00048468082
1864592000,1864592000,0.0065712305,-0.0051699453,0.0013122472
1864608000,1864608000,0.0053322436,0.0011283127,0.0024007391
1864620000,1864620000,0.0035695892,-0.007230689,-0.004303605
1864628000,1864628000,0.003287921,-0.014421184,-0.0017598151
1864644000,1864644000,-0.0015025418,-0.01070512,-0.0022097835
1864656000,1864656000,0.004806219,-0.013477849,0.0001613538
1864668000,1864668000,-0.00045970787,-0.013453236,0.0011437113
1864676000,1864676000,0.00078933965,-0.011246964,0.00380446
1864688000,1864688000,0.00203519,-0.006392374,-0.0013989981
1864704000,1864704000,-0.001311009,-0.0033997796,0.0008824854
1864712000,1864712000,-0.003675991,-0.003089868,0.0047926176
1864728000,1864728000,-0.0072570425,0.0014221538,0.001040141
1864736000,1864736000,-0.005537444,0.0043565296,0.00024265968
1864748000,1864748000,-0.006152755,-0.00066984724,0.0048042303
1864764000,1864764000,-0.008798045,-0.0016169003,-0.00080377096
1864776000,1864776000,-0.0065559307,-0.0020937878,0.00076179806
1864788000,1864788000,-0.0062133754,0.00033988152,-0.005028303
1864800000,1864800000,-0.00085956504,0.0009615985,0.0007015386
1864812000,1864812000,-0.0013403972,0.0051876013,0.0017976221
1864824000,1864824000,-0.003818404,0.0047871205,0.0015035307
1864836000,1864836000,-0.0065163183,0.004126885,-0.0012489442
1864848000,1864848000,-0.005966309,0.007108341,-0.0016914606
1864856000,1864856000,-0.00093793875,0.009041161,-0.00044850935
1864872000,1864872000,-0.004568647,0.0013956456,0.0006511143
1864884000,1864884000,-0.0039731776,0.011019764,0.006011061
1864896000,1864896000,-0.0030391745,0.009840682,0.0027499138
1864904000,1864904000,-0.0033094853,0.005495059,0.00020544934
1864916000,1864916000,-0.00092703965,0.0030924752,-0.0016742834
1864932000,1864932000,-0.0046958434,0.007229853,-0.0027821548
1864940000,1864940000,-0.0031049796,0.0005137073,-0.0036393274
1864956000,1864956000,0.00030996423,0.0035733604,-0.0011141935
1864968000,1864968000,0.0054786415,0.0012176223,0.005939561
1864980000,1864980000,0.004464869,0.0066055516,0.00043507502
1864988000,1864988000,-0.0044521987,0.0113400305,-0.00067594415
1865004000,1865004000,-0.008514798,0.01798952,0.00023268665
1865012000,1865012000,-0.0077613285,0.0140169,-0.0017533253
1865028000,1865028000,-0.0035748454,0.009083311,0.00081936305
1865040000,1865040000,-0.0076353885,0.00857426,0.0030735324
1865048000,1865048000,-0.007600856,0.006783345,0.0030820013
1865064000,1865064000,-0.0022614445,0.008506311,0.0017097689
1865076000,1865076000,-0.00024275953,0.005247357,0.0030855697
1865084000,1865084000,0.001438827,0.0046954053,-0.0036905147
1865100000,1865100000,0.000527303,0.004527666,0.0016588783
1865112000,1865112000,-0.0025073085,0.0024515954,-0.00557386
1865124000,1865124000,0.0023330562,-0.00030147145,-0.001357253
1865136000,1865136000,-0.0013757267,0.0025616065,-0.0018575705
1865148000,1865148000,-0.00023622497,0.0015313369,0.003073824
1865160000,1865160000,0.0027485262,-0.0007479633,0.007813335
1865172000,1865172000,-7.391226e-05,0.00013310369,-0.0023430598
1865180000,1865180000,0.0006134859,-0.00031755725,-0.001527346
1865196000,1865196000,0.0023074856,0.0041854996,0.005294032
1865208000,1865208000,0.008139234,-0.0012345449,0.0016341138
1865220000,1865220000,0.011235207,-0.004395708,0.0022102662
1865232000,1865232000,0.0055608004,-0.0022903704,0.0002572458
1865244000,1865244000,0.00045646104,-0.0053653847,0.00016721805
1865256000,1865256000,0.0020784277,0.000985859,0.0028745187
1865268000,1865268000,0.0021852537,0.00434475,0.0044190967
1865276000,1865276000,0.0032842432,0.006238545,0.0022568589
1865288000,1865288000,0.0053184773,0.0038763192,-0.0017815959
1865300000,1865300000,0.0053972695,0.00020177849,0.0026236575
1865316000,1865316000,-0.0016531846,0.0046092602,0.003250054
1865328000,1865328000,-0.0049362057,0.008858096,-0.0014290728
1865336000,1865336000,-0.007302203,0.007407737,4.283825e-05
1865352000,1865352000,-0.002008802,0.0010165954,0.0028587538
1865364000,1865364000,-0.0005108713,-0.0019281474,-0.0002927605
1865376000,1865376000,0.004896894,0.0012168554,0.0007660598
1865384000,1865384000,0.006981659,0.0019639647,-0.00027197198
1865400000,1865400000,-0.0013148792,0.009168419,-0.0010563888
1865408000,1865408000,-0.0044791806,0.009826916,0.0016322574
1865420000,1865420000,-0.002630299,0.008064836,-0.0009940879
1865432000,1865432000,-0.0012073107,0.016855586,-0.0028933058
1865444000,1865444000,-0.0015805762,0.013167971,-0.004791977
1865460000,1865460000,0.00186809,0.009519282,0.0014415196
1865468000,1865468000,-0.0014926692,0.0074234065,0.004703593
1865484000,1865484000,0.005583082,0.0034154826,0.001975167
1865496000,1865496000,0.0024171984,0.0020103734,0.0032088577
1865508000,1865508000,0.0063270703,0.008629819,0.003032326
1865520000,1865520000,0.0049091466,0.008658148,0.0031208643
1865532000,1865532000,0.00089730433,0.005887923,0.002274759
1865540000,1865540000,0.003451574,0.004138668,0.0044522667
1865556000,1865556000,0.00590971,0.008880042,-0.00096956966
1865564000,1865564000,0.004533871,0.0060317256,-0.0013808864
1865576000,1865576000,0.0001915099,0.007767546,0.0008358443
1865592000,1865592000,-0.001445408,0.0077913026,0.0045718933
1865600000,1865600000,-0.00013973052,0.0037554298,0.0047119893
1865616000,1865616000,0.010166006,0.0037110902,-0.00073821674
1865624000,1865624000,0.0076617454,0.008570178,0.0008495648
1865640000,1865640000,0.009998539,0.0004366613,0.0008464608
1865652000,1865652000,0.0032023864,0.002984208,-0.00023616271
1865664000,1865664000,0.0033443472,0.005348531,-0.0001118921
1865676000,1865676000,0.00044026162,0.006012053,0.0020811472
1865688000,1865688000,-0.0005752623,0.0060511464,0.0020156312
1865700000,1865700000,-0.0012659694,0.0048637637,0.0076031317
1865712000,1865712000,-0.0010498099,0.0015538475,-0.0023382134
1865724000,1865724000,-0.0059937467,1.5922822e-05,-0.0013985524
1865736000,1865736000,-0.009638902,0.0010297708,0.0006504393
1865748000,1865748000,-0.0059940633,-0.0034246217,0.0041449177
1865760000,1865760000,0.0011640268,-0.002943206,0.0016146714
1865772000,1865772000,-0.0005146733,4.0978193e-06,6.191962e-05
1865780000,1865780000,-0.0034211257,0.0040614475,-0.0006380417
1865792000,1865792000,-0.0015070082,0.0037796714,0.0007877773
1865804000,1865804000,-0.0051953862,0.0043310253,0.0011842058
1865820000,1865820000,-0.007472454,0.00573221,6.133935e-05
1865832000,1865832000,0.001337277,0.0003825617,-0.00071512366
1865844000,1865844000,0.0014539338,0.002959316,-0.004912724
1865856000,1865856000,0.001358089,0.007880312,-0.0093556885
1865868000,1865868000,0.0024643922,0.008015206,-0.0037435235
1865880000,1865880000,0.007953874,0.0056672087,0.0014059028
1865888000,1865888000,0.0094495965,0.006677796,0.0004361116
1865904000,1865904000,0.006555527,-0.0018518697,0.0018446557
1865916000,1865916000,0.008482017,0.00077885715,0.0018908108
1865928000,1865928000,0.00031052175,0.002497856,0.0012315699
1865940000,1865940000,0.0036212672,0.0028396193,0.0011321432
1865952000,1865952000,0.0010134161,0.0011597932,0.0040231356
1865960000,1865960000,-0.0038444037,0.00013933098,8.357539e-05
1865972000,1865972000,-0.0031937761,-0.004564365,-0.0054661566
1865988000,1865988000,0.0022500611,-0.0050725467,-0.004708263
1865996000,1865996000,-0.00033744937,-0.007102114,-0.00026632939
1866008000,1866008000,-0.00081038795,-0.0032417038,-0.0018050834
1866024000,1866024000,0.007939364,-0.0012584627,0.0024528212
1866036000,1866036000,0.0033749782,-1.8345192e-05,-0.0006072463
1866048000,1866048000,-0.004408334,-0.0026504532,-0.0008854502
1866060000,1866060000,-0.0033168122,0.00091964845,-0.0007022317
1866072000,1866072000,0.0031123003,-0.0007663681,0.003759155
1866080000,1866080000,0.0032211835,0.0051482986,0.0031818727
1866096000,1866096000,-0.0014487931,0.011647118,-0.0001701256
1866108000,1866108000,0.0023067046,0.006921864,0.0029519615
1866120000,1866120000,-0.0007841616,0.004970613,-0.001515423
1866132000,1866132000,0.0010984424,0.0064570736,0.00254251
1866140000,1866140000,0.0010434508,0.008144585,-9.777272e-05
1866156000,1866156000,-0.00014660461,0.009891551,0.00480494
1866168000,1866168000,-0.0034548268,0.013925523,0.0028101495
1866180000,1866180000,0.0006580598,0.0033411325,0.0006071459
1866192000,1866192000,0.0044894707,0.0003495356,0.004469218
1866200000,1866200000,0.008633709,0.004703055,9.8996665e-05
1866216000,1866216000,0.0017422158,0.0070964894,0.0017023586
1866228000,1866228000,-0.0011199268,0.0031145099,0.004689615
1866240000,1866240000,-0.0015507378,0.0069531277,-0.00031373405
1866248000,1866248000,0.0002422076,0.0076736296,-0.0022723356
1866264000,1866264000,0.00033048296,0.005766874,0.0008253544
1866272000,1866272000,-0.0020725103,0.004312356,0.0015557187
1866284000,1866284000,-0.007499338,-0.0007495936,0.0013039712
1866300000,1866300000,-0.0044610444,0.00025636284,-0.00036304287
1866312000,1866312000,-0.0006616173,-0.00023575919,0.0014865634
1866320000,1866320000,-0.0035098915,0.0017229668,0.0035379378
1866336000,1866336000,-0.00019642612,-0.0020553432,0.0012173819
1866348000,1866348000,0.0058033112,0.00049568387,-0.005446133
1866356000,1866356000,0.0077379686,-0.0057129455,-0.0036014793
1866368000,1866368000,0.0060741906,-0.008443679,0.0012748997
1866384000,1866384000,0.0044039674,-0.0016696542,-0.0019037449
1866396000,1866396000,0.0068996907,-0.0013933782,-0.0011636615
1866408000,1866408000,0.007972619,-0.0019287863,0.003339908
1866416000,1866416000,0.01037497,0.0027701664,0.004098224
1866432000,1866432000,0.0025060866,0.0069473223,0.0029531876
1866444000,1866444000,-0.0022794337,0.0047579613,0.00024004855
1866456000,1866456000,-0.009197399,0.0013447609,0.0015298623
1866464000,1866464000,-0.010391251,-0.0012421296,0.0007329647
1866480000,1866480000,-0.009228344,-3.26992e-05,-0.0009945269
1866492000,1866492000,-0.0082583865,-0.005305284,0.001269901
1866500000,1866500000,-0.0050816387,-0.0035443013,-0.00020074905
1866516000,1866516000,-0.0060934452,-8.9155976e-05,-0.002691357
1866528000,1866528000,-0.006554342,-0.0010805838,0.0032766687
1866540000,1866540000,-0.009331457,-0.0006604842,0.0038272908
1866548000,1866548000,-0.010183457,-0.0021906793,0.0017945492
1866564000,1866564000,-0.0055307555,0.0033285518,-0.0008686025
1866576000,1866576000,-0.008148789,0.0036159612,0.004278577
1866588000,1866588000,-0.0031378302,0.004374158,0.00498504
1866600000,1866600000,-0.005822096,0.007965536,0.0009637569
1866612000,1866612000,-0.007623316,0.0070104096,-0.0023515904
1866624000,1866624000,-0.013790144,0.005806298,-0.0016926386
1866632000,1866632000,-0.012225372,0.0024634781,4.127268e-05
1866644000,1866644000,-0.013559209,0.0041159564,0.0018253704
1866656000,1866656000,-0.016913226,0.006486393,0.0024129704
1866672000,1866672000,-0.017676149,0.005817996,0.0060868463
1866680000,1866680000,-0.016484967,0.004645136,0.0017807105
1866692000,1866692000,-0.012356197,0.008483546,0.0021652763
1866704000,1866704000,-0.012547702,0.00596185,0.0014996564
1866720000,1866720000,-0.013454222,0.010248462,0.0005101705
1866732000,1866732000,-0.010600296,0.009545503,0.0015982141
1866744000,1866744000,-0.0063399253,0.0052514696,0.00022314886
1866756000,1866756000,-0.006798699,0.0034600801,0.0013877865
1866768000,1866768000,-0.0046397103,0.009844643,0.0015888225
1866780000,1866780000,-0.0015164304,0.0087093925,-0.0025739984
1866792000,1866792000,0.0014172483,0.0040599126,0.0015525953
1866804000,1866804000,-0.0035570478,0.0018584304,0.0064562783
1866816000,1866816000,-0.0041546454,-0.0026339102,-2.7659844e-06
1866824000,1866824000,-0.004945739,-0.000280553,-0.002779859
1866840000,1866840000,-0.009821811,0.0020986754,-0.00046702783
1866852000,1866852000,-0.007978156,0.010649207,0.00083608145
1866864000,1866864000,-0.0041945134,0.009022171,0.0014972938
1866872000,1866872000,-0.0027996823,0.009648859,-0.0016451298
1866888000,1866888000,-0.0038274517,0.0037369246,0.0027032425
1866900000,1866900000,-0.002442767,0.004500863,0.0041274773
1866912000,1866912000,-0.010520231,-7.5864606e-05,0.0028788857
1866924000,1866924000,-0.0058305594,0.0054383986,0.0033360778
1866936000,1866936000,-0.004734119,0.0024660197,-0.0007487079
1866948000,1866948000,-0.0010411271,4.8591755e-05,0.0038849057
1866956000,1866956000,0.0030283132,0.0013503856,0.0034874736
1866972000,1866972000,0.0034548133,0.0028813174,0.0031655375
1866984000,1866984000,-0.0006920764,0.007293783,0.006338866
1866996000,1866996000,-0.003739065,0.0048847874,0.0022198365
1867008000,1867008000,-0.0042817644,0.0035819497,0.002261911
1867016000,1867016000,-0.0015308221,0.0005760011,0.004031671
1867032000,1867032000,0.006038463,0.0065572094,-0.00016821144
1867044000,1867044000,0.0033912614,0.011554943,-0.0021033501
1867056000,1867056000,0.000115451345,0.008685958,0.0028662535
1867068000,1867068000,-0.004411395,0.0054287524,0.0018219927
1867080000,1867080000,0.0010800686,0.0063834605,0.0007997867
1867092000,1867092000,-0.00036738865,0.002268616,-0.0045728944
1867104000,1867104000,0.001176855,0.007450884,-0.0022390117
1867116000,1867116000,0.002010772,0.0023117573,0.0027130626
1867128000,1867128000,0.0025081884,0.0035328087,-0.0018936432
1867140000,1867140000,0.0043972917,0.001655824,-0.001617087
1867152000,1867152000,0.0047014165,0.0016874312,0.002188805
1867164000,1867164000,0.006969891,0.0005619456,0.0026143272
1867176000,1867176000,0.0043069734,0.0059361355,0.005447126
1867188000,1867188000,0.008025309,0.002164307,0.0043136324
1867200000,1867200000,0.0065719457,0.0025445498,0.00032284748
1867212000,1867212000,0.00903076,0.0062153647,0.0019684904
1867220000,1867220000,0.0068565924,0.010281257,0.0005477272
1867236000,1867236000,0.0005775156,0.0063655474,-0.004804193
1867248000,1867248000,-0.0023259344,-0.00083221355,0.002180288
1867260000,1867260000,-0.0027723524,-0.0016162186,0.0073504895
1867272000,1867272000,-0.003758464,-0.002850988,-0.0012814638
1867284000,1867284000,-0.004470138,0.003400661,0.00068552373
1867292000,1867292000,-0.0016591689,0.009797765,0.00239313
1867308000,1867308000,0.008461804,0.014314279,0.0013913839
1867316000,1867316000,0.0063671824,0.014933817,0.0020226778
1867328000,1867328000,0.002127786,0.011611307,0.002167586
1867344000,1867344000,-0.0027341489,0.005550136,-0.00045542224
1867352000,1867352000,-0.0052798456,0.0025266078,-0.0004376935
1867368000,1867368000,0.0025857002,-0.0014784909,0.0008502018
1867380000,1867380000,0.0018797407,-0.0011125044,0.004178322
1867392000,1867392000,0.00092549104,0.0049133757,0.002471642
1867404000,1867404000,-0.0014615573,0.008027823,0.00028206076
1867416000,1867416000,0.00012011349,0.0048495457,-0.0020967377
1867428000,1867428000,0.0042643556,0.011368338,0.0021611988
1867440000,1867440000,0.006400446,0.0100366715,0.005502032
1867452000,1867452000,0.003302255,0.003334267,0.0010080441
1867464000,1867464000,0.008629309,0.0078509785,0.0010133923
1867476000,1867476000,0.006260979,0.006523174,-0.0028873726
1867488000,1867488000,0.0111955665,0.0054992023,-0.002847442
1867500000,1867500000,0.00954796,0.007015902,0.005363442
1867512000,1867512000,0.0077260556,0.0055185487,-0.003123277
1867524000,1867524000,0.0036544597,0.0033774169,-0.0085753715
1867536000,1867536000,0.007738971,0.009671091,-0.00025866815
1867544000,1867544000,0.011354988,0.0020760326,-0.0032076077
1867556000,1867556000,0.012917693,-0.0016337819,0.0013495986
1867568000,1867568000,0.008453971,-0.002610623,0.0073015145
1867580000,1867580000,0.0052414904,-0.0053684004,-0.0023095228
1867592000,1867592000,-0.00029216497,-0.0047493125,-0.0028160487
1867608000,1867608000,0.003047082,-0.0003906591,0.0039902763
1867616000,1867616000,0.0013156275,0.0030090464,0.0011594157
1867632000,1867632000,-0.0014937054,-0.0019373256,0.0005318052
1867644000,1867644000,-0.0050423997,-0.0029359492,-0.0020073692
1867656000,1867656000,0.0021577566,-0.00434515,0.0018909064
1867664000,1867664000,0.0032148864,-0.0020688958,0.00029759548
1867680000,1867680000,0.0015733249,-0.010298854,0.004325104
1867688000,1867688000,-0.00036172126,-0.009194603,0.0039861985
1867700000,1867700000,-0.0045161243,-0.005018892,0.0026960962
1867716000,1867716000,-0.0047353334,-0.0074754707,0.0021204613
1867728000,1867728000,-0.0062366393,-0.011739695,-0.0015160472
1867736000,1867736000,-0.0035528026,-0.011519514,-0.0041755885
1867748000,1867748000,-0.010230354,-0.015450006,0.0044285064
1867760000,1867760000,-0.00868686,-0.015097084,0.0035916294
1867776000,1867776000,-0.0063142856,-0.013370881,0.0038198028
1867784000,1867784000,-0.009052994,-0.012930475,0.0019937162
1867800000,1867800000,-0.0043903748,-0.006995163,0.0027675016
1867812000,1867812000,-0.00029477716,-0.0008077463,0.0011003678
1867824000,1867824000,-0.004342273,0.0022858893,0.0027963303
1867836000,1867836000,-0.011255697,-0.0051761456,-0.0012773469
1867848000,1867848000,-0.009131461,-0.011907628,0.000235394
1867856000,1867856000,-0.0053104344,-0.0071638133,-0.002669718
1867872000,1867872000,-0.0073247617,-0.005980677,0.0006896416
1867884000,1867884000,-0.009984773,-0.010013402,-0.0016642908
1867896000,1867896000,-0.008086204,-0.008239526,-0.0021188774
1867908000,1867908000,-0.010437637,-0.008164559,-0.0019838049
1867920000,1867920000,-0.00060249126,-0.007741338,2.8200157e-07
1867932000,1867932000,-0.0020418055,-0.007199354,0.0010165055
1867944000,1867944000,-0.0017217486,-0.0044277464,0.00028058555
1867952000,1867952000,0.00075179554,-0.007085617,0.00077806134
1867968000,1867968000,0.0049653184,-0.008385688,0.0015931239
1867980000,1867980000,0.0020715003,-0.011938296,-0.0050924746
1867992000,1867992000,-0.004385286,-0.010218374,-0.002597144
1868004000,1868004000,0.0034981526,-0.0035236715,0.001553618
1868012000,1868012000,0.007166204,-0.0020793774,-0.005963241
1868024000,1868024000,0.0001035828,0.00011186162,-0.004075159
1868036000,1868036000,-0.0049442733,0.001359052,0.0037937677
1868052000,1868052000,0.000850457,0.001317855,-0.002152128
1868064000,1868064000,0.0014729857,-0.0021666568,-0.0022975223
1868072000,1868072000,-0.003040699,-0.0010054032,0.0027565525
1868088000,1868088000,-0.0009890897,-0.0006445511,-0.00067207596
1868096000,1868096000,-0.0035675305,-0.006827384,0.001408265
1868108000,1868108000,-0.0070643043,-0.005144183,-6.092171e-05
1868124000,1868124000,-0.0042989766,-0.008013302,-0.001085798
1868132000,1868132000,-0.0057252985,-0.013992379,0.000341559
1868148000,1868148000,0.0004133371,-0.010346208,0.00285437
1868160000,1868160000,-0.00025636103,-0.00891904,0.00018399232
1868172000,1868172000,-0.0017378347,-0.003527705,0.0018422486
1868184000,1868184000,-0.005905831,0.004877885,-0.00033685355
1868192000,1868192000,-0.005516038,0.008911204,-0.00056023995
1868204000,1868204000,-0.0023293614,0.007336368,-3.6740195e-05
1868220000,1868220000,-0.0032329177,0.012440518,0.0027148125
1868232000,1868232000,-0.007585046,0.0074395956,-0.0007755222
1868240000,1868240000,-0.0064501925,0.011749778,0.0033018084
1868256000,1868256000,0.000503932,0.013563721,0.0021011413
1868268000,1868268000,-0.0006621907,0.013935927,-0.0011874803
1868280000,1868280000,-0.0021229335,0.012650851,-0.0007675273
1868288000,1868288000,0.0013707164,0.014278522,-0.0032202022
1868300000,1868300000,0.0011090005,0.011479292,-0.003995862
1868316000,1868316000,0.007155092,0.012983539,0.0032354475
1868324000,1868324000,0.01123246,0.01340366,0.00039986102
1868340000,1868340000,0.0037793445,0.0027303987,-0.0008591863
1868348000,1868348000,0.0050109075,-0.0028557926,0.008063518
1868364000,1868364000,0.0066469526,-0.0048539317,0.0023369095
1868376000,1868376000,0.011152448,-0.0039886422,-0.00038719946
1868388000,1868388000,0.0036170953,0.0018276591,0.0031158424
1868396000,1868396000,0.0069728107,-0.0009046919,0.0014100022
1868412000,1868412000,0.0072278394,-0.0058708834,-0.0027898664
1868420000,1868420000,0.0062416196,-0.0067930217,-0.00045783995
1868432000,1868432000,0.004212305,-0.0042454223,0.00019015287
1868448000,1868448000,0.0023958236,0.0046440656,-0.0048096743
1868460000,1868460000,-0.0057065655,0.0053092204,0.0009486763
1868472000,1868472000,-0.007787338,0.013427552,-0.0008547907
1868484000,1868484000,-0.009225456,0.01385124,0.0011721607
1868492000,1868492000,-0.006812008,0.0018333104,0.00097087707
1868504000,1868504000,-0.010530581,-0.00092313625,0.002084234
1868516000,1868516000,-0.0060383454,0.0045838295,-0.006043416
1868528000,1868528000,-0.0070053935,0.0017760755,-0.004437566
1868544000,1868544000,-0.004592046,0.00046733813,-0.0018037718
1868552000,1868552000,-0.0066271066,0.00027934462,-0.0055943006
1868568000,1868568000,-0.0063396757,-2.9895455e-05,0.0021056314
1868576000,1868576000,-0.0051806695,-3.5937876e-05,0.002536811
1868592000,1868592000,-0.006691833,-0.0024977033,0.005280989
1868604000,1868604000,-0.010854664,-0.00024037389,0.0049306992
1868616000,1868616000,-0.013881853,0.008168373,0.004329411
1868628000,1868628000,-0.009484926,0.005824684,0.0018552856
1868640000,1868640000,-0.006345337,0.0047833542,-0.0003880892
1868652000,1868652000,-0.0027119517,0.009334442,0.0007236805
1868664000,1868664000,-0.00322271,0.0054782997,0.0014875904
1868676000,1868676000,-0.0035103513,0.0059744106,-0.0010461458
1868688000,1868688000,-0.0023998406,0.001868736,0.0011059745
1868700000,1868700000,-0.0032458585,-0.0041123275,0.00227618
1868708000,1868708000,-0.0065520597,-0.0071388735,0.00036859163
1868724000,1868724000,-0.013096559,-0.004446449,0.0010800733
1868736000,1868736000,-0.0158211,-0.0024171835,0.00016828167
1868748000,1868748000,-0.013229455,-0.0013461187,-0.0033267445
1868760000,1868760000,-0.017116977,-0.0005681226,-0.003209498
1868772000,1868772000,-0.01172861,-0.0018007336,-0.0011094713
1868780000,1868780000,-0.006576613,-0.0050077047,0.00041276385
1868796000,1868796000,-0.0067649772,0.000882254,-0.0026405533
1868808000,1868808000,-0.0065470915,0.0015530935,0.0026783815
1868820000,1868820000,-0.008583166,-0.00143445,0.0033696024
1868832000,1868832000,-0.011281961,-0.0023557711,-0.0012822616
1868844000,1868844000,-0.004511783,-0.0047298213,-0.0018408054
1868856000,1868856000,-0.001096731,-0.0007702415,-0.001086514
1868868000,1868868000,0.0024185576,-0.001087483,0.00200384
1868880000,1868880000,0.0016187136,0.0015969374,0.005269576
1868888000,1868888000,0.002320604,0.0064004892,0.0039667264
1868904000,1868904000,0.0036854253,0.005930131,-0.0016845426
1868916000,1868916000,0.0038834147,0.012728367,-0.0052802833
1868928000,1868928000,0.0033278111,0.011500967,0.001942245
1868940000,1868940000,0.005292698,0.007095827,0.0005488709
1868948000,1868948000,0.006890092,0.0068573765,-0.0005581274
1868964000,1868964000,0.0009634724,0.004296571,0.0002426322
1868972000,1868972000,0.002546984,0.0060456684,0.00035286206
1868988000,1868988000,0.0038340723,0.008905565,-0.0012477036
1869000000,1869000000,-0.00013729831,0.00053481665,-6.907102e-05
1869012000,1869012000,0.00015470793,-0.004826407,0.0023676252
1869020000,1869020000,-0.0017657287,-0.009659618,0.0018117175
1869036000,1869036000,-0.0029179314,0.0013261326,0.0001527183
1869048000,1869048000,-0.00024280325,0.0019446532,0.0012647981
1869060000,1869060000,0.0035012534,-0.005283064,0.0034525688
1869072000,1869072000,0.0037496486,-0.0060632736,-0.003235174
1869084000,1869084000,-0.006572774,-0.007277684,0.0007329864
1869096000,1869096000,-0.008588511,-0.007051201,0.0034946804
1869104000,1869104000,-0.00478095,-0.009747377,-0.0033260817
1869120000,1869120000,0.0016814682,-0.007821564,-0.0017742233
1869132000,1869132000,-0.0033442895,-0.004263864,-0.003577099
1869144000,1869144000,-0.0031721839,0.0004789848,-0.0019382943
1869152000,1869152000,-0.0018370652,0.0027900424,-0.00090059964
1869168000,1869168000,0.002165521,9.758072e-05,-0.00046015764
1869180000,1869180000,0.0028591538,-0.00262236,-0.00430711
1869188000,1869188000,0.00018825382,0.00030689454,-0.00074096106
1869204000,1869204000,-0.006928512,4.0611718e-05,-0.0008807519
1869212000,1869212000,-0.012652043,0.0018668682,0.0032205663
1869228000,1869228000,-0.011131633,0.002946795,0.0020077638
1869236000,1869236000,-0.011579313,0.0060998546,0.0026298212
1869252000,1869252000,-0.019569064,0.011377431,-0.0014682919
1869264000,1869264000,-0.016015355,0.008741928,-0.0013228338
1869276000,1869276000,-0.013609923,0.010095217,-9.0540576e-05
1869288000,1869288000,-0.008685717,0.0051712124,-0.002803713
1869300000,1869300000,-0.010787155,0.0014740145,-0.0031384868
1869312000,1869312000,-0.0046846056,-0.0033498625,0.00048399233
1869324000,1869324000,0.0046248427,-0.0013258555,0.0043378086
1869336000,1869336000,0.00014134753,-0.0035977825,0.0001890113
1869348000,1869348000,0.0015070182,0.0044787237,0.0017465531
1869360000,1869360000,-0.00063780113,0.0072940188,0.0005619401
1869372000,1869372000,-0.0026311926,0.0053282087,0.002853606
1869384000,1869384000,-0.001537775,0.0013516513,0.000118536045
1869392000,1869392000,0.00033914088,0.00023473939,0.001503253
1869408000,1869408000,-0.00028808025,-0.0022845576,0.005532422
1869420000,1869420000,0.008765417,-0.0034900974,-0.0012045314
1869432000,1869432000,0.0062766415,-0.0010612975,0.0011976738
1869440000,1869440000,0.0060894922,-0.0014940314,-0.0017956492
1869456000,1869456000,0.00046036515,0.00032947632,-0.0008147826
1869468000,1869468000,-0.0062244907,-0.0014462587,0.00027765334
1869480000,1869480000,-0.0077861175,-0.004897701,-0.0042734086
1869492000,1869492000,0.00013793446,0.00011320086,-0.0005720963
1869500000,1869500000,0.0022932005,0.001072533,-0.0014236461
1869512000,1869512000,0.0026846908,0.005336558,0.0030376057
1869524000,1869524000,-0.0064284336,0.016004622,-0.003325818
1869540000,1869540000,-0.0032247226,0.004326176,-0.002288338
1869552000,1869552000,-0.004542623,0.0019551702,0.002136115
1869564000,1869564000,0.002097831,0.0010339036,-0.00085873774
1869576000,1869576000,-0.0007382263,0.001490166,0.00091086776
1869588000,1869588000,-0.003499944,-0.0009534792,0.0037501235
1869596000,1869596000,-0.0059687765,-0.0073954887,-0.0005300145
1869608000,1869608000,-0.009154114,-0.0054833433,-0.0026409703
1869624000,1869624000,-0.009194119,-0.00513355,0.0035632136
1869636000,1869636000,-0.0014759656,-0.003039632,-0.0004569206
1869648000,1869648000,0.003843774,-0.00079756416,-0.0014783997
1869660000,1869660000,0.004287474,-0.0013977136,0.0064359894
1869672000,1869672000,-0.0017203363,-0.0006044158,0.0007759555
1869684000,1869684000,0.002915388,-0.00033149216,-0.0011229373
1869696000,1869696000,0.0012595368,-0.0036927508,-0.0012171742
1869708000,1869708000,0.0004615372,-0.0061537316,-0.00304483
1869716000,1869716000,-0.00041030307,-0.009492156,-0.0031437757
1869732000,1869732000,0.0010853412,-0.0092385,-0.005414482
1869744000,1869744000,0.005846999,-0.009682953,0.0010396652
1869752000,1869752000,0.0031306602,-0.0060277837,0.00027192468
1869768000,1869768000,-0.0026067428,-0.0064945696,-0.0016912965
1869776000,1869776000,-0.0013645028,-0.0020241896,-0.0006796045
1869792000,1869792000,-0.0057099727,-0.009609042,0.0022305066
1869800000,1869800000,-0.0020315936,-0.0110967215,-0.0003489697
1869812000,1869812000,0.00043437642,-0.0071383873,-0.00622153
1869828000,1869828000,0.008289052,-0.0058854525,0.005632895
1869840000,1869840000,0.00567965,-0.008547949,-0.001102584
1869852000,1869852000,-0.00085702393,-0.009165581,-0.0017031328
1869864000,1869864000,0.0031691315,-0.0027905619,0.0017850142
1869876000,1869876000,0.0024300416,-0.0031721834,0.0019005951
1869888000,1869888000,0.00558044,-0.0006769942,0.00018867543
1869900000,1869900000,0.0040680296,-0.00058772136,-0.0062921853
1869912000,1869912000,0.0068724155,-0.0030140853,-0.0012635418
1869924000,1869924000,0.007288712,-0.0022496092,0.0029743395
1869936000,1869936000,0.0029560386,-0.006001189,0.0031151744
1869948000,1869948000,0.0016253833,-0.007762483,-0.00024514165
1869960000,1869960000,0.0024876022,-0.0054169428,-0.002699229
1869972000,1869972000,0.0035820652,-0.0128432745,0.00094671047
1869984000,1869984000,0.0046701315,-0.005509174,-0.0016190937
1869996000,1869996000,0.0055649662,-0.00450437,0.0002110012
1870004000,1870004000,0.0049427254,-0.010347957,-0.0019519357
1870020000,1870020000,0.0041280994,-0.012537736,-0.0019830489
1870032000,1870032000,-0.001297245,-0.0098364055,-0.0009885839
1870044000,1870044000,-0.0036570397,-0.0109803025,-0.000795791
1870052000,1870052000,-0.003955386,-0.00875438,0.0006785672
1870064000,1870064000,-0.0005195833,-0.015079901,-0.0035000895
1870080000,1870080000,0.00012131664,-0.009852097,-0.0014910455
1870092000,1870092000,0.0055413563,-0.008262623,-0.0041750367
1870104000,1870104000,0.0049941316,-0.0071276887,0.00045315735
1870112000,1870112000,0.004444618,-0.0038110702,0.0009836277
1870124000,1870124000,-0.0007843563,-0.002576286,0.0013367299
1870140000,1870140000,0.0027948695,-0.0060326247,-0.0006317589
1870152000,1870152000,0.00042967102,-0.004185717,0.002943905
1870164000,1870164000,0.0019821061,-0.0001450805,0.0022108895
1870172000,1870172000,-0.0012883955,-4.3759122e-05,-0.0037509582
1870188000,1870188000,-0.0049264845,0.011103559,-0.0022130655
1870196000,1870196000,-0.005607954,0.010251181,-0.0034321952
1870212000,1870212000,-0.0059436997,0.0055010156,-0.0038092565
1870224000,1870224000,-0.008020387,0.0038358069,-0.0030472705
1870236000,1870236000,-0.014995543,0.004330731,-0.0073232097
1870244000,1870244000,-0.016698029,0.0077587124,-0.00049929146
1870260000,1870260000,-0.01826421,0.010596987,-0.0024361564
1870272000,1870272000,-0.016331952,0.0059315977,0.004954085
1870284000,1870284000,-0.017520107,0.00876192,0.0015278572
1870296000,1870296000,-0.010092637,0.009310018,0.0002416863
1870308000,1870308000,-0.012265201,0.0056116097,-0.00045003797
1870316000,1870316000,-0.0118114,0.0020841574,0.0011257633
1870332000,1870332000,-0.014070563,0.008971583,0.0027726488
1870344000,1870344000,-0.013319596,0.012113073,-0.00018369709
1870356000,1870356000,-0.013296513,0.001887376,-0.0023668234
1870364000,1870364000,-0.008941064,-0.0007841741,-0.00044192205
1870380000,1870380000,-0.0074882135,-0.0055103675,0.0014557175
1870388000,1870388000,-0.0077601634,-0.0022259606,0.0022648391
1870404000,1870404000,-0.007993424,-0.0035899999,-0.00031096544
1870416000,1870416000,-0.010190687,-0.0008610734,0.0022786434
1870424000,1870424000,-0.01129885,-0.00021098228,-0.0032534555
1870436000,1870436000,0.00033065153,0.00038627908,-0.0026250766
1870452000,1870452000,0.0052543893,0.0031855456,0.0008256862
1870464000,1870464000,0.0051386137,0.00025201682,-0.001808543
1870476000,1870476000,0.002435466,-0.0013782578,0.001953867
1870488000,1870488000,0.0004664602,-0.0018014493,0.0019089082
1870500000,1870500000,0.0025208683,-0.0037102937,0.0015978708
1870512000,1870512000,0.00043701194,-0.0038674693,-0.0035449294
1870524000,1870524000,0.0045165806,-0.005967011,-0.0018152102
1870532000,1870532000,0.009287987,-0.0046958025,0.0017212589
1870548000,1870548000,0.011868363,-0.009842932,0.00024618302
1870560000,1870560000,0.0039003724,-0.010745188,-0.0007388657
1870572000,1870572000,0.0048164437,-0.01313106,-5.1757524e-06
1870584000,1870584000,0.0065914984,-0.011380035,6.7872475e-05
1870596000,1870596000,0.0011293939,-0.0052385223,0.0036501782
1870608000,1870608000,0.000330745,-0.0044660144,-0.002724411
1870620000,1870620000,0.011454672,-0.006556802,-0.00018021595
1870628000,1870628000,0.007377197,-0.0034608105,-0.0005223937
1870644000,1870644000,-0.0040526222,-0.00674507,-0.000911677
1870656000,1870656000,-0.005843928,-0.00043270783,-0.0017625361
1870668000,1870668000,-0.0005523501,-0.003942461,-0.0049502524
1870680000,1870680000,0.004503819,0.0022866414,0.0004690574
1870692000,1870692000,0.0032295815,0.0045055817,0.004040981
1870704000,1870704000,0.0017054495,0.003223538,-0.0024703883
1870716000,1870716000,0.0014357343,0.0031893519,0.0027773138
1870724000,1870724000,0.0027350206,0.0027352867,0.0040488276
1870740000,1870740000,-0.00010278128,0.008550613,7.138366e-05
1870748000,1870748000,0.00032552338,0.0077293953,-0.0034187608
1870764000,1870764000,0.0039944015,0.0073768664,0.0009706431
1870776000,1870776000,-0.0075513837,0.002778393,0.0044831005
1870788000,1870788000,-0.0021685264,0.0018180609,-0.0013838436
1870796000,1870796000,-0.00054185867,0.0034356532,-0.0048211943
1870808000,1870808000,-0.002981993,0.0049171923,-0.0023437652
1870820000,1870820000,-0.0031211642,0.004983511,-0.0010572562
1870836000,1870836000,-0.0021474329,0.008033136,0.0031646555
1870844000,1870844000,-0.002228995,0.008488248,0.00088699075
1870856000,1870856000,0.0044394196,0.0062525664,0.0009110411
1870872000,1870872000,0.0030937612,-0.00079874834,-0.0049438034
1870884000,1870884000,-0.00085157435,-0.0014063818,0.00015578108
