timestamp,q[0],q[1],q[2],q[3],delta_q_reset[0],delta_q_reset[1],delta_q_reset[2],delta_q_reset[3],quat_reset_counter
1859220000,0.97896844,0.00021037197,2.7223476e-05,0.20403388,0.0,0.0,0.0,0.0,0
1859232000,0.97896844,0.000210463,2.7296646e-05,0.20403388,0.0,0.0,0.0,0.0,0
1859240000,0.97896844,0.00021052564,2.7343256e-05,0.20403388,0.0,0.0,0.0,0.0,0
1859256000,0.97896844,0.00021065262,2.7424961e-05,0.20403388,0.0,0.0,0.0,0.0,0
1859268000,0.97896844,0.0002107487,2.750714e-05,0.20403388,0.0,0.0,0.0,0.0,0
1859280000,0.97896844,0.00021083745,2.75818e-05,0.20403388,0.0,0.0,0.0,0.0,0
1859292000,0.97896844,0.0002109265,2.7649623e-05,0.20403388,0.0,0.0,0.0,0.0,0
1859300000,0.97896844,0.0002109884,2.7697499e-05,0.20403388,0.0,0.0,0.0,0.0,0
1859316000,0.97896844,0.00021110463,2.778244e-05,0.20403388,0.0,0.0,0.0,0.0,0
1859324000,0.97896844,0.00021115772,2.7813314e-05,0.20403388,0.0,0.0,0.0,0.0,0
1859340000,0.97896844,0.00021126935,2.7916174e-05,0.20403388,0.0,0.0,0.0,0.0,0
1859352000,0.97896844,0.00021135781,2.796748e-05,0.20403388,0.0,0.0,0.0,0.0,0
1859364000,0.97896844,0.00021144577,2.801848e-05,0.20403388,0.0,0.0,0.0,0.0,0
1859376000,0.97896844,0.00021154329,2.8067245e-05,0.20403388,0.0,0.0,0.0,0.0,0
1859388000,0.97896844,0.00021163379,2.8112432e-05,0.20403388,0.0,0.0,0.0,0.0,0
1859400000,0.97896844,0.00021174176,2.8178065e-05,0.20403388,0.0,0.0,0.0,0.0,0
1859412000,0.97896844,0.00021184437,2.8233359e-05,0.20403388,0.0,0.0,0.0,0.0,0
1859424000,0.97896844,0.00021193265,2.8289569e-05,0.20403388,0.0,0.0,0.0,0.0,0
1859436000,0.97896844,0.00021202095,2.8350101e-05,0.20403388,0.0,0.0,0.0,0.0,0
1859448000,0.97896844,0.00021212407,2.8417346e-05,0.20403388,0.0,0.0,0.0,0.0,0
1859460000,0.97896844,0.00021221394,2.8482938e-05,0.20403388,0.0,0.0,0.0,0.0,0
1859472000,0.97896844,0.00021229559,2.8546518e-05,0.20403388,0.0,0.0,0.0,0.0,0
1859484000,0.97896844,0.00021240901,2.8618862e-05,0.20403388,0.0,0.0,0.0,0.0,0
1859496000,0.97896844,0.00021249297,2.8692792e-05,0.20403388,0.0,0.0,0.0,0.0,0
1859508000,0.97896844,0.0002125701,2.8766739e-05,0.20403388,0.0,0.0,0.0,0.0,0
1859516000,0.97896844,0.00021262704,2.8820092e-05,0.20403388,0.0,0.0,0.0,0.0,0
1859532000,0.97896844,0.00021275665,2.893327e-05,0.20403388,0.0,0.0,0.0,0.0,0
1859540000,0.97896844,0.00021280504,2.8988989e-05,0.20403388,0.0,0.0,0.0,0.0,0
1859556000,0.97896844,0.00021292156,2.9094155e-05,0.20403388,0.0,0.0,0.0,0.0,0
1859568000,0.97896844,0.00021301438,2.9150571e-05,0.20403388,0.0,0.0,0.0,0.0,0
1859580000,0.97896844,0.00021311268,2.9235165e-05,0.20403388,0.0,0.0,0.0,0.0,0
1859592000,0.97896844,0.00021318307,2.931488e-05,0.20403388,0.0,0.0,0.0,0.0,0
1859604000,0.97896844,0.00021327152,2.9386798e-05,0.20403388,0.0,0.0,0.0,0.0,0
1859616000,0.97896844,0.00021336315,2.9461306e-05,0.20403388,0.0,0.0,0.0,0.0,0
1859628000,0.97896844,0.0002134496,2.9527106e-05,0.20403388,0.0,0.0,0.0,0.0,0
1859640000,0.97896844,0.00021352657,2.9569892e-05,0.20403388,0.0,0.0,0.0,0.0,0
1859648000,0.97896844,0.00021357951,2.9622222e-05,0.20403388,0.0,0.0,0.0,0.0,0
1859664000,0.97896844,0.00021369355,2.972003e-05,0.20403388,0.0,0.0,0.0,0.0,0
1859672000,0.97896844,0.00021375244,2.9753872e-05,0.20403388,0.0,0.0,0.0,0.0,0
1859684000,0.97896844,0.00021384742,2.9806437e-05,0.20403388,0.0,0.0,0.0,0.0,0
1859700000,0.97896844,0.0002139721,2.9867791e-05,0.20403388,0.0,0.0,0.0,0.0,0
1859712000,0.97896844,0.00021407715,2.9928939e-05,0.20403388,0.0,0.0,0.0,0.0,0
1859720000,0.97896844,0.00021414824,2.9965353e-05,0.20403388,0.0,0.0,0.0,0.0,0
1859732000,0.97896844,0.00021423609,3.0018196e-05,0.20403388,0.0,0.0,0.0,0.0,0
1859748000,0.97896844,0.0002143603,3.0097508e-05,0.20403388,0.0,0.0,0.0,0.0,0
1859760000,0.97896844,0.00021444628,3.0160538e-05,0.20403388,0.0,0.0,0.0,0.0,0
1859768000,0.97896844,0.0002145163,3.0206293e-05,0.20403388,0.0,0.0,0.0,0.0,0
1859780000,0.97896844,0.00021461045,3.0272342e-05,0.20403388,0.0,0.0,0.0,0.0,0
1859792000,0.97896844,0.00021469673,3.0338237e-05,0.20403388,0.0,0.0,0.0,0.0,0
1859804000,0.97896844,0.00021480945,3.0414483e-05,0.20403388,0.0,0.0,0.0,0.0,0
1859816000,0.97896844,0.00021489148,3.0489333e-05,0.20403388,0.0,0.0,0.0,0.0,0
1859828000,0.97896844,0.00021496421,3.0563566e-05,0.20403388,0.0,0.0,0.0,0.0,0
1859840000,0.97896844,0.000215057,3.0647927e-05,0.20403388,0.0,0.0,0.0,0.0,0
1859852000,0.97896844,0.00021514317,3.0732306e-05,0.20403388,0.0,0.0,0.0,0.0,0
1859868000,0.97896844,0.00021526334,3.0842362e-05,0.20403388,0.0,0.0,0.0,0.0,0
1859876000,0.97896844,0.00021532402,3.0886786e-05,0.20403388,0.0,0.0,0.0,0.0,0
1859888000,0.97896844,0.00021539397,3.0947558e-05,0.20403388,0.0,0.0,0.0,0.0,0
1859900000,0.97896844,0.00021549009,3.10347e-05,0.20403388,0.0,0.0,0.0,0.0,0
1859916000,0.97896844,0.00021560738,3.1132124e-05,0.20403388,0.0,0.0,0.0,0.0,0
1859924000,0.97896844,0.00021566721,3.1179872e-05,0.20403388,0.0,0.0,0.0,0.0,0
1859936000,0.97896844,0.00021575991,3.1255375e-05,0.20403388,0.0,0.0,0.0,0.0,0
1859948000,0.97896844,0.00021583826,3.1314565e-05,0.20403388,0.0,0.0,0.0,0.0,0
1859960000,0.97896844,0.00021591687,3.137413e-05,0.20403388,0.0,0.0,0.0,0.0,0
1859976000,0.97896844,0.00021603049,3.1466923e-05,0.20403388,0.0,0.0,0.0,0.0,0
1859984000,0.97896844,0.00021608899,3.1489184e-05,0.20403388,0.0,0.0,0.0,0.0,0
1859996000,0.97896844,0.00021617854,3.1547286e-05,0.20403388,0.0,0.0,0.0,0.0,0
1860012000,0.97896844,0.00021630272,3.1603824e-05,0.20403388,0.0,0.0,0.0,0.0,0
1860024000,0.97896844,0.00021640344,3.1667798e-05,0.20403388,0.0,0.0,0.0,0.0,0
1860036000,0.97896844,0.00021650863,3.1727206e-05,0.20403388,0.0,0.0,0.0,0.0,0
1860048000,0.97896844,0.00021660821,3.1783744e-05,0.20403388,0.0,0.0,0.0,0.0,0
1860060000,0.97896844,0.00021669976,3.1843545e-05,0.20403388,0.0,0.0,0.0,0.0,0
1860068000,0.97896844,0.00021675378,3.1884407e-05,0.20403388,0.0,0.0,0.0,0.0,0
1860084000,0.97896844,0.00021687541,3.197193e-05,0.20403388,0.0,0.0,0.0,0.0,0
1860096000,0.97896844,0.00021697239,3.2038515e-05,0.20403388,0.0,0.0,0.0,0.0,0
1860104000,0.97896844,0.00021703687,3.208455e-05,0.20403388,0.0,0.0,0.0,0.0,0
1860120000,0.97896844,0.00021717178,3.21814e-05,0.20403388,0.0,0.0,0.0,0.0,0
1860128000,0.97896844,0.00021720529,3.2227228e-05,0.20403388,0.0,0.0,0.0,0.0,0
1860144000,0.97896844,0.00021732395,3.233204e-05,0.20403388,0.0,0.0,0.0,0.0,0
1860152000,0.97896844,0.00021737578,3.238613e-05,0.20403388,0.0,0.0,0.0,0.0,0
1860168000,0.97896844,0.0002175029,3.250115e-05,0.20403388,0.0,0.0,0.0,0.0,0
1860180000,0.97896844,0.0002175907,3.258607e-05,0.20403388,0.0,0.0,0.0,0.0,0
1860188000,0.97896844,0.00021764975,3.26292e-05,0.20403388,0.0,0.0,0.0,0.0,0
1860204000,0.97896844,0.00021777907,3.2713346e-05,0.20403388,0.0,0.0,0.0,0.0,0
1860216000,0.97896844,0.00021785288,3.2800202e-05,0.20403388,0.0,0.0,0.0,0.0,0
1860224000,0.97896844,0.00021791227,3.285106e-05,0.20403388,0.0,0.0,0.0,0.0,0
1860236000,0.97896844,0.00021800134,3.2923075e-05,0.20403388,0.0,0.0,0.0,0.0,0
1860248000,0.97896844,0.00021809398,3.299923e-05,0.20403388,0.0,0.0,0.0,0.0,0
1860264000,0.97896844,0.0002182015,3.3050103e-05,0.20403388,0.0,0.0,0.0,0.0,0
1860276000,0.97896844,0.00021827882,3.306972e-05,0.20403388,0.0,0.0,0.0,0.0,0
1860288000,0.97896844,0.00021837455,3.3137385e-05,0.20403387,0.0,0.0,0.0,0.0,0
1860300000,0.97896844,0.00021846435,3.316465e-05,0.20403387,0.0,0.0,0.0,0.0,0
1860312000,0.97896844,0.00021855242,3.321835e-05,0.20403387,0.0,0.0,0.0,0.0,0
1860324000,0.97896844,0.00021864279,3.3271048e-05,0.20403387,0.0,0.0,0.0,0.0,0
1860336000,0.97896844,0.000218706,3.33341e-05,0.20403387,0.0,0.0,0.0,0.0,0
1860344000,0.97896844,0.00021877499,3.337011e-05,0.20403387,0.0,0.0,0.0,0.0,0
1860360000,0.97896844,0.00021889414,3.3458156e-05,0.20403387,0.0,0.0,0.0,0.0,0
1860372000,0.97896844,0.00021896609,3.351812e-05,0.20403387,0.0,0.0,0.0,0.0,0
1860384000,0.97896844,0.00021903252,3.3580178e-05,0.20403387,0.0,0.0,0.0,0.0,0
1860392000,0.97896844,0.00021909738,3.3630105e-05,0.20403387,0.0,0.0,0.0,0.0,0
1860408000,0.97896844,0.00021918751,3.371569e-05,0.20403387,0.0,0.0,0.0,0.0,0
1860420000,0.97896844,0.00021928042,3.3794196e-05,0.20403387,0.0,0.0,0.0,0.0,0
1860432000,0.97896844,0.00021936094,3.386466e-05,0.20403387,0.0,0.0,0.0,0.0,0
1860440000,0.97896844,0.00021940653,3.388969e-05,0.20403387,0.0,0.0,0.0,0.0,0
1860456000,0.97896844,0.00021953,3.396899e-05,0.20403387,0.0,0.0,0.0,0.0,0
1860468000,0.97896844,0.00021961595,3.4025106e-05,0.20403387,0.0,0.0,0.0,0.0,0
1860480000,0.97896844,0.00021969539,3.409074e-05,0.20403387,0.0,0.0,0.0,0.0,0
1860492000,0.97896844,0.00021974891,3.413075e-05,0.20403387,0.0,0.0,0.0,0.0,0
1860504000,0.97896844,0.00021981796,3.419003e-05,0.20403387,0.0,0.0,0.0,0.0,0
1860516000,0.97896844,0.00021992737,3.4256984e-05,0.20403387,0.0,0.0,0.0,0.0,0
1860524000,0.97896844,0.00021996013,3.430305e-05,0.20403387,0.0,0.0,0.0,0.0,0
1860536000,0.97896844,0.00022002796,3.4366316e-05,0.20403387,0.0,0.0,0.0,0.0,0
1860548000,0.97896844,0.000220101,3.4420027e-05,0.20403387,0.0,0.0,0.0,0.0,0
1860564000,0.97896844,0.00022021102,3.4483906e-05,0.20403387,0.0,0.0,0.0,0.0,0
1860572000,0.97896844,0.00022024823,3.4513363e-05,0.20403387,0.0,0.0,0.0,0.0,0
1860584000,0.97896844,0.00022032973,3.4563756e-05,0.20403387,0.0,0.0,0.0,0.0,0
1860600000,0.97896844,0.00022040289,3.4636665e-05,0.20403387,0.0,0.0,0.0,0.0,0
1860608000,0.97896844,0.00022048187,3.4677985e-05,0.20403387,0.0,0.0,0.0,0.0,0
1860624000,0.97896844,0.00022054066,3.474785e-05,0.20403387,0.0,0.0,0.0,0.0,0
1860632000,0.97896844,0.00022056571,3.47818e-05,0.20403387,0.0,0.0,0.0,0.0,0
1860648000,0.97896844,0.0002206736,3.4838056e-05,0.20403387,0.0,0.0,0.0,0.0,0
1860660000,0.97896844,0.00022074881,3.4880053e-05,0.20403387,0.0,0.0,0.0,0.0,0
1860672000,0.97896844,0.00022082783,3.492596e-05,0.20403387,0.0,0.0,0.0,0.0,0
1860680000,0.97896844,0.00022085884,3.495604e-05,0.20403387,0.0,0.0,0.0,0.0,0
1860692000,0.97896844,0.00022092978,3.50053e-05,0.20403387,0.0,0.0,0.0,0.0,0
1860704000,0.97896844,0.0002209306,3.5045927e-05,0.20403387,0.0,0.0,0.0,0.0,0
1860716000,0.97896844,0.00022099506,3.5092216e-05,0.20403387,0.0,0.0,0.0,0.0,0
1860732000,0.97896844,0.00022110302,3.5144396e-05,0.20403387,0.0,0.0,0.0,0.0,0
1860740000,0.97896844,0.00022113662,3.5166377e-05,0.20403387,0.0,0.0,0.0,0.0,0
1860756000,0.97896844,0.00022119093,3.5212626e-05,0.20403387,0.0,0.0,0.0,0.0,0
1860768000,0.97896844,0.00022125573,3.525824e-05,0.20403387,0.0,0.0,0.0,0.0,0
1860780000,0.97896844,0.00022131768,3.5309626e-05,0.20403387,0.0,0.0,0.0,0.0,0
1860792000,0.97896844,0.00022130772,3.5325276e-05,0.20403387,0.0,0.0,0.0,0.0,0
1860800000,0.97896844,0.00022133025,3.533956e-05,0.20403387,0.0,0.0,0.0,0.0,0
1860816000,0.97896844,0.000221452,3.5388995e-05,0.20403387,0.0,0.0,0.0,0.0,0
1860828000,0.97896844,0.00022143143,3.5412566e-05,0.20403387,0.0,0.0,0.0,0.0,0
1860836000,0.97896844,0.00022153016,3.545558e-05,0.20403387,0.0,0.0,0.0,0.0,0
1860848000,0.97896844,0.00022150751,3.5468714e-05,0.20403387,0.0,0.0,0.0,0.0,0
1860864000,0.97896844,0.0002215421,3.549143e-05,0.20403387,0.0,0.0,0.0,0.0,0
1860876000,0.97896844,0.0002216152,3.5519282e-05,0.20403387,0.0,0.0,0.0,0.0,0
1860888000,0.97896844,0.00022167922,3.5552603e-05,0.20403385,0.0,0.0,0.0,0.0,0
1860896000,0.97896844,0.00022168718,3.5567824e-05,0.20403385,0.0,0.0,0.0,0.0,0
1860908000,0.97896844,0.00022164469,3.5572157e-05,0.20403385,0.0,0.0,0.0,0.0,0
1860920000,0.97896844,0.0002217155,3.5590016e-05,0.20403385,0.0,0.0,0.0,0.0,0
1860932000,0.97896844,0.00022177685,3.560845e-05,0.20403385,0.0,0.0,0.0,0.0,0
1860948000,0.97896844,0.00022177999,3.5623536e-05,0.20403385,0.0,0.0,0.0,0.0,0
1860960000,0.97896844,0.00022183602,3.5643207e-05,0.20403385,0.0,0.0,0.0,0.0,0
1860972000,0.97896844,0.00022178792,3.563325e-05,0.20403385,0.0,0.0,0.0,0.0,0
1860984000,0.97896844,0.0002218382,3.5642992e-05,0.20403385,0.0,0.0,0.0,0.0,0
1860992000,0.97896844,0.00022180671,3.5649075e-05,0.20403387,0.0,0.0,0.0,0.0,0
1861008000,0.9789684,0.00023105474,-9.368785e-06,0.20403409,0.0,0.0,0.0,0.0,0
1861016000,0.9789684,0.00024865614,-9.4199546e-05,0.20403422,0.0,0.0,0.0,0.0,0
1861028000,0.97896814,0.00030288193,-0.0003539643,0.20403485,0.0,0.0,0.0,0.0,0
1861044000,0.9789656,0.0004403325,-0.0010223591,0.20404483,0.0,0.0,0.0,0.0,0
1861056000,0.9789622,0.00057233864,-0.0017655948,0.20405555,0.0,0.0,0.0,0.0,0
1861068000,0.97895825,0.00070594234,-0.0026320294,0.20406464,0.0,0.0,0.0,0.0,0
1861080000,0.97895384,0.0008324696,-0.0035227372,0.20407197,0.0,0.0,0.0,0.0,0
1861088000,0.9789506,0.0009165643,-0.0041046487,0.20407626,0.0,0.0,0.0,0.0,0
1861104000,0.9789437,0.0010700909,-0.0051968363,0.2040837,0.0,0.0,0.0,0.0,0
1861112000,0.97894025,0.00113774,-0.005697519,0.20408654,0.0,0.0,0.0,0.0,0
1861128000,0.9789331,0.0012584396,-0.0066044815,0.2040929,0.0,0.0,0.0,0.0,0
1861136000,0.9789293,0.0013189844,-0.0070216553,0.20409676,0.0,0.0,0.0,0.0,0
1861148000,0.9789234,0.0014116128,-0.007603967,0.20410368,0.0,0.0,0.0,0.0,0
1861160000,0.9789174,0.0015073806,-0.008131282,0.20411134,0.0,0.0,0.0,0.0,0
1861176000,0.97890955,0.0016237022,-0.0087312795,0.20412318,0.0,0.0,0.0,0.0,0
1861184000,0.9789058,0.0016811013,-0.008989546,0.20412956,0.0,0.0,0.0,0.0,0
1861196000,0.9789007,0.0017556249,-0.009317354,0.20413893,0.0,0.0,0.0,0.0,0
1861212000,0.978895,0.0018275805,-0.009626091,0.20415112,0.0,0.0,0.0,0.0,0
1861224000,0.9788917,0.0018722898,-0.0097634,0.20416014,0.0,0.0,0.0,0.0,0
1861236000,0.9788893,0.0019225648,-0.009826745,0.20416817,0.0,0.0,0.0,0.0,0
1861248000,0.9788877,0.0019736409,-0.009822755,0.20417552,0.0,0.0,0.0,0.0,0
1861260000,0.9788866,0.0020397292,-0.009756148,0.20418331,0.0,0.0,0.0,0.0,0
1861268000,0.9788861,0.002091899,-0.009678216,0.20418873,0.0,0.0,0.0,0.0,0
1861284000,0.97888565,0.0021982847,-0.009447828,0.20420073,0.0,0.0,0.0,0.0,0
1861292000,0.9788855,0.0022514667,-0.009302476,0.2042075,0.0,0.0,0.0,0.0,0
1861308000,0.9788852,0.0023502905,-0.008985606,0.20422205,0.0,0.0,0.0,0.0,0
1861320000,0.97888505,0.0024044162,-0.008740876,0.20423265,0.0,0.0,0.0,0.0,0
1861332000,0.97888523,0.0024373147,-0.008492505,0.20424175,0.0,0.0,0.0,0.0,0
1861344000,0.97888595,0.0024547235,-0.008241171,0.20424844,0.0,0.0,0.0,0.0,0
1861352000,0.9788866,0.002464139,-0.008071034,0.2042521,0.0,0.0,0.0,0.0,0
1861364000,0.9788875,0.002477427,-0.00781016,0.20425774,0.0,0.0,0.0,0.0,0
1861380000,0.9788884,0.0024956048,-0.0074638887,0.20426632,0.0,0.0,0.0,0.0,0
1861388000,0.9788887,0.0025016754,-0.007293327,0.20427087,0.0,0.0,0.0,0.0,0
1861404000,0.9788893,0.0024991678,-0.006958765,0.20427962,0.0,0.0,0.0,0.0,0
1861412000,0.97888964,0.0024893484,-0.006799309,0.20428339,0.0,0.0,0.0,0.0,0
1861424000,0.9788903,0.0024606902,-0.006573735,0.20428804,0.0,0.0,0.0,0.0,0
1861440000,0.97889125,0.0023932764,-0.006291139,0.20429313,0.0,0.0,0.0,0.0,0
1861448000,0.9788917,0.0023507103,-0.006154104,0.2042958,0.0,0.0,0.0,0.0,0
1861464000,0.9788923,0.0022583709,-0.005901648,0.20430109,0.0,0.0,0.0,0.0,0
1861476000,0.9788928,0.0021864497,-0.0057388716,0.20430432,0.0,0.0,0.0,0.0,0
1861488000,0.9788933,0.002125276,-0.005596767,0.20430657,0.0,0.0,0.0,0.0,0
1861500000,0.97889376,0.0020859542,-0.0054714554,0.20430826,0.0,0.0,0.0,0.0,0
1861512000,0.9788941,0.0020654574,-0.005362903,0.2043095,0.0,0.0,0.0,0.0,0
1861524000,0.9788945,0.0020575623,-0.0052680983,0.20431025,0.0,0.0,0.0,0.0,0
1861532000,0.9788947,0.002053001,-0.005212765,0.20431077,0.0,0.0,0.0,0.0,0
1861548000,0.97889477,0.002055194,-0.0051165703,0.20431276,0.0,0.0,0.0,0.0,0
1861560000,0.97889435,0.002068698,-0.005062682,0.20431595,0.0,0.0,0.0,0.0,0
1861572000,0.97889346,0.0020920362,-0.005024103,0.20432107,0.0,0.0,0.0,0.0,0
1861584000,0.97889215,0.0021312328,-0.004998393,0.20432758,0.0,0.0,0.0,0.0,0
1861596000,0.97889066,0.0021749767,-0.0049739173,0.20433474,0.0,0.0,0.0,0.0,0
1861608000,0.9788891,0.0022198102,-0.0049435683,0.20434238,0.0,0.0,0.0,0.0,0
1861616000,0.97888815,0.0022508344,-0.004917925,0.20434727,0.0,0.0,0.0,0.0,0
1861632000,0.97888684,0.0023128146,-0.0048608244,0.20435439,0.0,0.0,0.0,0.0,0
1861640000,0.9788864,0.0023418046,-0.004830141,0.20435661,0.0,0.0,0.0,0.0,0
1861652000,0.978886,0.0023869965,-0.004778523,0.20435938,0.0,0.0,0.0,0.0,0
1861664000,0.9788858,0.00243222,-0.0047166413,0.20436126,0.0,0.0,0.0,0.0,0
1861680000,0.97888577,0.0024725122,-0.004619843,0.20436323,0.0,0.0,0.0,0.0,0
1861692000,0.9788857,0.0024795034,-0.004541928,0.20436507,0.0,0.0,0.0,0.0,0
1861700000,0.97888565,0.0024774186,-0.004491057,0.20436667,0.0,0.0,0.0,0.0,0
1861712000,0.9788854,0.0024741585,-0.004414386,0.20436952,0.0,0.0,0.0,0.0,0
1861724000,0.97888523,0.002470937,-0.0043430016,0.20437185,0.0,0.0,0.0,0.0,0
1861736000,0.9788852,0.00246021,-0.0042738854,0.20437357,0.0,0.0,0.0,0.0,0
1861748000,0.97888523,0.0024402405,-0.004203283,0.204375,0.0,0.0,0.0,0.0,0
1861760000,0.97888535,0.0024093408,-0.004138775,0.20437634,0.0,0.0,0.0,0.0,0
1861776000,0.9788856,0.0023657149,-0.004059762,0.20437728,0.0,0.0,0.0,0.0,0
1861788000,0.97888607,0.0023433936,-0.0040028566,0.20437619,0.0,0.0,0.0,0.0,0
1861800000,0.9788867,0.0023260892,-0.0039496166,0.2043744,0.0,0.0,0.0,0.0,0
1861808000,0.9788871,0.0023145822,-0.003913024,0.20437358,0.0,0.0,0.0,0.0,0
1861820000,0.9788873,0.0023042923,-0.0038485047,0.20437378,0.0,0.0,0.0,0.0,0
1861836000,0.97888726,0.0022999137,-0.0037417107,0.204376,0.0,0.0,0.0,0.0,0
1861848000,0.9788871,0.0022979537,-0.0036561775,0.20437838,0.0,0.0,0.0,0.0,0
1861856000,0.978887,0.0022991875,-0.0036008593,0.2043798,0.0,0.0,0.0,0.0,0
1861872000,0.97888696,0.0023055885,-0.0035074318,0.20438145,0.0,0.0,0.0,0.0,0
1861884000,0.9788871,0.0023064562,-0.0034574382,0.20438166,0.0,0.0,0.0,0.0,0
1861896000,0.97888726,0.002299128,-0.0034251215,0.20438153,0.0,0.0,0.0,0.0,0
1861904000,0.97888726,0.0022893394,-0.003412831,0.20438188,0.0,0.0,0.0,0.0,0
1861920000,0.9788868,0.0022605893,-0.0034012021,0.20438473,0.0,0.0,0.0,0.0,0
1861932000,0.97888595,0.0022423647,-0.00339171,0.2043891,0.0,0.0,0.0,0.0,0
1861944000,0.9788846,0.0022364052,-0.003376461,0.20439598,0.0,0.0,0.0,0.0,0
1861956000,0.9788828,0.0022393195,-0.0033605755,0.20440458,0.0,0.0,0.0,0.0,0
1861968000,0.9788812,0.0022506076,-0.0033482278,0.2044125,0.0,0.0,0.0,0.0,0
1861980000,0.97887975,0.0022649637,-0.0033409118,0.20441934,0.0,0.0,0.0,0.0,0
1861992000,0.9788785,0.0022852567,-0.0033327625,0.20442523,0.0,0.0,0.0,0.0,0
1862004000,0.97887754,0.0023119182,-0.0033335357,0.20442954,0.0,0.0,0.0,0.0,0
1862016000,0.9788769,0.0023496468,-0.0033555415,0.20443177,0.0,0.0,0.0,0.0,0
1862024000,0.9788766,0.0023775492,-0.003381876,0.20443253,0.0,0.0,0.0,0.0,0
1862040000,0.97887576,0.0024109937,-0.0034421089,0.20443504,0.0,0.0,0.0,0.0,0
1862048000,0.97887516,0.0024174915,-0.003470251,0.20443724,0.0,0.0,0.0,0.0,0
1862064000,0.97887397,0.0024171406,-0.003521189,0.20444208,0.0,0.0,0.0,0.0,0
1862076000,0.9788734,0.0024111797,-0.0035599065,0.20444444,0.0,0.0,0.0,0.0,0
1862084000,0.9788732,0.0024126393,-0.0035849048,0.20444497,0.0,0.0,0.0,0.0,0
1862096000,0.978873,0.0024260012,-0.003618582,0.20444489,0.0,0.0,0.0,0.0,0
1862108000,0.97887295,0.002442255,-0.0036460033,0.20444462,0.0,0.0,0.0,0.0,0
1862120000,0.97887295,0.0024583833,-0.00367426,0.20444393,0.0,0.0,0.0,0.0,0
1862132000,0.97887325,0.0024747204,-0.003712099,0.20444164,0.0,0.0,0.0,0.0,0
1862148000,0.97887444,0.0024919342,-0.0037800781,0.2044344,0.0,0.0,0.0,0.0,0
1862160000,0.9788758,0.002514199,-0.0038268594,0.20442663,0.0,0.0,0.0,0.0,0
1862168000,0.9788768,0.0025311604,-0.0038621183,0.20442104,0.0,0.0,0.0,0.0,0
1862184000,0.9788786,0.00255971,-0.0039346465,0.20441069,0.0,0.0,0.0,0.0,0
1862196000,0.97888005,0.0025813947,-0.003983808,0.20440267,0.0,0.0,0.0,0.0,0
1862208000,0.9788814,0.002597601,-0.0040379823,0.20439471,0.0,0.0,0.0,0.0,0
1862216000,0.9788822,0.0026001085,-0.0040783496,0.20439014,0.0,0.0,0.0,0.0,0
1862228000,0.97888315,0.0025945515,-0.0041418043,0.20438448,0.0,0.0,0.0,0.0,0
1862240000,0.97888404,0.00258565,-0.0042017507,0.20437919,0.0,0.0,0.0,0.0,0
1862256000,0.97888505,0.002574394,-0.0042634006,0.20437318,0.0,0.0,0.0,0.0,0
1862268000,0.9788859,0.0025642465,-0.0042879144,0.2043688,0.0,0.0,0.0,0.0,0
1862280000,0.9788868,0.0025485943,-0.004297724,0.20436437,0.0,0.0,0.0,0.0,0
1862288000,0.9788874,0.0025357911,-0.004295066,0.20436175,0.0,0.0,0.0,0.0,0
1862304000,0.9788885,0.0025054347,-0.004256988,0.20435753,0.0,0.0,0.0,0.0,0
1862312000,0.97888905,0.0024919133,-0.0042225523,0.2043559,0.0,0.0,0.0,0.0,0
1862328000,0.9788898,0.0024729022,-0.004131956,0.20435405,0.0,0.0,0.0,0.0,0
1862340000,0.97889006,0.002466623,-0.004046267,0.20435476,0.0,0.0,0.0,0.0,0
1862352000,0.97889006,0.0024602718,-0.003951488,0.20435685,0.0,0.0,0.0,0.0,0
1862360000,0.97889006,0.0024512173,-0.0038848436,0.20435812,0.0,0.0,0.0,0.0,0
1862372000,0.9788902,0.0024273605,-0.0037781575,0.20435993,0.0,0.0,0.0,0.0,0
1862388000,0.9788901,0.0023885523,-0.0036252884,0.20436332,0.0,0.0,0.0,0.0,0
1862396000,0.97889006,0.0023721328,-0.0035486573,0.20436518,0.0,0.0,0.0,0.0,0
1862412000,0.9788902,0.002344821,-0.0034082662,0.20436737,0.0,0.0,0.0,0.0,0
1862420000,0.9788904,0.0023365677,-0.0033477715,0.2043672,0.0,0.0,0.0,0.0,0
1862436000,0.978891,0.0023401724,-0.0032433816,0.20436615,0.0,0.0,0.0,0.0,0
1862448000,0.9788915,0.0023525162,-0.0031760882,0.20436476,0.0,0.0,0.0,0.0,0
1862460000,0.97889215,0.0023634296,-0.0031255432,0.20436221,0.0,0.0,0.0,0.0,0
1862472000,0.9788931,0.0023597642,-0.0030911819,0.20435831,0.0,0.0,0.0,0.0,0
1862480000,0.97889394,0.0023553257,-0.0030688394,0.20435455,0.0,0.0,0.0,0.0,0
1862492000,0.97889566,0.002348916,-0.0030208316,0.20434721,0.0,0.0,0.0,0.0,0
1862508000,0.9788985,0.0023285695,-0.002931889,0.2043348,0.0,0.0,0.0,0.0,0
1862516000,0.97890013,0.0023123703,-0.0028837468,0.20432806,0.0,0.0,0.0,0.0,0
1862532000,0.9789032,0.0022644824,-0.0027924078,0.20431522,0.0,0.0,0.0,0.0,0
1862544000,0.9789053,0.0022132376,-0.0027337084,0.20430651,0.0,0.0,0.0,0.0,0
1862552000,0.97890645,0.0021773558,-0.0027058506,0.20430174,0.0,0.0,0.0,0.0,0
1862568000,0.97890806,0.0021028528,-0.0026791878,0.20429528,0.0,0.0,0.0,0.0,0
1862576000,0.97890836,0.002073751,-0.002681755,0.20429392,0.0,0.0,0.0,0.0,0
1862592000,0.97890794,0.0020342576,-0.0027066662,0.20429601,0.0,0.0,0.0,0.0,0
1862604000,0.97890705,0.0020117832,-0.0027236156,0.20430025,0.0,0.0,0.0,0.0,0
1862616000,0.978906,0.0019875185,-0.0027415233,0.20430562,0.0,0.0,0.0,0.0,0
1862624000,0.97890514,0.0019694392,-0.0027557565,0.2043096,0.0,0.0,0.0,0.0,0
1862640000,0.9789035,0.0019392151,-0.0027897942,0.20431715,0.0,0.0,0.0,0.0,0
1862652000,0.97890246,0.0019214292,-0.0028170769,0.20432185,0.0,0.0,0.0,0.0,0
1862664000,0.97890204,0.0019094262,-0.0028406344,0.2043237,0.0,0.0,0.0,0.0,0
1862676000,0.97890234,0.0019057224,-0.0028599896,0.20432217,0.0,0.0,0.0,0.0,0
1862688000,0.97890306,0.0019005532,-0.0028738927,0.20431855,0.0,0.0,0.0,0.0,0
1862700000,0.9789041,0.001896234,-0.0028786669,0.20431341,0.0,0.0,0.0,0.0,0
1862712000,0.97890633,0.0018978103,-0.002877063,0.20430268,0.0,0.0,0.0,0.0,0
1862724000,0.97891027,0.0019041024,-0.0028789632,0.2042837,0.0,0.0,0.0,0.0,0
1862732000,0.9789139,0.0019089312,-0.0028801789,0.20426632,0.0,0.0,0.0,0.0,0
1862744000,0.9789207,0.0019084451,-0.0028755066,0.20423388,0.0,0.0,0.0,0.0,0
1862756000,0.9789289,0.0018955199,-0.0028554194,0.2041948,0.0,0.0,0.0,0.0,0
1862772000,0.9789418,0.0018712382,-0.0028000025,0.20413397,0.0,0.0,0.0,0.0,0
1862780000,0.97894895,0.0018602777,-0.0027631233,0.20410031,0.0,0.0,0.0,0.0,0
1862796000,0.97896457,0.001850336,-0.0026865695,0.20402664,0.0,0.0,0.0,0.0,0
1862808000,0.978977,0.0018541306,-0.0026344033,0.20396732,0.0,0.0,0.0,0.0,0
1862816000,0.97898555,0.001859087,-0.0026043924,0.20392679,0.0,0.0,0.0,0.0,0
1862828000,0.97899854,0.001863624,-0.0025726594,0.20386471,0.0,0.0,0.0,0.0,0
1862844000,0.9790165,0.0018558546,-0.0025430585,0.2037792,0.0,0.0,0.0,0.0,0
1862856000,0.97902995,0.0018539244,-0.002526939,0.20371448,0.0,0.0,0.0,0.0,0
1862868000,0.9790436,0.0018555425,-0.0025135227,0.20364912,0.0,0.0,0.0,0.0,0
1862880000,0.97905725,0.0018605754,-0.0024914076,0.20358367,0.0,0.0,0.0,0.0,0
1862892000,0.97907084,0.0018718989,-0.002461113,0.20351851,0.0,0.0,0.0,0.0,0
1862904000,0.9790843,0.0018859948,-0.0024319752,0.20345408,0.0,0.0,0.0,0.0,0
1862916000,0.9790974,0.0018997587,-0.0024045904,0.20339121,0.0,0.0,0.0,0.0,0
1862924000,0.9791059,0.0019097882,-0.0023902233,0.20335032,0.0,0.0,0.0,0.0,0
1862936000,0.97911817,0.0019218405,-0.002374256,0.20329146,0.0,0.0,0.0,0.0,0
1862952000,0.9791332,0.0019270463,-0.0023589889,0.20321913,0.0,0.0,0.0,0.0,0
1862964000,0.97914326,0.001927244,-0.0023484055,0.20317072,0.0,0.0,0.0,0.0,0
1862976000,0.9791523,0.0019255034,-0.0023404867,0.20312704,0.0,0.0,0.0,0.0,0
1862988000,0.97916067,0.0019227366,-0.0023278398,0.20308721,0.0,0.0,0.0,0.0,0
1862996000,0.9791658,0.0019195044,-0.002315238,0.20306265,0.0,0.0,0.0,0.0,0
1863012000,0.97917503,0.0019135351,-0.0022876826,0.20301826,0.0,0.0,0.0,0.0,0
1863024000,0.9791812,0.0019142098,-0.0022660457,0.20298894,0.0,0.0,0.0,0.0,0
1863036000,0.9791866,0.0019230533,-0.0022438953,0.20296305,0.0,0.0,0.0,0.0,0
1863048000,0.97919124,0.0019432779,-0.002219637,0.2029407,0.0,0.0,0.0,0.0,0
1863060000,0.97919524,0.0019686348,-0.002192609,0.20292152,0.0,0.0,0.0,0.0,0
1863068000,0.9791976,0.001990993,-0.0021715276,0.20291008,0.0,0.0,0.0,0.0,0
1863084000,0.979202,0.002044698,-0.002112231,0.20288911,0.0,0.0,0.0,0.0,0
1863096000,0.9792051,0.0020899589,-0.0020524191,0.20287417,0.0,0.0,0.0,0.0,0
1863108000,0.97920793,0.0021380961,-0.0019809215,0.2028607,0.0,0.0,0.0,0.0,0
1863120000,0.9792104,0.002179249,-0.0018961928,0.20284933,0.0,0.0,0.0,0.0,0
1863132000,0.97921234,0.0022137808,-0.001793952,0.20284034,0.0,0.0,0.0,0.0,0
1863140000,0.9792134,0.0022324964,-0.0017177861,0.20283563,0.0,0.0,0.0,0.0,0
1863156000,0.97921455,0.0022666778,-0.0015601591,0.20283084,0.0,0.0,0.0,0.0,0
1863168000,0.9792142,0.0022853229,-0.0014456845,0.20283338,0.0,0.0,0.0,0.0,0
1863180000,0.97921264,0.0023060015,-0.0013324094,0.20284149,0.0,0.0,0.0,0.0,0
1863192000,0.97921,0.0023297581,-0.0012345678,0.20285441,0.0,0.0,0.0,0.0,0
1863200000,0.9792078,0.0023463212,-0.0011805664,0.20286512,0.0,0.0,0.0,0.0,0
1863212000,0.97920394,0.00237098,-0.0011148475,0.20288387,0.0,0.0,0.0,0.0,0
1863228000,0.9791978,0.0023893088,-0.0010478212,0.20291372,0.0,0.0,0.0,0.0,0
1863236000,0.9791944,0.0023931672,-0.0010223052,0.20293024,0.0,0.0,0.0,0.0,0
1863252000,0.97918713,0.0023931882,-0.0009866346,0.2029655,0.0,0.0,0.0,0.0,0
1863260000,0.97918326,0.0023917723,-0.0009767703,0.20298427,0.0,0.0,0.0,0.0,0
1863276000,0.9791747,0.0023912243,-0.00096381444,0.20302561,0.0,0.0,0.0,0.0,0
1863288000,0.97916776,0.0023921458,-0.000955561,0.20305899,0.0,0.0,0.0,0.0,0
1863300000,0.9791605,0.00239016,-0.00094301085,0.20309424,0.0,0.0,0.0,0.0,0
1863308000,0.97915536,0.0023882238,-0.0009291573,0.20311889,0.0,0.0,0.0,0.0,0
1863324000,0.9791447,0.0023780558,-0.0008868328,0.20317079,0.0,0.0,0.0,0.0,0
1863336000,0.9791365,0.0023626331,-0.0008484647,0.20321053,0.0,0.0,0.0,0.0,0
1863344000,0.979131,0.0023539136,-0.00082239555,0.20323718,0.0,0.0,0.0,0.0,0
1863360000,0.97911966,0.0023405703,-0.0007652756,0.20329237,0.0,0.0,0.0,0.0,0
1863372000,0.97911054,0.002327986,-0.0007215674,0.20333637,0.0,0.0,0.0,0.0,0
1863384000,0.9791012,0.0023089468,-0.0006766848,0.20338179,0.0,0.0,0.0,0.0,0
1863396000,0.97909194,0.0022802835,-0.0006291351,0.20342696,0.0,0.0,0.0,0.0,0
1863408000,0.97908276,0.0022467058,-0.0005787948,0.20347145,0.0,0.0,0.0,0.0,0
1863416000,0.9790766,0.0022240132,-0.0005465563,0.2035013,0.0,0.0,0.0,0.0,0
1863428000,0.97906727,0.0021903259,-0.00050943706,0.2035468,0.0,0.0,0.0,0.0,0
1863444000,0.9790546,0.0021352482,-0.00048006323,0.2036086,0.0,0.0,0.0,0.0,0
1863456000,0.9790448,0.0020949831,-0.00047427948,0.20365597,0.0,0.0,0.0,0.0,0
1863468000,0.9790348,0.0020638772,-0.00048288945,0.20370443,0.0,0.0,0.0,0.0,0
1863480000,0.9790246,0.0020362923,-0.00050151366,0.20375359,0.0,0.0,0.0,0.0,0
1863492000,0.97901446,0.0020050425,-0.00052227086,0.20380248,0.0,0.0,0.0,0.0,0
1863500000,0.9790077,0.0019771806,-0.0005362848,0.20383519,0.0,0.0,0.0,0.0,0
1863516000,0.9789939,0.0019087963,-0.00056687876,0.20390207,0.0,0.0,0.0,0.0,0
1863524000,0.97898686,0.0018726074,-0.00058236206,0.20393617,0.0,0.0,0.0,0.0,0
1863540000,0.9789727,0.0018055597,-0.0006081752,0.20400475,0.0,0.0,0.0,0.0,0
1863552000,0.97896194,0.0017641197,-0.0006196019,0.20405674,0.0,0.0,0.0,0.0,0
1863564000,0.97895104,0.0017246732,-0.0006240898,0.20410934,0.0,0.0,0.0,0.0,0
1863572000,0.97894377,0.0016970377,-0.0006204472,0.20414452,0.0,0.0,0.0,0.0,0
1863584000,0.9789328,0.0016499733,-0.00060402,0.20419736,0.0,0.0,0.0,0.0,0
1863596000,0.97892153,0.001614774,-0.0005757252,0.20425174,0.0,0.0,0.0,0.0,0
1863612000,0.97890586,0.0016015333,-0.0005318205,0.20432712,0.0,0.0,0.0,0.0,0
1863624000,0.9788938,0.0016052158,-0.0005043792,0.2043849,0.0,0.0,0.0,0.0,0
1863636000,0.9788816,0.0016207014,-0.0004804605,0.20444322,0.0,0.0,0.0,0.0,0
1863644000,0.97887355,0.001633994,-0.0004725745,0.20448184,0.0,0.0,0.0,0.0,0
1863660000,0.9788575,0.0016655435,-0.00047539346,0.20455821,0.0,0.0,0.0,0.0,0
1863668000,0.9788496,0.0016806701,-0.00048436693,0.20459609,0.0,0.0,0.0,0.0,0
1863684000,0.97883385,0.00170642,-0.00050534395,0.20467113,0.0,0.0,0.0,0.0,0
1863692000,0.9788261,0.0017199144,-0.0005169921,0.20470807,0.0,0.0,0.0,0.0,0
1863704000,0.9788147,0.0017452303,-0.0005331164,0.20476216,0.0,0.0,0.0,0.0,0
1863716000,0.9788036,0.0017713701,-0.00054288143,0.204815,0.0,0.0,0.0,0.0,0
1863728000,0.9787928,0.0017961768,-0.0005375406,0.20486656,0.0,0.0,0.0,0.0,0
1863740000,0.9787822,0.0018263658,-0.00051673735,0.20491691,0.0,0.0,0.0,0.0,0
1863752000,0.9787716,0.0018711088,-0.00048787566,0.20496695,0.0,0.0,0.0,0.0,0
1863768000,0.9787574,0.0019487713,-0.00044755728,0.20503436,0.0,0.0,0.0,0.0,0
1863780000,0.9787469,0.00199727,-0.0004320954,0.20508413,0.0,0.0,0.0,0.0,0
1863792000,0.97873664,0.0020351957,-0.0004277348,0.20513254,0.0,0.0,0.0,0.0,0
1863800000,0.9787299,0.0020553814,-0.00042620747,0.20516439,0.0,0.0,0.0,0.0,0
1863812000,0.97871995,0.0020779506,-0.00042640476,0.2052117,0.0,0.0,0.0,0.0,0
1863824000,0.97871035,0.0020960886,-0.00042522166,0.20525739,0.0,0.0,0.0,0.0,0
1863840000,0.9786984,0.0021167716,-0.0004305533,0.20531428,0.0,0.0,0.0,0.0,0
1863848000,0.97869265,0.002126733,-0.0004389496,0.2053413,0.0,0.0,0.0,0.0,0
1863864000,0.97868204,0.0021392442,-0.00046991208,0.20539163,0.0,0.0,0.0,0.0,0
1863872000,0.9786771,0.002140136,-0.0004953286,0.20541513,0.0,0.0,0.0,0.0,0
1863888000,0.97866803,0.002141677,-0.00056317647,0.20545813,0.0,0.0,0.0,0.0,0
1863900000,0.97866213,0.0021358142,-0.0006246581,0.20548621,0.0,0.0,0.0,0.0,0
1863912000,0.97865695,0.0021128578,-0.0006892935,0.20551094,0.0,0.0,0.0,0.0,0
1863924000,0.9786524,0.0020784098,-0.00074371597,0.20553276,0.0,0.0,0.0,0.0,0
1863936000,0.9786486,0.002034498,-0.00077818177,0.20555124,0.0,0.0,0.0,0.0,0
1863944000,0.9786464,0.0019964182,-0.00079352775,0.20556192,0.0,0.0,0.0,0.0,0
1863956000,0.9786434,0.0019300166,-0.0008079977,0.20557661,0.0,0.0,0.0,0.0,0
1863972000,0.9786396,0.0018410054,-0.00082547317,0.20559554,0.0,0.0,0.0,0.0,0
1863980000,0.97863775,0.0018012379,-0.0008340279,0.20560479,0.0,0.0,0.0,0.0,0
1863996000,0.97863406,0.0017350416,-0.0008560055,0.20562273,0.0,0.0,0.0,0.0,0
1864008000,0.9786311,0.0016952676,-0.00088243047,0.20563713,0.0,0.0,0.0,0.0,0
1864016000,0.978629,0.0016716402,-0.00090672425,0.20564733,0.0,0.0,0.0,0.0,0
1864032000,0.9786245,0.0016363229,-0.000969017,0.20566851,0.0,0.0,0.0,0.0,0
1864040000,0.97862226,0.0016226642,-0.0010034661,0.20567934,0.0,0.0,0.0,0.0,0
1864056000,0.9786177,0.0016067729,-0.0010685945,0.20570055,0.0,0.0,0.0,0.0,0
1864068000,0.97861445,0.0016115701,-0.0011080571,0.20571588,0.0,0.0,0.0,0.0,0
1864080000,0.97861135,0.0016196581,-0.0011439584,0.20573041,0.0,0.0,0.0,0.0,0
1864092000,0.9786085,0.0016237742,-0.001169873,0.2057438,0.0,0.0,0.0,0.0,0
1864104000,0.97860605,0.0016168044,-0.0011869725,0.20575546,0.0,0.0,0.0,0.0,0
1864116000,0.97860414,0.0015993447,-0.001190462,0.20576462,0.0,0.0,0.0,0.0,0
1864124000,0.97860324,0.0015867255,-0.001184615,0.20576894,0.0,0.0,0.0,0.0,0
1864136000,0.97860247,0.0015668743,-0.0011662128,0.20577303,0.0,0.0,0.0,0.0,0
1864148000,0.9786022,0.0015445364,-0.001140143,0.20577466,0.0,0.0,0.0,0.0,0
1864164000,0.9786022,0.0015127538,-0.0010965412,0.20577526,0.0,0.0,0.0,0.0,0
1864172000,0.978602,0.001496176,-0.0010733348,0.20577623,0.0,0.0,0.0,0.0,0
1864188000,0.9786013,0.0014680027,-0.0010285359,0.20578006,0.0,0.0,0.0,0.0,0
1864196000,0.9786008,0.0014548608,-0.001007279,0.20578258,0.0,0.0,0.0,0.0,0
1864212000,0.9785995,0.0014346499,-0.00097272143,0.20578907,0.0,0.0,0.0,0.0,0
1864224000,0.9785984,0.0014249736,-0.00095897005,0.20579432,0.0,0.0,0.0,0.0,0
1864236000,0.97859746,0.0014070113,-0.00095127756,0.20579901,0.0,0.0,0.0,0.0,0
1864248000,0.9785967,0.0013741447,-0.00095077936,0.20580287,0.0,0.0,0.0,0.0,0
1864260000,0.9785962,0.0013289867,-0.0009567764,0.20580554,0.0,0.0,0.0,0.0,0
1864268000,0.978596,0.0012977493,-0.00096585747,0.20580682,0.0,0.0,0.0,0.0,0
1864280000,0.9785956,0.0012658221,-0.0009884225,0.20580846,0.0,0.0,0.0,0.0,0
1864292000,0.97859514,0.0012594545,-0.0010180499,0.20581062,0.0,0.0,0.0,0.0,0
1864304000,0.9785944,0.0012729509,-0.0010495278,0.20581385,0.0,0.0,0.0,0.0,0
1864316000,0.9785936,0.0012912677,-0.0010784778,0.20581757,0.0,0.0,0.0,0.0,0
1864328000,0.97859293,0.0013076979,-0.0011036565,0.20582052,0.0,0.0,0.0,0.0,0
1864344000,0.97859216,0.0013125241,-0.0011394836,0.20582384,0.0,0.0,0.0,0.0,0
1864352000,0.9785918,0.0013033609,-0.0011606758,0.20582561,0.0,0.0,0.0,0.0,0
1864368000,0.97859097,0.001268794,-0.0012054744,0.20582952,0.0,0.0,0.0,0.0,0
1864380000,0.9785903,0.0012521155,-0.0012425199,0.20583259,0.0,0.0,0.0,0.0,0
1864392000,0.9785894,0.0012514453,-0.0012866368,0.20583647,0.0,0.0,0.0,0.0,0
1864404000,0.97858816,0.0012529412,-0.0013407273,0.20584203,0.0,0.0,0.0,0.0,0
1864416000,0.9785867,0.0012583344,-0.0013989249,0.20584883,0.0,0.0,0.0,0.0,0
1864424000,0.9785856,0.001273212,-0.0014365953,0.20585336,0.0,0.0,0.0,0.0,0
1864440000,0.97858375,0.0013316796,-0.0015041335,0.20586145,0.0,0.0,0.0,0.0,0
1864448000,0.9785829,0.0013648418,-0.0015354246,0.20586495,0.0,0.0,0.0,0.0,0
1864464000,0.9785816,0.0014299324,-0.0015821424,0.20587043,0.0,0.0,0.0,0.0,0
1864476000,0.97858095,0.0014704916,-0.0015973361,0.20587303,0.0,0.0,0.0,0.0,0
1864488000,0.9785808,0.0015023551,-0.0015913761,0.20587377,0.0,0.0,0.0,0.0,0
1864500000,0.978581,0.0015274939,-0.0015654519,0.20587265,0.0,0.0,0.0,0.0,0
1864512000,0.9785815,0.0015500224,-0.001531358,0.20587035,0.0,0.0,0.0,0.0,0
1864524000,0.97858226,0.0015735247,-0.0014956465,0.20586684,0.0,0.0,0.0,0.0,0
1864536000,0.97858304,0.0016025003,-0.0014651372,0.205863,0.0,0.0,0.0,0.0,0
1864544000,0.9785837,0.0016222475,-0.0014527318,0.20585991,0.0,0.0,0.0,0.0,0
1864556000,0.9785851,0.0016472089,-0.0014475895,0.20585297,0.0,0.0,0.0,0.0,0
1864568000,0.978587,0.0016671984,-0.0014498289,0.20584404,0.0,0.0,0.0,0.0,0
1864584000,0.9785892,0.0017001111,-0.0014653254,0.20583317,0.0,0.0,0.0,0.0,0
1864596000,0.97859055,0.0017331226,-0.0014833732,0.20582621,0.0,0.0,0.0,0.0,0
1864608000,0.9785918,0.0017683327,-0.0015070146,0.20581979,0.0,0.0,0.0,0.0,0
1864620000,0.9785931,0.0018000732,-0.0015440715,0.20581305,0.0,0.0,0.0,0.0,0
1864632000,0.97859454,0.0018315786,-0.0016016233,0.20580548,0.0,0.0,0.0,0.0,0
1864644000,0.9785959,0.0018605669,-0.0016676955,0.20579816,0.0,0.0,0.0,0.0,0
1864652000,0.97859675,0.0018778277,-0.0017072008,0.20579375,0.0,0.0,0.0,0.0,0
1864668000,0.97859806,0.0019131952,-0.0017770539,0.20578662,0.0,0.0,0.0,0.0,0
1864680000,0.9785989,0.0019230722,-0.0018164456,0.20578228,0.0,0.0,0.0,0.0,0
1864692000,0.97859967,0.0019189504,-0.0018394315,0.2057783,0.0,0.0,0.0,0.0,0
1864704000,0.97860056,0.0019026875,-0.0018518337,0.20577401,0.0,0.0,0.0,0.0,0
1864712000,0.9786012,0.001885529,-0.0018583044,0.20577122,0.0,0.0,0.0,0.0,0
1864728000,0.9786023,0.0018458383,-0.0018688015,0.20576623,0.0,0.0,0.0,0.0,0
1864736000,0.97860295,0.0018256326,-0.0018723751,0.2057632,0.0,0.0,0.0,0.0,0
1864752000,0.9786046,0.0017890933,-0.0018847525,0.2057556,0.0,0.0,0.0,0.0,0
1864764000,0.97860605,0.0017676634,-0.0019028467,0.20574887,0.0,0.0,0.0,0.0,0
1864776000,0.9786077,0.0017467364,-0.0019214948,0.20574094,0.0,0.0,0.0,0.0,0
1864788000,0.9786095,0.0017267102,-0.0019344871,0.20573245,0.0,0.0,0.0,0.0,0
1864800000,0.97861135,0.001705423,-0.0019377652,0.20572378,0.0,0.0,0.0,0.0,0
1864812000,0.9786131,0.0016833866,-0.001929779,0.20571582,0.0,0.0,0.0,0.0,0
1864824000,0.9786146,0.001654811,-0.0019102386,0.20570886,0.0,0.0,0.0,0.0,0
1864832000,0.97861564,0.0016324391,-0.001893875,0.2057044,0.0,0.0,0.0,0.0,0
1864848000,0.9786178,0.0015831647,-0.0018566324,0.20569474,0.0,0.0,0.0,0.0,0
1864856000,0.9786189,0.0015589696,-0.0018352681,0.20568998,0.0,0.0,0.0,0.0,0
1864872000,0.97862095,0.0015122199,-0.001790595,0.20568101,0.0,0.0,0.0,0.0,0
1864884000,0.9786223,0.0014694403,-0.0017577299,0.20567492,0.0,0.0,0.0,0.0,0
1864892000,0.9786232,0.0014417255,-0.0017304748,0.20567128,0.0,0.0,0.0,0.0,0
1864908000,0.978625,0.0013974082,-0.0016816065,0.20566328,0.0,0.0,0.0,0.0,0
1864916000,0.97862613,0.0013778623,-0.0016618684,0.20565835,0.0,0.0,0.0,0.0,0
1864932000,0.9786286,0.0013406122,-0.0016156633,0.20564725,0.0,0.0,0.0,0.0,0
1864940000,0.97862977,0.0013234077,-0.0015887083,0.20564182,0.0,0.0,0.0,0.0,0
1864956000,0.9786318,0.0012977307,-0.0015320558,0.20563298,0.0,0.0,0.0,0.0,0
1864968000,0.97863275,0.0012754195,-0.0014761512,0.20562892,0.0,0.0,0.0,0.0,0
1864976000,0.97863317,0.0012551155,-0.0014324796,0.20562747,0.0,0.0,0.0,0.0,0
1864988000,0.97863364,0.0012100186,-0.001357153,0.20562583,0.0,0.0,0.0,0.0,0
1865000000,0.97863424,0.0011490413,-0.001276192,0.20562387,0.0,0.0,0.0,0.0,0
1865012000,0.9786348,0.0010954291,-0.0012027061,0.2056222,0.0,0.0,0.0,0.0,0
1865028000,0.97863525,0.0010477157,-0.001125062,0.20562059,0.0,0.0,0.0,0.0,0
1865040000,0.97863543,0.0010224605,-0.0010765663,0.20562007,0.0,0.0,0.0,0.0,0
1865048000,0.9786355,0.0010059671,-0.0010474464,0.20562002,0.0,0.0,0.0,0.0,0
1865064000,0.9786356,0.0009848971,-0.0009977012,0.20561983,0.0,0.0,0.0,0.0,0
1865076000,0.9786359,0.0009801219,-0.0009687461,0.20561859,0.0,0.0,0.0,0.0,0
1865084000,0.9786362,0.000979826,-0.0009543116,0.20561722,0.0,0.0,0.0,0.0,0
1865100000,0.97863704,0.0009779793,-0.0009322129,0.20561323,0.0,0.0,0.0,0.0,0
1865112000,0.9786376,0.00097165786,-0.00092110963,0.2056109,0.0,0.0,0.0,0.0,0
1865124000,0.9786378,0.0009650815,-0.000915699,0.20560963,0.0,0.0,0.0,0.0,0
1865136000,0.9786378,0.0009653599,-0.0009121478,0.20560987,0.0,0.0,0.0,0.0,0
1865148000,0.9786373,0.0009721524,-0.00091039116,0.2056122,0.0,0.0,0.0,0.0,0
1865160000,0.97863644,0.0009940123,-0.00091538735,0.20561627,0.0,0.0,0.0,0.0,0
1865168000,0.97863567,0.0010160266,-0.00092230533,0.20561954,0.0,0.0,0.0,0.0,0
1865180000,0.97863483,0.0010514734,-0.0009360346,0.2056234,0.0,0.0,0.0,0.0,0
1865196000,0.97863406,0.0011024507,-0.00095645746,0.2056266,0.0,0.0,0.0,0.0,0
1865208000,0.9786336,0.0011453716,-0.0009719591,0.20562875,0.0,0.0,0.0,0.0,0
1865220000,0.9786332,0.0011904185,-0.0009901684,0.20563012,0.0,0.0,0.0,0.0,0
1865232000,0.978633,0.0012261794,-0.0010016523,0.205631,0.0,0.0,0.0,0.0,0
1865244000,0.97863287,0.0012455293,-0.0010019749,0.20563145,0.0,0.0,0.0,0.0,0
1865256000,0.9786328,0.0012558374,-0.0009938963,0.20563173,0.0,0.0,0.0,0.0,0
1865264000,0.9786327,0.0012621981,-0.0009814675,0.20563208,0.0,0.0,0.0,0.0,0
1865280000,0.9786325,0.001274988,-0.00094767346,0.20563301,0.0,0.0,0.0,0.0,0
1865288000,0.97863257,0.0012804925,-0.00092971895,0.20563303,0.0,0.0,0.0,0.0,0
1865300000,0.9786327,0.0012865973,-0.00090553705,0.20563234,0.0,0.0,0.0,0.0,0
1865316000,0.9786329,0.00128059,-0.0008735432,0.20563138,0.0,0.0,0.0,0.0,0
1865328000,0.9786331,0.0012662234,-0.0008492236,0.20563085,0.0,0.0,0.0,0.0,0
1865336000,0.9786332,0.0012569128,-0.00083383586,0.20563032,0.0,0.0,0.0,0.0,0
1865352000,0.9786335,0.0012522428,-0.00081042043,0.20562917,0.0,0.0,0.0,0.0,0
1865364000,0.9786335,0.0012631736,-0.0007963701,0.2056289,0.0,0.0,0.0,0.0,0
1865376000,0.9786336,0.0012742116,-0.0007744626,0.20562875,0.0,0.0,0.0,0.0,0
1865384000,0.9786336,0.0012764437,-0.0007514127,0.2056288,0.0,0.0,0.0,0.0,0
1865400000,0.9786335,0.0012567171,-0.00068867096,0.20562938,0.0,0.0,0.0,0.0,0
1865408000,0.9786334,0.0012367123,-0.00064954086,0.20563026,0.0,0.0,0.0,0.0,0
1865424000,0.9786327,0.0012046632,-0.0005671354,0.20563425,0.0,0.0,0.0,0.0,0
1865432000,0.97863215,0.0011969364,-0.0005233442,0.20563687,0.0,0.0,0.0,0.0,0
1865444000,0.9786312,0.0011898098,-0.00045481173,0.20564152,0.0,0.0,0.0,0.0,0
1865460000,0.97862947,0.001194162,-0.00037707324,0.20565003,0.0,0.0,0.0,0.0,0
1865468000,0.9786282,0.0012037787,-0.0003444106,0.20565578,0.0,0.0,0.0,0.0,0
1865484000,0.97862536,0.0012330506,-0.0002846303,0.20566937,0.0,0.0,0.0,0.0,0
1865496000,0.97862315,0.0012618608,-0.0002354019,0.20567967,0.0,0.0,0.0,0.0,0
1865504000,0.9786217,0.0012774671,-0.00019826439,0.2056865,0.0,0.0,0.0,0.0,0
1865520000,0.978619,0.0013023084,-0.00011117959,0.20569965,0.0,0.0,0.0,0.0,0
1865532000,0.97861713,0.0013110609,-4.6456524e-05,0.20570831,0.0,0.0,0.0,0.0,0
1865540000,0.978616,0.001312445,-7.4437844e-06,0.20571359,0.0,0.0,0.0,0.0,0
1865556000,0.97861403,0.0013192634,6.195266e-05,0.20572285,0.0,0.0,0.0,0.0,0
1865568000,0.9786129,0.0013231452,0.000109799694,0.2057284,0.0,0.0,0.0,0.0,0
1865576000,0.97861224,0.0013247493,0.00013878559,0.20573145,0.0,0.0,0.0,0.0,0
1865588000,0.9786113,0.0013283686,0.00018264966,0.20573582,0.0,0.0,0.0,0.0,0
1865600000,0.97861034,0.0013431984,0.00022645273,0.20574023,0.0,0.0,0.0,0.0,0
1865616000,0.97860926,0.001389498,0.0002862309,0.20574495,0.0,0.0,0.0,0.0,0
1865624000,0.9786089,0.0014201291,0.00032061787,0.20574643,0.0,0.0,0.0,0.0,0
1865636000,0.9786085,0.0014625316,0.00037463615,0.20574792,0.0,0.0,0.0,0.0,0
1865652000,0.97860813,0.0015071837,0.00043688662,0.20574921,0.0,0.0,0.0,0.0,0
1865664000,0.9786081,0.0015229189,0.00048269203,0.20574944,0.0,0.0,0.0,0.0,0
1865676000,0.97860795,0.0015304468,0.0005256265,0.20574981,0.0,0.0,0.0,0.0,0
1865688000,0.9786077,0.0015312571,0.00056206854,0.2057507,0.0,0.0,0.0,0.0,0
1865700000,0.97860754,0.0015259123,0.00058779767,0.2057515,0.0,0.0,0.0,0.0,0
1865712000,0.97860754,0.0015151319,0.0006008655,0.20575158,0.0,0.0,0.0,0.0,0
1865724000,0.978608,0.0014964481,0.0006001501,0.20574962,0.0,0.0,0.0,0.0,0
1865736000,0.9786088,0.0014694589,0.00058823597,0.20574597,0.0,0.0,0.0,0.0,0
1865744000,0.9786094,0.0014525625,0.00057648343,0.20574331,0.0,0.0,0.0,0.0,0
1865760000,0.9786105,0.0014382815,0.00055031996,0.20573816,0.0,0.0,0.0,0.0,0
1865772000,0.9786115,0.0014342823,0.00053919695,0.20573328,0.0,0.0,0.0,0.0,0
1865780000,0.97861236,0.0014258925,0.00053548807,0.20572944,0.0,0.0,0.0,0.0,0
1865792000,0.9786138,0.0014053581,0.00053655385,0.20572293,0.0,0.0,0.0,0.0,0
1865804000,0.9786153,0.0013841041,0.0005442631,0.20571591,0.0,0.0,0.0,0.0,0
1865820000,0.9786174,0.0013593405,0.00056567515,0.20570587,0.0,0.0,0.0,0.0,0
1865832000,0.97861904,0.0013564845,0.0005928137,0.20569806,0.0,0.0,0.0,0.0,0
1865844000,0.97862065,0.001368154,0.0006271772,0.20569022,0.0,0.0,0.0,0.0,0
1865856000,0.97862226,0.0013819134,0.00066701655,0.2056824,0.0,0.0,0.0,0.0,0
1865864000,0.97862315,0.0013934679,0.0006939955,0.20567784,0.0,0.0,0.0,0.0,0
1865880000,0.9786241,0.0014285073,0.0007395794,0.20567295,0.0,0.0,0.0,0.0,0
1865888000,0.97862405,0.0014489475,0.0007567186,0.20567298,0.0,0.0,0.0,0.0,0
1865900000,0.97862357,0.0014774285,0.00077705126,0.20567495,0.0,0.0,0.0,0.0,0
1865912000,0.97862285,0.0014990658,0.0007885468,0.20567839,0.0,0.0,0.0,0.0,0
1865924000,0.9786219,0.0015127857,0.00079665676,0.20568256,0.0,0.0,0.0,0.0,0
1865940000,0.9786208,0.0015134807,0.00079781347,0.20568776,0.0,0.0,0.0,0.0,0
1865952000,0.9786202,0.0015101203,0.00078420877,0.20569105,0.0,0.0,0.0,0.0,0
1865960000,0.97861975,0.0015061693,0.0007677201,0.2056929,0.0,0.0,0.0,0.0,0
1865972000,0.9786194,0.0014994746,0.00073478156,0.20569484,0.0,0.0,0.0,0.0,0
1865988000,0.9786191,0.0015057321,0.0006890928,0.20569643,0.0,0.0,0.0,0.0,0
1866000000,0.9786185,0.0015188681,0.0006638881,0.20569928,0.0,0.0,0.0,0.0,0
1866008000,0.9786178,0.0015271287,0.0006516976,0.2057025,0.0,0.0,0.0,0.0,0
1866024000,0.9786159,0.0015447732,0.00064026663,0.20571165,0.0,0.0,0.0,0.0,0
1866032000,0.9786147,0.001553868,0.0006371391,0.2057172,0.0,0.0,0.0,0.0,0
1866048000,0.9786123,0.0015555031,0.00062801386,0.20572855,0.0,0.0,0.0,0.0,0
1866060000,0.9786105,0.0015445227,0.00062413764,0.20573708,0.0,0.0,0.0,0.0,0
1866072000,0.97860867,0.0015345705,0.0006330391,0.20574602,0.0,0.0,0.0,0.0,0
1866080000,0.97860736,0.0015287314,0.0006470652,0.20575224,0.0,0.0,0.0,0.0,0
1866096000,0.97860473,0.0015062967,0.000697707,0.2057647,0.0,0.0,0.0,0.0,0
1866108000,0.97860277,0.0014872802,0.00074345287,0.20577393,0.0,0.0,0.0,0.0,0
1866120000,0.97860074,0.0014762474,0.00078999595,0.20578364,0.0,0.0,0.0,0.0,0
1866128000,0.97859937,0.0014701544,0.0008241784,0.20578991,0.0,0.0,0.0,0.0,0
1866140000,0.9785974,0.001463941,0.00088348915,0.20579907,0.0,0.0,0.0,0.0,0
1866152000,0.97859544,0.0014631817,0.00094594306,0.20580819,0.0,0.0,0.0,0.0,0
1866168000,0.9785928,0.001465344,0.0010253992,0.20582029,0.0,0.0,0.0,0.0,0
1866180000,0.978591,0.0014719908,0.0010765186,0.20582849,0.0,0.0,0.0,0.0,0
1866188000,0.97859,0.001482369,0.0011028062,0.20583312,0.0,0.0,0.0,0.0,0
1866200000,0.97858864,0.0015024903,0.0011379748,0.20583937,0.0,0.0,0.0,0.0,0
1866216000,0.9785871,0.0015185772,0.0011867256,0.20584616,0.0,0.0,0.0,0.0,0
1866228000,0.97858626,0.0015160477,0.0012155414,0.20585012,0.0,0.0,0.0,0.0,0
1866240000,0.97858554,0.0015084213,0.0012412895,0.20585328,0.0,0.0,0.0,0.0,0
1866248000,0.97858524,0.001501399,0.0012608047,0.20585485,0.0,0.0,0.0,0.0,0
1866264000,0.9785848,0.0014852002,0.0012953086,0.20585668,0.0,0.0,0.0,0.0,0
1866272000,0.97858465,0.0014725944,0.0013055423,0.20585744,0.0,0.0,0.0,0.0,0
1866284000,0.97858447,0.0014467126,0.0013095543,0.20585842,0.0,0.0,0.0,0.0,0
1866296000,0.97858435,0.0014217604,0.0013051,0.20585923,0.0,0.0,0.0,0.0,0
1866308000,0.9785843,0.0014081555,0.001300957,0.20585969,0.0,0.0,0.0,0.0,0
1866320000,0.97858423,0.0014055398,0.0012975942,0.20586014,0.0,0.0,0.0,0.0,0
1866336000,0.978584,0.0014144966,0.0012967048,0.20586114,0.0,0.0,0.0,0.0,0
1866348000,0.9785839,0.001438815,0.0012945543,0.2058615,0.0,0.0,0.0,0.0,0
1866356000,0.9785839,0.0014622273,0.0012932579,0.20586148,0.0,0.0,0.0,0.0,0
1866368000,0.9785837,0.0015020331,0.001287299,0.20586184,0.0,0.0,0.0,0.0,0
1866380000,0.9785833,0.0015373371,0.0012841701,0.20586376,0.0,0.0,0.0,0.0,0
1866396000,0.97858226,0.0015735832,0.0012935537,0.20586821,0.0,0.0,0.0,0.0,0
1866408000,0.9785813,0.0015921996,0.0013044195,0.2058726,0.0,0.0,0.0,0.0,0
1866416000,0.97858053,0.0015972308,0.0013140849,0.2058762,0.0,0.0,0.0,0.0,0
1866432000,0.97857887,0.0015842508,0.001340466,0.2058839,0.0,0.0,0.0,0.0,0
1866444000,0.97857785,0.0015499966,0.0013463311,0.20588902,0.0,0.0,0.0,0.0,0
1866456000,0.97857696,0.0015041493,0.0013361835,0.20589353,0.0,0.0,0.0,0.0,0
1866464000,0.9785765,0.0014698828,0.0013232962,0.20589632,0.0,0.0,0.0,0.0,0
1866480000,0.9785755,0.00140668,0.0012935266,0.20590149,0.0,0.0,0.0,0.0,0
1866488000,0.97857505,0.0013781152,0.0012790051,0.20590404,0.0,0.0,0.0,0.0,0
1866500000,0.97857416,0.0013391679,0.001256532,0.20590857,0.0,0.0,0.0,0.0,0
1866516000,0.9785727,0.0012986442,0.0012349986,0.20591575,0.0,0.0,0.0,0.0,0
1866528000,0.9785714,0.0012690078,0.0012263687,0.20592217,0.0,0.0,0.0,0.0,0
1866536000,0.97857034,0.0012506222,0.0012230257,0.20592734,0.0,0.0,0.0,0.0,0
1866548000,0.97856855,0.0012277662,0.0012234931,0.20593615,0.0,0.0,0.0,0.0,0
1866564000,0.9785661,0.0012038822,0.001237078,0.20594774,0.0,0.0,0.0,0.0,0
1866572000,0.9785649,0.0011922603,0.0012516588,0.2059534,0.0,0.0,0.0,0.0,0
1866588000,0.9785623,0.0011550548,0.0012925864,0.20596589,0.0,0.0,0.0,0.0,0
1866600000,0.97856027,0.0011127592,0.0013276879,0.2059756,0.0,0.0,0.0,0.0,0
1866612000,0.9785584,0.0010500074,0.0013589398,0.20598431,0.0,0.0,0.0,0.0,0
1866620000,0.97855735,0.0009997049,0.001374774,0.20598969,0.0,0.0,0.0,0.0,0
1866632000,0.9785557,0.00091425277,0.001390805,0.20599794,0.0,0.0,0.0,0.0,0
1866648000,0.9785531,0.00078840123,0.0014063364,0.20601054,0.0,0.0,0.0,0.0,0
1866656000,0.9785516,0.00071869214,0.0014170518,0.2060177,0.0,0.0,0.0,0.0,0
1866672000,0.9785484,0.00057823025,0.001436536,0.20603326,0.0,0.0,0.0,0.0,0
1866680000,0.97854674,0.0005123463,0.0014437641,0.20604137,0.0,0.0,0.0,0.0,0
1866692000,0.97854435,0.00042230106,0.0014547781,0.20605284,0.0,0.0,0.0,0.0,0
1866704000,0.97854215,0.0003421889,0.0014688866,0.20606333,0.0,0.0,0.0,0.0,0
1866716000,0.97854006,0.00026855245,0.0014818908,0.2060732,0.0,0.0,0.0,0.0,0
1866732000,0.9785374,0.00018813183,0.0015073891,0.20608588,0.0,0.0,0.0,0.0,0
1866744000,0.97853535,0.00014810033,0.0015307167,0.20609543,0.0,0.0,0.0,0.0,0
1866756000,0.9785332,0.0001194393,0.001553703,0.2061053,0.0,0.0,0.0,0.0,0
1866764000,0.9785317,0.00010059614,0.001570107,0.2061123,0.0,0.0,0.0,0.0,0
1866780000,0.97852856,6.287808e-05,0.0016044899,0.206127,0.0,0.0,0.0,0.0,0
1866792000,0.97852623,3.4829085e-05,0.0016181304,0.20613818,0.0,0.0,0.0,0.0,0
1866804000,0.97852373,3.6297984e-06,0.0016206219,0.20615001,0.0,0.0,0.0,0.0,0
1866816000,0.97852105,-3.5844583e-05,0.0016203868,0.20616262,0.0,0.0,0.0,0.0,0
1866824000,0.9785194,-6.3946e-05,0.0016229114,0.20617066,0.0,0.0,0.0,0.0,0
1866840000,0.97851604,-0.00012040584,0.001643705,0.20618612,0.0,0.0,0.0,0.0,0
1866848000,0.97851425,-0.00014361333,0.0016606917,0.20619442,0.0,0.0,0.0,0.0,0
1866864000,0.97851026,-0.00017463625,0.0017050215,0.206213,0.0,0.0,0.0,0.0,0
1866876000,0.9785071,-0.00018825707,0.0017349544,0.20622794,0.0,0.0,0.0,0.0,0
1866888000,0.97850376,-0.00020489887,0.0017573921,0.2062434,0.0,0.0,0.0,0.0,0
1866900000,0.97850025,-0.00022847757,0.0017732196,0.20625986,0.0,0.0,0.0,0.0,0
1866912000,0.9784967,-0.00025809792,0.0017877312,0.2062769,0.0,0.0,0.0,0.0,0
1866924000,0.9784931,-0.00028809882,0.0018019197,0.20629351,0.0,0.0,0.0,0.0,0
1866936000,0.9784898,-0.00030285903,0.0018206153,0.20630905,0.0,0.0,0.0,0.0,0
1866944000,0.97848773,-0.00030504316,0.0018302544,0.20631868,0.0,0.0,0.0,0.0,0
1866956000,0.97848475,-0.00029723474,0.0018430898,0.20633288,0.0,0.0,0.0,0.0,0
1866972000,0.97848076,-0.00028307768,0.0018662309,0.20635144,0.0,0.0,0.0,0.0,0
1866984000,0.97847795,-0.00028518305,0.0018852333,0.2063646,0.0,0.0,0.0,0.0,0
1866996000,0.97847533,-0.00029923551,0.0019059293,0.20637684,0.0,0.0,0.0,0.0,0
1867004000,0.97847384,-0.0003103616,0.0019196466,0.20638388,0.0,0.0,0.0,0.0,0
1867020000,0.97847134,-0.00033075165,0.001954177,0.20639533,0.0,0.0,0.0,0.0,0
1867032000,0.9784698,-0.0003391047,0.0019903006,0.20640232,0.0,0.0,0.0,0.0,0
1867044000,0.97846854,-0.00034718556,0.0020368577,0.20640783,0.0,0.0,0.0,0.0,0
1867056000,0.9784675,-0.00036194842,0.0020824815,0.20641199,0.0,0.0,0.0,0.0,0
1867068000,0.9784666,-0.00037874313,0.002117142,0.20641626,0.0,0.0,0.0,0.0,0
1867080000,0.9784655,-0.0003896301,0.0021447362,0.20642085,0.0,0.0,0.0,0.0,0
1867092000,0.97846454,-0.0003906545,0.0021699287,0.20642525,0.0,0.0,0.0,0.0,0
1867104000,0.9784636,-0.0003893304,0.0021922484,0.20642954,0.0,0.0,0.0,0.0,0
1867116000,0.97846234,-0.00038108698,0.0022157656,0.20643522,0.0,0.0,0.0,0.0,0
1867128000,0.9784607,-0.0003622924,0.0022332724,0.20644273,0.0,0.0,0.0,0.0,0
1867140000,0.9784589,-0.00033573114,0.0022501538,0.20645133,0.0,0.0,0.0,0.0,0
1867148000,0.97845757,-0.0003141411,0.0022617772,0.20645751,0.0,0.0,0.0,0.0,0
1867160000,0.9784553,-0.00027818774,0.0022831368,0.20646806,0.0,0.0,0.0,0.0,0
1867176000,0.97845197,-0.00022749214,0.0023244286,0.20648353,0.0,0.0,0.0,0.0,0
1867188000,0.97844946,-0.00019409759,0.0023657123,0.20649475,0.0,0.0,0.0,0.0,0
1867200000,0.97844726,-0.00016136463,0.0024095105,0.20650485,0.0,0.0,0.0,0.0,0
1867212000,0.9784453,-0.00013677758,0.0024547263,0.20651348,0.0,0.0,0.0,0.0,0
1867220000,0.9784441,-0.00012540388,0.0024846606,0.20651881,0.0,0.0,0.0,0.0,0
1867232000,0.9784425,-0.000120659955,0.002521607,0.2065262,0.0,0.0,0.0,0.0,0
1867248000,0.97844046,-0.00013402806,0.0025464783,0.20653547,0.0,0.0,0.0,0.0,0
1867260000,0.97843874,-0.00015117611,0.0025564036,0.20654339,0.0,0.0,0.0,0.0,0
1867272000,0.97843695,-0.0001685933,0.0025766147,0.20655173,0.0,0.0,0.0,0.0,0
1867280000,0.9784358,-0.00018009484,0.0025988354,0.2065567,0.0,0.0,0.0,0.0,0
1867292000,0.9784344,-0.00019619186,0.0026494123,0.20656285,0.0,0.0,0.0,0.0,0
1867308000,0.97843254,-0.00020506613,0.0027428712,0.20657045,0.0,0.0,0.0,0.0,0
1867316000,0.97843164,-0.00020494478,0.0027885677,0.20657387,0.0,0.0,0.0,0.0,0
1867332000,0.9784303,-0.00020860974,0.0028534015,0.2065795,0.0,0.0,0.0,0.0,0
1867344000,0.9784296,-0.00021343812,0.0028740352,0.2065825,0.0,0.0,0.0,0.0,0
1867352000,0.97842926,-0.00021602881,0.0028777118,0.20658396,0.0,0.0,0.0,0.0,0
1867368000,0.9784287,-0.0002177698,0.0028758347,0.20658666,0.0,0.0,0.0,0.0,0
1867376000,0.9784284,-0.00021346578,0.0028781241,0.20658796,0.0,0.0,0.0,0.0,0
1867392000,0.9784277,-0.00020813518,0.002897277,0.206591,0.0,0.0,0.0,0.0,0
1867404000,0.97842735,-0.00020561485,0.0029247627,0.20659246,0.0,0.0,0.0,0.0,0
1867412000,0.9784272,-0.00020152067,0.0029487722,0.2065929,0.0,0.0,0.0,0.0,0
1867428000,0.97842705,-0.00017872486,0.003007171,0.20659277,0.0,0.0,0.0,0.0,0
1867440000,0.9784269,-0.00015181927,0.003063564,0.20659268,0.0,0.0,0.0,0.0,0
1867452000,0.9784267,-0.000117127805,0.0031168768,0.20659266,0.0,0.0,0.0,0.0,0
1867464000,0.97842675,-7.643867e-05,0.0031666392,0.20659177,0.0,0.0,0.0,0.0,0
1867476000,0.978427,-2.9206472e-05,0.0032200576,0.20658973,0.0,0.0,0.0,0.0,0
1867488000,0.9784274,1.9948739e-05,0.0032701408,0.20658694,0.0,0.0,0.0,0.0,0
1867500000,0.97842777,7.1975584e-05,0.0033128464,0.20658472,0.0,0.0,0.0,0.0,0
1867512000,0.9784278,0.00012002079,0.0033453896,0.20658398,0.0,0.0,0.0,0.0,0
1867524000,0.9784279,0.00016606544,0.00336506,0.20658316,0.0,0.0,0.0,0.0,0
1867532000,0.97842795,0.0001966111,0.0033720355,0.20658265,0.0,0.0,0.0,0.0,0
1867544000,0.9784276,0.0002518169,0.0033775861,0.20658423,0.0,0.0,0.0,0.0,0
1867556000,0.9784267,0.00031857027,0.0033645844,0.20658867,0.0,0.0,0.0,0.0,0
1867568000,0.9784254,0.00037700226,0.003340406,0.20659529,0.0,0.0,0.0,0.0,0
1867580000,0.9784238,0.000418128,0.003311437,0.20660323,0.0,0.0,0.0,0.0,0
1867596000,0.97842187,0.00045492538,0.0032734696,0.2066128,0.0,0.0,0.0,0.0,0
1867608000,0.9784203,0.0004784445,0.0032555447,0.20662023,0.0,0.0,0.0,0.0,0
1867620000,0.9784186,0.000503086,0.0032422675,0.20662868,0.0,0.0,0.0,0.0,0
1867632000,0.978417,0.0005203877,0.0032217978,0.20663661,0.0,0.0,0.0,0.0,0
1867644000,0.97841555,0.00053343724,0.0031921812,0.20664367,0.0,0.0,0.0,0.0,0
1867656000,0.97841436,0.00055007456,0.003154846,0.20665006,0.0,0.0,0.0,0.0,0
1867664000,0.97841346,0.0005665204,0.0031262692,0.20665461,0.0,0.0,0.0,0.0,0
1867676000,0.9784121,0.0005825959,0.0030799191,0.20666178,0.0,0.0,0.0,0.0,0
1867688000,0.9784107,0.0005796797,0.0030238011,0.20666905,0.0,0.0,0.0,0.0,0
1867700000,0.9784094,0.0005568536,0.0029631034,0.20667632,0.0,0.0,0.0,0.0,0
1867712000,0.97840834,0.00052123645,0.0028929804,0.20668241,0.0,0.0,0.0,0.0,0
1867724000,0.9784076,0.00048484732,0.002805573,0.2066869,0.0,0.0,0.0,0.0,0
1867736000,0.9784074,0.0004478311,0.002706906,0.2066895,0.0,0.0,0.0,0.0,0
1867748000,0.9784074,0.00041581228,0.0026053742,0.20669104,0.0,0.0,0.0,0.0,0
1867760000,0.97840726,0.000388444,0.002507347,0.2066927,0.0,0.0,0.0,0.0,0
1867776000,0.97840726,0.00036580634,0.0024116521,0.20669392,0.0,0.0,0.0,0.0,0
1867788000,0.97840756,0.0003521491,0.0023673903,0.20669302,0.0,0.0,0.0,0.0,0
1867800000,0.9784082,0.00033746575,0.002342168,0.20669039,0.0,0.0,0.0,0.0,0
1867812000,0.97840905,0.0003226792,0.0023278052,0.2066864,0.0,0.0,0.0,0.0,0
1867824000,0.9784102,0.0002980208,0.0023114823,0.20668128,0.0,0.0,0.0,0.0,0
1867836000,0.97841156,0.000257881,0.0022756187,0.20667519,0.0,0.0,0.0,0.0,0
1867848000,0.9784132,0.00021109436,0.002215681,0.20666805,0.0,0.0,0.0,0.0,0
1867856000,0.97841436,0.00018182148,0.0021705811,0.20666315,0.0,0.0,0.0,0.0,0
1867868000,0.9784161,0.00013939105,0.0021106547,0.20665573,0.0,0.0,0.0,0.0,0
1867884000,0.9784182,8.005563e-05,0.0020293214,0.20664684,0.0,0.0,0.0,0.0,0
1867896000,0.9784195,3.996881e-05,0.0019666138,0.20664099,0.0,0.0,0.0,0.0,0
1867908000,0.97842073,1.1665107e-05,0.0019094184,0.20663568,0.0,0.0,0.0,0.0,0
1867920000,0.97842175,1.8618674e-06,0.0018577053,0.20663145,0.0,0.0,0.0,0.0,0
1867932000,0.9784224,1.4735833e-05,0.0018119889,0.20662864,0.0,0.0,0.0,0.0,0
1867940000,0.97842276,2.6633115e-05,0.0017805832,0.20662731,0.0,0.0,0.0,0.0,0
1867952000,0.97842324,5.1788094e-05,0.0017314311,0.2066254,0.0,0.0,0.0,0.0,0
1867968000,0.9784239,9.5549665e-05,0.0016627281,0.20662288,0.0,0.0,0.0,0.0,0
1867980000,0.9784244,0.0001213294,0.0016141,0.20662095,0.0,0.0,0.0,0.0,0
1867988000,0.9784247,0.00013027243,0.0015854518,0.20661943,0.0,0.0,0.0,0.0,0
1868004000,0.97842526,0.00013139805,0.0015530938,0.20661734,0.0,0.0,0.0,0.0,0
1868012000,0.97842515,0.00013051207,0.0015482535,0.20661782,0.0,0.0,0.0,0.0,0
1868024000,0.9784247,0.00012256582,0.0015485662,0.20661984,0.0,0.0,0.0,0.0,0
1868036000,0.9784239,9.876452e-05,0.0015479227,0.20662366,0.0,0.0,0.0,0.0,0
1868048000,0.9784226,7.428375e-05,0.0015440203,0.20663008,0.0,0.0,0.0,0.0,0
1868060000,0.97842103,5.9895137e-05,0.0015326828,0.20663749,0.0,0.0,0.0,0.0,0
1868072000,0.9784196,4.7138314e-05,0.0015091815,0.20664452,0.0,0.0,0.0,0.0,0
1868088000,0.9784175,2.4078823e-05,0.0014597005,0.20665456,0.0,0.0,0.0,0.0,0
1868096000,0.9784165,1.1806224e-05,0.0014290111,0.20665969,0.0,0.0,0.0,0.0,0
1868108000,0.978415,-8.703707e-06,0.0013732346,0.2066671,0.0,0.0,0.0,0.0,0
1868124000,0.9784132,-3.481808e-05,0.0013001483,0.20667608,0.0,0.0,0.0,0.0,0
1868132000,0.9784124,-4.4258944e-05,0.001267088,0.20668025,0.0,0.0,0.0,0.0,0
1868148000,0.9784106,-5.8697013e-05,0.0012169451,0.20668902,0.0,0.0,0.0,0.0,0
1868160000,0.97840923,-6.946486e-05,0.0012080619,0.20669536,0.0,0.0,0.0,0.0,0
1868168000,0.9784085,-8.3005805e-05,0.0012127341,0.20669891,0.0,0.0,0.0,0.0,0
1868180000,0.9784075,-0.00011010387,0.0012349802,0.20670338,0.0,0.0,0.0,0.0,0
1868192000,0.97840667,-0.00014363695,0.0012757285,0.20670703,0.0,0.0,0.0,0.0,0
1868204000,0.978406,-0.00017531241,0.0013287897,0.20671,0.0,0.0,0.0,0.0,0
1868220000,0.97840506,-0.00021484078,0.0014066607,0.20671374,0.0,0.0,0.0,0.0,0
1868228000,0.97840464,-0.00023824137,0.0014487309,0.20671555,0.0,0.0,0.0,0.0,0
1868240000,0.97840405,-0.00027521746,0.0015137335,0.2067178,0.0,0.0,0.0,0.0,0
1868256000,0.9784034,-0.0003121212,0.0016136561,0.20672016,0.0,0.0,0.0,0.0,0
1868268000,0.97840303,-0.00032859718,0.0016926753,0.20672117,0.0,0.0,0.0,0.0,0
1868280000,0.97840285,-0.0003419115,0.0017705623,0.20672138,0.0,0.0,0.0,0.0,0
1868288000,0.9784028,-0.0003469237,0.0018205405,0.20672123,0.0,0.0,0.0,0.0,0
1868300000,0.9784027,-0.00034131264,0.001890461,0.20672107,0.0,0.0,0.0,0.0,0
1868312000,0.9784025,-0.0003200946,0.0019489507,0.2067214,0.0,0.0,0.0,0.0,0
1868324000,0.9784021,-0.00028371337,0.001994254,0.20672303,0.0,0.0,0.0,0.0,0
1868340000,0.97840136,-0.00022160767,0.0020225062,0.2067261,0.0,0.0,0.0,0.0,0
1868348000,0.97840106,-0.000188961,0.002020616,0.20672768,0.0,0.0,0.0,0.0,0
1868364000,0.9784003,-0.000115238865,0.0020031326,0.2067317,0.0,0.0,0.0,0.0,0
1868376000,0.9783999,-5.596537e-05,0.0019899784,0.2067338,0.0,0.0,0.0,0.0,0
1868388000,0.97839975,-2.911062e-06,0.0019816505,0.20673433,0.0,0.0,0.0,0.0,0
1868400000,0.9783999,3.4356533e-05,0.0019779964,0.20673388,0.0,0.0,0.0,0.0,0
1868408000,0.97840005,5.266554e-05,0.0019771117,0.20673306,0.0,0.0,0.0,0.0,0
1868420000,0.9784004,6.5058244e-05,0.0019805327,0.20673119,0.0,0.0,0.0,0.0,0
1868436000,0.9784009,4.7599002e-05,0.002003249,0.20672888,0.0,0.0,0.0,0.0,0
1868448000,0.9784011,1.1224952e-05,0.0020380148,0.20672725,0.0,0.0,0.0,0.0,0
1868460000,0.97840136,-3.738663e-05,0.0020821937,0.20672588,0.0,0.0,0.0,0.0,0
1868472000,0.97840124,-9.456591e-05,0.002130708,0.20672587,0.0,0.0,0.0,0.0,0
1868484000,0.97840095,-0.00015140278,0.0021796844,0.20672661,0.0,0.0,0.0,0.0,0
1868492000,0.97840077,-0.00018582033,0.0022038207,0.2067273,0.0,0.0,0.0,0.0,0
1868504000,0.9784004,-0.00022913245,0.0022206837,0.20672858,0.0,0.0,0.0,0.0,0
