timestamp,timestamp_sample,control[0],control[1],control[2],control[3],control[4],control[5],control[6],control[7]
1449032000,1449032000,-0.007257825,-0.012072013,-0.22675708,-0.0,0.0,0.0,0.0,-1.0
1449128000,1449128000,-0.0039219325,-0.0060338387,-0.22711137,-0.0,0.0,0.0,0.0,-1.0
1449232000,1449232000,-0.004743105,-0.008092238,-0.22789927,-0.0,0.0,0.0,0.0,-1.0
1449328000,1449328000,-0.005692136,-0.010192166,-0.22718957,-0.0,0.0,0.0,0.0,-1.0
1449428000,1449428000,-0.007840937,-0.012693585,-0.2274129,-0.0,0.0,0.0,0.0,-1.0
1449532000,1449532000,-0.0053232694,-0.009333454,-0.22784017,-0.0,0.0,0.0,0.0,-1.0
1449632000,1449632000,-0.006685184,-0.006915996,-0.228458,-0.0,0.0,0.0,0.0,-1.0
1449728000,1449728000,-0.0057417015,-0.008825945,-0.2273885,-0.0,0.0,0.0,0.0,-1.0
1449832000,1449832000,-0.0061630267,-0.0072281878,-0.22664642,-0.0,0.0,0.0,0.0,-1.0
1449932000,1449932000,-0.007611229,-0.0055359597,-0.22626558,-0.0,0.0,0.0,0.0,-1.0
1450032000,1450032000,-0.0045865634,-0.009502871,-0.22725558,-0.0,0.0,0.0,0.0,-1.0
1450132000,1450132000,-0.007215047,-0.045873795,-0.00036749538,0.120066084,0.0,0.0,0.0,-1.0
1450232000,1450232000,-0.007351885,-0.017005747,0.0002089095,0.13611306,0.0,0.0,0.0,-1.0
1450332000,1450332000,-0.007483885,-0.011217618,1.9284626e-05,0.21912318,0.0,0.0,0.0,-1.0
1450432000,1450432000,-0.007566416,-0.010346327,-0.00035546502,0.28985068,0.0,0.0,0.0,-1.0
1450532000,1450532000,-0.0074472683,-0.013512334,-0.00076588633,0.36112306,0.0,0.0,0.0,-1.0
1450628000,1450628000,-0.010177776,-0.008456131,-0.00044216638,0.44317636,0.0,0.0,0.0,-1.0
1450732000,1450732000,-0.009560952,-0.011731448,-0.0012672114,0.51581717,0.0,0.0,0.0,-1.0
1450828000,1450828000,-0.0067146965,-0.008881522,-0.00045482517,0.5853509,0.0,0.0,0.0,-1.0
1450928000,1450928000,0.002638069,0.0021042656,7.918087e-05,0.61622566,0.0,0.0,0.0,-1.0
1451028000,1451028000,0.0027529346,0.0016359086,-0.00069456536,0.59969294,0.0,0.0,0.0,-1.0
1451132000,1451132000,-0.0018877935,2.3348257e-05,-4.3938966e-05,0.6101693,0.0,0.0,0.0,-1.0
1451228000,1451228000,0.0012886456,-0.00032148184,0.00083201664,0.6140091,0.0,0.0,0.0,-1.0
1451328000,1451328000,0.0002621814,-0.00030998467,0.00018616687,0.6148249,0.0,0.0,0.0,-1.0
1451432000,1451432000,-0.0006535755,0.0009784522,0.0012624861,0.6163984,0.0,0.0,0.0,-1.0
1451532000,1451532000,-0.0022747337,0.0011758197,-0.0002513646,0.57549214,0.0,0.0,0.0,-1.0
1451628000,1451628000,-0.0017211428,-1.1361553e-05,0.00034871718,0.5324436,0.0,0.0,0.0,-1.0
1451732000,1451732000,0.00035115972,-0.00020565523,-0.00036464623,0.565528,0.0,0.0,0.0,-1.0
1451828000,1451828000,0.00092312275,0.0006591836,-0.00039678923,0.55964214,0.0,0.0,0.0,-1.0
1451932000,1451932000,0.0016435765,0.00067439326,-0.00044417506,0.5603931,0.0,0.0,0.0,-1.0
1452028000,1452028000,0.0008190261,-0.0005837527,0.00054830685,0.55988103,0.0,0.0,0.0,-1.0
1452132000,1452132000,-0.0015572122,0.00088653294,1.7797505e-05,0.5605825,0.0,0.0,0.0,-1.0
1452232000,1452232000,0.0003581305,0.0021754978,-0.0013671617,0.5609828,0.0,0.0,0.0,-1.0
1452332000,1452332000,0.004491912,-0.0007684775,-0.00044806537,0.5622484,0.0,0.0,0.0,-1.0
1452432000,1452432000,-0.0005911476,0.0006387268,0.000731346,0.562242,0.0,0.0,0.0,-1.0
1452528000,1452528000,0.00070423685,0.00014022284,-0.0009327069,0.5616416,0.0,0.0,0.0,-1.0
1452632000,1452632000,-0.0006585123,-0.0021765085,-0.00023138031,0.5620746,0.0,0.0,0.0,-1.0
1452732000,1452732000,0.00031452754,-7.063622e-05,0.00012700644,0.56447756,0.0,0.0,0.0,-1.0
1452832000,1452832000,0.0019094846,6.341364e-05,0.0011269021,0.563559,0.0,0.0,0.0,-1.0
1452928000,1452928000,0.000313518,0.0005125385,-0.0005203346,0.56216234,0.0,0.0,0.0,-1.0
1453028000,1453028000,-8.15441e-05,2.6495254e-05,0.00048763573,0.56269497,0.0,0.0,0.0,-1.0
1453128000,1453128000,-0.00020905654,-9.507072e-05,0.00036329567,0.56211424,0.0,0.0,0.0,-1.0
1453232000,1453232000,-5.995395e-05,0.002435032,0.000551188,0.56228405,0.0,0.0,0.0,-1.0
1453328000,1453328000,-0.0025553633,-0.0014015553,0.00069511135,0.56384736,0.0,0.0,0.0,-1.0
1453432000,1453432000,0.00046982407,0.0037489403,0.0005530863,0.5612952,0.0,0.0,0.0,-1.0
1453532000,1453532000,-0.0001778437,-0.0018725791,-0.0003337489,0.562279,0.0,0.0,0.0,-1.0
1453632000,1453632000,0.0017150843,0.0006783543,0.0003574904,0.5648131,0.0,0.0,0.0,-1.0
1453732000,1453732000,0.0014872663,-0.0009948842,-0.00028902994,0.5623151,0.0,0.0,0.0,-1.0
1453832000,1453832000,0.00017562539,-9.311762e-05,-1.7975408e-05,0.5622739,0.0,0.0,0.0,-1.0
1453932000,1453932000,-0.0023145871,0.0006717565,-0.0063861366,0.56168455,0.0,0.0,0.0,-1.0
1454032000,1454032000,0.001934127,-0.0025875587,-0.0026057353,0.5633597,0.0,0.0,0.0,-1.0
1454132000,1454132000,0.001963693,0.00039891995,0.00015608178,0.56521535,0.0,0.0,0.0,-1.0
1454232000,1454232000,0.0010438615,-0.002655786,0.0007685429,0.5634256,0.0,0.0,0.0,-1.0
1454332000,1454332000,0.00051777245,-0.0020029137,-0.00018644524,0.56327444,0.0,0.0,0.0,-1.0
1454432000,1454432000,0.0005187217,0.0002003379,0.00057473296,0.56462836,0.0,0.0,0.0,-1.0
1454528000,1454528000,0.00079016475,0.0010469893,0.00047232435,0.5638301,0.0,0.0,0.0,-1.0
1454632000,1454632000,-0.0005848773,0.0010620054,0.00033195573,0.5648604,0.0,0.0,0.0,-1.0
1454728000,1454728000,-0.0016972818,0.00117485,0.00015126081,0.5638429,0.0,0.0,0.0,-1.0
1454832000,1454832000,-0.0022115412,-0.0012690251,0.00025591376,0.563982,0.0,0.0,0.0,-1.0
1454932000,1454932000,-0.0021178017,-0.0009982714,0.0012668059,0.5640777,0.0,0.0,0.0,-1.0
1455028000,1455028000,0.0016848076,0.0026166425,0.0003554256,0.5643503,0.0,0.0,0.0,-1.0
1455132000,1455132000,0.0014825457,-0.00090347667,0.00014648336,0.56425875,0.0,0.0,0.0,-1.0
1455232000,1455232000,-0.0022576526,-0.00066408905,0.00011837785,0.56457454,0.0,0.0,0.0,-1.0
1455332000,1455332000,0.0012132309,-0.0011089128,0.0006152141,0.5637799,0.0,0.0,0.0,-1.0
1455428000,1455428000,-0.002639756,0.0009799027,0.00036698737,0.5639592,0.0,0.0,0.0,-1.0
1455532000,1455532000,1.9730258e-05,0.00089099235,-0.000102669204,0.5651542,0.0,0.0,0.0,-1.0
1455632000,1455632000,-0.0008996743,-0.00052390026,0.00037456333,0.5652556,0.0,0.0,0.0,-1.0
1455732000,1455732000,-0.0010930569,-0.0011689396,-0.00018612435,0.56419533,0.0,0.0,0.0,-1.0
1455832000,1455832000,-0.0029673201,-0.0016725855,7.181571e-05,0.5645188,0.0,0.0,0.0,-1.0
1455932000,1455932000,-0.00090585556,0.0002369585,-1.1139957e-05,0.56351167,0.0,0.0,0.0,-1.0
1456028000,1456028000,-0.0016483701,-0.0010546738,0.00032640478,0.5642141,0.0,0.0,0.0,-1.0
1456128000,1456128000,0.0011709247,0.0011190759,0.00038250777,0.5656479,0.0,0.0,0.0,1.0
1456232000,1456232000,0.00075691193,0.0014066687,-0.00017175701,0.5657638,0.0,0.0,0.0,1.0
1456328000,1456328000,0.0010978609,0.00041891466,0.00029736073,0.5639561,0.0,0.0,0.0,1.0
1456432000,1456432000,0.0027001656,-0.00031187374,-0.00057383254,0.5657525,0.0,0.0,0.0,1.0
1456532000,1456532000,-0.0024548785,-0.0012164462,0.00018734978,0.56412584,0.0,0.0,0.0,1.0
1456632000,1456632000,-0.0011002431,-0.00032390864,-0.00033551248,0.56349534,0.0,0.0,0.0,1.0
1456732000,1456732000,-0.003875894,0.0016756165,-0.00095849985,0.5660489,0.0,0.0,0.0,1.0
1456828000,1456828000,0.00018170726,-0.00062764785,0.0014752154,0.563,0.0,0.0,0.0,1.0
1456928000,1456928000,-0.0019148091,-0.00046367606,-0.0003841472,0.56498414,0.0,0.0,0.0,1.0
1457028000,1457028000,0.00026292552,-0.0026631237,-0.00015487935,0.56376964,0.0,0.0,0.0,1.0
1457128000,1457128000,0.0006324813,-0.0012825166,0.00042080035,0.56492126,0.0,0.0,0.0,1.0
1457232000,1457232000,3.93845e-05,0.00020561279,0.00022909201,0.56434447,0.0,0.0,0.0,1.0
1457328000,1457328000,-0.0008490446,-0.002598592,-0.0005942996,0.56344235,0.0,0.0,0.0,1.0
1457432000,1457432000,0.0011931901,-0.00310698,0.00070466736,0.56415564,0.0,0.0,0.0,1.0
1457532000,1457532000,-0.0017399776,0.0007765978,0.0003418355,0.56397504,0.0,0.0,0.0,1.0
1457632000,1457632000,-0.0006622763,-0.00043727056,-0.00044650614,0.56367815,0.0,0.0,0.0,1.0
1457728000,1457728000,0.002024468,0.0013556863,0.00080036605,0.56495804,0.0,0.0,0.0,1.0
1457832000,1457832000,-0.0018656002,0.000942297,0.00050805265,0.56490636,0.0,0.0,0.0,1.0
1457932000,1457932000,-0.0014069914,-0.0013490006,-0.0005188475,0.5638257,0.0,0.0,0.0,1.0
1458032000,1458032000,-0.0008462581,0.00053974136,0.00056938647,0.5638812,0.0,0.0,0.0,1.0
1458132000,1458132000,0.0025095688,0.001578278,0.0010394097,0.56332016,0.0,0.0,0.0,1.0
1458232000,1458232000,-0.0005899956,0.00043464897,-0.00086136605,0.5633066,0.0,0.0,0.0,1.0
1458328000,1458328000,-0.0016625562,0.0004922554,-0.00024653992,0.5637616,0.0,0.0,0.0,1.0
1458432000,1458432000,0.004309181,-0.0035134372,-0.00037267682,0.5652244,0.0,0.0,0.0,1.0
1458532000,1458532000,-0.0016716053,-0.0013932141,0.00034832337,0.5635127,0.0,0.0,0.0,1.0
1458632000,1458632000,6.381466e-06,-0.00052682194,-8.8236615e-05,0.56389093,0.0,0.0,0.0,1.0
1458732000,1458732000,0.0009279336,4.7916037e-05,-0.00030458622,0.563738,0.0,0.0,0.0,1.0
1458832000,1458832000,-0.0017218695,-0.0009159458,0.0002462179,0.5629404,0.0,0.0,0.0,1.0
1458932000,1458932000,-0.0025466434,0.00016701601,0.0009890395,0.5635771,0.0,0.0,0.0,1.0
1459032000,1459032000,-0.003584911,-0.0021745167,-0.0005886,0.562117,0.0,0.0,0.0,1.0
1459132000,1459132000,0.0027933985,-0.000358912,-0.00060589844,0.5621198,0.0,0.0,0.0,1.0
1459232000,1459232000,-0.0017815152,0.000574376,-0.0011577021,0.56347877,0.0,0.0,0.0,1.0
1459332000,1459332000,-0.0027657787,0.0012877662,-5.8881422e-05,0.56291336,0.0,0.0,0.0,1.0
1459432000,1459432000,-0.0013016672,0.00041486474,-0.00088974094,0.56277,0.0,0.0,0.0,1.0
1459528000,1459528000,0.0025380864,-0.0026356545,0.0002784736,0.56284845,0.0,0.0,0.0,1.0
1459632000,1459632000,0.00056433177,0.0017702747,-7.443483e-05,0.562765,0.0,0.0,0.0,1.0
1459732000,1459732000,0.0004080541,0.0008165845,-0.000114881346,0.5620331,0.0,0.0,0.0,1.0
1459828000,1459828000,0.00059993594,-0.0027225728,-0.00074310176,0.56174713,0.0,0.0,0.0,1.0
1459932000,1459932000,-0.0017278132,-0.00011250749,0.0003663714,0.5628697,0.0,0.0,0.0,1.0
1460032000,1460032000,0.0031496794,0.0006373379,0.00021643253,0.56389165,0.0,0.0,0.0,1.0
1460128000,1460128000,0.0019265485,0.0022851625,-0.00027515943,0.5634212,0.0,0.0,0.0,1.0
1460232000,1460232000,-6.858022e-05,-0.00014272961,0.0011261335,0.5635473,0.0,0.0,0.0,1.0
1460332000,1460332000,0.0017495804,0.0009950012,-0.0006203628,0.56322724,0.0,0.0,0.0,1.0
1460428000,1460428000,4.4109245e-05,-0.0008387462,0.00033976583,0.5616493,0.0,0.0,0.0,1.0
1460532000,1460532000,-0.0019276593,-0.0029697302,-0.00021997947,0.56285566,0.0,0.0,0.0,1.0
1460632000,1460632000,-0.000773218,0.00037655106,0.000699593,0.56230253,0.0,0.0,0.0,1.0
1460728000,1460728000,0.0024143343,0.000834624,-0.00029120132,0.563785,0.0,0.0,0.0,1.0
1460832000,1460832000,0.0024435904,-0.0005773562,-0.00049989927,0.5628324,0.0,0.0,0.0,1.0
1460928000,1460928000,-0.0013375353,-0.0019471073,0.0011834115,0.5639059,0.0,0.0,0.0,1.0
1461032000,1461032000,-0.00021452703,-0.0014975355,0.000556813,0.5632502,0.0,0.0,0.0,1.0
1461132000,1461132000,-0.0008275143,-0.002605409,-0.00024329385,0.5635432,0.0,0.0,0.0,1.0
1461232000,1461232000,-0.00094805553,-0.000651377,-0.000557501,0.5637992,0.0,0.0,0.0,1.0
1461332000,1461332000,-0.0003723384,0.0030120695,-0.0004745153,0.5627429,0.0,0.0,0.0,1.0
1461432000,1461432000,-0.0010110693,0.0006316034,6.2932672e-06,0.5622485,0.0,0.0,0.0,1.0
1461528000,1461528000,0.00085239916,0.0015607238,-0.00046020304,0.56443506,0.0,0.0,0.0,1.0
1461628000,1461628000,0.0039143884,0.00056283065,8.021731e-05,0.5636177,0.0,0.0,0.0,1.0
1461732000,1461732000,-0.0004918493,0.0015672509,-0.00032835442,0.56263566,0.0,0.0,0.0,1.0
1461832000,1461832000,0.0018783007,0.0029944286,0.00017158069,0.5643855,0.0,0.0,0.0,1.0
1461932000,1461932000,-0.0010174218,-0.0019971528,0.00026266262,0.56396085,0.0,0.0,0.0,1.0
1462032000,1462032000,-0.0006450757,-0.00043263187,0.00016400394,0.5644526,0.0,0.0,0.0,1.0
1462132000,1462132000,0.00092341314,0.0023386406,0.00046628312,0.5648604,0.0,0.0,0.0,1.0
1462228000,1462228000,0.001254825,-0.001115754,0.0005612401,0.5634907,0.0,0.0,0.0,1.0
1462332000,1462332000,0.0010333399,-0.0020019433,9.55333e-05,0.5637671,0.0,0.0,0.0,1.0
1462432000,1462432000,-0.00050061906,0.0014113823,-0.00096523826,0.563624,0.0,0.0,0.0,1.0
1462532000,1462532000,-0.00092368043,-0.0001516004,-0.00030984526,0.5620953,0.0,0.0,0.0,1.0
1462632000,1462632000,-0.002274714,0.00061741995,0.00075722265,0.5636299,0.0,0.0,0.0,1.0
1462732000,1462732000,0.0016540514,0.0004959817,7.348051e-05,0.5638193,0.0,0.0,0.0,1.0
1462832000,1462832000,0.0003173839,0.00017271884,0.00036476145,0.5634443,0.0,0.0,0.0,1.0
1462932000,1462932000,-0.0017752002,-0.0023338965,-0.00057271775,0.5619414,0.0,0.0,0.0,1.0
1463032000,1463032000,-0.0019987496,0.00055558933,0.0005271951,0.5636127,0.0,0.0,0.0,1.0
1463132000,1463132000,0.0020052674,-0.0002991192,-0.000113005204,0.5611724,0.0,0.0,0.0,1.0
1463228000,1463228000,0.0006267261,-0.00036680067,-0.00015325675,0.56230587,0.0,0.0,0.0,1.0
1463332000,1463332000,0.0007584849,-0.00017812863,0.0005438723,0.5631341,0.0,0.0,0.0,1.0
1463432000,1463432000,0.0001123737,-0.0023373223,-0.0010310365,0.5632857,0.0,0.0,0.0,1.0
1463528000,1463528000,0.00026712523,0.0002051116,9.77896e-06,0.5625409,0.0,0.0,0.0,1.0
1463632000,1463632000,0.0009885883,-0.0009916031,-0.0004317239,0.5635014,0.0,0.0,0.0,1.0
1463732000,1463732000,-0.002658634,-0.0010069434,-0.00014593275,0.5624684,0.0,0.0,0.0,1.0
1463832000,1463832000,0.00075599004,-0.0014100597,-0.0006897808,0.56325376,0.0,0.0,0.0,1.0
1463932000,1463932000,-0.00080764986,0.0032066882,0.000920195,0.5631317,0.0,0.0,0.0,1.0
1464028000,1464028000,0.00087874185,0.0015115992,-0.00013682448,0.56244713,0.0,0.0,0.0,1.0
1464132000,1464132000,-0.0023795306,0.001096183,-0.0005453582,0.5629444,0.0,0.0,0.0,1.0
1464232000,1464232000,0.002193761,0.001490952,0.0006729782,0.56316084,0.0,0.0,0.0,1.0
1464332000,1464332000,0.0012369769,-0.0027858429,0.00017542508,0.56220937,0.0,0.0,0.0,1.0
1464432000,1464432000,-0.0014860558,-0.002620166,-0.0009503111,0.5628109,0.0,0.0,0.0,1.0
1464532000,1464532000,4.366773e-05,0.00059040287,-0.00056337117,0.563423,0.0,0.0,0.0,1.0
1464632000,1464632000,-0.00060154515,0.00048604253,0.00060446025,0.5621066,0.0,0.0,0.0,1.0
1464732000,1464732000,0.0011816833,0.00022301145,-3.934628e-05,0.5639436,0.0,0.0,0.0,1.0
1464832000,1464832000,-0.00041457423,-0.00071395043,0.00047917682,0.56268775,0.0,0.0,0.0,1.0
1464932000,1464932000,-0.00030758698,0.00082169427,0.0001148794,0.56163937,0.0,0.0,0.0,1.0
1465032000,1465032000,0.0015468083,-0.0010798234,-0.00017593609,0.5628204,0.0,0.0,0.0,1.0
1465128000,1465128000,0.0005090019,0.00015832813,-0.00032676352,0.5635651,0.0,0.0,0.0,1.0
1465232000,1465232000,-0.00024462448,-0.0016595892,0.00017312744,0.5641104,0.0,0.0,0.0,1.0
1465332000,1465332000,-2.4437992e-05,-0.0008207103,-0.00019836187,0.5633025,0.0,0.0,0.0,1.0
1465432000,1465432000,0.002399204,0.0010440237,-0.0005930956,0.5633996,0.0,0.0,0.0,1.0
1465532000,1465532000,0.0014332449,-0.00052463333,0.00031875854,0.563706,0.0,0.0,0.0,1.0
1465632000,1465632000,-0.00031184708,-0.0011692889,-3.841405e-05,0.5647582,0.0,0.0,0.0,1.0
1465732000,1465732000,-0.0015886524,0.00069304346,0.00037509765,0.5632477,0.0,0.0,0.0,1.0
1465832000,1465832000,0.0028236008,-0.00015456752,0.00041910156,0.56229144,0.0,0.0,0.0,1.0
1465928000,1465928000,0.00093160657,0.001962511,-0.00016101518,0.56337327,0.0,0.0,0.0,1.0
1466032000,1466032000,-0.00035945172,-0.0016119392,0.0008277132,0.5637804,0.0,0.0,0.0,1.0
1466132000,1466132000,0.0009149918,0.00036306112,-0.00018082849,0.5617326,0.0,0.0,0.0,1.0
1466228000,1466228000,-0.0024839435,-3.513904e-05,0.00015713731,0.5621938,0.0,0.0,0.0,1.0
1466332000,1466332000,-0.0024717287,-0.0007224546,-0.0003818111,0.5637067,0.0,0.0,0.0,1.0
1466432000,1466432000,0.0023409668,0.0014727365,-0.00037960976,0.56395704,0.0,0.0,0.0,1.0
1466528000,1466528000,-0.0011367968,0.0038618564,-0.00015150412,0.5635897,0.0,0.0,0.0,1.0
1466628000,1466628000,0.001477927,-0.0009538651,0.00023873098,0.5640815,0.0,0.0,0.0,1.0
1466732000,1466732000,0.0003805506,-0.0013899318,0.0007336436,0.56362826,0.0,0.0,0.0,1.0
1466832000,1466832000,-0.002195492,0.00082163786,-0.00012933632,0.56359047,0.0,0.0,0.0,1.0
1466932000,1466932000,0.0011318524,-0.0011776383,0.0001682624,0.5630175,0.0,0.0,0.0,1.0
1467028000,1467028000,0.00314596,0.0011600098,0.0012691361,0.56321377,0.0,0.0,0.0,1.0
1467132000,1467132000,0.00049609866,0.00025424294,0.0005555301,0.5631975,0.0,0.0,0.0,1.0
1467232000,1467232000,-0.00063476176,0.0017203891,0.0005056807,0.56348354,0.0,0.0,0.0,1.0
1467332000,1467332000,-0.000338655,0.00074166234,-0.0006653724,0.56263334,0.0,0.0,0.0,1.0
1467432000,1467432000,0.002012433,0.0002026625,0.00073663826,0.5623774,0.0,0.0,0.0,1.0
1467528000,1467528000,-0.0007868205,0.00088922214,-0.00068580004,0.5646413,0.0,0.0,0.0,1.0
1467632000,1467632000,-0.0019023551,-0.0014072706,9.486986e-05,0.5637092,0.0,0.0,0.0,1.0
1467728000,1467728000,0.0029153565,-0.0029595236,-0.00060825486,0.5643009,0.0,0.0,0.0,1.0
1467832000,1467832000,-0.0023355098,0.000101078185,-9.552554e-05,0.5645864,0.0,0.0,0.0,1.0
1467932000,1467932000,-0.0005278459,-0.0018127804,-1.3667755e-05,0.5640532,0.0,0.0,0.0,1.0
1468032000,1468032000,-0.0017646712,-0.00090603286,-0.00036926867,0.5635767,0.0,0.0,0.0,1.0
1468132000,1468132000,-0.0014565451,0.0016124592,-0.000290135,0.5632633,0.0,0.0,0.0,1.0
1468232000,1468232000,0.0044137808,0.00072772836,0.0006365271,0.5631145,0.0,0.0,0.0,1.0
1468332000,1468332000,-0.0020764244,0.0031402232,0.00081576785,0.5642374,0.0,0.0,0.0,1.0
1468428000,1468428000,-0.00045492404,0.0008578786,-0.0002462819,0.56300277,0.0,0.0,0.0,1.0
1468528000,1468528000,-0.00030358025,0.00084833265,0.0008200463,0.5641718,0.0,0.0,0.0,1.0
1468632000,1468632000,0.0032906325,-0.00029020847,0.00046685842,0.56407726,0.0,0.0,0.0,1.0
1468732000,1468732000,-0.0008559882,-0.0007927655,0.0015726594,0.5633079,0.0,0.0,0.0,1.0
1468832000,1468832000,-0.0010014424,-0.0011286244,-6.954105e-05,0.56340915,0.0,0.0,0.0,1.0
1468932000,1468932000,0.23178521,0.13064453,0.7018581,0.29258728,0.0,0.0,0.0,1.0
1469032000,1469032000,-0.20117345,-0.0049891733,0.5687817,0.5002161,0.0,0.0,0.0,1.0
1469128000,1469128000,-0.16917087,-0.005252906,0.28929758,0.4282324,0.0,0.0,0.0,1.0
1469232000,1469232000,-0.074424304,-0.06596962,0.18990333,0.54678565,0.0,0.0,0.0,1.0
1469332000,1469332000,-0.003233932,0.004973964,0.16601023,0.5934064,0.0,0.0,0.0,1.0
1469432000,1469432000,0.013731867,0.03107186,0.16242102,0.5719053,0.0,0.0,0.0,1.0
1469532000,1469532000,0.008875098,0.032613363,0.16483141,0.5697497,0.0,0.0,0.0,1.0
1469628000,1469628000,-0.006736418,0.017537609,0.14970809,0.5718488,0.0,0.0,0.0,1.0
1469732000,1469732000,0.0021290341,0.002340565,0.022576032,0.5731162,0.0,0.0,0.0,1.0
1469828000,1469828000,0.013494823,-0.0039410032,-0.01331991,0.582427,0.0,0.0,0.0,1.0
1469932000,1469932000,0.017701425,-0.0057429317,-0.01972048,0.5827746,0.0,0.0,0.0,1.0
1470032000,1470032000,0.012042524,-0.0054172548,-0.016875245,0.5785294,0.0,0.0,0.0,1.0
1470132000,1470132000,0.0052406196,-0.0072243605,-0.012789331,0.57850933,0.0,0.0,0.0,1.0
1470232000,1470232000,0.0031762216,-0.0072127106,-0.011842605,0.579325,0.0,0.0,0.0,1.0
1470332000,1470332000,0.005370762,-0.010697233,-0.0087406,0.5771067,0.0,0.0,0.0,1.0
1470432000,1470432000,0.002717307,-0.0061186505,-0.0061612204,0.5772392,0.0,0.0,0.0,1.0
1470528000,1470528000,-0.0026902969,-0.007601328,-0.0053908266,0.57669437,0.0,0.0,0.0,1.0
1470628000,1470628000,0.00036462396,-0.007440166,-0.004727373,0.5759504,0.0,0.0,0.0,1.0
1470728000,1470728000,0.00091436773,-0.009850214,-0.0025088973,0.5760633,0.0,0.0,0.0,1.0
1470828000,1470828000,0.0013045894,-0.0070139356,-0.003020443,0.57691973,0.0,0.0,0.0,1.0
1470928000,1470928000,0.0029097656,-0.009190902,-0.0020926911,0.5762451,0.0,0.0,0.0,1.0
1471028000,1471028000,0.0001435497,-0.005268245,-0.0016971193,0.5748085,0.0,0.0,0.0,1.0
1471128000,1471128000,0.00069677946,-0.0052640145,-0.0017936155,0.5757871,0.0,0.0,0.0,1.0
1471232000,1471232000,0.0023778284,-0.009911327,-0.0008814335,0.5765834,0.0,0.0,0.0,1.0
1471332000,1471332000,0.0013458371,-0.0068888497,-0.002181258,0.5752537,0.0,0.0,0.0,1.0
1471428000,1471428000,-0.0016241962,-0.010126898,-0.00010520592,0.57659715,0.0,0.0,0.0,1.0
1471532000,1471532000,-9.1170485e-05,-0.004404252,-0.0011580139,0.57566047,0.0,0.0,0.0,1.0
1471632000,1471632000,-0.0018190705,-0.0065574255,-0.00061534904,0.5772593,0.0,0.0,0.0,1.0
1471732000,1471732000,0.002248569,-0.0097090695,-0.0011282023,0.5777861,0.0,0.0,0.0,1.0
1471828000,1471828000,0.00064774393,-0.0059307837,-0.0016548093,0.5780489,0.0,0.0,0.0,1.0
1471932000,1471932000,0.0013967664,-0.008171256,-0.0010566749,0.5783997,0.0,0.0,0.0,1.0
1472032000,1472032000,0.00029121008,-0.008555865,-0.000841449,0.578856,0.0,0.0,0.0,1.0
1472128000,1472128000,0.00032705892,-0.011211762,-0.0004663458,0.57891893,0.0,0.0,0.0,1.0
1472232000,1472232000,-0.0032731527,-0.00773451,-0.00025110506,0.5796207,0.0,0.0,0.0,1.0
1472332000,1472332000,-0.0008058091,-0.01060983,-0.0010078009,0.5809861,0.0,0.0,0.0,1.0
1472432000,1472432000,0.00084087544,-0.009081848,-0.0004495401,0.5808137,0.0,0.0,0.0,1.0
1472532000,1472532000,-0.00044988247,-0.010875031,-0.00061499607,0.5810353,0.0,0.0,0.0,1.0
1472628000,1472628000,0.0017017077,-0.011108702,-0.0009387778,0.58197534,0.0,0.0,0.0,1.0
1472732000,1472732000,7.1191644e-05,-0.011933119,-0.0009765336,0.58460927,0.0,0.0,0.0,1.0
1472832000,1472832000,0.0009057119,-0.011659005,-0.0004415661,0.58352834,0.0,0.0,0.0,1.0
1472932000,1472932000,-0.0016581804,-0.012109225,-0.0009938246,0.5837726,0.0,0.0,0.0,1.0
1473032000,1473032000,0.004001709,-0.015778597,-0.0010688547,0.5841933,0.0,0.0,0.0,1.0
1473132000,1473132000,0.002387347,-0.010004565,-0.00057056965,0.58851904,0.0,0.0,0.0,1.0
1473228000,1473228000,0.001329378,-0.014388355,0.00058828434,0.5894072,0.0,0.0,0.0,1.0
1473332000,1473332000,-0.00016799703,-0.014947615,-0.0012711207,0.5890017,0.0,0.0,0.0,1.0
1473428000,1473428000,-0.0006317907,-0.016061014,-0.00041611865,0.5905565,0.0,0.0,0.0,1.0
1473532000,1473532000,-0.0016147579,-0.01806494,-0.00031011086,0.5919145,0.0,0.0,0.0,1.0
1473632000,1473632000,0.0017853745,-0.01723466,-0.0014417185,0.59229773,0.0,0.0,0.0,1.0
1473732000,1473732000,0.0033741514,-0.017434046,-0.001346739,0.59509987,0.0,0.0,0.0,1.0
1473832000,1473832000,0.0018806742,-0.01897116,-0.0009901254,0.596602,0.0,0.0,0.0,1.0
1473932000,1473932000,0.004041076,-0.018322917,8.555362e-05,0.597827,0.0,0.0,0.0,1.0
1474032000,1474032000,0.0019380382,-0.015568742,-0.0010897531,0.5991402,0.0,0.0,0.0,1.0
1474132000,1474132000,0.00063263834,-0.019077126,-0.00080347667,0.6026167,0.0,0.0,0.0,1.0
1474228000,1474228000,0.0025557044,-0.019643173,-0.00084637245,0.6029058,0.0,0.0,0.0,1.0
1474332000,1474332000,0.0024844126,-0.021022486,-0.00129672,0.6055392,0.0,0.0,0.0,1.0
1474432000,1474432000,0.0016598029,-0.02445637,-0.00075034914,0.6089896,0.0,0.0,0.0,1.0
1474528000,1474528000,0.001906779,-0.020606184,0.000499598,0.6100858,0.0,0.0,0.0,1.0
1474628000,1474628000,0.0037149698,-0.023547132,-0.00087399245,0.61401504,0.0,0.0,0.0,1.0
1474732000,1474732000,0.00093350216,-0.022667928,0.0007952431,0.61554545,0.0,0.0,0.0,1.0
1474832000,1474832000,-0.000835568,-0.023834344,-0.0010823836,0.6167079,0.0,0.0,0.0,1.0
1474932000,1474932000,0.0024559589,-0.026314635,-0.00095401495,0.62194014,0.0,0.0,0.0,1.0
1475032000,1475032000,0.0018298223,-0.026106596,-0.0019046401,0.6233627,0.0,0.0,0.0,1.0
1475128000,1475128000,-0.00023656827,-0.02207983,-0.0001121629,0.62508243,0.0,0.0,0.0,1.0
1475232000,1475232000,0.000592906,-0.024702752,-0.00059854565,0.629791,0.0,0.0,0.0,1.0
1475332000,1475332000,0.00047478086,-0.031666778,-0.0009031885,0.6343011,0.0,0.0,0.0,1.0
1475432000,1475432000,0.0031960434,-0.035415232,-0.00017934036,0.6380956,0.0,0.0,0.0,1.0
1475532000,1475532000,0.00064351154,-0.030931994,0.0007730335,0.6410996,0.0,0.0,0.0,1.0
1475628000,1475628000,0.0009609924,-0.02756458,-0.0013830181,0.6434032,0.0,0.0,0.0,1.0
1475732000,1475732000,0.0042025237,-0.025458442,-0.0008090084,0.6498763,0.0,0.0,0.0,1.0
1475832000,1475832000,-0.002495544,-0.037277088,-0.00017751462,0.65572804,0.0,0.0,0.0,1.0
1475932000,1475932000,0.004962681,-0.033480734,-0.0011507748,0.66073155,0.0,0.0,0.0,1.0
1476032000,1476032000,0.0035433283,-0.037334237,-0.0017731884,0.6651098,0.0,0.0,0.0,1.0
1476132000,1476132000,0.0023469448,-0.009787945,-0.00066577794,0.6600183,0.0,0.0,0.0,1.0
1476228000,1476228000,0.00048163778,-0.021917064,-0.0015221238,0.66094303,0.0,0.0,0.0,1.0
1476332000,1476332000,0.003193643,-0.04142424,-0.0002565864,0.6674115,0.0,0.0,0.0,1.0
1476432000,1476432000,0.0036457016,-0.05429052,-0.0018912954,0.66490567,0.0,0.0,0.0,1.0
1476528000,1476528000,0.0032247356,-0.051105287,-0.0012928004,0.6617453,0.0,0.0,0.0,1.0
1476632000,1476632000,0.0053407457,-0.04208825,-6.664626e-05,0.65981674,0.0,0.0,0.0,1.0
1476728000,1476728000,0.0032970463,-0.035620894,-0.00011858344,0.66070694,0.0,0.0,0.0,1.0
1476828000,1476828000,0.0027452393,-0.037621703,-0.0013931885,0.66224134,0.0,0.0,0.0,1.0
1476932000,1476932000,0.0041070734,-0.041779332,-0.0002139711,0.66373944,0.0,0.0,0.0,1.0
1477032000,1477032000,0.0024699965,-0.04490166,-0.00010563427,0.6644815,0.0,0.0,0.0,1.0
1477132000,1477132000,0.0030316557,-0.04229715,-0.0010670567,0.66389865,0.0,0.0,0.0,1.0
1477232000,1477232000,0.0027755061,-0.041077185,-0.0018097986,0.66462064,0.0,0.0,0.0,1.0
1477328000,1477328000,0.003907189,-0.04514607,-0.001840878,0.6631269,0.0,0.0,0.0,1.0
1477428000,1477428000,0.0029925727,-0.039046206,-0.0014563984,0.66463125,0.0,0.0,0.0,1.0
1477528000,1477528000,0.003375876,-0.04199238,-0.0015920025,0.6653977,0.0,0.0,0.0,1.0
1477632000,1477632000,0.0012553285,-0.041746974,-0.00070529047,0.6651178,0.0,0.0,0.0,1.0
1477728000,1477728000,0.00226535,-0.0391183,0.0002608109,0.66586196,0.0,0.0,0.0,1.0
1477832000,1477832000,0.005800955,-0.044144552,-1.654408e-05,0.6665967,0.0,0.0,0.0,1.0
1477928000,1477928000,0.0044778483,-0.039843757,-0.00035602986,0.6673901,0.0,0.0,0.0,1.0
1478032000,1478032000,0.0014851373,-0.041987468,-0.0018981629,0.6651676,0.0,0.0,0.0,1.0
1478128000,1478128000,0.008955821,-0.042038295,-0.0014006565,0.66566545,0.0,0.0,0.0,1.0
1478232000,1478232000,0.003322906,-0.04050577,-0.0014328072,0.66689616,0.0,0.0,0.0,1.0
1478332000,1478332000,0.0045419135,-0.041525517,-0.0011413656,0.66805685,0.0,0.0,0.0,1.0
1478432000,1478432000,0.001730654,-0.04078674,-0.0002758397,0.6677065,0.0,0.0,0.0,1.0
1478532000,1478532000,0.0036422452,-0.043268718,-0.0006015379,0.66833663,0.0,0.0,0.0,1.0
1478628000,1478628000,0.0033081477,-0.040783048,-0.0012857056,0.66944385,0.0,0.0,0.0,1.0
1478732000,1478732000,0.0043173917,-0.042894233,-0.001368835,0.6690373,0.0,0.0,0.0,1.0
1478832000,1478832000,-0.0002965124,-0.040112283,-0.0005867359,0.6690253,0.0,0.0,0.0,1.0
1478932000,1478932000,0.0037276489,-0.042416442,-0.001499882,0.66923875,0.0,0.0,0.0,1.0
1479032000,1479032000,0.005172801,-0.04458404,-0.000999473,0.6698639,0.0,0.0,0.0,1.0
1479128000,1479128000,0.0029473433,-0.04258121,-0.0011099516,0.6706635,0.0,0.0,0.0,1.0
1479232000,1479232000,0.0034990385,-0.04563229,-0.0010254005,0.67043626,0.0,0.0,0.0,1.0
1479332000,1479332000,0.0031597784,-0.04139214,-0.0013261656,0.67068523,0.0,0.0,0.0,1.0
1479432000,1479432000,0.002764713,-0.043845862,-0.0011044843,0.67133844,0.0,0.0,0.0,1.0
1479532000,1479532000,0.0045653097,-0.044638164,0.00028422778,0.670945,0.0,0.0,0.0,1.0
1479632000,1479632000,0.002843386,-0.044074617,-0.00052419136,0.6716853,0.0,0.0,0.0,1.0
1479732000,1479732000,0.0028034397,-0.043584865,-0.0011700612,0.6725038,0.0,0.0,0.0,1.0
1479832000,1479832000,0.0006188594,-0.043626275,-0.0015893369,0.67035383,0.0,0.0,0.0,1.0
1479932000,1479932000,0.0023471608,-0.042989854,-0.00094341324,0.6726014,0.0,0.0,0.0,1.0
1480028000,1480028000,0.0025657478,-0.044598427,-0.00085826986,0.6732346,0.0,0.0,0.0,1.0
1480132000,1480132000,0.004765179,-0.042401932,-0.0006335725,0.67113835,0.0,0.0,0.0,1.0
1480232000,1480232000,0.0062739626,-0.04440625,-0.0013127131,0.6729988,0.0,0.0,0.0,1.0
1480332000,1480332000,0.0058997124,-0.04178849,-0.0020016234,0.67419535,0.0,0.0,0.0,1.0
1480432000,1480432000,0.0025594763,-0.0464552,-0.0004656354,0.67451024,0.0,0.0,0.0,1.0
1480532000,1480532000,0.0023618732,-0.04433122,-0.00048230504,0.6749393,0.0,0.0,0.0,1.0
1480632000,1480632000,-0.00063904235,-0.04703507,-0.0014869159,0.6738394,0.0,0.0,0.0,1.0
1480728000,1480728000,0.004868688,-0.042843264,-0.0009193517,0.67463785,0.0,0.0,0.0,1.0
1480832000,1480832000,0.0033486465,-0.046100013,-0.0013940998,0.6743412,0.0,0.0,0.0,1.0
1480932000,1480932000,0.0032714298,-0.042506166,-0.0009200301,0.6737267,0.0,0.0,0.0,1.0
1481032000,1481032000,0.0025109788,-0.0439118,-0.001311759,0.67487824,0.0,0.0,0.0,1.0
1481132000,1481132000,0.0036732424,-0.045091875,0.00026225124,0.6745215,0.0,0.0,0.0,1.0
1481232000,1481232000,0.0028052605,-0.044095445,-0.00037930676,0.676058,0.0,0.0,0.0,1.0
1481328000,1481328000,0.0024407813,-0.044915393,-0.0012198342,0.67499083,0.0,0.0,0.0,1.0
1481432000,1481432000,0.00485174,-0.04436856,-0.0010645045,0.6771412,0.0,0.0,0.0,1.0
1481532000,1481532000,0.0032001499,-0.046223693,-0.0007034615,0.67604345,0.0,0.0,0.0,1.0
1481632000,1481632000,0.0034498875,-0.04559855,-0.0019793753,0.67627704,0.0,0.0,0.0,1.0
1481732000,1481732000,0.004255929,-0.0445991,-0.0005897618,0.6765647,0.0,0.0,0.0,1.0
1481832000,1481832000,0.0017430343,-0.04792502,-0.00034293212,0.67642367,0.0,0.0,0.0,1.0
1481932000,1481932000,0.003713716,-0.044404835,-0.001137817,0.67530215,0.0,0.0,0.0,1.0
1482032000,1482032000,-6.3385116e-05,-0.045690842,-0.0010300915,0.6769061,0.0,0.0,0.0,1.0
1482132000,1482132000,0.003642823,-0.042301986,0.00017106975,0.67725796,0.0,0.0,0.0,1.0
1482232000,1482232000,0.0017585157,-0.048047923,-0.0010937012,0.6755091,0.0,0.0,0.0,1.0
1482328000,1482328000,0.004739075,-0.04626457,-0.0012346793,0.6766764,0.0,0.0,0.0,1.0
1482432000,1482432000,0.00069031096,-0.044955768,-0.0016656774,0.67715,0.0,0.0,0.0,1.0
1482532000,1482532000,0.0024536487,-0.04487849,-0.0016640067,0.6771543,0.0,0.0,0.0,1.0
1482632000,1482632000,0.0020372327,-0.04388404,-0.0019834207,0.67766124,0.0,0.0,0.0,1.0
1482732000,1482732000,0.0046907607,-0.047369312,-0.0007913165,0.67795813,0.0,0.0,0.0,1.0
1482832000,1482832000,0.0026964748,-0.043409467,-0.0019263694,0.6787256,0.0,0.0,0.0,1.0
1482932000,1482932000,-0.00010809535,-0.04841489,-0.0016142464,0.679367,0.0,0.0,0.0,1.0
1483032000,1483032000,0.0053212503,-0.044418976,-0.00094891666,0.68019193,0.0,0.0,0.0,1.0
1483128000,1483128000,0.0032052866,-0.046293046,0.00051090465,0.6805139,0.0,0.0,0.0,1.0
1483232000,1483232000,0.0056892824,-0.047196012,0.00014557014,0.6808224,0.0,0.0,0.0,1.0
1483332000,1483332000,0.003016518,-0.04715792,-0.0007156702,0.6788213,0.0,0.0,0.0,1.0
1483432000,1483432000,0.0028427893,-0.046224535,-0.0012774749,0.67989004,0.0,0.0,0.0,1.0
1483528000,1483528000,0.0029831845,-0.04551392,-7.5557386e-05,0.67945385,0.0,0.0,0.0,1.0
1483628000,1483628000,0.002091202,-0.04778948,-0.0008268232,0.6820199,0.0,0.0,0.0,1.0
1483732000,1483732000,0.004117891,-0.04665313,-0.0012487903,0.6807289,0.0,0.0,0.0,1.0
1483832000,1483832000,0.005132634,-0.047111697,-0.00018964132,0.6808617,0.0,0.0,0.0,1.0
1483932000,1483932000,0.0049692225,-0.046930354,-0.00040468184,0.6805323,0.0,0.0,0.0,1.0
1484028000,1484028000,0.0042147646,-0.046822563,-0.0010619482,0.68042636,0.0,0.0,0.0,1.0
1484132000,1484132000,0.0045498055,-0.046544474,2.7050613e-05,0.6816827,0.0,0.0,0.0,1.0
1484232000,1484232000,0.0035529467,-0.04407455,-0.0015866777,0.681322,0.0,0.0,0.0,1.0
1484332000,1484332000,0.00326628,-0.048070196,-0.0007742874,0.6812659,0.0,0.0,0.0,1.0
1484432000,1484432000,0.00493913,-0.04583179,-0.0008929586,0.6818377,0.0,0.0,0.0,1.0
1484532000,1484532000,0.0026160565,-0.043226935,-0.0022765163,0.6827162,0.0,0.0,0.0,1.0
1484628000,1484628000,0.0010230041,-0.04651588,-0.0013477771,0.68225414,0.0,0.0,0.0,1.0
1484732000,1484732000,0.0023648757,-0.047267903,-0.0009451179,0.6828214,0.0,0.0,0.0,1.0
1484828000,1484828000,0.0039634733,-0.047290593,-0.0012746012,0.682395,0.0,0.0,0.0,1.0
1484928000,1484928000,0.0028995196,-0.04778456,-0.0015733799,0.68208957,0.0,0.0,0.0,1.0
1485032000,1485032000,0.0035235777,-0.04545392,-0.001419405,0.6833807,0.0,0.0,0.0,1.0
1485128000,1485128000,0.0045025116,-0.04790436,-0.0013871576,0.68329084,0.0,0.0,0.0,1.0
1485232000,1485232000,0.0021491805,-0.0483511,-0.0010059857,0.6827383,0.0,0.0,0.0,1.0
1485328000,1485328000,0.0018572282,-0.048939884,-0.0013118619,0.68372905,0.0,0.0,0.0,1.0
1485432000,1485432000,0.0017199749,-0.0491754,-0.0011355336,0.6834218,0.0,0.0,0.0,1.0
1485528000,1485528000,0.003946524,-0.048356023,-0.0006807592,0.6845075,0.0,0.0,0.0,1.0
1485632000,1485632000,0.0060543464,-0.047352202,-0.0014493788,0.68293685,0.0,0.0,0.0,1.0
1485728000,1485728000,0.0041963174,-0.046540603,-0.0018201408,0.6842676,0.0,0.0,0.0,1.0
1485828000,1485828000,0.006700338,-0.048007283,-0.0013961138,0.6838075,0.0,0.0,0.0,1.0
1485932000,1485932000,0.0028440615,-0.047397163,-0.0009623383,0.684153,0.0,0.0,0.0,1.0
1486032000,1486032000,0.0020117546,-0.04865694,-0.002165504,0.68367594,0.0,0.0,0.0,1.0
1486132000,1486132000,0.0040913313,-0.04866598,-0.001334853,0.6848018,0.0,0.0,0.0,1.0
1486232000,1486232000,0.0054222727,-0.04786904,-0.0017501699,0.6852902,0.0,0.0,0.0,1.0
1486328000,1486328000,0.0039154394,-0.046580072,-0.00041560346,0.6848497,0.0,0.0,0.0,1.0
1486428000,1486428000,0.0015243483,-0.04672751,-0.0008244105,0.684174,0.0,0.0,0.0,1.0
1486532000,1486532000,0.0016826878,-0.048559245,-0.0007073183,0.6851883,0.0,0.0,0.0,1.0
1486628000,1486628000,0.001942426,-0.04620664,-0.0007561402,0.6855179,0.0,0.0,0.0,1.0
1486732000,1486732000,0.0012632448,-0.04928123,-0.002079607,0.68559635,0.0,0.0,0.0,1.0
1486832000,1486832000,0.0016193208,-0.052426685,-0.0011295067,0.6845468,0.0,0.0,0.0,1.0
1486932000,1486932000,0.0018772467,-0.045892984,-0.00068732875,0.6859038,0.0,0.0,0.0,1.0
1487028000,1487028000,0.0051340424,-0.045859914,-0.0016050413,0.68533844,0.0,0.0,0.0,1.0
1487128000,1487128000,8.9678215e-05,-0.046489853,-0.00030545366,0.6854762,0.0,0.0,0.0,1.0
1487232000,1487232000,-0.0005960127,-0.0470479,0.0004731035,0.6855072,0.0,0.0,0.0,1.0
1487328000,1487328000,0.0055091474,-0.04749403,-0.0020477038,0.68486696,0.0,0.0,0.0,1.0
1487432000,1487432000,0.004345269,-0.044558983,-0.0016214761,0.68679917,0.0,0.0,0.0,1.0
1487532000,1487532000,0.002196052,-0.046280444,-0.0019666955,0.6874853,0.0,0.0,0.0,1.0
1487632000,1487632000,0.004501757,-0.047765065,-0.0007137622,0.6874126,0.0,0.0,0.0,1.0
1487732000,1487732000,0.001032508,-0.05138113,-0.0010262438,0.6874786,0.0,0.0,0.0,1.0
1487832000,1487832000,-0.0010014456,-0.047819104,-0.0014987587,0.6882659,0.0,0.0,0.0,1.0
1487928000,1487928000,0.003469888,-0.050174642,-0.00096185296,0.68873703,0.0,0.0,0.0,1.0
1488028000,1488028000,0.0041565206,-0.04874403,-0.0021204753,0.68818057,0.0,0.0,0.0,1.0
1488132000,1488132000,0.003234182,-0.046055883,-0.0010534946,0.6881109,0.0,0.0,0.0,1.0
1488232000,1488232000,0.0003666915,-0.048091117,-0.0016132039,0.68970835,0.0,0.0,0.0,1.0
1488332000,1488332000,0.0053857276,-0.050079048,-0.0008596477,0.6892953,0.0,0.0,0.0,1.0
1488432000,1488432000,0.0021225042,-0.048840415,-0.0011708734,0.6895768,0.0,0.0,0.0,1.0
1488528000,1488528000,0.0021315815,-0.049786977,-0.00027946965,0.6898958,0.0,0.0,0.0,1.0
1488632000,1488632000,0.0019528359,-0.049455836,-0.0007124832,0.69006974,0.0,0.0,0.0,1.0
1488728000,1488728000,0.002851751,-0.04859032,-0.00037983462,0.68933856,0.0,0.0,0.0,1.0
1488828000,1488828000,0.0025712182,-0.045851488,-0.0019329349,0.69017774,0.0,0.0,0.0,1.0
1488932000,1488932000,0.004164061,-0.051069442,-0.0006889043,0.6910094,0.0,0.0,0.0,1.0
1489028000,1489028000,0.001112296,-0.051941972,-0.0014627385,0.6904416,0.0,0.0,0.0,1.0
1489132000,1489132000,0.005060454,-0.049099144,-0.0012819929,0.690084,0.0,0.0,0.0,1.0
1489232000,1489232000,0.0035970625,-0.04359472,-0.00055564725,0.6902972,0.0,0.0,0.0,1.0
1489328000,1489328000,0.0035166447,-0.05025734,-0.0007150677,0.6899084,0.0,0.0,0.0,1.0
1489432000,1489432000,0.0010968584,-0.050323557,-0.0021204401,0.6921474,0.0,0.0,0.0,1.0
1489528000,1489528000,0.004289296,-0.05272682,-0.0010285277,0.689495,0.0,0.0,0.0,1.0
1489632000,1489632000,0.0049638795,-0.04673003,-0.00083289354,0.690276,0.0,0.0,0.0,1.0
1489732000,1489732000,0.0012646767,-0.049180828,-0.00084589166,0.6905579,0.0,0.0,0.0,1.0
1489832000,1489832000,0.002772926,-0.051644083,-8.903141e-05,0.6916551,0.0,0.0,0.0,1.0
1489932000,1489932000,0.003118921,-0.048872076,-0.00064612844,0.6919687,0.0,0.0,0.0,1.0
1490032000,1490032000,0.002755606,-0.04752534,-0.000461991,0.69174963,0.0,0.0,0.0,1.0
1490128000,1490128000,0.0024969263,-0.04979205,-0.0022331194,0.6916088,0.0,0.0,0.0,1.0
1490232000,1490232000,0.0016159719,-0.047308285,-0.000621475,0.69248974,0.0,0.0,0.0,1.0
1490328000,1490328000,0.004557297,-0.048778526,-0.00042331172,0.69098264,0.0,0.0,0.0,1.0
1490432000,1490432000,0.0060766703,-0.04532035,-0.0005071315,0.69227755,0.0,0.0,0.0,1.0
1490532000,1490532000,0.0027681063,-0.05007502,-0.00023751688,0.6907482,0.0,0.0,0.0,1.0
1490632000,1490632000,0.0034019775,-0.049293496,-0.001009371,0.69328856,0.0,0.0,0.0,1.0
1490728000,1490728000,0.0039063497,-0.051668335,-0.0016774305,0.6921014,0.0,0.0,0.0,1.0
1490832000,1490832000,0.0037683058,-0.048907824,-0.00086550124,0.6914312,0.0,0.0,0.0,1.0
1490928000,1490928000,0.0011945085,-0.04810389,-0.0007610823,0.6908199,0.0,0.0,0.0,1.0
1491028000,1491028000,0.004352739,-0.050198734,-0.00083547534,0.6919055,0.0,0.0,0.0,1.0
1491128000,1491128000,0.0012631915,-0.048734605,-0.0020584608,0.6920483,0.0,0.0,0.0,1.0
1491232000,1491232000,0.0027298485,-0.050192602,-0.0014437061,0.6919187,0.0,0.0,0.0,1.0
1491332000,1491332000,0.0017903108,-0.048498344,-0.002194403,0.6915112,0.0,0.0,0.0,1.0
1491428000,1491428000,0.0009191537,-0.048322618,-0.00077050226,0.69415313,0.0,0.0,0.0,1.0
1491532000,1491532000,0.0042667603,-0.050773244,-0.00042325142,0.6931484,0.0,0.0,0.0,1.0
1491632000,1491632000,0.006873577,-0.049552154,-0.0016784386,0.69187766,0.0,0.0,0.0,1.0
1491732000,1491732000,0.003943884,-0.04983577,-0.0011916483,0.6916827,0.0,0.0,0.0,1.0
1491832000,1491832000,0.0014147821,-0.046315745,-0.00041716453,0.692085,0.0,0.0,0.0,1.0
1491932000,1491932000,0.0045883404,-0.048645,-0.0009846332,0.69117564,0.0,0.0,0.0,1.0
1492028000,1492028000,0.0041573565,-0.049866617,-0.0012795519,0.69217366,0.0,0.0,0.0,1.0
1492128000,1492128000,0.0031396688,-0.048874684,-0.0006805114,0.69236916,0.0,0.0,0.0,1.0
1492232000,1492232000,0.0061845817,-0.047819592,-0.0010382173,0.6930578,0.0,0.0,0.0,1.0
1492332000,1492332000,0.0031254946,-0.052690458,-0.0015562978,0.69139904,0.0,0.0,0.0,1.0
1492432000,1492432000,0.0042737713,-0.0498065,-0.00029474864,0.6913496,0.0,0.0,0.0,1.0
1492528000,1492528000,0.0018135993,-0.04660777,-0.0020107187,0.6936004,0.0,0.0,0.0,1.0
1492632000,1492632000,0.0037287534,-0.05069043,-0.0014779625,0.6934677,0.0,0.0,0.0,1.0
1492728000,1492728000,0.005477883,-0.01339031,-0.00086016743,0.6758444,0.0,0.0,0.0,1.0
1492832000,1492832000,0.003184117,-0.032160737,-0.0010913912,0.67239994,0.0,0.0,0.0,1.0
1492932000,1492932000,0.0019917968,-0.06301296,-0.00076473,0.67762595,0.0,0.0,0.0,1.0
1493032000,1493032000,0.0025406545,-0.07646545,-0.0004704307,0.66409594,0.0,0.0,0.0,1.0
1493132000,1493132000,0.0040994827,-0.06303519,-0.0010165646,0.6534849,0.0,0.0,0.0,1.0
1493228000,1493228000,-0.00051715807,-0.043297857,-0.00037081045,0.6491691,0.0,0.0,0.0,1.0
1493332000,1493332000,0.00304995,-0.044770643,-0.00014233409,0.6464208,0.0,0.0,0.0,1.0
1493428000,1493428000,0.0014562852,-0.04234293,0.0003446017,0.6412546,0.0,0.0,0.0,1.0
1493532000,1493532000,0.00083950115,-0.040935483,0.00012189243,0.63839877,0.0,0.0,0.0,1.0
1493632000,1493632000,0.003396148,-0.046666857,-0.00016435585,0.6337064,0.0,0.0,0.0,1.0
1493728000,1493728000,0.003535206,-0.04810095,-0.00018453243,0.63182837,0.0,0.0,0.0,1.0
1493832000,1493832000,-0.00027269265,-0.04710968,-0.0008378502,0.62607574,0.0,0.0,0.0,1.0
1493928000,1493928000,0.0008839037,-0.032198124,-0.00032745057,0.6234107,0.0,0.0,0.0,1.0
1494028000,1494028000,0.0033036387,-0.03980646,-0.0003210199,0.62102765,0.0,0.0,0.0,1.0
1494128000,1494128000,0.0018168582,-0.03423646,0.00015751581,0.6150289,0.0,0.0,0.0,1.0
1494232000,1494232000,0.00067903777,-0.038941678,0.0002457269,0.6148587,0.0,0.0,0.0,1.0
1494332000,1494332000,0.0030961442,-0.031985886,3.1694537e-05,0.6121925,0.0,0.0,0.0,1.0
1494432000,1494432000,0.0020183278,-0.029660108,-0.00090542715,0.60802966,0.0,0.0,0.0,1.0
1494528000,1494528000,-0.00058168184,-0.029478956,-0.0005332616,0.6073682,0.0,0.0,0.0,1.0
1494628000,1494628000,0.00070547883,-0.03367677,9.085471e-05,0.60491866,0.0,0.0,0.0,1.0
1494732000,1494732000,0.00061620225,-0.031097306,0.0003480352,0.6019712,0.0,0.0,0.0,1.0
1494832000,1494832000,0.0004047756,-0.025992058,-0.0001243887,0.60040677,0.0,0.0,0.0,1.0
1494928000,1494928000,-0.0010177987,-0.019629665,-0.00028801136,0.6002288,0.0,0.0,0.0,1.0
1495032000,1495032000,-0.0009964235,-0.02084741,0.00037602254,0.5980144,0.0,0.0,0.0,1.0
1495128000,1495128000,-0.001725571,-0.023759678,0.00010317034,0.59849125,0.0,0.0,0.0,1.0
1495232000,1495232000,0.0002869123,-0.024508692,0.00045061894,0.6001786,0.0,0.0,0.0,1.0
1495332000,1495332000,0.00033166778,-0.018261205,-0.00065973157,0.601931,0.0,0.0,0.0,1.0
1495432000,1495432000,0.0026387735,-0.01778825,0.0010153186,0.60411274,0.0,0.0,0.0,1.0
1495532000,1495532000,0.00017888879,-0.011612769,0.00064480735,0.6117488,0.0,0.0,0.0,1.0
1495632000,1495632000,-0.0019054543,0.0023732595,0.0007006165,0.5990691,0.0,0.0,0.0,1.0
1495732000,1495732000,-0.51968795,-0.02653933,0.023171846,0.25883776,0.0,0.0,0.0,1.0
1495832000,1495832000,0.27354026,-0.061905183,-0.025980216,0.51870614,0.0,0.0,0.0,1.0
1495932000,1495932000,0.033689596,-0.027022239,0.0025752792,0.6088144,0.0,0.0,0.0,1.0
1496028000,1496028000,-0.038614623,0.002227148,0.0029398664,0.59169585,0.0,0.0,0.0,1.0
1496132000,1496132000,-0.03970661,0.00082783774,-0.0018588162,0.58665377,0.0,0.0,0.0,1.0
1496232000,1496232000,-0.021249466,-0.00081734173,-0.0010713149,0.58737457,0.0,0.0,0.0,1.0
1496332000,1496332000,-0.008038244,-0.0042806286,0.0005071201,0.5838771,0.0,0.0,0.0,1.0
1496432000,1496432000,-0.0056590955,-0.0064461017,0.0017694661,0.58286035,0.0,0.0,0.0,1.0
1496532000,1496532000,-0.005984622,-0.0073496327,0.0017336037,0.58122474,0.0,0.0,0.0,1.0
1496628000,1496628000,-0.007889887,-0.0054344833,0.0027524955,0.58092034,0.0,0.0,0.0,1.0
1496732000,1496732000,-0.007218778,0.0012548435,0.002530595,0.57996106,0.0,0.0,0.0,1.0
1496832000,1496832000,-0.009951352,-0.0024615638,0.0022589592,0.58098733,0.0,0.0,0.0,1.0
1496928000,1496928000,-0.0071164803,-0.00020055287,0.0033229534,0.579788,0.0,0.0,0.0,1.0
1497032000,1497032000,-0.0064742393,-0.0021451255,0.002101165,0.578905,0.0,0.0,0.0,1.0
1497132000,1497132000,-0.008870717,-0.0021877177,0.0031998,0.57918686,0.0,0.0,0.0,1.0
1497232000,1497232000,-0.008444719,0.0028391182,0.0030336583,0.5788423,0.0,0.0,0.0,1.0
1497332000,1497332000,-0.009445763,-0.000622713,0.00075262715,0.5775367,0.0,0.0,0.0,1.0
1497432000,1497432000,-0.008317532,-0.003118087,0.0028710496,0.57894677,0.0,0.0,0.0,1.0
1497528000,1497528000,-0.009498289,-0.0025359127,0.0028890923,0.57789725,0.0,0.0,0.0,1.0
1497628000,1497628000,-0.008194121,-0.0013779518,0.0022174919,0.57862884,0.0,0.0,0.0,1.0
1497732000,1497732000,-0.010631053,0.0022705002,0.002443594,0.5780649,0.0,0.0,0.0,1.0
1497828000,1497828000,-0.005255317,0.0006122561,0.0028674686,0.578305,0.0,0.0,0.0,1.0
1497932000,1497932000,-0.011388827,-0.0019862524,0.0024013848,0.5773018,0.0,0.0,0.0,1.0
1498032000,1498032000,-0.00714721,-0.0032912795,0.0016870534,0.578484,0.0,0.0,0.0,1.0
1498132000,1498132000,-0.008294266,-0.0002829749,0.0017534867,0.5773087,0.0,0.0,0.0,1.0
1498232000,1498232000,-0.00880198,0.0032042502,0.001748291,0.5779027,0.0,0.0,0.0,1.0
1498332000,1498332000,-0.00921629,-0.00019261311,0.0024888464,0.5780641,0.0,0.0,0.0,1.0
1498432000,1498432000,-0.0126278605,-0.0024164477,0.0018966072,0.5768936,0.0,0.0,0.0,1.0
1498532000,1498532000,-0.005229302,-0.0011323573,0.0030270834,0.5782045,0.0,0.0,0.0,1.0
1498628000,1498628000,-0.010319563,0.003958809,0.002585553,0.57763004,0.0,0.0,0.0,1.0
1498728000,1498728000,-0.011069461,0.00068832794,0.0024480303,0.5760424,0.0,0.0,0.0,1.0
1498832000,1498832000,-0.00919935,0.00119583,0.0026399791,0.5783028,0.0,0.0,0.0,1.0
1498932000,1498932000,-0.011030172,0.00052947097,0.0032295524,0.57796824,0.0,0.0,0.0,1.0
1499032000,1499032000,-0.00850494,0.0016192385,0.0029168525,0.577951,0.0,0.0,0.0,1.0
1499132000,1499132000,-0.010664681,0.0017407377,0.0031673126,0.5776448,0.0,0.0,0.0,1.0
1499232000,1499232000,-0.010658272,0.0032153998,0.0033258847,0.57630867,0.0,0.0,0.0,1.0
1499328000,1499328000,-0.0064498084,-0.0016861203,0.0031948234,0.5780017,0.0,0.0,0.0,1.0
1499432000,1499432000,-0.011752234,0.00084614765,0.0023383624,0.5783669,0.0,0.0,0.0,1.0
1499532000,1499532000,-0.01101911,0.0019711554,0.0025025862,0.5771387,0.0,0.0,0.0,1.0
1499632000,1499632000,-0.009449035,-0.0025384815,0.0016968382,0.57705647,0.0,0.0,0.0,1.0
1499732000,1499732000,-0.008739692,-0.0007895001,0.0034781522,0.5776689,0.0,0.0,0.0,1.0
1499828000,1499828000,-0.011462005,0.0026534714,0.001633486,0.57874334,0.0,0.0,0.0,1.0
1499932000,1499932000,-0.011404745,-0.00049396174,0.002128232,0.5791878,0.0,0.0,0.0,1.0
1500032000,1500032000,-0.009682551,0.0019089179,0.0016042031,0.579919,0.0,0.0,0.0,1.0
1500132000,1500132000,-0.0108530335,0.00034389895,0.0023252259,0.57759005,0.0,0.0,0.0,1.0
1500232000,1500232000,-0.005863148,0.002370835,0.0023340804,0.5796246,0.0,0.0,0.0,1.0
1500332000,1500332000,-0.01067258,0.000989095,0.002880072,0.58093274,0.0,0.0,0.0,1.0
1500432000,1500432000,-0.010470102,-0.0012452106,0.0014700701,0.57875085,0.0,0.0,0.0,1.0
1500528000,1500528000,-0.009024307,-0.0007596994,0.0024471646,0.57893354,0.0,0.0,0.0,1.0
1500628000,1500628000,-0.009538212,-0.0014511547,0.002723593,0.57984716,0.0,0.0,0.0,1.0
1500732000,1500732000,-0.010713491,0.0010801185,0.002472721,0.57912403,0.0,0.0,0.0,1.0
1500832000,1500832000,-0.009014919,0.002533647,0.0026339176,0.5805048,0.0,0.0,0.0,1.0
1500932000,1500932000,-0.009118623,0.0012909684,0.0017618802,0.57863885,0.0,0.0,0.0,1.0
1501032000,1501032000,-0.00724026,-0.001481523,0.0031848275,0.5783828,0.0,0.0,0.0,1.0
1501132000,1501132000,-0.011358118,0.0017774623,0.0027917668,0.5790829,0.0,0.0,0.0,1.0
1501228000,1501228000,-0.007017446,0.00034967565,0.0017341657,0.5784842,0.0,0.0,0.0,1.0
1501332000,1501332000,-0.008222787,0.0019139929,0.002744397,0.5779105,0.0,0.0,0.0,1.0
1501432000,1501432000,-0.010203308,0.00082045695,0.0021275203,0.57939565,0.0,0.0,0.0,1.0
1501532000,1501532000,-0.008678079,0.0010319594,0.002496257,0.5799116,0.0,0.0,0.0,1.0
1501632000,1501632000,-0.012687331,-0.00039906774,0.0029386247,0.5794771,0.0,0.0,0.0,1.0
1501728000,1501728000,-0.012155625,0.0007629544,0.0021542148,0.5792055,0.0,0.0,0.0,1.0
1501832000,1501832000,-0.009844118,0.0010714711,0.0026073672,0.5795242,0.0,0.0,0.0,1.0
1501932000,1501932000,-0.010362211,0.00032425078,0.0019687482,0.5802655,0.0,0.0,0.0,1.0
1502032000,1502032000,-0.012698702,-0.0018930646,0.002467172,0.580008,0.0,0.0,0.0,1.0
1502128000,1502128000,-0.009624086,-0.0004810396,0.0036952053,0.57867163,0.0,0.0,0.0,1.0
1502232000,1502232000,-0.008136453,-0.0027929673,0.0021726561,0.5795046,0.0,0.0,0.0,1.0
1502328000,1502328000,-0.0105813695,-0.00087691855,0.0029826353,0.5785632,0.0,0.0,0.0,1.0
1502428000,1502428000,-0.012041599,0.00044981742,0.002931231,0.5797548,0.0,0.0,0.0,1.0
1502528000,1502528000,-0.009766099,0.0010099015,0.003949296,0.58117884,0.0,0.0,0.0,1.0
1502632000,1502632000,-0.00844193,-0.0021180173,0.0020521085,0.5794382,0.0,0.0,0.0,1.0
1502732000,1502732000,-0.011502129,-0.00091659743,0.0033488171,0.5801287,0.0,0.0,0.0,1.0
1502832000,1502832000,-0.011431163,-0.00043309128,0.0031928904,0.5801835,0.0,0.0,0.0,1.0
1502932000,1502932000,-0.008685776,-0.0015966796,0.00090961717,0.57943493,0.0,0.0,0.0,1.0
1503032000,1503032000,-0.010627736,-0.0026321912,0.0033895518,0.5793359,0.0,0.0,0.0,1.0
1503132000,1503132000,-0.014173996,0.00255619,0.0024807968,0.5811774,0.0,0.0,0.0,1.0
1503228000,1503228000,-0.010824892,-0.0016711559,0.002573971,0.57899976,0.0,0.0,0.0,1.0
1503332000,1503332000,-0.01406082,-0.001414102,0.0024733823,0.5788416,0.0,0.0,0.0,1.0
1503428000,1503428000,-0.011004475,-0.0007763839,0.0032742622,0.58004576,0.0,0.0,0.0,1.0
1503528000,1503528000,-0.008771574,0.000121673875,0.0025641345,0.5803232,0.0,0.0,0.0,1.0
1503632000,1503632000,-0.008789323,4.531686e-05,0.0014514839,0.5804025,0.0,0.0,0.0,1.0
1503732000,1503732000,-0.00962599,-0.0009976022,0.002778546,0.5779122,0.0,0.0,0.0,1.0
1503832000,1503832000,-0.010328197,0.0004244927,0.002427249,0.5793881,0.0,0.0,0.0,1.0
1503932000,1503932000,-0.010390776,0.0010302631,0.0035803597,0.578282,0.0,0.0,0.0,1.0
1504032000,1504032000,-0.0097016785,-0.0021251468,0.0022570177,0.5803391,0.0,0.0,0.0,1.0
1504128000,1504128000,-0.010849943,0.0014204755,0.0026733254,0.5804616,0.0,0.0,0.0,1.0
1504228000,1504228000,-0.011684953,0.0022595322,0.0030228426,0.579761,0.0,0.0,0.0,1.0
1504332000,1504332000,-0.0098991925,0.0011447611,0.0024042164,0.58003694,0.0,0.0,0.0,1.0
1504428000,1504428000,-0.007225834,-0.00088453776,0.0031886566,0.58103466,0.0,0.0,0.0,1.0
1504532000,1504532000,-0.011019755,0.0023276736,0.0025941504,0.58144,0.0,0.0,0.0,1.0
1504632000,1504632000,-0.012964833,-9.463323e-05,0.0022862866,0.5814565,0.0,0.0,0.0,1.0
1504728000,1504728000,-0.013399118,0.0034450034,0.0024704335,0.579623,0.0,0.0,0.0,1.0
1504832000,1504832000,-0.0128112845,-0.00075651833,0.0023568477,0.5798287,0.0,0.0,0.0,1.0
1504932000,1504932000,-0.009277109,-0.0019413992,0.0024264115,0.5797534,0.0,0.0,0.0,1.0
1505028000,1505028000,-0.0077238507,-0.0011319317,0.0026800558,0.57983595,0.0,0.0,0.0,1.0
1505132000,1505132000,-0.007963126,0.00017897938,0.0022144017,0.5788947,0.0,0.0,0.0,1.0
1505232000,1505232000,-0.010569878,0.00089963234,0.002009871,0.58180463,0.0,0.0,0.0,1.0
1505332000,1505332000,-0.010818144,-0.0005203552,0.0027042052,0.58114636,0.0,0.0,0.0,1.0
1505428000,1505428000,-0.01300833,-0.000150876,0.003677046,0.5798332,0.0,0.0,0.0,1.0
1505532000,1505532000,-0.00986739,0.0022855122,0.002622196,0.58007956,0.0,0.0,0.0,1.0
1505632000,1505632000,-0.011855393,0.00070941984,0.0010322208,0.5808589,0.0,0.0,0.0,1.0
1505732000,1505732000,-0.010696737,0.0006284298,0.001769518,0.5813984,0.0,0.0,0.0,1.0
1505828000,1505828000,-0.011889268,0.002108,0.0024230224,0.5797761,0.0,0.0,0.0,1.0
1505932000,1505932000,-0.009502696,0.003668068,0.0030114888,0.5790982,0.0,0.0,0.0,1.0
1506032000,1506032000,-0.010626629,-0.0009796738,0.0032016973,0.5796174,0.0,0.0,0.0,1.0
1506128000,1506128000,-0.01094005,0.0011629339,0.0021721993,0.57944643,0.0,0.0,0.0,1.0
1506228000,1506228000,-0.012148628,0.0014126851,0.0024583493,0.58119494,0.0,0.0,0.0,1.0
1506332000,1506332000,-0.009975345,-0.00020028252,0.0021802604,0.5790737,0.0,0.0,0.0,1.0
1506432000,1506432000,-0.0118443,-2.466004e-05,0.0034002229,0.5808295,0.0,0.0,0.0,1.0
1506532000,1506532000,-0.0114874365,0.00026335294,0.0027180475,0.57995903,0.0,0.0,0.0,1.0
1506632000,1506632000,-0.011353319,0.00042235968,0.004203497,0.5814885,0.0,0.0,0.0,1.0
1506732000,1506732000,-0.01037273,-0.0018711663,0.0029564658,0.57990825,0.0,0.0,0.0,1.0
1506828000,1506828000,-0.012913966,-0.00056308124,0.0013668695,0.58086455,0.0,0.0,0.0,1.0
1506932000,1506932000,-0.00971937,0.0011701811,0.002275279,0.57993174,0.0,0.0,0.0,1.0
1507032000,1507032000,-0.013385915,-0.0015712834,0.0039176466,0.5804569,0.0,0.0,0.0,1.0
1507132000,1507132000,-0.011097394,0.0006137015,0.0012564128,0.58033985,0.0,0.0,0.0,1.0
1507232000,1507232000,-0.012187934,-0.00090801757,0.0034979118,0.58188945,0.0,0.0,0.0,1.0
1507328000,1507328000,-0.011086029,-0.0020229043,0.0019140919,0.58000976,0.0,0.0,0.0,1.0
1507428000,1507428000,-0.0121138515,0.0013931014,0.0025281738,0.5802293,0.0,0.0,0.0,1.0
1507532000,1507532000,-0.008998484,-0.00028163294,0.0027735315,0.580437,0.0,0.0,0.0,1.0
1507628000,1507628000,-0.012288859,-0.00090074376,0.0020698009,0.58235973,0.0,0.0,0.0,1.0
1507728000,1507728000,-0.011307139,0.00021067727,0.0016101036,0.5819421,0.0,0.0,0.0,1.0
1507828000,1507828000,-0.011925485,-0.0016531546,0.0034934252,0.5804261,0.0,0.0,0.0,1.0
1507928000,1507928000,-0.012647724,-0.0008125659,0.0040640947,0.5814624,0.0,0.0,0.0,1.0
1508028000,1508028000,-0.012605183,-0.0008715107,0.0019509085,0.5809512,0.0,0.0,0.0,1.0
1508128000,1508128000,-0.010723403,0.00046097412,0.0030189203,0.58254987,0.0,0.0,0.0,1.0
1508228000,1508228000,-0.013396849,-0.0010593757,0.0014623966,0.5817504,0.0,0.0,0.0,1.0
1508332000,1508332000,-0.0111921,7.137184e-05,0.0032365262,0.58108455,0.0,0.0,0.0,1.0
1508432000,1508432000,-0.010297278,0.0014260841,0.0026814507,0.5824375,0.0,0.0,0.0,1.0
1508528000,1508528000,-0.011375314,0.0003992989,0.0032918206,0.583424,0.0,0.0,0.0,1.0
1508632000,1508632000,-0.011110564,0.0005252233,0.0024876527,0.5809329,0.0,0.0,0.0,1.0
1508732000,1508732000,-0.011568119,-0.0027937912,0.0036426624,0.5806376,0.0,0.0,0.0,1.0
1508832000,1508832000,-0.012202465,-0.00029649556,0.002633628,0.5833943,0.0,0.0,0.0,1.0
1508932000,1508932000,-0.0118529815,-0.0010331076,0.0032398617,0.58322996,0.0,0.0,0.0,1.0
1509028000,1509028000,-0.0109822545,-0.0012027028,0.0023147136,0.5823495,0.0,0.0,0.0,1.0
1509132000,1509132000,-0.0132442275,0.003487898,0.0020393236,0.5824458,0.0,0.0,0.0,1.0
1509232000,1509232000,-0.010926534,0.00302957,0.0033411107,0.58235806,0.0,0.0,0.0,1.0
1509332000,1509332000,-0.010698387,-3.318666e-05,0.003075562,0.5831341,0.0,0.0,0.0,1.0
1509432000,1509432000,-0.013425436,0.00020256464,0.0026409521,0.5812211,0.0,0.0,0.0,1.0
1509532000,1509532000,-0.013208957,0.0010385114,0.0043087965,0.582758,0.0,0.0,0.0,1.0
1509632000,1509632000,-0.012879833,-0.0007014294,0.0029648154,0.5814842,0.0,0.0,0.0,1.0
1509728000,1509728000,-0.012563172,-0.0024645412,0.002795851,0.58168375,0.0,0.0,0.0,1.0
1509828000,1509828000,-0.011496847,0.0002876903,0.00295796,0.580007,0.0,0.0,0.0,1.0
1509932000,1509932000,-0.010899945,-0.0016521671,0.0031363452,0.58167756,0.0,0.0,0.0,1.0
1510032000,1510032000,-0.013820761,0.0024899873,0.0024180883,0.5814055,0.0,0.0,0.0,1.0
1510128000,1510128000,-0.010090656,0.00067255547,0.003031602,0.5821434,0.0,0.0,0.0,1.0
1510232000,1510232000,-0.013368625,0.00093070103,0.0023188982,0.58068675,0.0,0.0,0.0,1.0
1510332000,1510332000,-0.0139639275,-0.0010049285,0.0021707327,0.5816688,0.0,0.0,0.0,1.0
1510432000,1510432000,-0.0123139145,-0.00050822605,0.0022044892,0.5817504,0.0,0.0,0.0,1.0
1510532000,1510532000,-0.011671933,-0.0010551165,0.0025792492,0.5800692,0.0,0.0,0.0,1.0
1510628000,1510628000,-0.010104322,0.0020469986,0.0032993522,0.5811471,0.0,0.0,0.0,1.0
1510732000,1510732000,-0.013734204,-0.0013520219,0.00369825,0.5806947,0.0,0.0,0.0,1.0
1510832000,1510832000,-0.012574977,0.0012437357,0.0038663833,0.5821933,0.0,0.0,0.0,1.0
1510932000,1510932000,-0.017110199,-0.00082944264,0.0036658815,0.580526,0.0,0.0,0.0,1.0
1511032000,1511032000,-0.012041568,-0.001833924,0.002492155,0.58170664,0.0,0.0,0.0,1.0
1511128000,1511128000,-0.011706778,-0.0012160589,0.0035869135,0.58241653,0.0,0.0,0.0,1.0
1511232000,1511232000,-0.011703963,0.00021167085,0.003421688,0.5811867,0.0,0.0,0.0,1.0
1511332000,1511332000,-0.012736511,-0.00050574064,0.002023585,0.58171713,0.0,0.0,0.0,1.0
1511432000,1511432000,-0.011504725,0.004381052,0.004173811,0.58229244,0.0,0.0,0.0,1.0
1511532000,1511532000,-0.011884823,0.000896615,0.0018503452,0.5817086,0.0,0.0,0.0,1.0
1511632000,1511632000,-0.010894731,0.00054930325,0.0027946632,0.58213407,0.0,0.0,0.0,1.0
1511728000,1511728000,-0.013360185,-0.00066460005,0.003468419,0.5816556,0.0,0.0,0.0,1.0
1511832000,1511832000,-0.015490741,0.00017160625,0.0025767318,0.5806575,0.0,0.0,0.0,1.0
1511928000,1511928000,-0.012669104,-0.0013005316,0.001725221,0.5822852,0.0,0.0,0.0,1.0
1512032000,1512032000,-0.010429105,-0.0017260817,0.0036944123,0.58124846,0.0,0.0,0.0,1.0
1512132000,1512132000,-0.012597401,-0.0025802753,0.0023705198,0.58263105,0.0,0.0,0.0,1.0
1512232000,1512232000,-0.013535759,0.0010530046,0.0033011553,0.58184665,0.0,0.0,0.0,1.0
1512328000,1512328000,-0.011676897,-0.00020768357,0.0029423698,0.580918,0.0,0.0,0.0,1.0
1512432000,1512432000,-0.014722117,-0.0018019257,0.0022863825,0.58221304,0.0,0.0,0.0,1.0
1512532000,1512532000,-0.012128712,-0.0021735562,0.0028529617,0.5818054,0.0,0.0,0.0,1.0
1512632000,1512632000,-0.01300722,-0.0021086317,0.0030462563,0.58116937,0.0,0.0,0.0,1.0
1512732000,1512732000,-0.014530382,-0.0016548068,0.0033891273,0.58117694,0.0,0.0,0.0,1.0
1512832000,1512832000,-0.013942822,0.00041082845,0.004317867,0.58211064,0.0,0.0,0.0,1.0
1512928000,1512928000,-0.01347865,0.00020519271,0.00190529,0.58184516,0.0,0.0,0.0,1.0
1513032000,1513032000,-0.013185333,0.0034180924,0.0029949,0.5824777,0.0,0.0,0.0,1.0
1513128000,1513128000,-0.010553956,-0.00035147695,0.0026524672,0.58212227,0.0,0.0,0.0,1.0
1513232000,1513232000,-0.009602031,0.002024854,0.0028650772,0.5812874,0.0,0.0,0.0,1.0
1513328000,1513328000,-0.013688974,0.0018387776,0.0029903282,0.58193916,0.0,0.0,0.0,1.0
1513428000,1513428000,-0.013124844,-0.0021000248,0.0023628662,0.5821817,0.0,0.0,0.0,1.0
1513532000,1513532000,-0.008619951,-0.0007569849,0.0028765032,0.5822412,0.0,0.0,0.0,1.0
1513632000,1513632000,-0.013460549,-0.0007163009,0.0029128224,0.58160836,0.0,0.0,0.0,1.0
1513728000,1513728000,-0.012715112,0.0037358028,0.0023859085,0.58115464,0.0,0.0,0.0,1.0
1513832000,1513832000,-0.010688482,0.00060706586,0.0024939997,0.58127356,0.0,0.0,0.0,1.0
1513932000,1513932000,-0.012762553,-0.0028552872,0.001697252,0.581434,0.0,0.0,0.0,1.0
1514028000,1514028000,-0.011963859,0.00045440719,0.0031467366,0.5812191,0.0,0.0,0.0,1.0
1514132000,1514132000,-0.014521187,0.0003907872,0.0021836562,0.58181494,0.0,0.0,0.0,1.0
1514228000,1514228000,-0.01117547,0.000150737,0.0027487248,0.58313835,0.0,0.0,0.0,1.0
1514332000,1514332000,-0.012513677,0.0010264213,0.002364528,0.58106595,0.0,0.0,0.0,1.0
1514432000,1514432000,-0.010266608,0.002168111,0.002946163,0.58195925,0.0,0.0,0.0,1.0
1514532000,1514532000,-0.012929923,-0.0014807251,0.0024337175,0.5797259,0.0,0.0,0.0,1.0
1514628000,1514628000,-0.010171411,0.00016912457,0.0023843758,0.5832681,0.0,0.0,0.0,1.0
1514732000,1514732000,-0.01115212,3.98868e-06,0.0024261132,0.58362675,0.0,0.0,0.0,1.0
1514832000,1514832000,-0.012739519,-3.9353996e-05,0.0034899372,0.5818114,0.0,0.0,0.0,1.0
1514932000,1514932000,-0.012620648,-0.0027232976,0.0028730833,0.58217317,0.0,0.0,0.0,1.0
1515028000,1515028000,-0.0094509935,-0.0006139454,0.0034110923,0.58287436,0.0,0.0,0.0,1.0
1515132000,1515132000,-0.012170746,-0.0015799941,0.0025248658,0.5836337,0.0,0.0,0.0,1.0
1515228000,1515228000,-0.013500389,-1.2066303e-05,0.0025820439,0.5839021,0.0,0.0,0.0,1.0
1515332000,1515332000,-0.010517991,-0.0013460754,0.003250179,0.58251715,0.0,0.0,0.0,1.0
1515428000,1515428000,-0.0103949,0.0028551403,0.0039667767,0.583718,0.0,0.0,0.0,1.0
1515528000,1515528000,-0.014309373,-0.0027764575,0.0016610678,0.58242273,0.0,0.0,0.0,1.0
1515632000,1515632000,-0.009944806,-2.4357054e-05,0.0033148904,0.58344334,0.0,0.0,0.0,1.0
1515728000,1515728000,-0.016016334,0.00082211953,0.0030407514,0.5832315,0.0,0.0,0.0,1.0
1515832000,1515832000,-0.011150579,-0.0013856201,0.0028592844,0.5822919,0.0,0.0,0.0,1.0
1515928000,1515928000,-0.011364836,-0.0020482023,0.0009186736,0.58332044,0.0,0.0,0.0,1.0
1516028000,1516028000,-0.009383572,-0.0005007667,0.0031206652,0.5828058,0.0,0.0,0.0,1.0
1516132000,1516132000,-0.010239026,0.0016248932,0.0030414446,0.5818009,0.0,0.0,0.0,1.0
1516228000,1516228000,-0.008199767,-0.00083732454,0.0021431004,0.5843353,0.0,0.0,0.0,1.0
1516328000,1516328000,-0.01604243,-0.00086326606,0.002511339,0.5822854,0.0,0.0,0.0,1.0
1516432000,1516432000,-0.0132304635,-0.0014994005,0.003834428,0.58102417,0.0,0.0,0.0,1.0
1516528000,1516528000,-0.012516317,-0.002908825,0.0024628763,0.58269376,0.0,0.0,0.0,1.0
1516632000,1516632000,-0.013599843,0.00079591584,0.0019568745,0.5813884,0.0,0.0,0.0,1.0
1516732000,1516732000,-0.012800433,-0.00059338193,0.002934568,0.5815839,0.0,0.0,0.0,1.0
