timestamp,noutputs,output[0],output[1],output[2],output[3],output[4],output[5],output[6],output[7],output[8],output[9],output[10],output[11],output[12],output[13],output[14],output[15]
1449032000,6,1000.0,1000.0,1000.0,1000.0,1500.0,1500.0,nan,nan,nan,nan,nan,nan,nan,nan,nan,nan
1449128000,6,1000.0,1000.0,1000.0,1000.0,1500.0,1500.0,nan,nan,nan,nan,nan,nan,nan,nan,nan,nan
1449228000,6,1000.0,1000.0,1000.0,1000.0,1500.0,1500.0,nan,nan,nan,nan,nan,nan,nan,nan,nan,nan
1449328000,6,1000.0,1000.0,1000.0,1000.0,1500.0,1500.0,nan,nan,nan,nan,nan,nan,nan,nan,nan,nan
1449428000,6,1000.0,1000.0,1000.0,1000.0,1500.0,1500.0,nan,nan,nan,nan,nan,nan,nan,nan,nan,nan
1449532000,6,1000.0,1000.0,1000.0,1000.0,1500.0,1500.0,nan,nan,nan,nan,nan,nan,nan,nan,nan,nan
1449632000,6,1000.0,1000.0,1000.0,1000.0,1500.0,1500.0,nan,nan,nan,nan,nan,nan,nan,nan,nan,nan
1449732000,6,1000.0,1000.0,1000.0,1000.0,1500.0,1500.0,nan,nan,nan,nan,nan,nan,nan,nan,nan,nan
1449832000,6,1000.0,1000.0,1000.0,1000.0,1500.0,1500.0,nan,nan,nan,nan,nan,nan,nan,nan,nan,nan
1449932000,6,1000.0,1000.0,1000.0,1000.0,1500.0,1500.0,nan,nan,nan,nan,nan,nan,nan,nan,nan,nan
1450028000,6,1000.0,1000.0,1000.0,1000.0,1500.0,1500.0,nan,nan,nan,nan,nan,nan,nan,nan,nan,nan
1450128000,6,1089.2552,1150.8054,1082.988,1157.2156,1500.0,1500.0,nan,nan,nan,nan,nan,nan,nan,nan,nan,nan
1450228000,6,1129.2747,1144.4943,1119.8949,1150.7883,1500.0,1500.0,nan,nan,nan,nan,nan,nan,nan,nan,nan,nan
1450332000,6,1214.9132,1223.3672,1207.469,1230.7434,1500.0,1500.0,nan,nan,nan,nan,nan,nan,nan,nan,nan,nan
1450428000,6,1288.4824,1291.9674,1280.0457,1298.9071,1500.0,1500.0,nan,nan,nan,nan,nan,nan,nan,nan,nan,nan
1450532000,6,1354.6715,1366.2227,1348.4653,1375.1328,1500.0,1500.0,nan,nan,nan,nan,nan,nan,nan,nan,nan,nan
1450628000,6,1441.9005,1443.6716,1432.4935,1454.6398,1500.0,1500.0,nan,nan,nan,nan,nan,nan,nan,nan,nan,nan
1450732000,6,1511.2883,1518.109,1503.7552,1530.1161,1500.0,1500.0,nan,nan,nan,nan,nan,nan,nan,nan,nan,nan
1450828000,6,1582.049,1587.8499,1576.0924,1595.4122,1500.0,1500.0,nan,nan,nan,nan,nan,nan,nan,nan,nan,nan
1450928000,6,1616.4674,1616.1238,1618.9598,1613.3517,1500.0,1500.0,nan,nan,nan,nan,nan,nan,nan,nan,nan,nan
1451028000,6,1598.9543,1599.2053,1602.745,1597.8671,1500.0,1500.0,nan,nan,nan,nan,nan,nan,nan,nan,nan,nan
1451128000,6,1612.5319,1616.6464,1612.085,1616.5115,1500.0,1500.0,nan,nan,nan,nan,nan,nan,nan,nan,nan,nan
1451228000,6,1613.7802,1615.7068,1613.7833,1612.766,1500.0,1500.0,nan,nan,nan,nan,nan,nan,nan,nan,nan,nan
1451328000,6,1614.6183,1615.3601,1614.5931,1614.728,1500.0,1500.0,nan,nan,nan,nan,nan,nan,nan,nan,nan,nan
1451428000,6,1617.1146,1611.4849,1612.2576,1611.499,1500.0,1500.0,nan,nan,nan,nan,nan,nan,nan,nan,nan,nan
1451528000,6,1576.5984,1573.3682,1576.0857,1575.9164,1500.0,1500.0,nan,nan,nan,nan,nan,nan,nan,nan,nan,nan
1451628000,6,1533.555,1531.9478,1531.3162,1532.9554,1500.0,1500.0,nan,nan,nan,nan,nan,nan,nan,nan,nan,nan
1451732000,6,1564.9296,1565.4827,1565.8356,1565.8641,1500.0,1500.0,nan,nan,nan,nan,nan,nan,nan,nan,nan,nan
1451828000,6,1559.3473,1559.2366,1560.8693,1559.1155,1500.0,1500.0,nan,nan,nan,nan,nan,nan,nan,nan,nan,nan
1451928000,6,1559.0588,1557.5375,1561.5894,1557.4948,1500.0,1500.0,nan,nan,nan,nan,nan,nan,nan,nan,nan,nan
1452028000,6,1559.4822,1561.2478,1559.4543,1559.3397,1500.0,1500.0,nan,nan,nan,nan,nan,nan,nan,nan,nan,nan
1452132000,6,1561.9944,1559.202,1560.4243,1560.7092,1500.0,1500.0,nan,nan,nan,nan,nan,nan,nan,nan,nan,nan
1452228000,6,1559.2283,1560.5164,1562.5372,1561.6494,1500.0,1500.0,nan,nan,nan,nan,nan,nan,nan,nan,nan,nan
1452328000,6,1559.963,1561.9237,1560.7478,1562.2662,1500.0,1500.0,nan,nan,nan,nan,nan,nan,nan,nan,nan,nan
1452432000,6,1563.5461,1562.2288,1561.8411,1561.3518,1500.0,1500.0,nan,nan,nan,nan,nan,nan,nan,nan,nan,nan
1452528000,6,1560.678,1560.9586,1562.8035,1562.1262,1500.0,1500.0,nan,nan,nan,nan,nan,nan,nan,nan,nan,nan
1452632000,6,1560.6847,1563.056,1560.3865,1564.1713,1500.0,1500.0,nan,nan,nan,nan,nan,nan,nan,nan,nan,nan
1452732000,6,1564.369,1564.8103,1564.4862,1564.2446,1500.0,1500.0,nan,nan,nan,nan,nan,nan,nan,nan,nan,nan
1452828000,6,1563.1041,1566.1464,1563.8063,1561.1793,1500.0,1500.0,nan,nan,nan,nan,nan,nan,nan,nan,nan,nan
1452928000,6,1561.9712,1561.4348,1563.0782,1562.1649,1500.0,1500.0,nan,nan,nan,nan,nan,nan,nan,nan,nan,nan
1453028000,6,1563.1273,1563.1234,1562.3002,1562.229,1500.0,1500.0,nan,nan,nan,nan,nan,nan,nan,nan,nan,nan
1453128000,6,1562.4287,1562.4412,1561.6654,1561.9218,1500.0,1500.0,nan,nan,nan,nan,nan,nan,nan,nan,nan,nan
1453228000,6,1564.8112,1561.1368,1564.4071,1558.7811,1500.0,1500.0,nan,nan,nan,nan,nan,nan,nan,nan,nan,nan
1453328000,6,1564.6542,1564.2676,1561.0585,1565.4092,1500.0,1500.0,nan,nan,nan,nan,nan,nan,nan,nan,nan,nan
1453428000,6,1564.5128,1559.5371,1563.2924,1557.8385,1500.0,1500.0,nan,nan,nan,nan,nan,nan,nan,nan,nan,nan
1453532000,6,1560.7876,1563.1813,1561.1222,1564.0249,1500.0,1500.0,nan,nan,nan,nan,nan,nan,nan,nan,nan,nan
1453628000,6,1565.4231,1564.7789,1565.5793,1563.4711,1500.0,1500.0,nan,nan,nan,nan,nan,nan,nan,nan,nan,nan
1453728000,6,1560.6085,1562.1473,1561.599,1561.9128,1500.0,1500.0,nan,nan,nan,nan,nan,nan,nan,nan,nan,nan
1453828000,6,1563.4241,1562.1685,1562.2856,1561.2175,1500.0,1500.0,nan,nan,nan,nan,nan,nan,nan,nan,nan,nan
1453932000,6,1558.4188,1553.6768,1565.9003,1568.7423,1500.0,1500.0,nan,nan,nan,nan,nan,nan,nan,nan,nan,nan
1454028000,6,1561.6007,1561.9023,1565.9377,1565.489,1500.0,1500.0,nan,nan,nan,nan,nan,nan,nan,nan,nan,nan
1454128000,6,1564.2874,1566.294,1565.6089,1564.6714,1500.0,1500.0,nan,nan,nan,nan,nan,nan,nan,nan,nan,nan
1454232000,6,1561.6188,1566.5892,1561.4766,1564.018,1500.0,1500.0,nan,nan,nan,nan,nan,nan,nan,nan,nan,nan
1454332000,6,1561.459,1564.7607,1562.2573,1564.6207,1500.0,1500.0,nan,nan,nan,nan,nan,nan,nan,nan,nan,nan
1454432000,6,1564.9529,1565.3184,1564.5872,1563.655,1500.0,1500.0,nan,nan,nan,nan,nan,nan,nan,nan,nan,nan
1454528000,6,1564.5405,1563.9535,1564.6003,1562.226,1500.0,1500.0,nan,nan,nan,nan,nan,nan,nan,nan,nan,nan
1454632000,6,1566.1552,1564.1516,1565.0676,1564.0673,1500.0,1500.0,nan,nan,nan,nan,nan,nan,nan,nan,nan,nan
1454728000,6,1565.6302,1562.3226,1563.717,1563.7017,1500.0,1500.0,nan,nan,nan,nan,nan,nan,nan,nan,nan,nan
1454828000,6,1564.0918,1564.3856,1563.0929,1564.3578,1500.0,1500.0,nan,nan,nan,nan,nan,nan,nan,nan,nan,nan
1454928000,6,1565.6819,1563.6843,1561.523,1565.4216,1500.0,1500.0,nan,nan,nan,nan,nan,nan,nan,nan,nan,nan
1455028000,6,1565.638,1563.6902,1566.7632,1561.3099,1500.0,1500.0,nan,nan,nan,nan,nan,nan,nan,nan,nan,nan
1455128000,6,1563.4397,1564.93,1563.4883,1565.177,1500.0,1500.0,nan,nan,nan,nan,nan,nan,nan,nan,nan,nan
1455228000,6,1566.1052,1563.5171,1562.495,1566.1808,1500.0,1500.0,nan,nan,nan,nan,nan,nan,nan,nan,nan,nan
1455332000,6,1562.8656,1565.7803,1563.126,1563.3478,1500.0,1500.0,nan,nan,nan,nan,nan,nan,nan,nan,nan,nan
1455428000,6,1566.2406,1562.3256,1563.0635,1564.207,1500.0,1500.0,nan,nan,nan,nan,nan,nan,nan,nan,nan,nan
1455532000,6,1565.6959,1564.4313,1565.8726,1564.6171,1500.0,1500.0,nan,nan,nan,nan,nan,nan,nan,nan,nan,nan
1455628000,6,1564.579,1566.56,1564.6448,1565.1112,1500.0,1500.0,nan,nan,nan,nan,nan,nan,nan,nan,nan,nan
1455728000,6,1566.1715,1562.1477,1563.5165,1564.9458,1500.0,1500.0,nan,nan,nan,nan,nan,nan,nan,nan,nan,nan
1455832000,6,1564.861,1564.3033,1561.8112,1567.0996,1500.0,1500.0,nan,nan,nan,nan,nan,nan,nan,nan,nan,nan
1455928000,6,1563.508,1564.2145,1563.1678,1565.756,1500.0,1500.0,nan,nan,nan,nan,nan,nan,nan,nan,nan,nan
1456028000,6,1564.5347,1564.4697,1562.402,1565.4501,1500.0,1500.0,nan,nan,nan,nan,nan,nan,nan,nan,nan,nan
1456128000,6,1566.1519,1565.8191,1566.7266,1563.894,1500.0,1500.0,nan,nan,nan,nan,nan,nan,nan,nan,nan,nan
1456232000,6,1566.2521,1564.9723,1567.2649,1564.5659,1500.0,1500.0,nan,nan,nan,nan,nan,nan,nan,nan,nan,nan
1456328000,6,1563.936,1564.5011,1564.5686,1562.8186,1500.0,1500.0,nan,nan,nan,nan,nan,nan,nan,nan,nan,nan
1456432000,6,1563.7552,1566.7368,1567.3088,1565.2092,1500.0,1500.0,nan,nan,nan,nan,nan,nan,nan,nan,nan,nan
1456532000,6,1564.6252,1563.9573,1561.9061,1566.0148,1500.0,1500.0,nan,nan,nan,nan,nan,nan,nan,nan,nan,nan
1456632000,6,1563.5546,1562.8438,1562.978,1564.605,1500.0,1500.0,nan,nan,nan,nan,nan,nan,nan,nan,nan,nan
1456732000,6,1568.4203,1561.9856,1566.0472,1567.7427,1500.0,1500.0,nan,nan,nan,nan,nan,nan,nan,nan,nan,nan
1456828000,6,1563.5952,1565.009,1561.5172,1561.8787,1500.0,1500.0,nan,nan,nan,nan,nan,nan,nan,nan,nan,nan
1456928000,6,1565.3109,1563.9792,1564.0017,1566.6448,1500.0,1500.0,nan,nan,nan,nan,nan,nan,nan,nan,nan,nan
1457028000,6,1561.6377,1565.6282,1562.1354,1565.6774,1500.0,1500.0,nan,nan,nan,nan,nan,nan,nan,nan,nan,nan
1457128000,6,1564.0231,1566.5623,1564.0056,1565.094,1500.0,1500.0,nan,nan,nan,nan,nan,nan,nan,nan,nan,nan
1457228000,6,1563.2394,1565.4391,1562.8535,1565.8458,1500.0,1500.0,nan,nan,nan,nan,nan,nan,nan,nan,nan,nan
1457328000,6,1561.5707,1564.2649,1561.6392,1566.2947,1500.0,1500.0,nan,nan,nan,nan,nan,nan,nan,nan,nan,nan
1457428000,6,1563.6844,1565.2264,1563.3042,1564.4075,1500.0,1500.0,nan,nan,nan,nan,nan,nan,nan,nan,nan,nan
1457532000,6,1565.6477,1562.9058,1563.4006,1563.946,1500.0,1500.0,nan,nan,nan,nan,nan,nan,nan,nan,nan,nan
1457628000,6,1561.8568,1563.7538,1561.9542,1565.5892,1500.0,1500.0,nan,nan,nan,nan,nan,nan,nan,nan,nan,nan
1457728000,6,1565.5262,1565.8027,1566.3071,1562.1962,1500.0,1500.0,nan,nan,nan,nan,nan,nan,nan,nan,nan,nan
1457832000,6,1566.8856,1563.824,1564.2596,1564.6562,1500.0,1500.0,nan,nan,nan,nan,nan,nan,nan,nan,nan,nan
1457932000,6,1563.1718,1563.5637,1562.5719,1565.9955,1500.0,1500.0,nan,nan,nan,nan,nan,nan,nan,nan,nan,nan
1458028000,6,1564.7662,1563.7971,1564.5878,1562.3738,1500.0,1500.0,nan,nan,nan,nan,nan,nan,nan,nan,nan,nan
1458128000,6,1565.7034,1564.6177,1564.3562,1561.5059,1500.0,1500.0,nan,nan,nan,nan,nan,nan,nan,nan,nan,nan
1458228000,6,1562.4143,1563.4736,1562.288,1565.0505,1500.0,1500.0,nan,nan,nan,nan,nan,nan,nan,nan,nan,nan
1458328000,6,1564.7446,1562.3434,1563.4747,1564.4836,1500.0,1500.0,nan,nan,nan,nan,nan,nan,nan,nan,nan,nan
1458428000,6,1563.3468,1566.4886,1565.6132,1565.4491,1500.0,1500.0,nan,nan,nan,nan,nan,nan,nan,nan,nan,nan
1458532000,6,1563.6222,1564.0181,1561.4329,1564.9775,1500.0,1500.0,nan,nan,nan,nan,nan,nan,nan,nan,nan,nan
1458632000,6,1563.4478,1564.1785,1563.5891,1564.3485,1500.0,1500.0,nan,nan,nan,nan,nan,nan,nan,nan,nan,nan
1458728000,6,1564.0408,1562.5443,1565.223,1563.1438,1500.0,1500.0,nan,nan,nan,nan,nan,nan,nan,nan,nan,nan
1458832000,6,1563.3342,1562.9813,1561.2513,1564.1948,1500.0,1500.0,nan,nan,nan,nan,nan,nan,nan,nan,nan,nan
1458928000,6,1565.2749,1563.7017,1563.0289,1562.1697,1500.0,1500.0,nan,nan,nan,nan,nan,nan,nan,nan,nan,nan
1459028000,6,1560.5211,1563.8347,1559.2891,1564.8231,1500.0,1500.0,nan,nan,nan,nan,nan,nan,nan,nan,nan,nan
1459132000,6,1560.0184,1563.1515,1563.7135,1561.5957,1500.0,1500.0,nan,nan,nan,nan,nan,nan,nan,nan,nan,nan
1459232000,6,1563.8813,1561.0325,1563.8884,1565.1128,1500.0,1500.0,nan,nan,nan,nan,nan,nan,nan,nan,nan,nan
1459332000,6,1565.149,1560.5737,1562.4989,1563.4318,1500.0,1500.0,nan,nan,nan,nan,nan,nan,nan,nan,nan,nan
1459432000,6,1563.0272,1560.9421,1563.0995,1564.0112,1500.0,1500.0,nan,nan,nan,nan,nan,nan,nan,nan,nan,nan
1459528000,6,1559.9406,1566.2479,1562.0289,1563.1764,1500.0,1500.0,nan,nan,nan,nan,nan,nan,nan,nan,nan,nan
1459632000,6,1563.6802,1561.7184,1564.3534,1561.3081,1500.0,1500.0,nan,nan,nan,nan,nan,nan,nan,nan,nan,nan
1459728000,6,1560.9243,1562.637,1560.6366,1563.9346,1500.0,1500.0,nan,nan,nan,nan,nan,nan,nan,nan,nan,nan
1459828000,6,1558.956,1563.2264,1560.6879,1564.1182,1500.0,1500.0,nan,nan,nan,nan,nan,nan,nan,nan,nan,nan
1459928000,6,1562.3494,1563.9692,1562.0247,1563.1357,1500.0,1500.0,nan,nan,nan,nan,nan,nan,nan,nan,nan,nan
1460028000,6,1563.2915,1565.3624,1564.7601,1562.1525,1500.0,1500.0,nan,nan,nan,nan,nan,nan,nan,nan,nan,nan
1460128000,6,1563.8721,1562.4846,1566.202,1561.1261,1500.0,1500.0,nan,nan,nan,nan,nan,nan,nan,nan,nan,nan
1460228000,6,1564.2035,1565.5978,1563.064,1561.324,1500.0,1500.0,nan,nan,nan,nan,nan,nan,nan,nan,nan,nan
1460332000,6,1562.5894,1562.77,1565.2722,1562.2773,1500.0,1500.0,nan,nan,nan,nan,nan,nan,nan,nan,nan,nan
1460428000,6,1561.2944,1562.604,1560.8181,1561.8809,1500.0,1500.0,nan,nan,nan,nan,nan,nan,nan,nan,nan,nan
1460528000,6,1560.7969,1564.9553,1559.4509,1566.2196,1500.0,1500.0,nan,nan,nan,nan,nan,nan,nan,nan,nan,nan
1460632000,6,1563.4872,1562.3528,1561.6504,1561.7197,1500.0,1500.0,nan,nan,nan,nan,nan,nan,nan,nan,nan,nan
1460728000,6,1562.9563,1564.0996,1565.7941,1562.29,1500.0,1500.0,nan,nan,nan,nan,nan,nan,nan,nan,nan,nan
1460832000,6,1560.831,1563.9513,1564.0173,1562.53,1500.0,1500.0,nan,nan,nan,nan,nan,nan,nan,nan,nan,nan
1460928000,6,1564.0973,1565.8035,1560.9608,1564.762,1500.0,1500.0,nan,nan,nan,nan,nan,nan,nan,nan,nan,nan
1461028000,6,1561.3466,1565.7883,1560.6754,1565.1904,1500.0,1500.0,nan,nan,nan,nan,nan,nan,nan,nan,nan,nan
1461128000,6,1561.186,1565.0465,1561.9298,1566.0105,1500.0,1500.0,nan,nan,nan,nan,nan,nan,nan,nan,nan,nan
1461228000,6,1562.8568,1563.4387,1564.2836,1565.9559,1500.0,1500.0,nan,nan,nan,nan,nan,nan,nan,nan,nan,nan
1461332000,6,1564.6941,1559.9541,1565.0514,1561.272,1500.0,1500.0,nan,nan,nan,nan,nan,nan,nan,nan,nan,nan
1461432000,6,1563.2008,1561.3074,1562.1895,1562.2965,1500.0,1500.0,nan,nan,nan,nan,nan,nan,nan,nan,nan,nan
1461528000,6,1564.7642,1563.2935,1566.3131,1563.3694,1500.0,1500.0,nan,nan,nan,nan,nan,nan,nan,nan,nan,nan
1461628000,6,1562.138,1565.239,1565.8934,1561.2004,1500.0,1500.0,nan,nan,nan,nan,nan,nan,nan,nan,nan,nan
1461732000,6,1563.7362,1560.9554,1563.7515,1562.0995,1500.0,1500.0,nan,nan,nan,nan,nan,nan,nan,nan,nan,nan
1461832000,6,1565.7037,1563.3701,1567.302,1561.166,1500.0,1500.0,nan,nan,nan,nan,nan,nan,nan,nan,nan,nan
1461928000,6,1563.4882,1565.3406,1563.5125,1563.5022,1500.0,1500.0,nan,nan,nan,nan,nan,nan,nan,nan,nan,nan
1462028000,6,1563.1273,1565.4209,1562.3853,1565.2495,1500.0,1500.0,nan,nan,nan,nan,nan,nan,nan,nan,nan,nan
1462132000,6,1566.4135,1564.1305,1566.6147,1562.283,1500.0,1500.0,nan,nan,nan,nan,nan,nan,nan,nan,nan,nan
1462228000,6,1562.5096,1565.4625,1562.8939,1563.0968,1500.0,1500.0,nan,nan,nan,nan,nan,nan,nan,nan,nan,nan
1462328000,6,1564.748,1563.3296,1563.6859,1564.2751,1500.0,1500.0,nan,nan,nan,nan,nan,nan,nan,nan,nan,nan
1462428000,6,1561.4052,1563.5167,1564.6797,1564.8945,1500.0,1500.0,nan,nan,nan,nan,nan,nan,nan,nan,nan,nan
1462528000,6,1562.7743,1560.2678,1561.7773,1563.5616,1500.0,1500.0,nan,nan,nan,nan,nan,nan,nan,nan,nan,nan
1462632000,6,1565.773,1562.8237,1562.3601,1563.563,1500.0,1500.0,nan,nan,nan,nan,nan,nan,nan,nan,nan,nan
1462728000,6,1563.8943,1563.4706,1564.1079,1563.8044,1500.0,1500.0,nan,nan,nan,nan,nan,nan,nan,nan,nan,nan
1462832000,6,1563.6884,1563.8442,1563.4446,1562.8002,1500.0,1500.0,nan,nan,nan,nan,nan,nan,nan,nan,nan,nan
1462932000,6,1560.7322,1562.1395,1559.85,1565.0438,1500.0,1500.0,nan,nan,nan,nan,nan,nan,nan,nan,nan,nan
1463028000,6,1565.956,1562.474,1562.4585,1563.5624,1500.0,1500.0,nan,nan,nan,nan,nan,nan,nan,nan,nan,nan
1463132000,6,1559.881,1562.2643,1562.0408,1560.5035,1500.0,1500.0,nan,nan,nan,nan,nan,nan,nan,nan,nan,nan
1463228000,6,1561.6188,1562.7224,1562.4742,1562.4081,1500.0,1500.0,nan,nan,nan,nan,nan,nan,nan,nan,nan,nan
1463332000,6,1563.0486,1564.1797,1562.9677,1562.3403,1500.0,1500.0,nan,nan,nan,nan,nan,nan,nan,nan,nan,nan
1463428000,6,1560.5249,1564.4373,1562.5637,1565.6171,1500.0,1500.0,nan,nan,nan,nan,nan,nan,nan,nan,nan,nan
1463528000,6,1562.561,1562.538,1562.8107,1562.2538,1500.0,1500.0,nan,nan,nan,nan,nan,nan,nan,nan,nan,nan
1463628000,6,1563.0267,1563.7104,1565.4104,1561.858,1500.0,1500.0,nan,nan,nan,nan,nan,nan,nan,nan,nan,nan
1463732000,6,1562.9618,1561.7174,1560.551,1564.6434,1500.0,1500.0,nan,nan,nan,nan,nan,nan,nan,nan,nan,nan
1463832000,6,1561.3542,1563.9355,1563.159,1564.5662,1500.0,1500.0,nan,nan,nan,nan,nan,nan,nan,nan,nan,nan
1463928000,6,1565.2614,1562.5303,1562.2977,1562.4374,1500.0,1500.0,nan,nan,nan,nan,nan,nan,nan,nan,nan,nan
1464028000,6,1562.976,1561.6768,1564.056,1561.0798,1500.0,1500.0,nan,nan,nan,nan,nan,nan,nan,nan,nan,nan
1464132000,6,1564.481,1560.4451,1562.9581,1563.8934,1500.0,1500.0,nan,nan,nan,nan,nan,nan,nan,nan,nan,nan
1464228000,6,1562.3218,1565.2081,1563.901,1561.2125,1500.0,1500.0,nan,nan,nan,nan,nan,nan,nan,nan,nan,nan
1464332000,6,1559.761,1564.9674,1560.718,1563.3911,1500.0,1500.0,nan,nan,nan,nan,nan,nan,nan,nan,nan,nan
1464432000,6,1560.967,1562.9772,1560.9492,1566.3501,1500.0,1500.0,nan,nan,nan,nan,nan,nan,nan,nan,nan,nan
1464532000,6,1563.3877,1562.4637,1564.2932,1563.5472,1500.0,1500.0,nan,nan,nan,nan,nan,nan,nan,nan,nan,nan
1464632000,6,1563.2109,1562.0693,1561.6897,1561.4564,1500.0,1500.0,nan,nan,nan,nan,nan,nan,nan,nan,nan,nan
1464732000,6,1563.4858,1564.3319,1564.7168,1563.2399,1500.0,1500.0,nan,nan,nan,nan,nan,nan,nan,nan,nan,nan
1464828000,6,1561.653,1563.5647,1561.2203,1564.3132,1500.0,1500.0,nan,nan,nan,nan,nan,nan,nan,nan,nan,nan
1464932000,6,1562.4607,1561.0209,1561.9801,1561.0958,1500.0,1500.0,nan,nan,nan,nan,nan,nan,nan,nan,nan,nan
1465032000,6,1561.1559,1564.1742,1562.9578,1562.9937,1500.0,1500.0,nan,nan,nan,nan,nan,nan,nan,nan,nan,nan
1465128000,6,1563.1748,1563.3785,1564.1793,1563.5277,1500.0,1500.0,nan,nan,nan,nan,nan,nan,nan,nan,nan,nan
1465228000,6,1564.1859,1564.9308,1563.2045,1564.1205,1500.0,1500.0,nan,nan,nan,nan,nan,nan,nan,nan,nan,nan
1465332000,6,1562.5825,1563.6724,1562.8619,1564.0933,1500.0,1500.0,nan,nan,nan,nan,nan,nan,nan,nan,nan,nan
1465432000,6,1562.4954,1563.2568,1565.7803,1562.0659,1500.0,1500.0,nan,nan,nan,nan,nan,nan,nan,nan,nan,nan
1465532000,6,1562.8689,1565.1057,1563.801,1563.0482,1500.0,1500.0,nan,nan,nan,nan,nan,nan,nan,nan,nan,nan
1465632000,6,1564.0564,1565.3921,1563.8063,1565.7778,1500.0,1500.0,nan,nan,nan,nan,nan,nan,nan,nan,nan,nan
1465728000,6,1563.6096,1563.952,1561.9452,1563.484,1500.0,1500.0,nan,nan,nan,nan,nan,nan,nan,nan,nan,nan
1465828000,6,1561.8674,1563.3942,1563.6447,1560.2595,1500.0,1500.0,nan,nan,nan,nan,nan,nan,nan,nan,nan,nan
1465928000,6,1564.1763,1562.2861,1565.3457,1561.685,1500.0,1500.0,nan,nan,nan,nan,nan,nan,nan,nan,nan,nan
1466028000,6,1563.6346,1564.3374,1561.584,1564.5684,1500.0,1500.0,nan,nan,nan,nan,nan,nan,nan,nan,nan,nan
1466132000,6,1561.3976,1561.7483,1562.581,1561.2034,1500.0,1500.0,nan,nan,nan,nan,nan,nan,nan,nan,nan,nan
1466228000,6,1563.5198,1561.1453,1560.8182,1563.292,1500.0,1500.0,nan,nan,nan,nan,nan,nan,nan,nan,nan,nan
1466328000,6,1564.4902,1561.393,1561.8652,1564.0842,1500.0,1500.0,nan,nan,nan,nan,nan,nan,nan,nan,nan,nan
1466432000,6,1563.5482,1563.6957,1566.4486,1562.1356,1500.0,1500.0,nan,nan,nan,nan,nan,nan,nan,nan,nan,nan
1466528000,6,1566.7676,1560.1443,1565.8732,1561.5736,1500.0,1500.0,nan,nan,nan,nan,nan,nan,nan,nan,nan,nan
1466628000,6,1562.8575,1565.7268,1563.9564,1563.7852,1500.0,1500.0,nan,nan,nan,nan,nan,nan,nan,nan,nan,nan
1466732000,6,1563.0184,1565.5332,1562.2725,1563.689,1500.0,1500.0,nan,nan,nan,nan,nan,nan,nan,nan,nan,nan
1466828000,6,1565.0142,1562.0349,1564.5388,1562.7739,1500.0,1500.0,nan,nan,nan,nan,nan,nan,nan,nan,nan,nan
1466928000,6,1561.5442,1564.5834,1563.4752,1562.4672,1500.0,1500.0,nan,nan,nan,nan,nan,nan,nan,nan,nan,nan
1467032000,6,1563.5757,1564.9082,1565.1067,1559.2646,1500.0,1500.0,nan,nan,nan,nan,nan,nan,nan,nan,nan,nan
1467128000,6,1564.0222,1563.5485,1562.2355,1562.9839,1500.0,1500.0,nan,nan,nan,nan,nan,nan,nan,nan,nan,nan
1467232000,6,1565.4015,1562.4583,1563.9985,1562.0758,1500.0,1500.0,nan,nan,nan,nan,nan,nan,nan,nan,nan,nan
1467328000,6,1564.4401,1560.3497,1564.0502,1561.6934,1500.0,1500.0,nan,nan,nan,nan,nan,nan,nan,nan,nan,nan
1467432000,6,1562.0875,1563.9677,1562.9539,1560.5005,1500.0,1500.0,nan,nan,nan,nan,nan,nan,nan,nan,nan,nan
1467528000,6,1565.135,1562.937,1565.4052,1565.0881,1500.0,1500.0,nan,nan,nan,nan,nan,nan,nan,nan,nan,nan
1467632000,6,1563.7291,1563.8568,1561.6991,1565.5518,1500.0,1500.0,nan,nan,nan,nan,nan,nan,nan,nan,nan,nan
1467728000,6,1560.2985,1567.2296,1564.1179,1565.5576,1500.0,1500.0,nan,nan,nan,nan,nan,nan,nan,nan,nan,nan
1467828000,6,1564.822,1563.8018,1563.7759,1565.946,1500.0,1500.0,nan,nan,nan,nan,nan,nan,nan,nan,nan,nan
1467932000,6,1563.0223,1565.0599,1562.5203,1565.6101,1500.0,1500.0,nan,nan,nan,nan,nan,nan,nan,nan,nan,nan
1468028000,6,1562.7858,1562.5956,1562.1649,1566.792,1500.0,1500.0,nan,nan,nan,nan,nan,nan,nan,nan,nan,nan
1468132000,6,1564.9031,1561.1113,1563.9039,1563.1348,1500.0,1500.0,nan,nan,nan,nan,nan,nan,nan,nan,nan,nan
1468232000,6,1561.9298,1565.423,1565.3285,1559.7769,1500.0,1500.0,nan,nan,nan,nan,nan,nan,nan,nan,nan,nan
1468332000,6,1568.1108,1561.8041,1564.8049,1562.2299,1500.0,1500.0,nan,nan,nan,nan,nan,nan,nan,nan,nan,nan
1468428000,6,1563.6462,1561.9246,1563.5725,1562.8678,1500.0,1500.0,nan,nan,nan,nan,nan,nan,nan,nan,nan,nan
1468528000,6,1565.5496,1564.2416,1563.9937,1562.9022,1500.0,1500.0,nan,nan,nan,nan,nan,nan,nan,nan,nan,nan
1468632000,6,1562.5991,1566.3795,1565.1449,1562.1854,1500.0,1500.0,nan,nan,nan,nan,nan,nan,nan,nan,nan,nan
1468728000,6,1565.0503,1564.2241,1563.2152,1560.742,1500.0,1500.0,nan,nan,nan,nan,nan,nan,nan,nan,nan,nan
1468832000,6,1563.054,1563.6416,1562.1682,1564.7728,1500.0,1500.0,nan,nan,nan,nan,nan,nan,nan,nan,nan,nan
1468932000,6,1335.4902,1400.4152,1434.4436,1000.0,1500.0,1500.0,nan,nan,nan,nan,nan,nan,nan,nan,nan,nan
1469028000,6,1995.2168,1913.5176,1000.0,1092.1304,1500.0,1500.0,nan,nan,nan,nan,nan,nan,nan,nan,nan,nan
1469128000,6,1729.7236,1637.44,1119.3125,1226.4536,1500.0,1500.0,nan,nan,nan,nan,nan,nan,nan,nan,nan,nan
1469228000,6,1675.0243,1757.1406,1310.9845,1443.9933,1500.0,1500.0,nan,nan,nan,nan,nan,nan,nan,nan,nan,nan
1469328000,6,1722.9161,1757.906,1463.3451,1429.4583,1500.0,1500.0,nan,nan,nan,nan,nan,nan,nan,nan,nan,nan
1469432000,6,1711.3757,1719.1577,1476.3772,1380.7107,1500.0,1500.0,nan,nan,nan,nan,nan,nan,nan,nan,nan,nan
1469532000,6,1714.5608,1715.9166,1471.0609,1377.4606,1500.0,1500.0,nan,nan,nan,nan,nan,nan,nan,nan,nan,nan
1469628000,6,1702.1594,1705.8188,1466.3402,1413.0769,1500.0,1500.0,nan,nan,nan,nan,nan,nan,nan,nan,nan,nan
1469728000,6,1592.8462,1596.0591,1551.852,1544.1547,1500.0,1500.0,nan,nan,nan,nan,nan,nan,nan,nan,nan,nan
1469828000,6,1562.7614,1578.579,1596.5193,1591.8485,1500.0,1500.0,nan,nan,nan,nan,nan,nan,nan,nan,nan,nan
1469928000,6,1554.9166,1575.9664,1603.208,1597.0073,1500.0,1500.0,nan,nan,nan,nan,nan,nan,nan,nan,nan,nan
1470032000,6,1555.8185,1571.4504,1593.5792,1593.2695,1500.0,1500.0,nan,nan,nan,nan,nan,nan,nan,nan,nan,nan
1470132000,6,1561.0171,1573.4246,1585.7848,1593.8109,1500.0,1500.0,nan,nan,nan,nan,nan,nan,nan,nan,nan,nan
1470232000,6,1563.5881,1574.156,1584.8616,1594.6943,1500.0,1500.0,nan,nan,nan,nan,nan,nan,nan,nan,nan,nan
1470332000,6,1560.1927,1578.5908,1578.8925,1590.7509,1500.0,1500.0,nan,nan,nan,nan,nan,nan,nan,nan,nan,nan
1470432000,6,1566.8513,1576.7506,1578.974,1586.3809,1500.0,1500.0,nan,nan,nan,nan,nan,nan,nan,nan,nan,nan
1470528000,6,1568.5265,1575.3457,1574.1123,1588.7928,1500.0,1500.0,nan,nan,nan,nan,nan,nan,nan,nan,nan,nan
1470628000,6,1566.8909,1576.6647,1574.4879,1585.758,1500.0,1500.0,nan,nan,nan,nan,nan,nan,nan,nan,nan,nan
1470728000,6,1566.7251,1580.9725,1571.4712,1585.0844,1500.0,1500.0,nan,nan,nan,nan,nan,nan,nan,nan,nan,nan
1470828000,6,1569.0023,1579.5051,1574.918,1584.2535,1500.0,1500.0,nan,nan,nan,nan,nan,nan,nan,nan,nan,nan
1470928000,6,1566.7031,1582.0928,1572.7892,1583.3954,1500.0,1500.0,nan,nan,nan,nan,nan,nan,nan,nan,nan,nan
1471028000,6,1569.7133,1576.9077,1572.4532,1580.1597,1500.0,1500.0,nan,nan,nan,nan,nan,nan,nan,nan,nan,nan
1471128000,6,1570.347,1578.0609,1573.7827,1580.9578,1500.0,1500.0,nan,nan,nan,nan,nan,nan,nan,nan,nan,nan
1471228000,6,1567.6332,1583.4231,1573.2212,1582.056,1500.0,1500.0,nan,nan,nan,nan,nan,nan,nan,nan,nan,nan
1471328000,6,1566.3063,1580.4489,1572.8,1581.4597,1500.0,1500.0,nan,nan,nan,nan,nan,nan,nan,nan,nan,nan
1471428000,6,1570.1604,1582.8481,1568.7123,1584.6677,1500.0,1500.0,nan,nan,nan,nan,nan,nan,nan,nan,nan,nan
1471532000,6,1571.7051,1577.5715,1573.3872,1579.9779,1500.0,1500.0,nan,nan,nan,nan,nan,nan,nan,nan,nan,nan
1471628000,6,1569.8564,1583.7112,1570.0342,1585.4354,1500.0,1500.0,nan,nan,nan,nan,nan,nan,nan,nan,nan,nan
1471732000,6,1568.9434,1584.6372,1572.8981,1584.6658,1500.0,1500.0,nan,nan,nan,nan,nan,nan,nan,nan,nan,nan
1471828000,6,1572.268,1580.9087,1575.4425,1583.5765,1500.0,1500.0,nan,nan,nan,nan,nan,nan,nan,nan,nan,nan
1471932000,6,1571.1211,1583.813,1574.1223,1584.5424,1500.0,1500.0,nan,nan,nan,nan,nan,nan,nan,nan,nan,nan
1472028000,6,1570.0327,1585.4949,1573.6908,1586.2056,1500.0,1500.0,nan,nan,nan,nan,nan,nan,nan,nan,nan,nan
1472128000,6,1570.472,1586.5426,1571.51,1587.1511,1500.0,1500.0,nan,nan,nan,nan,nan,nan,nan,nan,nan,nan
1472228000,6,1576.2762,1583.0432,1572.9476,1586.2157,1500.0,1500.0,nan,nan,nan,nan,nan,nan,nan,nan,nan,nan
1472332000,6,1573.1117,1587.0814,1573.8558,1589.8954,1500.0,1500.0,nan,nan,nan,nan,nan,nan,nan,nan,nan,nan
1472432000,6,1573.6313,1587.2025,1575.1525,1587.2686,1500.0,1500.0,nan,nan,nan,nan,nan,nan,nan,nan,nan,nan
1472532000,6,1573.0977,1587.8873,1573.5933,1589.563,1500.0,1500.0,nan,nan,nan,nan,nan,nan,nan,nan,nan,nan
1472628000,6,1572.5588,1589.7346,1575.6818,1589.9261,1500.0,1500.0,nan,nan,nan,nan,nan,nan,nan,nan,nan,nan
1472732000,6,1575.3887,1592.106,1576.9539,1593.9885,1500.0,1500.0,nan,nan,nan,nan,nan,nan,nan,nan,nan,nan
1472828000,6,1572.7748,1593.2152,1575.4688,1592.6547,1500.0,1500.0,nan,nan,nan,nan,nan,nan,nan,nan,nan,nan
1472928000,6,1575.4337,1591.0292,1574.5133,1594.1143,1500.0,1500.0,nan,nan,nan,nan,nan,nan,nan,nan,nan,nan
1473032000,6,1570.2357,1596.264,1575.8365,1594.4369,1500.0,1500.0,nan,nan,nan,nan,nan,nan,nan,nan,nan,nan
1473132000,6,1579.8254,1596.2054,1583.0641,1594.9812,1500.0,1500.0,nan,nan,nan,nan,nan,nan,nan,nan,nan,nan
1473228000,6,1579.0248,1600.8281,1579.4414,1598.3345,1500.0,1500.0,nan,nan,nan,nan,nan,nan,nan,nan,nan,nan
1473328000,6,1576.3966,1599.5105,1577.0151,1603.0846,1500.0,1500.0,nan,nan,nan,nan,nan,nan,nan,nan,nan,nan
1473428000,6,1579.1941,1601.1843,1579.2052,1602.6425,1500.0,1500.0,nan,nan,nan,nan,nan,nan,nan,nan,nan,nan
1473532000,6,1579.7032,1603.5782,1578.578,1605.7983,1500.0,1500.0,nan,nan,nan,nan,nan,nan,nan,nan,nan,nan
1473628000,6,1579.8242,1601.3267,1582.1708,1605.8694,1500.0,1500.0,nan,nan,nan,nan,nan,nan,nan,nan,nan,nan
1473728000,6,1582.298,1605.0796,1586.0736,1604.7493,1500.0,1500.0,nan,nan,nan,nan,nan,nan,nan,nan,nan,nan
1473832000,6,1581.4979,1609.9581,1584.8768,1610.0752,1500.0,1500.0,nan,nan,nan,nan,nan,nan,nan,nan,nan,nan
1473932000,6,1582.9343,1612.8707,1586.8071,1608.6958,1500.0,1500.0,nan,nan,nan,nan,nan,nan,nan,nan,nan,nan
1474032000,6,1586.3374,1610.0193,1589.9255,1610.2787,1500.0,1500.0,nan,nan,nan,nan,nan,nan,nan,nan,nan,nan
1474128000,6,1588.2222,1615.1072,1588.6198,1618.5178,1500.0,1500.0,nan,nan,nan,nan,nan,nan,nan,nan,nan,nan
1474228000,6,1587.1023,1617.2153,1590.9297,1616.376,1500.0,1500.0,nan,nan,nan,nan,nan,nan,nan,nan,nan,nan
1474332000,6,1588.4509,1620.3384,1592.8972,1620.4703,1500.0,1500.0,nan,nan,nan,nan,nan,nan,nan,nan,nan,nan
1474432000,6,1590.2998,1626.3547,1593.0928,1626.2109,1500.0,1500.0,nan,nan,nan,nan,nan,nan,nan,nan,nan,nan
1474528000,6,1594.9528,1626.1008,1596.0771,1623.2124,1500.0,1500.0,nan,nan,nan,nan,nan,nan,nan,nan,nan,nan
1474628000,6,1594.8555,1631.6317,1599.8739,1629.6991,1500.0,1500.0,nan,nan,nan,nan,nan,nan,nan,nan,nan,nan
1474732000,6,1599.663,1632.8318,1599.3706,1630.3164,1500.0,1500.0,nan,nan,nan,nan,nan,nan,nan,nan,nan,nan
1474832000,6,1599.4401,1632.0651,1600.2689,1635.0576,1500.0,1500.0,nan,nan,nan,nan,nan,nan,nan,nan,nan,nan
1474932000,6,1601.3861,1640.81,1605.2797,1640.2848,1500.0,1500.0,nan,nan,nan,nan,nan,nan,nan,nan,nan,nan
1475032000,6,1602.5385,1640.8247,1607.2666,1642.821,1500.0,1500.0,nan,nan,nan,nan,nan,nan,nan,nan,nan,nan
1475128000,6,1609.501,1640.4658,1609.4384,1640.9246,1500.0,1500.0,nan,nan,nan,nan,nan,nan,nan,nan,nan,nan
1475232000,6,1611.5718,1646.9537,1613.0753,1647.5634,1500.0,1500.0,nan,nan,nan,nan,nan,nan,nan,nan,nan,nan
1475328000,6,1610.9023,1656.0874,1612.3516,1657.8632,1500.0,1500.0,nan,nan,nan,nan,nan,nan,nan,nan,nan,nan
1475428000,6,1611.949,1659.3922,1615.0219,1658.5312,1500.0,1500.0,nan,nan,nan,nan,nan,nan,nan,nan,nan,nan
1475528000,6,1618.0006,1664.8086,1617.7598,1663.8293,1500.0,1500.0,nan,nan,nan,nan,nan,nan,nan,nan,nan,nan
1475628000,6,1622.3776,1661.9873,1625.4465,1663.8013,1500.0,1500.0,nan,nan,nan,nan,nan,nan,nan,nan,nan,nan
1475732000,6,1629.1735,1669.151,1634.5754,1666.6053,1500.0,1500.0,nan,nan,nan,nan,nan,nan,nan,nan,nan,nan
1475828000,6,1629.2598,1681.4823,1628.8934,1683.2766,1500.0,1500.0,nan,nan,nan,nan,nan,nan,nan,nan,nan,nan
1475932000,6,1633.718,1685.7136,1640.3962,1683.0984,1500.0,1500.0,nan,nan,nan,nan,nan,nan,nan,nan,nan,nan
1476028000,6,1637.2472,1685.6248,1642.7565,1686.6371,1500.0,1500.0,nan,nan,nan,nan,nan,nan,nan,nan,nan,nan
1476132000,6,1651.425,1667.4363,1654.7694,1666.4426,1500.0,1500.0,nan,nan,nan,nan,nan,nan,nan,nan,nan,nan
1476228000,6,1644.0419,1675.1572,1646.8489,1677.7242,1500.0,1500.0,nan,nan,nan,nan,nan,nan,nan,nan,nan,nan
1476332000,6,1636.3417,1698.0283,1639.8986,1695.3774,1500.0,1500.0,nan,nan,nan,nan,nan,nan,nan,nan,nan,nan
1476432000,6,1623.263,1703.2096,1629.7699,1703.3801,1500.0,1500.0,nan,nan,nan,nan,nan,nan,nan,nan,nan,nan
1476528000,6,1623.0215,1698.1869,1628.1953,1697.5775,1500.0,1500.0,nan,nan,nan,nan,nan,nan,nan,nan,nan,nan
1476632000,6,1627.3591,1692.1567,1632.7526,1686.9985,1500.0,1500.0,nan,nan,nan,nan,nan,nan,nan,nan,nan,nan
1476728000,6,1633.795,1687.4094,1637.2432,1684.38,1500.0,1500.0,nan,nan,nan,nan,nan,nan,nan,nan,nan,nan
1476828000,6,1633.2126,1688.8107,1638.065,1688.8772,1500.0,1500.0,nan,nan,nan,nan,nan,nan,nan,nan,nan,nan
1476932000,6,1631.9987,1695.1025,1636.3953,1691.4613,1500.0,1500.0,nan,nan,nan,nan,nan,nan,nan,nan,nan,nan
1477032000,6,1631.4268,1697.3499,1634.0356,1695.1138,1500.0,1500.0,nan,nan,nan,nan,nan,nan,nan,nan,nan,nan
1477128000,6,1631.3728,1692.6654,1638.5363,1691.2214,1500.0,1500.0,nan,nan,nan,nan,nan,nan,nan,nan,nan,nan
1477232000,6,1632.8147,1693.2318,1638.3346,1694.1014,1500.0,1500.0,nan,nan,nan,nan,nan,nan,nan,nan,nan,nan
1477328000,6,1627.8594,1695.1447,1634.5481,1694.9553,1500.0,1500.0,nan,nan,nan,nan,nan,nan,nan,nan,nan,nan
1477428000,6,1634.4243,1692.2672,1639.6184,1692.2151,1500.0,1500.0,nan,nan,nan,nan,nan,nan,nan,nan,nan,nan
1477528000,6,1632.8138,1695.1711,1638.5953,1695.0104,1500.0,1500.0,nan,nan,nan,nan,nan,nan,nan,nan,nan,nan
1477628000,6,1633.5029,1694.9329,1635.988,1696.0474,1500.0,1500.0,nan,nan,nan,nan,nan,nan,nan,nan,nan,nan
1477728000,6,1637.2786,1694.9058,1639.1238,1692.1398,1500.0,1500.0,nan,nan,nan,nan,nan,nan,nan,nan,nan,nan
1477832000,6,1632.4955,1700.6687,1638.2681,1694.9545,1500.0,1500.0,nan,nan,nan,nan,nan,nan,nan,nan,nan,nan
1477928000,6,1636.7256,1697.4261,1641.707,1693.7017,1500.0,1500.0,nan,nan,nan,nan,nan,nan,nan,nan,nan,nan
1478028000,6,1632.2112,1694.7468,1638.4688,1695.3823,1500.0,1500.0,nan,nan,nan,nan,nan,nan,nan,nan,nan,nan
1478128000,6,1630.4314,1698.4269,1641.4484,1692.3551,1500.0,1500.0,nan,nan,nan,nan,nan,nan,nan,nan,nan,nan
1478228000,6,1636.0359,1696.7843,1640.1627,1696.2053,1500.0,1500.0,nan,nan,nan,nan,nan,nan,nan,nan,nan,nan
1478332000,6,1635.5703,1698.5284,1641.8174,1696.3113,1500.0,1500.0,nan,nan,nan,nan,nan,nan,nan,nan,nan,nan
1478432000,6,1637.7975,1697.1285,1639.9343,1695.9656,1500.0,1500.0,nan,nan,nan,nan,nan,nan,nan,nan,nan,nan
1478528000,6,1635.8221,1699.9448,1639.9431,1697.6365,1500.0,1500.0,nan,nan,nan,nan,nan,nan,nan,nan,nan,nan
1478628000,6,1637.983,1698.6349,1643.2286,1697.9287,1500.0,1500.0,nan,nan,nan,nan,nan,nan,nan,nan,nan,nan
1478728000,6,1635.2562,1701.0092,1640.995,1698.8887,1500.0,1500.0,nan,nan,nan,nan,nan,nan,nan,nan,nan,nan
1478828000,6,1637.478,1699.306,1639.0726,1699.1887,1500.0,1500.0,nan,nan,nan,nan,nan,nan,nan,nan,nan,nan
1478932000,6,1636.2513,1699.5784,1642.2402,1698.885,1500.0,1500.0,nan,nan,nan,nan,nan,nan,nan,nan,nan,nan
1479032000,6,1635.0107,1702.9526,1641.6656,1699.8264,1500.0,1500.0,nan,nan,nan,nan,nan,nan,nan,nan,nan,nan
1479128000,6,1638.2445,1701.123,1642.8635,1700.4229,1500.0,1500.0,nan,nan,nan,nan,nan,nan,nan,nan,nan,nan
1479228000,6,1636.2186,1702.7335,1640.416,1702.377,1500.0,1500.0,nan,nan,nan,nan,nan,nan,nan,nan,nan,nan
1479328000,6,1639.0027,1700.1307,1644.538,1699.0695,1500.0,1500.0,nan,nan,nan,nan,nan,nan,nan,nan,nan,nan
1479428000,6,1638.9812,1702.0563,1642.4103,1702.2144,1500.0,1500.0,nan,nan,nan,nan,nan,nan,nan,nan,nan,nan
1479532000,6,1637.3369,1705.0548,1641.4252,1699.9631,1500.0,1500.0,nan,nan,nan,nan,nan,nan,nan,nan,nan,nan
1479628000,6,1637.8392,1704.4806,1642.1036,1702.3176,1500.0,1500.0,nan,nan,nan,nan,nan,nan,nan,nan,nan,nan
1479728000,6,1640.3812,1701.881,1644.147,1703.6062,1500.0,1500.0,nan,nan,nan,nan,nan,nan,nan,nan,nan,nan
1479828000,6,1636.0348,1701.9634,1640.2661,1703.151,1500.0,1500.0,nan,nan,nan,nan,nan,nan,nan,nan,nan,nan
1479932000,6,1640.3182,1703.2192,1644.0878,1702.7805,1500.0,1500.0,nan,nan,nan,nan,nan,nan,nan,nan,nan,nan
1480028000,6,1639.7709,1705.1832,1643.6266,1704.3577,1500.0,1500.0,nan,nan,nan,nan,nan,nan,nan,nan,nan,nan
1480128000,6,1636.8228,1703.7644,1644.1581,1699.8081,1500.0,1500.0,nan,nan,nan,nan,nan,nan,nan,nan,nan,nan
1480228000,6,1637.294,1705.5499,1644.9572,1703.6445,1500.0,1500.0,nan,nan,nan,nan,nan,nan,nan,nan,nan,nan
1480332000,6,1640.192,1704.6653,1649.101,1702.8232,1500.0,1500.0,nan,nan,nan,nan,nan,nan,nan,nan,nan,nan
1480428000,6,1641.9318,1706.6743,1643.7194,1705.7156,1500.0,1500.0,nan,nan,nan,nan,nan,nan,nan,nan,nan,nan
1480528000,6,1642.3723,1706.9072,1646.5311,1703.9465,1500.0,1500.0,nan,nan,nan,nan,nan,nan,nan,nan,nan,nan
1480632000,6,1639.7592,1705.2947,1641.402,1708.9017,1500.0,1500.0,nan,nan,nan,nan,nan,nan,nan,nan,nan,nan
1480728000,6,1641.2277,1706.4252,1647.4585,1703.4402,1500.0,1500.0,nan,nan,nan,nan,nan,nan,nan,nan,nan,nan
1480832000,6,1639.0178,1707.2036,1644.4694,1706.6741,1500.0,1500.0,nan,nan,nan,nan,nan,nan,nan,nan,nan,nan
1480928000,6,1639.2965,1706.472,1644.5056,1704.6326,1500.0,1500.0,nan,nan,nan,nan,nan,nan,nan,nan,nan,nan
1481028000,6,1642.0807,1705.5531,1645.9763,1705.9028,1500.0,1500.0,nan,nan,nan,nan,nan,nan,nan,nan,nan,nan
1481128000,6,1640.1217,1708.4156,1643.8787,1704.9458,1500.0,1500.0,nan,nan,nan,nan,nan,nan,nan,nan,nan,nan
1481232000,6,1643.1979,1708.2485,1646.5577,1706.2278,1500.0,1500.0,nan,nan,nan,nan,nan,nan,nan,nan,nan,nan
1481328000,6,1641.0881,1706.7401,1645.3734,1706.7615,1500.0,1500.0,nan,nan,nan,nan,nan,nan,nan,nan,nan,nan
1481432000,6,1642.5498,1709.8535,1648.9861,1707.1755,1500.0,1500.0,nan,nan,nan,nan,nan,nan,nan,nan,nan,nan
1481532000,6,1641.2347,1709.6104,1645.482,1707.8467,1500.0,1500.0,nan,nan,nan,nan,nan,nan,nan,nan,nan,nan
1481628000,6,1640.8914,1708.7345,1646.0677,1709.4146,1500.0,1500.0,nan,nan,nan,nan,nan,nan,nan,nan,nan,nan
1481732000,6,1642.4688,1709.6196,1647.588,1706.5825,1500.0,1500.0,nan,nan,nan,nan,nan,nan,nan,nan,nan,nan
1481828000,6,1641.8834,1710.5858,1643.2212,1710.0042,1500.0,1500.0,nan,nan,nan,nan,nan,nan,nan,nan,nan,nan
1481932000,6,1641.1926,1707.4031,1646.6136,1705.9991,1500.0,1500.0,nan,nan,nan,nan,nan,nan,nan,nan,nan,nan
1482032000,6,1643.8408,1708.153,1645.3547,1710.2759,1500.0,1500.0,nan,nan,nan,nan,nan,nan,nan,nan,nan,nan
1482128000,6,1644.0637,1710.6582,1647.4156,1706.8942,1500.0,1500.0,nan,nan,nan,nan,nan,nan,nan,nan,nan,nan
1482228000,6,1642.1813,1707.4473,1645.1869,1707.5939,1500.0,1500.0,nan,nan,nan,nan,nan,nan,nan,nan,nan,nan
1482328000,6,1640.6698,1710.5034,1647.2549,1708.2773,1500.0,1500.0,nan,nan,nan,nan,nan,nan,nan,nan,nan,nan
1482428000,6,1641.7385,1709.4417,1646.9747,1710.4452,1500.0,1500.0,nan,nan,nan,nan,nan,nan,nan,nan,nan,nan
1482532000,6,1642.9314,1708.4397,1647.9093,1709.3367,1500.0,1500.0,nan,nan,nan,nan,nan,nan,nan,nan,nan,nan
1482632000,6,1644.1034,1707.7178,1649.1577,1709.6661,1500.0,1500.0,nan,nan,nan,nan,nan,nan,nan,nan,nan,nan
1482728000,6,1642.5155,1712.4087,1647.5382,1709.7228,1500.0,1500.0,nan,nan,nan,nan,nan,nan,nan,nan,nan,nan
1482832000,6,1645.2205,1708.8302,1650.8406,1710.0114,1500.0,1500.0,nan,nan,nan,nan,nan,nan,nan,nan,nan,nan
1482932000,6,1643.9507,1711.9337,1646.3143,1715.2693,1500.0,1500.0,nan,nan,nan,nan,nan,nan,nan,nan,nan,nan
1483028000,6,1646.6609,1712.6626,1652.0216,1709.4226,1500.0,1500.0,nan,nan,nan,nan,nan,nan,nan,nan,nan,nan
1483128000,6,1646.583,1715.3468,1648.9766,1711.1493,1500.0,1500.0,nan,nan,nan,nan,nan,nan,nan,nan,nan,nan
1483232000,6,1644.7428,1717.1589,1650.1567,1711.2311,1500.0,1500.0,nan,nan,nan,nan,nan,nan,nan,nan,nan,nan
1483328000,6,1642.0642,1714.4354,1646.7441,1711.0208,1500.0,1500.0,nan,nan,nan,nan,nan,nan,nan,nan,nan,nan
1483428000,6,1644.6973,1712.1409,1650.4735,1712.2485,1500.0,1500.0,nan,nan,nan,nan,nan,nan,nan,nan,nan,nan
1483528000,6,1645.735,1713.0393,1648.8063,1710.2349,1500.0,1500.0,nan,nan,nan,nan,nan,nan,nan,nan,nan,nan
1483628000,6,1646.5588,1716.0212,1649.8964,1715.603,1500.0,1500.0,nan,nan,nan,nan,nan,nan,nan,nan,nan,nan
1483728000,6,1643.7654,1714.7192,1650.9404,1713.4907,1500.0,1500.0,nan,nan,nan,nan,nan,nan,nan,nan,nan,nan
1483832000,6,1644.861,1716.5277,1650.2365,1711.8218,1500.0,1500.0,nan,nan,nan,nan,nan,nan,nan,nan,nan,nan
1483932000,6,1644.5762,1715.774,1650.1189,1711.66,1500.0,1500.0,nan,nan,nan,nan,nan,nan,nan,nan,nan,nan
1484028000,6,1644.4171,1714.5609,1650.2184,1712.509,1500.0,1500.0,nan,nan,nan,nan,nan,nan,nan,nan,nan,nan
1484132000,6,1646.5376,1716.8756,1651.004,1712.3137,1500.0,1500.0,nan,nan,nan,nan,nan,nan,nan,nan,nan,nan
1484232000,6,1647.1823,1712.6608,1653.1309,1712.314,1500.0,1500.0,nan,nan,nan,nan,nan,nan,nan,nan,nan,nan
1484328000,6,1645.4419,1715.5999,1650.6062,1713.4156,1500.0,1500.0,nan,nan,nan,nan,nan,nan,nan,nan,nan,nan
1484432000,6,1646.2996,1715.7996,1652.5598,1712.6919,1500.0,1500.0,nan,nan,nan,nan,nan,nan,nan,nan,nan,nan
1484528000,6,1648.6404,1712.9675,1654.0371,1715.2197,1500.0,1500.0,nan,nan,nan,nan,nan,nan,nan,nan,nan,nan
1484628000,6,1647.8242,1714.3048,1650.9006,1715.9868,1500.0,1500.0,nan,nan,nan,nan,nan,nan,nan,nan,nan,nan
1484732000,6,1647.503,1716.4713,1651.2927,1716.0184,1500.0,1500.0,nan,nan,nan,nan,nan,nan,nan,nan,nan,nan
1484828000,6,1646.0166,1716.5233,1651.8944,1715.1456,1500.0,1500.0,nan,nan,nan,nan,nan,nan,nan,nan,nan,nan
1484928000,6,1645.6603,1715.7413,1650.9413,1716.0154,1500.0,1500.0,nan,nan,nan,nan,nan,nan,nan,nan,nan,nan
1485028000,6,1648.3572,1716.3752,1653.3207,1715.4697,1500.0,1500.0,nan,nan,nan,nan,nan,nan,nan,nan,nan,nan
1485128000,6,1646.1252,1718.0076,1652.7095,1716.321,1500.0,1500.0,nan,nan,nan,nan,nan,nan,nan,nan,nan,nan
1485232000,6,1646.7144,1716.9863,1650.3834,1716.869,1500.0,1500.0,nan,nan,nan,nan,nan,nan,nan,nan,nan,nan
1485328000,6,1647.1992,1717.943,1651.0474,1718.7266,1500.0,1500.0,nan,nan,nan,nan,nan,nan,nan,nan,nan,nan
1485432000,6,1646.9285,1717.9106,1650.3706,1718.4775,1500.0,1500.0,nan,nan,nan,nan,nan,nan,nan,nan,nan,nan
1485528000,6,1647.8385,1719.9747,1652.7906,1717.426,1500.0,1500.0,nan,nan,nan,nan,nan,nan,nan,nan,nan,nan
1485628000,6,1645.6936,1718.3988,1653.7076,1713.9474,1500.0,1500.0,nan,nan,nan,nan,nan,nan,nan,nan,nan,nan
1485728000,6,1647.8866,1717.4354,1654.8302,1716.9181,1500.0,1500.0,nan,nan,nan,nan,nan,nan,nan,nan,nan,nan
1485828000,6,1645.4735,1719.6769,1654.2489,1715.8307,1500.0,1500.0,nan,nan,nan,nan,nan,nan,nan,nan,nan,nan
1485932000,6,1648.4928,1718.1145,1652.7834,1717.2213,1500.0,1500.0,nan,nan,nan,nan,nan,nan,nan,nan,nan,nan
1486028000,6,1646.9302,1716.0093,1653.5791,1718.185,1500.0,1500.0,nan,nan,nan,nan,nan,nan,nan,nan,nan,nan
1486128000,6,1649.9387,1718.3756,1654.5872,1717.3248,1500.0,1500.0,nan,nan,nan,nan,nan,nan,nan,nan,nan,nan
1486228000,6,1647.9437,1719.6863,1655.234,1718.2968,1500.0,1500.0,nan,nan,nan,nan,nan,nan,nan,nan,nan,nan
1486328000,6,1649.6549,1719.3108,1654.1703,1716.2627,1500.0,1500.0,nan,nan,nan,nan,nan,nan,nan,nan,nan,nan
1486428000,6,1649.7466,1717.1461,1652.5187,1717.2847,1500.0,1500.0,nan,nan,nan,nan,nan,nan,nan,nan,nan,nan
1486532000,6,1649.4768,1719.6511,1652.2266,1719.3987,1500.0,1500.0,nan,nan,nan,nan,nan,nan,nan,nan,nan,nan
1486628000,6,1651.304,1718.397,1654.3857,1717.9849,1500.0,1500.0,nan,nan,nan,nan,nan,nan,nan,nan,nan,nan
1486728000,6,1648.9923,1720.4093,1654.758,1722.5757,1500.0,1500.0,nan,nan,nan,nan,nan,nan,nan,nan,nan,nan
1486832000,6,1645.809,1721.2908,1649.1422,1721.9454,1500.0,1500.0,nan,nan,nan,nan,nan,nan,nan,nan,nan,nan
1486932000,6,1651.9966,1718.5977,1654.9084,1718.1124,1500.0,1500.0,nan,nan,nan,nan,nan,nan,nan,nan,nan,nan
1487028000,6,1649.1389,1718.7046,1656.6821,1716.828,1500.0,1500.0,nan,nan,nan,nan,nan,nan,nan,nan,nan,nan
1487128000,6,1652.3247,1718.0885,1652.8811,1718.6105,1500.0,1500.0,nan,nan,nan,nan,nan,nan,nan,nan,nan,nan
1487232000,6,1652.8966,1718.9529,1651.5819,1718.5972,1500.0,1500.0,nan,nan,nan,nan,nan,nan,nan,nan,nan,nan
1487328000,6,1646.9873,1719.1318,1655.5798,1717.7689,1500.0,1500.0,nan,nan,nan,nan,nan,nan,nan,nan,nan,nan
1487432000,6,1651.8977,1718.8383,1658.6847,1717.7761,1500.0,1500.0,nan,nan,nan,nan,nan,nan,nan,nan,nan,nan
1487532000,6,1652.167,1719.3317,1657.353,1721.0894,1500.0,1500.0,nan,nan,nan,nan,nan,nan,nan,nan,nan,nan
1487628000,6,1651.6075,1720.577,1657.1017,1718.5261,1500.0,1500.0,nan,nan,nan,nan,nan,nan,nan,nan,nan,nan
1487728000,6,1649.3411,1724.1775,1654.9758,1721.42,1500.0,1500.0,nan,nan,nan,nan,nan,nan,nan,nan,nan,nan
1487832000,6,1653.8018,1720.0844,1655.1036,1724.074,1500.0,1500.0,nan,nan,nan,nan,nan,nan,nan,nan,nan,nan
1487928000,6,1650.8031,1724.9729,1655.7133,1723.4587,1500.0,1500.0,nan,nan,nan,nan,nan,nan,nan,nan,nan,nan
1488028000,6,1650.0315,1722.5864,1657.3951,1722.7092,1500.0,1500.0,nan,nan,nan,nan,nan,nan,nan,nan,nan,nan
1488132000,6,1653.136,1721.226,1657.9529,1720.1287,1500.0,1500.0,nan,nan,nan,nan,nan,nan,nan,nan,nan,nan
1488228000,6,1654.9028,1721.3639,1656.2915,1726.2751,1500.0,1500.0,nan,nan,nan,nan,nan,nan,nan,nan,nan,nan
1488328000,6,1651.1124,1726.1055,1656.6512,1723.312,1500.0,1500.0,nan,nan,nan,nan,nan,nan,nan,nan,nan,nan
1488428000,6,1652.2488,1724.5952,1657.4867,1723.9764,1500.0,1500.0,nan,nan,nan,nan,nan,nan,nan,nan,nan,nan
1488528000,6,1653.4213,1725.877,1655.9609,1724.3241,1500.0,1500.0,nan,nan,nan,nan,nan,nan,nan,nan,nan,nan
1488628000,6,1653.6632,1724.492,1657.5121,1724.6118,1500.0,1500.0,nan,nan,nan,nan,nan,nan,nan,nan,nan,nan
1488728000,6,1653.2766,1724.73,1656.6833,1722.6643,1500.0,1500.0,nan,nan,nan,nan,nan,nan,nan,nan,nan,nan
1488828000,6,1655.0028,1721.9404,1660.5088,1723.2588,1500.0,1500.0,nan,nan,nan,nan,nan,nan,nan,nan,nan,nan
1488928000,6,1653.638,1727.5242,1658.3171,1725.8881,1500.0,1500.0,nan,nan,nan,nan,nan,nan,nan,nan,nan,nan
1489028000,6,1652.0426,1726.2584,1655.3835,1728.0819,1500.0,1500.0,nan,nan,nan,nan,nan,nan,nan,nan,nan,nan
1489128000,6,1652.5686,1724.6774,1659.4377,1723.6522,1500.0,1500.0,nan,nan,nan,nan,nan,nan,nan,nan,nan,nan
1489232000,6,1657.2639,1722.3496,1661.6782,1719.897,1500.0,1500.0,nan,nan,nan,nan,nan,nan,nan,nan,nan,nan
1489328000,6,1652.0818,1726.4728,1656.6604,1724.4187,1500.0,1500.0,nan,nan,nan,nan,nan,nan,nan,nan,nan,nan
1489428000,6,1653.5762,1726.8647,1658.1791,1729.9695,1500.0,1500.0,nan,nan,nan,nan,nan,nan,nan,nan,nan,nan
1489528000,6,1649.2996,1727.8748,1655.1235,1725.6823,1500.0,1500.0,nan,nan,nan,nan,nan,nan,nan,nan,nan,nan
1489632000,6,1654.1365,1724.9453,1660.3293,1721.693,1500.0,1500.0,nan,nan,nan,nan,nan,nan,nan,nan,nan,nan
1489732000,6,1654.5079,1725.1146,1657.0557,1725.5533,1500.0,1500.0,nan,nan,nan,nan,nan,nan,nan,nan,nan,nan
1489828000,6,1655.2756,1726.9541,1657.0078,1725.923,1500.0,1500.0,nan,nan,nan,nan,nan,nan,nan,nan,nan,nan
1489932000,6,1655.3713,1727.4254,1659.4504,1725.6276,1500.0,1500.0,nan,nan,nan,nan,nan,nan,nan,nan,nan,nan
1490028000,6,1655.9839,1725.9117,1659.9388,1725.1641,1500.0,1500.0,nan,nan,nan,nan,nan,nan,nan,nan,nan,nan
1490128000,6,1653.4545,1725.8209,1659.3464,1727.8134,1500.0,1500.0,nan,nan,nan,nan,nan,nan,nan,nan,nan,nan
1490232000,6,1657.7616,1726.1207,1660.314,1725.7627,1500.0,1500.0,nan,nan,nan,nan,nan,nan,nan,nan,nan,nan
1490328000,6,1653.9094,1727.3086,1659.0725,1723.64,1500.0,1500.0,nan,nan,nan,nan,nan,nan,nan,nan,nan,nan
1490432000,6,1656.8329,1726.827,1663.6296,1721.8207,1500.0,1500.0,nan,nan,nan,nan,nan,nan,nan,nan,nan,nan
1490528000,6,1654.6323,1725.9528,1657.3254,1725.0824,1500.0,1500.0,nan,nan,nan,nan,nan,nan,nan,nan,nan,nan
1490632000,6,1655.9751,1728.8203,1660.8905,1727.4684,1500.0,1500.0,nan,nan,nan,nan,nan,nan,nan,nan,nan,nan
1490728000,6,1652.3474,1728.8942,1658.7853,1728.3788,1500.0,1500.0,nan,nan,nan,nan,nan,nan,nan,nan,nan,nan
1490828000,6,1653.7117,1727.4154,1659.2311,1725.3668,1500.0,1500.0,nan,nan,nan,nan,nan,nan,nan,nan,nan,nan
1490928000,6,1655.6311,1724.6652,1657.9795,1725.0039,1500.0,1500.0,nan,nan,nan,nan,nan,nan,nan,nan,nan,nan
1491028000,6,1653.614,1728.7222,1659.2053,1726.0806,1500.0,1500.0,nan,nan,nan,nan,nan,nan,nan,nan,nan,nan
1491128000,6,1655.3866,1725.0762,1659.7888,1727.9415,1500.0,1500.0,nan,nan,nan,nan,nan,nan,nan,nan,nan,nan
1491228000,6,1654.8491,1726.8365,1659.598,1727.1104,1500.0,1500.0,nan,nan,nan,nan,nan,nan,nan,nan,nan,nan
1491332000,6,1654.6515,1724.4972,1659.7839,1727.1122,1500.0,1500.0,nan,nan,nan,nan,nan,nan,nan,nan,nan,nan
1491428000,6,1658.9388,1728.0072,1661.0288,1728.6376,1500.0,1500.0,nan,nan,nan,nan,nan,nan,nan,nan,nan,nan
1491528000,6,1654.7286,1731.6903,1658.1797,1730.3013,1500.0,1500.0,nan,nan,nan,nan,nan,nan,nan,nan,nan,nan
1491632000,6,1652.1494,1728.643,1661.5286,1725.1897,1500.0,1500.0,nan,nan,nan,nan,nan,nan,nan,nan,nan,nan
1491728000,6,1654.4862,1727.4346,1659.8278,1724.9823,1500.0,1500.0,nan,nan,nan,nan,nan,nan,nan,nan,nan,nan
1491832000,6,1658.3147,1725.1189,1660.355,1724.5515,1500.0,1500.0,nan,nan,nan,nan,nan,nan,nan,nan,nan,nan
1491932000,6,1653.752,1726.8612,1659.8049,1724.2844,1500.0,1500.0,nan,nan,nan,nan,nan,nan,nan,nan,nan,nan
1492028000,6,1653.8739,1728.2146,1659.9513,1726.6548,1500.0,1500.0,nan,nan,nan,nan,nan,nan,nan,nan,nan,nan
1492128000,6,1655.7334,1727.8037,1659.8857,1726.054,1500.0,1500.0,nan,nan,nan,nan,nan,nan,nan,nan,nan,nan
1492232000,6,1655.386,1728.8969,1663.1024,1724.8458,1500.0,1500.0,nan,nan,nan,nan,nan,nan,nan,nan,nan,nan
1492332000,6,1651.402,1728.6488,1656.8806,1728.6648,1500.0,1500.0,nan,nan,nan,nan,nan,nan,nan,nan,nan,nan
1492428000,6,1653.5416,1728.4415,1658.145,1725.2705,1500.0,1500.0,nan,nan,nan,nan,nan,nan,nan,nan,nan,nan
1492532000,6,1657.4929,1726.1156,1663.1821,1727.6111,1500.0,1500.0,nan,nan,nan,nan,nan,nan,nan,nan,nan,nan
1492628000,6,1655.3413,1728.1313,1662.8186,1727.5795,1500.0,1500.0,nan,nan,nan,nan,nan,nan,nan,nan,nan,nan
1492728000,6,1663.004,1687.1663,1669.7479,1683.4592,1500.0,1500.0,nan,nan,nan,nan,nan,nan,nan,nan,nan,nan
1492832000,6,1647.2462,1695.627,1652.0715,1694.655,1500.0,1500.0,nan,nan,nan,nan,nan,nan,nan,nan,nan,nan
1492928000,6,1632.9241,1720.3933,1634.5596,1722.627,1500.0,1500.0,nan,nan,nan,nan,nan,nan,nan,nan,nan,nan
1493032000,6,1608.4081,1718.9534,1611.6453,1717.3771,1500.0,1500.0,nan,nan,nan,nan,nan,nan,nan,nan,nan,nan
1493132000,6,1606.1035,1699.0718,1611.7211,1697.0432,1500.0,1500.0,nan,nan,nan,nan,nan,nan,nan,nan,nan,nan
1493228000,6,1618.5253,1679.1583,1618.5804,1680.4124,1500.0,1500.0,nan,nan,nan,nan,nan,nan,nan,nan,nan,nan
1493328000,6,1614.5574,1678.144,1616.6794,1676.3022,1500.0,1500.0,nan,nan,nan,nan,nan,nan,nan,nan,nan,nan
1493428000,6,1610.856,1672.2616,1611.7712,1670.1296,1500.0,1500.0,nan,nan,nan,nan,nan,nan,nan,nan,nan,nan
1493528000,6,1609.892,1667.576,1609.4161,1666.7109,1500.0,1500.0,nan,nan,nan,nan,nan,nan,nan,nan,nan,nan
1493632000,6,1598.8998,1668.2229,1602.5161,1665.1868,1500.0,1500.0,nan,nan,nan,nan,nan,nan,nan,nan,nan,nan
1493728000,6,1595.9233,1667.4076,1599.7084,1664.2742,1500.0,1500.0,nan,nan,nan,nan,nan,nan,nan,nan,nan,nan
1493832000,6,1592.258,1658.4143,1593.2703,1660.3602,1500.0,1500.0,nan,nan,nan,nan,nan,nan,nan,nan,nan,nan
1493928000,6,1599.9547,1646.2886,1601.3317,1646.0677,1500.0,1500.0,nan,nan,nan,nan,nan,nan,nan,nan,nan,nan
1494032000,6,1594.991,1645.3868,1597.26,1642.3436,1500.0,1500.0,nan,nan,nan,nan,nan,nan,nan,nan,nan,nan
1494128000,6,1590.0405,1640.2953,1591.5996,1638.1802,1500.0,1500.0,nan,nan,nan,nan,nan,nan,nan,nan,nan,nan
1494228000,6,1588.1384,1641.4543,1590.0553,1639.7866,1500.0,1500.0,nan,nan,nan,nan,nan,nan,nan,nan,nan,nan
1494328000,6,1588.1635,1636.4991,1588.3104,1635.7969,1500.0,1500.0,nan,nan,nan,nan,nan,nan,nan,nan,nan,nan
1494432000,6,1585.364,1629.0969,1588.7495,1628.9082,1500.0,1500.0,nan,nan,nan,nan,nan,nan,nan,nan,nan,nan
1494528000,6,1586.4034,1627.3915,1586.6433,1629.0344,1500.0,1500.0,nan,nan,nan,nan,nan,nan,nan,nan,nan,nan
1494628000,6,1580.8257,1629.1721,1581.3855,1628.2914,1500.0,1500.0,nan,nan,nan,nan,nan,nan,nan,nan,nan,nan
1494732000,6,1579.9431,1624.6136,1580.021,1623.307,1500.0,1500.0,nan,nan,nan,nan,nan,nan,nan,nan,nan,nan
1494828000,6,1583.6266,1616.9791,1583.2684,1617.7528,1500.0,1500.0,nan,nan,nan,nan,nan,nan,nan,nan,nan,nan
1494928000,6,1586.6323,1613.3169,1586.0647,1614.9012,1500.0,1500.0,nan,nan,nan,nan,nan,nan,nan,nan,nan,nan
1495032000,6,1584.0544,1612.6382,1582.4917,1612.8733,1500.0,1500.0,nan,nan,nan,nan,nan,nan,nan,nan,nan,nan
1495128000,6,1582.6244,1614.5403,1580.7568,1616.0435,1500.0,1500.0,nan,nan,nan,nan,nan,nan,nan,nan,nan,nan
1495228000,6,1584.36,1616.7815,1586.4309,1613.1421,1500.0,1500.0,nan,nan,nan,nan,nan,nan,nan,nan,nan,nan
1495332000,6,1588.3491,1614.3481,1589.6876,1615.339,1500.0,1500.0,nan,nan,nan,nan,nan,nan,nan,nan,nan,nan
1495428000,6,1590.3572,1619.082,1592.8245,1614.1873,1500.0,1500.0,nan,nan,nan,nan,nan,nan,nan,nan,nan,nan
1495528000,6,1605.4617,1619.3353,1605.0013,1617.1968,1500.0,1500.0,nan,nan,nan,nan,nan,nan,nan,nan,nan,nan
1495632000,6,1602.2274,1597.1477,1599.2671,1597.6343,1500.0,1500.0,nan,nan,nan,nan,nan,nan,nan,nan,nan,nan
1495732000,6,1480.1432,1037.5322,1000.0,1517.6755,1500.0,1500.0,nan,nan,nan,nan,nan,nan,nan,nan,nan,nan
1495828000,6,1308.3888,1682.6816,1635.4996,1448.2545,1500.0,1500.0,nan,nan,nan,nan,nan,nan,nan,nan,nan,nan
1495928000,6,1565.8022,1655.217,1610.7472,1603.4912,1500.0,1500.0,nan,nan,nan,nan,nan,nan,nan,nan,nan,nan
1496028000,6,1614.6497,1573.9319,1571.8917,1606.3102,1500.0,1500.0,nan,nan,nan,nan,nan,nan,nan,nan,nan,nan
1496132000,6,1605.4866,1564.5396,1568.9917,1607.5972,1500.0,1500.0,nan,nan,nan,nan,nan,nan,nan,nan,nan,nan
1496232000,6,1596.5034,1576.3546,1577.0898,1599.5505,1500.0,1500.0,nan,nan,nan,nan,nan,nan,nan,nan,nan,nan
1496328000,6,1585.4534,1583.1783,1576.2561,1590.6206,1500.0,1500.0,nan,nan,nan,nan,nan,nan,nan,nan,nan,nan
1496428000,6,1582.9735,1585.5078,1575.1445,1587.8156,1500.0,1500.0,nan,nan,nan,nan,nan,nan,nan,nan,nan,nan
1496532000,6,1580.3192,1585.1907,1571.7363,1587.6528,1500.0,1500.0,nan,nan,nan,nan,nan,nan,nan,nan,nan,nan
1496628000,6,1583.0925,1583.607,1571.0625,1585.9192,1500.0,1500.0,nan,nan,nan,nan,nan,nan,nan,nan,nan,nan
1496732000,6,1586.3611,1578.0283,1575.3356,1580.1193,1500.0,1500.0,nan,nan,nan,nan,nan,nan,nan,nan,nan,nan
1496828000,6,1585.2035,1580.9034,1572.412,1585.4303,1500.0,1500.0,nan,nan,nan,nan,nan,nan,nan,nan,nan,nan
1496928000,6,1585.7147,1579.7274,1573.5778,1580.1322,1500.0,1500.0,nan,nan,nan,nan,nan,nan,nan,nan,nan,nan
1497028000,6,1580.8773,1580.9855,1570.2788,1583.4783,1500.0,1500.0,nan,nan,nan,nan,nan,nan,nan,nan,nan,nan
1497132000,6,1584.483,1579.5392,1570.7968,1581.9283,1500.0,1500.0,nan,nan,nan,nan,nan,nan,nan,nan,nan,nan
1497228000,6,1587.9707,1574.8676,1574.3112,1578.2197,1500.0,1500.0,nan,nan,nan,nan,nan,nan,nan,nan,nan,nan
1497332000,6,1582.3517,1574.0504,1571.8411,1581.9037,1500.0,1500.0,nan,nan,nan,nan,nan,nan,nan,nan,nan,nan
1497428000,6,1581.5049,1580.6372,1571.8486,1579.9956,1500.0,1500.0,nan,nan,nan,nan,nan,nan,nan,nan,nan,nan
1497528000,6,1583.0204,1577.8743,1569.1877,1581.5066,1500.0,1500.0,nan,nan,nan,nan,nan,nan,nan,nan,nan,nan
1497628000,6,1583.4108,1577.7615,1571.8982,1581.445,1500.0,1500.0,nan,nan,nan,nan,nan,nan,nan,nan,nan,nan
1497732000,6,1586.807,1573.6366,1572.5338,1579.2822,1500.0,1500.0,nan,nan,nan,nan,nan,nan,nan,nan,nan,nan
1497828000,6,1583.5358,1578.1361,1573.9401,1577.608,1500.0,1500.0,nan,nan,nan,nan,nan,nan,nan,nan,nan,nan
1497932000,6,1583.377,1575.4658,1568.4177,1581.9468,1500.0,1500.0,nan,nan,nan,nan,nan,nan,nan,nan,nan,nan
1498032000,6,1580.9884,1578.9578,1571.325,1582.6648,1500.0,1500.0,nan,nan,nan,nan,nan,nan,nan,nan,nan,nan
1498132000,6,1582.5594,1575.1534,1571.6578,1579.8641,1500.0,1500.0,nan,nan,nan,nan,nan,nan,nan,nan,nan,nan
1498232000,6,1585.8668,1573.0248,1574.4701,1578.249,1500.0,1500.0,nan,nan,nan,nan,nan,nan,nan,nan,nan,nan
1498332000,6,1584.3982,1576.1235,1571.4575,1580.277,1500.0,1500.0,nan,nan,nan,nan,nan,nan,nan,nan,nan,nan
1498432000,6,1582.8921,1574.2433,1567.4778,1582.9613,1500.0,1500.0,nan,nan,nan,nan,nan,nan,nan,nan,nan,nan
1498528000,6,1583.9064,1575.4832,1572.9907,1577.6644,1500.0,1500.0,nan,nan,nan,nan,nan,nan,nan,nan,nan,nan
1498628000,6,1587.5203,1572.3041,1573.3385,1577.3573,1500.0,1500.0,nan,nan,nan,nan,nan,nan,nan,nan,nan,nan
1498728000,6,1583.8862,1572.52,1569.172,1578.5913,1500.0,1500.0,nan,nan,nan,nan,nan,nan,nan,nan,nan,nan
1498828000,6,1585.299,1574.4429,1572.2551,1579.8246,1500.0,1500.0,nan,nan,nan,nan,nan,nan,nan,nan,nan,nan
1498928000,6,1586.4878,1575.3226,1570.2924,1579.7701,1500.0,1500.0,nan,nan,nan,nan,nan,nan,nan,nan,nan,nan
1499028000,6,1585.1533,1575.4073,1571.5294,1579.714,1500.0,1500.0,nan,nan,nan,nan,nan,nan,nan,nan,nan,nan
1499128000,6,1586.2118,1574.4131,1571.4231,1578.5314,1500.0,1500.0,nan,nan,nan,nan,nan,nan,nan,nan,nan,nan
1499228000,6,1587.6141,1571.1713,1570.6354,1575.8138,1500.0,1500.0,nan,nan,nan,nan,nan,nan,nan,nan,nan,nan
1499328000,6,1582.4496,1579.1936,1571.1693,1579.1942,1500.0,1500.0,nan,nan,nan,nan,nan,nan,nan,nan,nan,nan
1499432000,6,1586.5767,1574.285,1571.3538,1581.2521,1500.0,1500.0,nan,nan,nan,nan,nan,nan,nan,nan,nan,nan
1499528000,6,1586.3269,1572.8981,1571.7396,1577.5902,1500.0,1500.0,nan,nan,nan,nan,nan,nan,nan,nan,nan,nan
1499628000,6,1580.4673,1575.8779,1569.8383,1581.7682,1500.0,1500.0,nan,nan,nan,nan,nan,nan,nan,nan,nan,nan
1499732000,6,1584.1019,1577.3759,1570.1194,1579.0785,1500.0,1500.0,nan,nan,nan,nan,nan,nan,nan,nan,nan,nan
1499828000,6,1587.5477,1572.8225,1573.6914,1580.9117,1500.0,1500.0,nan,nan,nan,nan,nan,nan,nan,nan,nan,nan
1499928000,6,1585.7472,1574.5002,1571.5824,1583.6389,1500.0,1500.0,nan,nan,nan,nan,nan,nan,nan,nan,nan,nan
1500032000,6,1587.293,1575.3768,1575.2445,1581.7615,1500.0,1500.0,nan,nan,nan,nan,nan,nan,nan,nan,nan,nan
1500128000,6,1584.9856,1575.219,1569.9724,1580.1831,1500.0,1500.0,nan,nan,nan,nan,nan,nan,nan,nan,nan,nan
1500228000,6,1585.044,1576.302,1573.6809,1580.5077,1500.0,1500.0,nan,nan,nan,nan,nan,nan,nan,nan,nan,nan
1500328000,6,1588.7545,1577.7474,1573.6702,1583.5587,1500.0,1500.0,nan,nan,nan,nan,nan,nan,nan,nan,nan,nan
1500428000,6,1584.4736,1576.4069,1570.8618,1583.2611,1500.0,1500.0,nan,nan,nan,nan,nan,nan,nan,nan,nan,nan
1500528000,6,1584.7397,1577.4474,1572.053,1581.494,1500.0,1500.0,nan,nan,nan,nan,nan,nan,nan,nan,nan,nan
1500628000,6,1585.6305,1578.8718,1572.0116,1582.8748,1500.0,1500.0,nan,nan,nan,nan,nan,nan,nan,nan,nan,nan
1500732000,6,1587.0874,1575.5258,1572.6881,1581.1948,1500.0,1500.0,nan,nan,nan,nan,nan,nan,nan,nan,nan,nan
1500832000,6,1588.778,1576.8813,1575.8147,1580.5452,1500.0,1500.0,nan,nan,nan,nan,nan,nan,nan,nan,nan,nan
1500928000,6,1584.5981,1575.4622,1574.1245,1580.3706,1500.0,1500.0,nan,nan,nan,nan,nan,nan,nan,nan,nan,nan
1501028000,6,1583.391,1578.6023,1572.1564,1579.3815,1500.0,1500.0,nan,nan,nan,nan,nan,nan,nan,nan,nan,nan
1501132000,6,1588.1029,1574.9912,1572.5767,1580.6609,1500.0,1500.0,nan,nan,nan,nan,nan,nan,nan,nan,nan,nan
1501228000,6,1583.5349,1576.4948,1573.928,1579.9791,1500.0,1500.0,nan,nan,nan,nan,nan,nan,nan,nan,nan,nan
1501328000,6,1585.6477,1574.7955,1571.8859,1579.3129,1500.0,1500.0,nan,nan,nan,nan,nan,nan,nan,nan,nan,nan
1501432000,6,1586.6586,1575.8884,1573.293,1581.7426,1500.0,1500.0,nan,nan,nan,nan,nan,nan,nan,nan,nan,nan
1501528000,6,1587.0049,1576.7684,1574.6079,1581.2651,1500.0,1500.0,nan,nan,nan,nan,nan,nan,nan,nan,nan,nan
1501632000,6,1587.7289,1576.4128,1570.6609,1583.1057,1500.0,1500.0,nan,nan,nan,nan,nan,nan,nan,nan,nan,nan
1501728000,6,1587.4153,1574.7986,1572.0747,1582.5334,1500.0,1500.0,nan,nan,nan,nan,nan,nan,nan,nan,nan,nan
1501828000,6,1585.4927,1578.2004,1572.036,1582.3677,1500.0,1500.0,nan,nan,nan,nan,nan,nan,nan,nan,nan,nan
1501932000,6,1587.1348,1576.8717,1573.8549,1583.2008,1500.0,1500.0,nan,nan,nan,nan,nan,nan,nan,nan,nan,nan
1502028000,6,1587.0032,1577.0636,1571.2753,1584.6898,1500.0,1500.0,nan,nan,nan,nan,nan,nan,nan,nan,nan,nan
1502128000,6,1585.927,1577.9395,1570.736,1580.0842,1500.0,1500.0,nan,nan,nan,nan,nan,nan,nan,nan,nan,nan
1502228000,6,1582.498,1581.6823,1571.0946,1582.7435,1500.0,1500.0,nan,nan,nan,nan,nan,nan,nan,nan,nan,nan
1502328000,6,1585.4675,1576.9241,1570.4187,1581.4425,1500.0,1500.0,nan,nan,nan,nan,nan,nan,nan,nan,nan,nan
1502428000,6,1588.2814,1576.4028,1571.8644,1582.4707,1500.0,1500.0,nan,nan,nan,nan,nan,nan,nan,nan,nan,nan
1502528000,6,1589.7533,1579.576,1574.0326,1581.3534,1500.0,1500.0,nan,nan,nan,nan,nan,nan,nan,nan,nan,nan
1502628000,6,1584.8898,1577.3525,1572.396,1583.1145,1500.0,1500.0,nan,nan,nan,nan,nan,nan,nan,nan,nan,nan
1502732000,6,1587.7415,1578.4277,1571.2197,1583.126,1500.0,1500.0,nan,nan,nan,nan,nan,nan,nan,nan,nan,nan
1502832000,6,1587.9836,1578.0199,1571.7709,1582.9597,1500.0,1500.0,nan,nan,nan,nan,nan,nan,nan,nan,nan,nan
1502928000,6,1585.2274,1575.7401,1573.1265,1583.6458,1500.0,1500.0,nan,nan,nan,nan,nan,nan,nan,nan,nan,nan
1503028000,6,1586.988,1577.5126,1570.1035,1583.7506,1500.0,1500.0,nan,nan,nan,nan,nan,nan,nan,nan,nan,nan
1503128000,6,1589.7018,1577.4153,1572.535,1585.0576,1500.0,1500.0,nan,nan,nan,nan,nan,nan,nan,nan,nan,nan
1503228000,6,1585.1504,1577.393,1570.4857,1582.97,1500.0,1500.0,nan,nan,nan,nan,nan,nan,nan,nan,nan,nan
1503328000,6,1585.7877,1575.2874,1570.8135,1584.6465,1500.0,1500.0,nan,nan,nan,nan,nan,nan,nan,nan,nan,nan
1503428000,6,1587.454,1578.4176,1571.5396,1582.7719,1500.0,1500.0,nan,nan,nan,nan,nan,nan,nan,nan,nan,nan
1503532000,6,1587.2296,1578.624,1571.6686,1583.7706,1500.0,1500.0,nan,nan,nan,nan,nan,nan,nan,nan,nan,nan
1503632000,6,1585.8994,1577.4679,1574.9696,1583.2731,1500.0,1500.0,nan,nan,nan,nan,nan,nan,nan,nan,nan,nan
1503732000,6,1584.1018,1576.6276,1570.3118,1580.6077,1500.0,1500.0,nan,nan,nan,nan,nan,nan,nan,nan,nan,nan
1503828000,6,1585.7131,1576.8228,1573.0721,1581.9442,1500.0,1500.0,nan,nan,nan,nan,nan,nan,nan,nan,nan,nan
1503928000,6,1586.9965,1575.7117,1570.5491,1580.6929,1500.0,1500.0,nan,nan,nan,nan,nan,nan,nan,nan,nan,nan
1504028000,6,1586.796,1577.8483,1572.9357,1583.7764,1500.0,1500.0,nan,nan,nan,nan,nan,nan,nan,nan,nan,nan
1504128000,6,1588.8868,1576.7556,1574.0453,1582.1587,1500.0,1500.0,nan,nan,nan,nan,nan,nan,nan,nan,nan,nan
1504228000,6,1589.4607,1575.3976,1573.2568,1580.929,1500.0,1500.0,nan,nan,nan,nan,nan,nan,nan,nan,nan,nan
1504332000,6,1587.5902,1576.7278,1574.1025,1581.7272,1500.0,1500.0,nan,nan,nan,nan,nan,nan,nan,nan,nan,nan
1504428000,6,1586.429,1581.2693,1574.3894,1582.051,1500.0,1500.0,nan,nan,nan,nan,nan,nan,nan,nan,nan,nan
1504528000,6,1589.8911,1577.6451,1574.8569,1583.3666,1500.0,1500.0,nan,nan,nan,nan,nan,nan,nan,nan,nan,nan
1504632000,6,1589.5618,1577.3872,1573.2173,1585.6597,1500.0,1500.0,nan,nan,nan,nan,nan,nan,nan,nan,nan,nan
1504728000,6,1590.5873,1573.0198,1573.5306,1581.3542,1500.0,1500.0,nan,nan,nan,nan,nan,nan,nan,nan,nan,nan
1504828000,6,1588.901,1574.8778,1571.0188,1584.5172,1500.0,1500.0,nan,nan,nan,nan,nan,nan,nan,nan,nan,nan
1504932000,6,1584.8333,1578.9568,1571.928,1583.2955,1500.0,1500.0,nan,nan,nan,nan,nan,nan,nan,nan,nan,nan
1505028000,6,1584.9128,1579.4901,1573.1582,1581.7825,1500.0,1500.0,nan,nan,nan,nan,nan,nan,nan,nan,nan,nan
1505128000,6,1586.3069,1575.1567,1573.1877,1580.9275,1500.0,1500.0,nan,nan,nan,nan,nan,nan,nan,nan,nan,nan
1505228000,6,1588.9688,1578.4049,1575.5823,1584.2625,1500.0,1500.0,nan,nan,nan,nan,nan,nan,nan,nan,nan,nan
