timestamp,ref_timestamp,ref_lat,ref_lon,x,y,z,delta_xy[0],delta_xy[1],delta_z,vx,vy,vz,z_deriv,delta_vxy[0],delta_vxy[1],delta_vz,ax,ay,az,yaw,ref_alt,dist_bottom,dist_bottom_rate,eph,epv,evh,evv,vxy_max,vz_max,hagl_min,hagl_max,xy_valid,z_valid,v_xy_valid,v_z_valid,xy_reset_counter,z_reset_counter,vxy_reset_counter,vz_reset_counter,xy_global,z_global,dist_bottom_valid
1449032000,0,47.3977508,8.5456074,0.13343391,-0.18064412,0.72598267,0.0,0.0,0.0,0.0,0.0,0.0,0.0,0.0,0.0,0.0,0.0,0.0,0.0,0.40263015,488.83002,0.0,0.0,0.0,0.0,0.0,0.0,inf,inf,inf,inf,1,1,1,1,0,0,0,0,1,1,0
1449128000,0,47.3977508,8.5456074,0.13343391,-0.18064412,0.72598267,0.0,0.0,0.0,0.0,0.0,0.0,0.0,0.0,0.0,0.0,0.0,0.0,0.0,0.40263015,488.83002,0.0,0.0,0.0,0.0,0.0,0.0,inf,inf,inf,inf,1,1,1,1,0,0,0,0,1,1,0
1449232000,0,47.3977508,8.5456074,0.13343391,-0.18064412,0.72598267,0.0,0.0,0.0,0.0,0.0,0.0,0.0,0.0,0.0,0.0,0.0,0.0,0.0,0.40263015,488.83002,0.0,0.0,0.0,0.0,0.0,0.0,inf,inf,inf,inf,1,1,1,1,0,0,0,0,1,1,0
1449328000,0,47.3977508,8.5456074,0.13343391,-0.18064412,0.72598267,0.0,0.0,0.0,0.0,0.0,0.0,0.0,0.0,0.0,0.0,0.0,0.0,0.0,0.40263015,488.83002,0.0,0.0,0.0,0.0,0.0,0.0,inf,inf,inf,inf,1,1,1,1,0,0,0,0,1,1,0
1449428000,0,47.3977508,8.5456074,0.13343391,-0.18064412,0.72598267,0.0,0.0,0.0,0.0,0.0,0.0,0.0,0.0,0.0,0.0,0.0,0.0,0.0,0.40263015,488.83002,0.0,0.0,0.0,0.0,0.0,0.0,inf,inf,inf,inf,1,1,1,1,0,0,0,0,1,1,0
1449532000,0,47.3977508,8.5456074,0.13343391,-0.18064412,0.72598267,0.0,0.0,0.0,0.0,0.0,0.0,0.0,0.0,0.0,0.0,0.0,0.0,0.0,0.40263015,488.83002,0.0,0.0,0.0,0.0,0.0,0.0,inf,inf,inf,inf,1,1,1,1,0,0,0,0,1,1,0
1449632000,0,47.3977508,8.5456074,0.13343391,-0.18064412,0.72598267,0.0,0.0,0.0,0.0,0.0,0.0,0.0,0.0,0.0,0.0,0.0,0.0,0.0,0.40263015,488.83002,0.0,0.0,0.0,0.0,0.0,0.0,inf,inf,inf,inf,1,1,1,1,0,0,0,0,1,1,0
1449732000,0,47.3977508,8.5456074,0.13343391,-0.18064412,0.72598267,0.0,0.0,0.0,0.0,0.0,0.0,0.0,0.0,0.0,0.0,0.0,0.0,0.0,0.40263015,488.83002,0.0,0.0,0.0,0.0,0.0,0.0,inf,inf,inf,inf,1,1,1,1,0,0,0,0,1,1,0
1449832000,0,47.3977508,8.5456074,0.13343391,-0.18064412,0.72598267,0.0,0.0,0.0,0.0,0.0,0.0,0.0,0.0,0.0,0.0,0.0,0.0,0.0,0.40263015,488.83002,0.0,0.0,0.0,0.0,0.0,0.0,inf,inf,inf,inf,1,1,1,1,0,0,0,0,1,1,0
1449932000,0,47.3977508,8.5456074,0.13343391,-0.18064412,0.72598267,0.0,0.0,0.0,0.0,0.0,0.0,0.0,0.0,0.0,0.0,0.0,0.0,0.0,0.40263015,488.83002,0.0,0.0,0.0,0.0,0.0,0.0,inf,inf,inf,inf,1,1,1,1,0,0,0,0,1,1,0
1450032000,0,47.3977508,8.5456074,0.13343391,-0.18064412,0.72598267,0.0,0.0,0.0,0.0,0.0,0.0,0.0,0.0,0.0,0.0,0.0,0.0,0.0,0.40263015,488.83002,0.0,0.0,0.0,0.0,0.0,0.0,inf,inf,inf,inf,1,1,1,1,0,0,0,0,1,1,0
1450128000,0,47.3977508,8.5456074,0.13343391,-0.18064412,0.72598267,0.0,0.0,0.0,0.0,0.0,0.0,0.0,0.0,0.0,0.0,0.0,0.0,0.0,0.4026301,488.83002,0.0,0.0,0.0,0.0,0.0,0.0,inf,inf,inf,inf,1,1,1,1,0,0,0,0,1,1,0
1450232000,0,47.3977508,8.5456074,0.13343391,-0.18064412,0.72598267,0.0,0.0,0.0,0.0,0.0,0.0,0.0,0.0,0.0,0.0,0.0,0.0,0.0,0.4026301,488.83002,0.0,0.0,0.0,0.0,0.0,0.0,inf,inf,inf,inf,1,1,1,1,0,0,0,0,1,1,0
1450332000,0,47.3977508,8.5456074,0.13343391,-0.18064412,0.72598267,0.0,0.0,0.0,0.0,0.0,0.0,0.0,0.0,0.0,0.0,0.0,0.0,0.0,0.4026301,488.83002,0.0,0.0,0.0,0.0,0.0,0.0,inf,inf,inf,inf,1,1,1,1,0,0,0,0,1,1,0
1450432000,0,47.3977508,8.5456074,0.13343391,-0.18064412,0.72598267,0.0,0.0,0.0,0.0,0.0,0.0,0.0,0.0,0.0,0.0,0.0,0.0,0.0,0.4026301,488.83002,0.0,0.0,0.0,0.0,0.0,0.0,inf,inf,inf,inf,1,1,1,1,0,0,0,0,1,1,0
1450532000,0,47.3977508,8.5456074,0.13343391,-0.18064412,0.72598267,0.0,0.0,0.0,0.0,0.0,0.0,0.0,0.0,0.0,0.0,0.0,0.0,0.0,0.4026301,488.83002,0.0,0.0,0.0,0.0,0.0,0.0,inf,inf,inf,inf,1,1,1,1,0,0,0,0,1,1,0
1450628000,0,47.3977508,8.5456074,0.13343391,-0.18064412,0.72598267,0.0,0.0,0.0,0.0,0.0,0.0,0.0,0.0,0.0,0.0,0.0,0.0,0.0,0.4026301,488.83002,0.0,0.0,0.0,0.0,0.0,0.0,inf,inf,inf,inf,1,1,1,1,0,0,0,0,1,1,0
1450732000,0,47.3977508,8.5456074,0.13343391,-0.18064412,0.72598267,0.0,0.0,0.0,0.0,0.0,0.0,0.0,0.0,0.0,0.0,0.0,0.0,0.0,0.40263003,488.83002,0.0,0.0,0.0,0.0,0.0,0.0,inf,inf,inf,inf,1,1,1,1,0,0,0,0,1,1,0
1450828000,0,47.3977508,8.5456074,0.13343391,-0.18064412,0.72598267,0.0,0.0,0.0,0.0,0.0,0.0,0.0,0.0,0.0,0.0,0.0,0.0,0.0,0.4026271,488.83002,0.0,0.0,0.0,0.0,0.0,0.0,inf,inf,inf,inf,1,1,1,1,0,0,0,0,1,1,0
1450932000,0,47.3977508,8.5456074,0.13343391,-0.18064412,0.7200012,0.0,0.0,0.0,0.0,0.0,-0.13,0.0,0.0,0.0,0.0,0.0,0.0,0.0,0.4025583,488.83002,0.0,0.0,0.0,0.0,0.0,0.0,inf,inf,inf,inf,1,1,1,1,0,0,0,0,1,1,0
1451028000,0,47.3977508,8.5456074,0.13343391,-0.18064412,0.6999817,0.0,0.0,0.0,0.0,0.0,-0.26999998,0.0,0.0,0.0,0.0,0.0,0.0,0.0,0.4024517,488.83002,0.0,0.0,0.0,0.0,0.0,0.0,inf,inf,inf,inf,1,1,1,1,0,0,0,0,1,1,0
1451132000,0,47.3977508,8.5456074,0.13343391,-0.18064412,0.6669922,0.0,0.0,0.0,0.01,0.0,-0.39,0.0,0.0,0.0,0.0,0.0,0.0,0.0,0.40223643,488.83002,0.0,0.0,0.0,0.0,0.0,0.0,inf,inf,inf,inf,1,1,1,1,0,0,0,0,1,1,0
1451228000,0,47.3977508,8.5456074,0.13343391,-0.18064412,0.6210022,0.0,0.0,0.0,0.01,0.0,-0.51,0.0,0.0,0.0,0.0,0.0,0.0,0.0,0.4020627,488.83002,0.0,0.0,0.0,0.0,0.0,0.0,inf,inf,inf,inf,1,1,1,1,0,0,0,0,1,1,0
1451328000,0,47.3977508,8.5456074,0.13343391,-0.18064412,0.5629883,0.0,0.0,0.0,0.01,0.0,-0.64,0.0,0.0,0.0,0.0,0.0,0.0,0.0,0.40201768,488.83002,0.0,0.0,0.0,0.0,0.0,0.0,inf,inf,inf,inf,1,1,1,1,0,0,0,0,1,1,0
1451432000,0,47.3977508,8.5456074,0.13343391,-0.18064412,0.4920044,0.0,0.0,0.0,0.01,0.0,-0.77,0.0,0.0,0.0,0.0,0.0,0.0,0.0,0.4020166,488.83002,0.0,0.0,0.0,0.0,0.0,0.0,inf,inf,inf,inf,1,1,1,1,0,0,0,0,1,1,0
1451532000,0,47.3977508,8.5456074,0.13343391,-0.18064412,0.4079895,0.0,0.0,0.0,0.01,0.0,-0.9,0.0,0.0,0.0,0.0,0.0,0.0,0.0,0.40205923,488.83002,0.0,0.0,0.0,0.0,0.0,0.0,inf,inf,inf,inf,1,1,1,1,0,0,0,0,1,1,0
1451628000,0,47.3977508,8.5456074,0.13343391,-0.18064412,0.31799316,0.0,0.0,0.0,0.01,0.0,-0.87,0.0,0.0,0.0,0.0,0.0,0.0,0.0,0.40219074,488.83002,0.0,0.0,0.0,0.0,0.0,0.0,inf,inf,inf,inf,1,1,1,1,0,0,0,0,1,1,0
1451732000,0,47.3977508,8.5456074,0.14455341,-0.18064412,0.23199463,0.0,0.0,0.0,0.01,0.0,-0.78,0.0,0.0,0.0,0.0,0.0,0.0,0.0,0.4023736,488.83002,0.0,0.0,0.0,0.0,0.0,0.0,inf,inf,inf,inf,1,1,1,1,0,0,0,0,1,1,0
1451832000,0,47.3977508,8.5456074,0.14455341,-0.18064412,0.15499878,0.0,0.0,0.0,0.01,0.0,-0.75,0.0,0.0,0.0,0.0,0.0,0.0,0.0,0.40241995,488.83002,0.0,0.0,0.0,0.0,0.0,0.0,inf,inf,inf,inf,1,1,1,1,0,0,0,0,1,1,0
1451932000,0,47.3977508,8.5456074,0.14455341,-0.18064412,0.08099365,0.0,0.0,0.0,0.01,0.0,-0.71,0.0,0.0,0.0,0.0,0.0,0.0,0.0,0.4024354,488.83002,0.0,0.0,0.0,0.0,0.0,0.0,inf,inf,inf,inf,1,1,1,1,0,0,0,0,1,1,0
1452032000,0,47.3977508,8.5456074,0.14455341,-0.18064412,0.014007568,0.0,0.0,0.0,0.01,0.0,-0.68,0.0,0.0,0.0,0.0,0.0,0.0,0.0,0.4024392,488.83002,0.0,0.0,0.0,0.0,0.0,0.0,inf,inf,inf,inf,1,1,1,1,0,0,0,0,1,1,0
1452132000,0,47.3977508,8.5456074,0.14455341,-0.18064412,-0.054992676,0.0,0.0,0.0,0.01,0.0,-0.64,0.0,0.0,0.0,0.0,0.0,0.0,0.0,0.40250316,488.83002,0.0,0.0,0.0,0.0,0.0,0.0,inf,inf,inf,inf,1,1,1,1,0,0,0,0,1,1,0
1452232000,0,47.3977508,8.5456074,0.14455341,-0.18817097,-0.118011475,0.0,0.0,0.0,0.0,0.0,-0.61,0.0,0.0,0.0,0.0,0.0,0.0,0.0,0.40256208,488.83002,0.0,0.0,0.0,0.0,0.0,0.0,inf,inf,inf,inf,1,1,1,1,0,0,0,0,1,1,0
1452332000,0,47.3977508,8.5456074,0.14455341,-0.18817097,-0.17800903,0.0,0.0,0.0,0.0,0.0,-0.58,0.0,0.0,0.0,0.0,0.0,0.0,0.0,0.40251598,488.83002,0.0,0.0,0.0,0.0,0.0,0.0,inf,inf,inf,inf,1,1,1,1,0,0,0,0,1,1,0
1452432000,0,47.3977508,8.5456074,0.14455341,-0.18817097,-0.23599243,0.0,0.0,0.0,0.0,0.0,-0.55,0.0,0.0,0.0,0.0,0.0,0.0,0.0,0.402503,488.83002,0.0,0.0,0.0,0.0,0.0,0.0,inf,inf,inf,inf,1,1,1,1,0,0,0,0,1,1,0
1452528000,0,47.3977508,8.5456074,0.14455341,-0.18817097,-0.28601074,0.0,0.0,0.0,0.0,0.0,-0.53,0.0,0.0,0.0,0.0,0.0,0.0,0.0,0.40260836,488.83002,0.0,0.0,0.0,0.0,0.0,0.0,inf,inf,inf,inf,1,1,1,1,0,0,0,0,1,1,0
1452628000,0,47.3977508,8.5456074,0.14455341,-0.18817097,-0.33999634,0.0,0.0,0.0,0.0,0.0,-0.51,0.0,0.0,0.0,0.0,0.0,0.0,0.0,0.4027319,488.83002,0.0,0.0,0.0,0.0,0.0,0.0,inf,inf,inf,inf,1,1,1,1,0,0,0,0,1,1,0
1452732000,0,47.3977508,8.5456074,0.14455341,-0.18817097,-0.3919983,0.0,0.0,0.0,0.0,0.0,-0.48,0.0,0.0,0.0,0.0,0.0,0.0,0.0,0.40272874,488.83002,0.0,0.0,0.0,0.0,0.0,0.0,inf,inf,inf,inf,1,1,1,1,0,0,0,0,1,1,0
1452832000,0,47.3977508,8.5456074,0.14455341,-0.18817097,-0.44100952,0.0,0.0,0.0,0.0,0.0,-0.47,0.0,0.0,0.0,0.0,0.0,0.0,0.0,0.40266836,488.83002,0.0,0.0,0.0,0.0,0.0,0.0,inf,inf,inf,inf,1,1,1,1,0,0,0,0,1,1,0
1452928000,0,47.3977508,8.5456074,0.14455341,-0.18817097,-0.48501587,0.0,0.0,0.0,0.0,0.0,-0.45,0.0,0.0,0.0,0.0,0.0,0.0,0.0,0.40274376,488.83002,0.0,0.0,0.0,0.0,0.0,0.0,inf,inf,inf,inf,1,1,1,1,0,0,0,0,1,1,0
1453028000,0,47.3977508,8.5456074,0.14455341,-0.18817097,-0.5289917,0.0,0.0,0.0,0.0,0.0,-0.42999998,0.0,0.0,0.0,0.0,0.0,0.0,0.0,0.40275514,488.83002,0.0,0.0,0.0,0.0,0.0,0.0,inf,inf,inf,inf,1,1,1,1,0,0,0,0,1,1,0
1453128000,0,47.3977508,8.5456074,0.14455341,-0.18817097,-0.57199097,0.0,0.0,0.0,0.0,0.0,-0.41,0.0,0.0,0.0,0.0,0.0,0.0,0.0,0.40268221,488.83002,0.0,0.0,0.0,0.0,0.0,0.0,inf,inf,inf,inf,1,1,1,1,0,0,0,0,1,1,0
1453232000,0,47.3977508,8.5456074,0.14455341,-0.18817097,-0.6140137,0.0,0.0,0.0,-0.01,0.0,-0.39,0.0,0.0,0.0,0.0,0.0,0.0,0.0,0.4025697,488.83002,0.0,0.0,0.0,0.0,0.0,0.0,inf,inf,inf,inf,1,1,1,1,0,0,0,0,1,1,0
1453328000,0,47.3977508,8.5456074,0.14455341,-0.18817097,-0.651001,0.0,0.0,0.0,-0.01,0.0,-0.37,0.0,0.0,0.0,0.0,0.0,0.0,0.0,0.4025157,488.83002,0.0,0.0,0.0,0.0,0.0,0.0,inf,inf,inf,inf,1,1,1,1,0,0,0,0,1,1,0
1453428000,0,47.3977508,8.5456074,0.14455341,-0.18817097,-0.6870117,0.0,0.0,0.0,-0.01,0.0,-0.35999998,0.0,0.0,0.0,0.0,0.0,0.0,0.0,0.4025035,488.83002,0.0,0.0,0.0,0.0,0.0,0.0,inf,inf,inf,inf,1,1,1,1,0,0,0,0,1,1,0
1453532000,0,47.3977508,8.5456074,0.14455341,-0.18817097,-0.7260132,0.0,0.0,0.0,-0.01,0.0,-0.34,0.0,0.0,0.0,0.0,0.0,0.0,0.0,0.40254518,488.83002,0.0,0.0,0.0,0.0,0.0,0.0,inf,inf,inf,inf,1,1,1,1,0,0,0,0,1,1,0
1453632000,0,47.3977508,8.5456074,0.14455341,-0.18817097,-0.76000977,0.0,0.0,0.0,-0.01,0.0,-0.32999998,0.0,0.0,0.0,0.0,0.0,0.0,0.0,0.4025634,488.83002,0.0,0.0,0.0,0.0,0.0,0.0,inf,inf,inf,inf,1,1,1,1,0,0,0,0,1,1,0
1453728000,0,47.3977508,8.5456074,0.14455341,-0.1956978,-0.7910156,0.0,0.0,0.0,-0.01,0.0,-0.32,0.0,0.0,0.0,0.0,0.0,0.0,0.0,0.40264198,488.83002,0.0,0.0,0.0,0.0,0.0,0.0,inf,inf,inf,inf,1,1,1,1,0,0,0,0,1,1,0
1453832000,0,47.3977508,8.5456074,0.13343391,-0.1956978,-0.82199097,0.0,0.0,0.0,0.0,-0.01,-0.29999998,0.0,0.0,0.0,0.0,0.0,0.0,0.0,0.40266418,488.83002,0.0,0.0,0.0,0.0,0.0,0.0,inf,inf,inf,inf,1,1,1,1,0,0,0,0,1,1,0
1453932000,0,47.3977508,8.5456074,0.13343391,-0.1956978,-0.8529968,0.0,0.0,0.0,0.0,-0.01,-0.29,0.0,0.0,0.0,0.0,0.0,0.0,0.0,0.40248054,488.83002,0.0,0.0,0.0,0.0,0.0,0.0,inf,inf,inf,inf,1,1,1,1,0,0,0,0,1,1,0
1454032000,0,47.3977508,8.5456074,0.13343391,-0.1956978,-0.88201904,0.0,0.0,0.0,0.0,-0.01,-0.26999998,0.0,0.0,0.0,0.0,0.0,0.0,0.0,0.40082392,488.83002,0.0,0.0,0.0,0.0,0.0,0.0,inf,inf,inf,inf,1,1,1,1,0,0,0,0,1,1,0
1454132000,0,47.3977508,8.5456074,0.13343391,-0.1956978,-0.9089966,0.0,0.0,0.0,0.0,-0.01,-0.26999998,0.0,0.0,0.0,0.0,0.0,0.0,0.0,0.39850786,488.83002,0.0,0.0,0.0,0.0,0.0,0.0,inf,inf,inf,inf,1,1,1,1,0,0,0,0,1,1,0
1454232000,0,47.3977508,8.5456074,0.13343391,-0.1956978,-0.93600464,0.0,0.0,0.0,0.0,-0.01,-0.26,0.0,0.0,0.0,0.0,0.0,0.0,0.0,0.39657575,488.83002,0.0,0.0,0.0,0.0,0.0,0.0,inf,inf,inf,inf,1,1,1,1,0,0,0,0,1,1,0
1454332000,0,47.3977508,8.5456074,0.13343391,-0.20322464,-0.9620056,0.0,0.0,0.0,0.0,-0.01,-0.25,0.0,0.0,0.0,0.0,0.0,0.0,0.0,0.39524683,488.83002,0.0,0.0,0.0,0.0,0.0,0.0,inf,inf,inf,inf,1,1,1,1,0,0,0,0,1,1,0
1454432000,0,47.3977508,8.5456074,0.13343391,-0.20322464,-0.98599243,0.0,0.0,0.0,0.0,-0.01,-0.24,0.0,0.0,0.0,0.0,0.0,0.0,0.0,0.39437336,488.83002,0.0,0.0,0.0,0.0,0.0,0.0,inf,inf,inf,inf,1,1,1,1,0,0,0,0,1,1,0
1454528000,0,47.3977508,8.5456074,0.13343391,-0.20322464,-1.0110168,0.0,0.0,0.0,0.0,-0.01,-0.24,0.0,0.0,0.0,0.0,0.0,0.0,0.0,0.3939896,488.83002,0.0,0.0,0.0,0.0,0.0,0.0,inf,inf,inf,inf,1,1,1,1,0,0,0,0,1,1,0
1454632000,0,47.3977508,8.5456074,0.13343391,-0.20322464,-1.0350037,0.0,0.0,0.0,0.0,-0.01,-0.22999999,0.0,0.0,0.0,0.0,0.0,0.0,0.0,0.3939682,488.83002,0.0,0.0,0.0,0.0,0.0,0.0,inf,inf,inf,inf,1,1,1,1,0,0,0,0,1,1,0
1454732000,0,47.3977508,8.5456074,0.13343391,-0.20322464,-1.0580139,0.0,0.0,0.0,0.0,0.0,-0.22,0.0,0.0,0.0,0.0,0.0,0.0,0.0,0.3941622,488.83002,0.0,0.0,0.0,0.0,0.0,0.0,inf,inf,inf,inf,1,1,1,1,0,0,0,0,1,1,0
1454828000,0,47.3977508,8.5456074,0.13343391,-0.20322464,-1.0800171,0.0,0.0,0.0,0.0,0.0,-0.21,0.0,0.0,0.0,0.0,0.0,0.0,0.0,0.3944768,488.83002,0.0,0.0,0.0,0.0,0.0,0.0,inf,inf,inf,inf,1,1,1,1,0,0,0,0,1,1,0
1454932000,0,47.3977508,8.5456074,0.13343391,-0.20322464,-1.1020203,0.0,0.0,0.0,0.0,0.0,-0.21,0.0,0.0,0.0,0.0,0.0,0.0,0.0,0.39481786,488.83002,0.0,0.0,0.0,0.0,0.0,0.0,inf,inf,inf,inf,1,1,1,1,0,0,0,0,1,1,0
1455032000,0,47.3977508,8.5456074,0.12231442,-0.21075147,-1.1230164,0.0,0.0,0.0,0.0,0.0,-0.19999999,0.0,0.0,0.0,0.0,0.0,0.0,0.0,0.3951646,488.83002,0.0,0.0,0.0,0.0,0.0,0.0,inf,inf,inf,inf,1,1,1,1,0,0,0,0,1,1,0
1455132000,0,47.3977508,8.5456074,0.12231442,-0.21075147,-1.1440125,0.0,0.0,0.0,0.0,0.0,-0.19999999,0.0,0.0,0.0,0.0,0.0,0.0,0.0,0.39547867,488.83002,0.0,0.0,0.0,0.0,0.0,0.0,inf,inf,inf,inf,1,1,1,1,0,0,0,0,1,1,0
1455232000,0,47.3977508,8.5456074,0.12231442,-0.21075147,-1.1629944,0.0,0.0,0.0,0.0,0.0,-0.19,0.0,0.0,0.0,0.0,0.0,0.0,0.0,0.39578998,488.83002,0.0,0.0,0.0,0.0,0.0,0.0,inf,inf,inf,inf,1,1,1,1,0,0,0,0,1,1,0
1455332000,0,47.3977508,8.5456074,0.12231442,-0.21075147,-1.1830139,0.0,0.0,0.0,0.0,0.0,-0.19,0.0,0.0,0.0,0.0,0.0,0.0,0.0,0.3961448,488.83002,0.0,0.0,0.0,0.0,0.0,0.0,inf,inf,inf,inf,1,1,1,1,0,0,0,0,1,1,0
1455428000,0,47.3977508,8.5456074,0.12231442,-0.21075147,-1.2019958,0.0,0.0,0.0,0.0,0.0,-0.19,0.0,0.0,0.0,0.0,0.0,0.0,0.0,0.39643046,488.83002,0.0,0.0,0.0,0.0,0.0,0.0,inf,inf,inf,inf,1,1,1,1,0,0,0,0,1,1,0
1455528000,0,47.3977508,8.5456074,0.12231442,-0.21075147,-1.2210083,0.0,0.0,0.0,0.0,0.0,-0.17999999,0.0,0.0,0.0,0.0,0.0,0.0,0.0,0.39669845,488.83002,0.0,0.0,0.0,0.0,0.0,0.0,inf,inf,inf,inf,1,1,1,1,0,0,0,0,1,1,0
1455632000,0,47.3977508,8.5456074,0.12231442,-0.21075147,-1.2409973,0.0,0.0,0.0,0.0,0.0,-0.17999999,0.0,0.0,0.0,0.0,0.0,0.0,0.0,0.39680782,488.83002,0.0,0.0,0.0,0.0,0.0,0.0,inf,inf,inf,inf,1,1,1,1,0,0,0,0,1,1,0
1455728000,0,47.3977508,8.5456074,0.12231442,-0.21075147,-1.2590027,0.0,0.0,0.0,0.0,0.0,-0.17999999,0.0,0.0,0.0,0.0,0.0,0.0,0.0,0.39698166,488.83002,0.0,0.0,0.0,0.0,0.0,0.0,inf,inf,inf,inf,1,1,1,1,0,0,0,0,1,1,0
1455832000,0,47.3977508,8.5456074,0.12231442,-0.21075147,-1.2780151,0.0,0.0,0.0,0.0,0.0,-0.17999999,0.0,0.0,0.0,0.0,0.0,0.0,0.0,0.39722788,488.83002,0.0,0.0,0.0,0.0,0.0,0.0,inf,inf,inf,inf,1,1,1,1,0,0,0,0,1,1,0
1455932000,0,47.3977508,8.5456074,0.12231442,-0.21827832,-1.2960205,0.0,0.0,0.0,0.0,0.0,-0.17,0.0,0.0,0.0,0.0,0.0,0.0,0.0,0.39731178,488.83002,0.0,0.0,0.0,0.0,0.0,0.0,inf,inf,inf,inf,1,1,1,1,0,0,0,0,1,1,0
1456028000,0,47.3977508,8.5456074,0.12231442,-0.21827832,-1.3130188,0.0,0.0,0.0,0.0,0.0,-0.17,0.0,0.0,0.0,0.0,0.0,0.0,0.0,0.39728928,488.83002,0.0,0.0,0.0,0.0,0.0,0.0,inf,inf,inf,inf,1,1,1,1,0,0,0,0,1,1,0
1456132000,0,47.3977508,8.5456074,0.12231442,-0.21827832,-1.3309937,0.0,0.0,0.0,0.0,0.0,-0.17,0.0,0.0,0.0,0.0,0.0,0.0,0.0,0.3973342,488.83002,0.0,0.0,0.0,0.0,0.0,0.0,inf,inf,inf,inf,1,1,1,1,0,0,0,0,1,1,0
1456232000,0,47.3977508,8.5456074,0.12231442,-0.21827832,-1.347992,0.0,0.0,0.0,0.0,0.0,-0.17,0.0,0.0,0.0,0.0,0.0,0.0,0.0,0.3975326,488.83002,0.0,0.0,0.0,0.0,0.0,0.0,inf,inf,inf,inf,1,1,1,1,0,0,0,0,1,1,0
1456328000,0,47.3977508,8.5456074,0.12231442,-0.21827832,-1.3640137,0.0,0.0,0.0,0.0,0.0,-0.17,0.0,0.0,0.0,0.0,0.0,0.0,0.0,0.39773262,488.83002,0.0,0.0,0.0,0.0,0.0,0.0,inf,inf,inf,inf,1,1,1,1,0,0,0,0,1,1,0
1456432000,0,47.3977508,8.5456074,0.12231442,-0.21827832,-1.3829956,0.0,0.0,0.0,0.0,0.0,-0.17,0.0,0.0,0.0,0.0,0.0,0.0,0.0,0.39795905,488.83002,0.0,0.0,0.0,0.0,0.0,0.0,inf,inf,inf,inf,1,1,1,1,0,0,0,0,1,1,0
1456532000,0,47.3977508,8.5456074,0.12231442,-0.21827832,-1.3999939,0.0,0.0,0.0,0.0,0.0,-0.17,0.0,0.0,0.0,0.0,0.0,0.0,0.0,0.39805597,488.83002,0.0,0.0,0.0,0.0,0.0,0.0,inf,inf,inf,inf,1,1,1,1,0,0,0,0,1,1,0
1456632000,0,47.3977508,8.5456074,0.12231442,-0.21827832,-1.4169922,0.0,0.0,0.0,0.0,0.0,-0.16,0.0,0.0,0.0,0.0,0.0,0.0,0.0,0.39815933,488.83002,0.0,0.0,0.0,0.0,0.0,0.0,inf,inf,inf,inf,1,1,1,1,0,0,0,0,1,1,0
1456732000,0,47.3977508,8.5456074,0.12231442,-0.21827832,-1.434021,0.0,0.0,0.0,0.0,0.0,-0.16,0.0,0.0,0.0,0.0,0.0,0.0,0.0,0.39833105,488.83002,0.0,0.0,0.0,0.0,0.0,0.0,inf,inf,inf,inf,1,1,1,1,0,0,0,0,1,1,0
1456828000,0,47.3977508,8.5456074,0.12231442,-0.21827832,-1.4500122,0.0,0.0,0.0,0.0,0.0,-0.16,0.0,0.0,0.0,0.0,0.0,0.0,0.0,0.39835727,488.83002,0.0,0.0,0.0,0.0,0.0,0.0,inf,inf,inf,inf,1,1,1,1,0,0,0,0,1,1,0
1456928000,0,47.3977508,8.5456074,0.12231442,-0.21827832,-1.4660034,0.0,0.0,0.0,0.0,0.0,-0.16,0.0,0.0,0.0,0.0,0.0,0.0,0.0,0.39836618,488.83002,0.0,0.0,0.0,0.0,0.0,0.0,inf,inf,inf,inf,1,1,1,1,0,0,0,0,1,1,0
1457028000,0,47.3977508,8.5456074,0.12231442,-0.21827832,-1.4819946,0.0,0.0,0.0,0.0,0.0,-0.16,0.0,0.0,0.0,0.0,0.0,0.0,0.0,0.39839748,488.83002,0.0,0.0,0.0,0.0,0.0,0.0,inf,inf,inf,inf,1,1,1,1,0,0,0,0,1,1,0
1457132000,0,47.3977508,8.5456074,0.12231442,-0.21827832,-1.4980164,0.0,0.0,0.0,0.0,0.0,-0.14999999,0.0,0.0,0.0,0.0,0.0,0.0,0.0,0.39844888,488.83002,0.0,0.0,0.0,0.0,0.0,0.0,inf,inf,inf,inf,1,1,1,1,0,0,0,0,1,1,0
1457232000,0,47.3977508,8.5456074,0.12231442,-0.21827832,-1.5140076,0.0,0.0,0.0,0.0,0.0,-0.14999999,0.0,0.0,0.0,0.0,0.0,0.0,0.0,0.3985201,488.83002,0.0,0.0,0.0,0.0,0.0,0.0,inf,inf,inf,inf,1,1,1,1,0,0,0,0,1,1,0
1457328000,0,47.3977508,8.5456074,0.12231442,-0.21827832,-1.5289917,0.0,0.0,0.0,0.0,0.0,-0.14999999,0.0,0.0,0.0,0.0,0.0,0.0,0.0,0.3985292,488.83002,0.0,0.0,0.0,0.0,0.0,0.0,inf,inf,inf,inf,1,1,1,1,0,0,0,0,1,1,0
1457432000,0,47.3977508,8.5456074,0.13343392,-0.21827832,-1.5440063,0.0,0.0,0.0,0.0,0.0,-0.14,0.0,0.0,0.0,0.0,0.0,0.0,0.0,0.398532,488.83002,0.0,0.0,0.0,0.0,0.0,0.0,inf,inf,inf,inf,1,1,1,1,0,0,0,0,1,1,0
1457532000,0,47.3977508,8.5456074,0.13343392,-0.21827832,-1.559021,0.0,0.0,0.0,0.0,0.0,-0.14,0.0,0.0,0.0,0.0,0.0,0.0,0.0,0.39853847,488.83002,0.0,0.0,0.0,0.0,0.0,0.0,inf,inf,inf,inf,1,1,1,1,0,0,0,0,1,1,0
1457632000,0,47.3977508,8.5456074,0.13343392,-0.21827832,-1.572998,0.0,0.0,0.0,0.0,0.0,-0.14,0.0,0.0,0.0,0.0,0.0,0.0,0.0,0.39861512,488.83002,0.0,0.0,0.0,0.0,0.0,0.0,inf,inf,inf,inf,1,1,1,1,0,0,0,0,1,1,0
1457728000,0,47.3977508,8.5456074,0.13343392,-0.21827832,-1.5859985,0.0,0.0,0.0,0.0,0.0,-0.13,0.0,0.0,0.0,0.0,0.0,0.0,0.0,0.39875793,488.83002,0.0,0.0,0.0,0.0,0.0,0.0,inf,inf,inf,inf,1,1,1,1,0,0,0,0,1,1,0
1457832000,0,47.3977508,8.5456074,0.13343392,-0.21827832,-1.6010132,0.0,0.0,0.0,0.01,0.0,-0.13,0.0,0.0,0.0,0.0,0.0,0.0,0.0,0.3989367,488.83002,0.0,0.0,0.0,0.0,0.0,0.0,inf,inf,inf,inf,1,1,1,1,0,0,0,0,1,1,0
1457932000,0,47.3977508,8.5456074,0.13343392,-0.21827832,-1.6140137,0.0,0.0,0.0,0.01,0.0,-0.13,0.0,0.0,0.0,0.0,0.0,0.0,0.0,0.3989565,488.83002,0.0,0.0,0.0,0.0,0.0,0.0,inf,inf,inf,inf,1,1,1,1,0,0,0,0,1,1,0
1458032000,0,47.3977508,8.5456074,0.13343392,-0.21827832,-1.6270142,0.0,0.0,0.0,0.01,0.0,-0.13,0.0,0.0,0.0,0.0,0.0,0.0,0.0,0.39882496,488.83002,0.0,0.0,0.0,0.0,0.0,0.0,inf,inf,inf,inf,1,1,1,1,0,0,0,0,1,1,0
1458132000,0,47.3977508,8.5456074,0.13343392,-0.21827832,-1.6409912,0.0,0.0,0.0,0.01,0.01,-0.12,0.0,0.0,0.0,0.0,0.0,0.0,0.0,0.39868355,488.83002,0.0,0.0,0.0,0.0,0.0,0.0,inf,inf,inf,inf,1,1,1,1,0,0,0,0,1,1,0
1458232000,0,47.3977508,8.5456074,0.13343392,-0.21827832,-1.6539917,0.0,0.0,0.0,0.01,0.01,-0.12,0.0,0.0,0.0,0.0,0.0,0.0,0.0,0.39869794,488.83002,0.0,0.0,0.0,0.0,0.0,0.0,inf,inf,inf,inf,1,1,1,1,0,0,0,0,1,1,0
1458328000,0,47.3977508,8.5456074,0.13343392,-0.21827832,-1.6650085,0.0,0.0,0.0,0.01,0.01,-0.12,0.0,0.0,0.0,0.0,0.0,0.0,0.0,0.39874366,488.83002,0.0,0.0,0.0,0.0,0.0,0.0,inf,inf,inf,inf,1,1,1,1,0,0,0,0,1,1,0
1458432000,0,47.3977508,8.5456074,0.14455341,-0.21075147,-1.678009,0.0,0.0,0.0,0.01,0.01,-0.11,0.0,0.0,0.0,0.0,0.0,0.0,0.0,0.39880317,488.83002,0.0,0.0,0.0,0.0,0.0,0.0,inf,inf,inf,inf,1,1,1,1,0,0,0,0,1,1,0
1458532000,0,47.3977508,8.5456074,0.14455341,-0.21075147,-1.6900024,0.0,0.0,0.0,0.01,0.01,-0.11,0.0,0.0,0.0,0.0,0.0,0.0,0.0,0.3987517,488.83002,0.0,0.0,0.0,0.0,0.0,0.0,inf,inf,inf,inf,1,1,1,1,0,0,0,0,1,1,0
1458632000,0,47.3977508,8.5456074,0.14455341,-0.21075147,-1.7019958,0.0,0.0,0.0,0.0,0.01,-0.11,0.0,0.0,0.0,0.0,0.0,0.0,0.0,0.39869952,488.83002,0.0,0.0,0.0,0.0,0.0,0.0,inf,inf,inf,inf,1,1,1,1,0,0,0,0,1,1,0
1458728000,0,47.3977508,8.5456074,0.14455341,-0.21075147,-1.7130127,0.0,0.0,0.0,0.0,0.01,-0.11,0.0,0.0,0.0,0.0,0.0,0.0,0.0,0.39873293,488.83002,0.0,0.0,0.0,0.0,0.0,0.0,inf,inf,inf,inf,1,1,1,1,0,0,0,0,1,1,0
1458832000,0,47.3977508,8.5456074,0.14455341,-0.21075147,-1.723999,0.0,0.0,0.0,0.0,0.01,-0.11,0.0,0.0,0.0,0.0,0.0,0.0,0.0,0.39868474,488.83002,0.0,0.0,0.0,0.0,0.0,0.0,inf,inf,inf,inf,1,1,1,1,0,0,0,0,1,1,0
1458932000,0,47.3977508,8.5456074,0.14455341,-0.20322464,-1.7350159,0.0,0.0,0.0,0.0,0.01,-0.099999994,0.0,0.0,0.0,0.0,0.0,0.0,0.0,0.39869416,488.83002,0.0,0.0,0.0,0.0,0.0,0.0,inf,inf,inf,inf,1,1,1,1,0,0,0,0,1,1,0
1459032000,0,47.3977508,8.5456074,0.14455341,-0.20322464,-1.7449951,0.0,0.0,0.0,0.0,0.01,-0.099999994,0.0,0.0,0.0,0.0,0.0,0.0,0.0,0.39883757,488.83002,0.0,0.0,0.0,0.0,0.0,0.0,inf,inf,inf,inf,1,1,1,1,0,0,0,0,1,1,0
1459132000,0,47.3977508,8.5456074,0.14455341,-0.20322464,-1.7550049,0.0,0.0,0.0,0.0,0.01,-0.089999996,0.0,0.0,0.0,0.0,0.0,0.0,0.0,0.3988653,488.83002,0.0,0.0,0.0,0.0,0.0,0.0,inf,inf,inf,inf,1,1,1,1,0,0,0,0,1,1,0
1459232000,0,47.3977508,8.5456074,0.14455341,-0.20322464,-1.7640076,0.0,0.0,0.0,0.0,0.01,-0.089999996,0.0,0.0,0.0,0.0,0.0,0.0,0.0,0.3989263,488.83002,0.0,0.0,0.0,0.0,0.0,0.0,inf,inf,inf,inf,1,1,1,1,0,0,0,0,1,1,0
1459332000,0,47.3977508,8.5456074,0.14455341,-0.20322464,-1.7740173,0.0,0.0,0.0,0.0,0.01,-0.08,0.0,0.0,0.0,0.0,0.0,0.0,0.0,0.39896917,488.83002,0.0,0.0,0.0,0.0,0.0,0.0,inf,inf,inf,inf,1,1,1,1,0,0,0,0,1,1,0
1459432000,0,47.3977508,8.5456074,0.14455341,-0.1956978,-1.7820129,0.0,0.0,0.0,0.0,0.01,-0.08,0.0,0.0,0.0,0.0,0.0,0.0,0.0,0.39899403,488.83002,0.0,0.0,0.0,0.0,0.0,0.0,inf,inf,inf,inf,1,1,1,1,0,0,0,0,1,1,0
1459532000,0,47.3977508,8.5456074,0.14455341,-0.1956978,-1.7900085,0.0,0.0,0.0,0.0,0.01,-0.07,0.0,0.0,0.0,0.0,0.0,0.0,0.0,0.39893264,488.83002,0.0,0.0,0.0,0.0,0.0,0.0,inf,inf,inf,inf,1,1,1,1,0,0,0,0,1,1,0
1459628000,0,47.3977508,8.5456074,0.14455341,-0.1956978,-1.7980042,0.0,0.0,0.0,0.0,0.01,-0.07,0.0,0.0,0.0,0.0,0.0,0.0,0.0,0.3989761,488.83002,0.0,0.0,0.0,0.0,0.0,0.0,inf,inf,inf,inf,1,1,1,1,0,0,0,0,1,1,0
1459728000,0,47.3977508,8.5456074,0.15567291,-0.1956978,-1.8049927,0.0,0.0,0.0,0.0,0.01,-0.06,0.0,0.0,0.0,0.0,0.0,0.0,0.0,0.39909232,488.83002,0.0,0.0,0.0,0.0,0.0,0.0,inf,inf,inf,inf,1,1,1,1,0,0,0,0,1,1,0
1459828000,0,47.3977508,8.5456074,0.15567291,-0.1956978,-1.8110046,0.0,0.0,0.0,0.0,0.01,-0.06,0.0,0.0,0.0,0.0,0.0,0.0,0.0,0.39925617,488.83002,0.0,0.0,0.0,0.0,0.0,0.0,inf,inf,inf,inf,1,1,1,1,0,0,0,0,1,1,0
1459928000,0,47.3977508,8.5456074,0.15567291,-0.1956978,-1.8170166,0.0,0.0,0.0,0.0,0.01,-0.049999997,0.0,0.0,0.0,0.0,0.0,0.0,0.0,0.3993552,488.83002,0.0,0.0,0.0,0.0,0.0,0.0,inf,inf,inf,inf,1,1,1,1,0,0,0,0,1,1,0
1460028000,0,47.3977508,8.5456074,0.15567291,-0.18817097,-1.822998,0.0,0.0,0.0,0.0,0.01,-0.049999997,0.0,0.0,0.0,0.0,0.0,0.0,0.0,0.39945045,488.83002,0.0,0.0,0.0,0.0,0.0,0.0,inf,inf,inf,inf,1,1,1,1,0,0,0,0,1,1,0
1460132000,0,47.3977508,8.5456074,0.15567291,-0.18817097,-1.82901,0.0,0.0,0.0,0.0,0.01,-0.049999997,0.0,0.0,0.0,0.0,0.0,0.0,0.0,0.39944354,488.83002,0.0,0.0,0.0,0.0,0.0,0.0,inf,inf,inf,inf,1,1,1,1,0,0,0,0,1,1,0
1460232000,0,47.3977508,8.5456074,0.15567291,-0.18817097,-1.8340149,0.0,0.0,0.0,0.0,0.01,-0.049999997,0.0,0.0,0.0,0.0,0.0,0.0,0.0,0.39946368,488.83002,0.0,0.0,0.0,0.0,0.0,0.0,inf,inf,inf,inf,1,1,1,1,0,0,0,0,1,1,0
1460332000,0,47.3977508,8.5456074,0.15567291,-0.18817097,-1.8399963,0.0,0.0,0.0,0.0,0.01,-0.049999997,0.0,0.0,0.0,0.0,0.0,0.0,0.0,0.39952672,488.83002,0.0,0.0,0.0,0.0,0.0,0.0,inf,inf,inf,inf,1,1,1,1,0,0,0,0,1,1,0
1460428000,0,47.3977508,8.5456074,0.15567291,-0.18817097,-1.8450012,0.0,0.0,0.0,0.0,0.01,-0.049999997,0.0,0.0,0.0,0.0,0.0,0.0,0.0,0.39950764,488.83002,0.0,0.0,0.0,0.0,0.0,0.0,inf,inf,inf,inf,1,1,1,1,0,0,0,0,1,1,0
1460532000,0,47.3977508,8.5456074,0.15567291,-0.18817097,-1.8500061,0.0,0.0,0.0,0.01,0.01,-0.04,0.0,0.0,0.0,0.0,0.0,0.0,0.0,0.39933866,488.83002,0.0,0.0,0.0,0.0,0.0,0.0,inf,inf,inf,inf,1,1,1,1,0,0,0,0,1,1,0
1460632000,0,47.3977508,8.5456074,0.15567291,-0.18064412,-1.8540039,0.0,0.0,0.0,0.01,0.0,-0.04,0.0,0.0,0.0,0.0,0.0,0.0,0.0,0.39921755,488.83002,0.0,0.0,0.0,0.0,0.0,0.0,inf,inf,inf,inf,1,1,1,1,0,0,0,0,1,1,0
1460728000,0,47.3977508,8.5456074,0.15567291,-0.18064412,-1.8580017,0.0,0.0,0.0,0.01,0.01,-0.03,0.0,0.0,0.0,0.0,0.0,0.0,0.0,0.39933947,488.83002,0.0,0.0,0.0,0.0,0.0,0.0,inf,inf,inf,inf,1,1,1,1,0,0,0,0,1,1,0
1460832000,0,47.3977508,8.5456074,0.15567291,-0.18064412,-1.8619995,0.0,0.0,0.0,0.01,0.01,-0.03,0.0,0.0,0.0,0.0,0.0,0.0,0.0,0.3994401,488.83002,0.0,0.0,0.0,0.0,0.0,0.0,inf,inf,inf,inf,1,1,1,1,0,0,0,0,1,1,0
1460928000,0,47.3977508,8.5456074,0.1667924,-0.18064412,-1.8650208,0.0,0.0,0.0,0.01,0.01,-0.03,0.0,0.0,0.0,0.0,0.0,0.0,0.0,0.39925098,488.83002,0.0,0.0,0.0,0.0,0.0,0.0,inf,inf,inf,inf,1,1,1,1,0,0,0,0,1,1,0
1461028000,0,47.3977508,8.5456074,0.1667924,-0.18064412,-1.8690186,0.0,0.0,0.0,0.01,0.01,-0.03,0.0,0.0,0.0,0.0,0.0,0.0,0.0,0.39910352,488.83002,0.0,0.0,0.0,0.0,0.0,0.0,inf,inf,inf,inf,1,1,1,1,0,0,0,0,1,1,0
1461132000,0,47.3977508,8.5456074,0.1667924,-0.18064412,-1.8730164,0.0,0.0,0.0,0.01,0.01,-0.03,0.0,0.0,0.0,0.0,0.0,0.0,0.0,0.39905405,488.83002,0.0,0.0,0.0,0.0,0.0,0.0,inf,inf,inf,inf,1,1,1,1,0,0,0,0,1,1,0
1461232000,0,47.3977508,8.5456074,0.1667924,-0.18064412,-1.8760071,0.0,0.0,0.0,0.02,0.01,-0.03,0.0,0.0,0.0,0.0,0.0,0.0,0.0,0.3990468,488.83002,0.0,0.0,0.0,0.0,0.0,0.0,inf,inf,inf,inf,1,1,1,1,0,0,0,0,1,1,0
1461332000,0,47.3977508,8.5456074,0.1667924,-0.17311728,-1.8800049,0.0,0.0,0.0,0.02,0.01,-0.03,0.0,0.0,0.0,0.0,0.0,0.0,0.0,0.39902732,488.83002,0.0,0.0,0.0,0.0,0.0,0.0,inf,inf,inf,inf,1,1,1,1,0,0,0,0,1,1,0
1461432000,0,47.3977508,8.5456074,0.17791189,-0.17311728,-1.8829956,0.0,0.0,0.0,0.02,0.01,-0.03,0.0,0.0,0.0,0.0,0.0,0.0,0.0,0.39902484,488.83002,0.0,0.0,0.0,0.0,0.0,0.0,inf,inf,inf,inf,1,1,1,1,0,0,0,0,1,1,0
1461528000,0,47.3977508,8.5456074,0.17791189,-0.17311728,-1.8860168,0.0,0.0,0.0,0.02,0.01,-0.03,0.0,0.0,0.0,0.0,0.0,0.0,0.0,0.39902356,488.83002,0.0,0.0,0.0,0.0,0.0,0.0,inf,inf,inf,inf,1,1,1,1,0,0,0,0,1,1,0
1461628000,0,47.3977508,8.5456074,0.17791189,-0.17311728,-1.8890076,0.0,0.0,0.0,0.02,0.01,-0.03,0.0,0.0,0.0,0.0,0.0,0.0,0.0,0.39893717,488.83002,0.0,0.0,0.0,0.0,0.0,0.0,inf,inf,inf,inf,1,1,1,1,0,0,0,0,1,1,0
1461732000,0,47.3977508,8.5456074,0.17791189,-0.17311728,-1.8930054,0.0,0.0,0.0,0.02,0.01,-0.03,0.0,0.0,0.0,0.0,0.0,0.0,0.0,0.39886144,488.83002,0.0,0.0,0.0,0.0,0.0,0.0,inf,inf,inf,inf,1,1,1,1,0,0,0,0,1,1,0
1461828000,0,47.3977508,8.5456074,0.17791189,-0.17311728,-1.8959961,0.0,0.0,0.0,0.02,0.01,-0.03,0.0,0.0,0.0,0.0,0.0,0.0,0.0,0.39879727,488.83002,0.0,0.0,0.0,0.0,0.0,0.0,inf,inf,inf,inf,1,1,1,1,0,0,0,0,1,1,0
1461932000,0,47.3977508,8.5456074,0.17791189,-0.17311728,-1.8990173,0.0,0.0,0.0,0.02,0.01,-0.03,0.0,0.0,0.0,0.0,0.0,0.0,0.0,0.39874893,488.83002,0.0,0.0,0.0,0.0,0.0,0.0,inf,inf,inf,inf,1,1,1,1,0,0,0,0,1,1,0
1462032000,0,47.3977508,8.5456074,0.18903138,-0.16559045,-1.9030151,0.0,0.0,0.0,0.02,0.01,-0.03,0.0,0.0,0.0,0.0,0.0,0.0,0.0,0.39881587,488.83002,0.0,0.0,0.0,0.0,0.0,0.0,inf,inf,inf,inf,1,1,1,1,0,0,0,0,1,1,0
1462132000,0,47.3977508,8.5456074,0.18903138,-0.16559045,-1.9060059,0.0,0.0,0.0,0.02,0.01,-0.03,0.0,0.0,0.0,0.0,0.0,0.0,0.0,0.39894548,488.83002,0.0,0.0,0.0,0.0,0.0,0.0,inf,inf,inf,inf,1,1,1,1,0,0,0,0,1,1,0
1462228000,0,47.3977508,8.5456074,0.18903138,-0.16559045,-1.9100037,0.0,0.0,0.0,0.02,0.01,-0.03,0.0,0.0,0.0,0.0,0.0,0.0,0.0,0.39904815,488.83002,0.0,0.0,0.0,0.0,0.0,0.0,inf,inf,inf,inf,1,1,1,1,0,0,0,0,1,1,0
1462328000,0,47.3977508,8.5456074,0.18903138,-0.16559045,-1.9140015,0.0,0.0,0.0,0.02,0.01,-0.03,0.0,0.0,0.0,0.0,0.0,0.0,0.0,0.39914626,488.83002,0.0,0.0,0.0,0.0,0.0,0.0,inf,inf,inf,inf,1,1,1,1,0,0,0,0,1,1,0
1462428000,0,47.3977508,8.5456074,0.20015088,-0.16559045,-1.9169922,0.0,0.0,0.0,0.02,0.01,-0.03,0.0,0.0,0.0,0.0,0.0,0.0,0.0,0.39922807,488.83002,0.0,0.0,0.0,0.0,0.0,0.0,inf,inf,inf,inf,1,1,1,1,0,0,0,0,1,1,0
1462532000,0,47.3977508,8.5456074,0.20015088,-0.1580636,-1.9210205,0.0,0.0,0.0,0.02,0.01,-0.03,0.0,0.0,0.0,0.0,0.0,0.0,0.0,0.39932552,488.83002,0.0,0.0,0.0,0.0,0.0,0.0,inf,inf,inf,inf,1,1,1,1,0,0,0,0,1,1,0
1462632000,0,47.3977508,8.5456074,0.20015088,-0.1580636,-1.9250183,0.0,0.0,0.0,0.02,0.01,-0.03,0.0,0.0,0.0,0.0,0.0,0.0,0.0,0.39934912,488.83002,0.0,0.0,0.0,0.0,0.0,0.0,inf,inf,inf,inf,1,1,1,1,0,0,0,0,1,1,0
1462732000,0,47.3977508,8.5456074,0.21127036,-0.1580636,-1.928009,0.0,0.0,0.0,0.02,0.01,-0.03,0.0,0.0,0.0,0.0,0.0,0.0,0.0,0.39936408,488.83002,0.0,0.0,0.0,0.0,0.0,0.0,inf,inf,inf,inf,1,1,1,1,0,0,0,0,1,1,0
1462832000,0,47.3977508,8.5456074,0.21127036,-0.1580636,-1.9309998,0.0,0.0,0.0,0.02,0.01,-0.03,0.0,0.0,0.0,0.0,0.0,0.0,0.0,0.39944592,488.83002,0.0,0.0,0.0,0.0,0.0,0.0,inf,inf,inf,inf,1,1,1,1,0,0,0,0,1,1,0
1462932000,0,47.3977508,8.5456074,0.21127036,-0.1580636,-1.934021,0.0,0.0,0.0,0.02,0.01,-0.02,0.0,0.0,0.0,0.0,0.0,0.0,0.0,0.39950442,488.83002,0.0,0.0,0.0,0.0,0.0,0.0,inf,inf,inf,inf,1,1,1,1,0,0,0,0,1,1,0
1463032000,0,47.3977508,8.5456074,0.21127036,-0.1580636,-1.9370117,0.0,0.0,0.0,0.02,0.01,-0.02,0.0,0.0,0.0,0.0,0.0,0.0,0.0,0.3994841,488.83002,0.0,0.0,0.0,0.0,0.0,0.0,inf,inf,inf,inf,1,1,1,1,0,0,0,0,1,1,0
1463132000,0,47.3977508,8.5456074,0.21127036,-0.15053678,-1.9389954,0.0,0.0,0.0,0.02,0.01,-0.02,0.0,0.0,0.0,0.0,0.0,0.0,0.0,0.39942408,488.83002,0.0,0.0,0.0,0.0,0.0,0.0,inf,inf,inf,inf,1,1,1,1,0,0,0,0,1,1,0
1463228000,0,47.3977508,8.5456074,0.22238986,-0.15053676,-1.9410095,0.0,0.0,0.0,0.02,0.01,-0.01,0.0,0.0,0.0,0.0,0.0,0.0,0.0,0.39933446,488.83002,0.0,0.0,0.0,0.0,0.0,0.0,inf,inf,inf,inf,1,1,1,1,0,0,0,0,1,1,0
1463328000,0,47.3977508,8.5456074,0.22238986,-0.15053676,-1.9429932,0.0,0.0,0.0,0.01,0.01,-0.01,0.0,0.0,0.0,0.0,0.0,0.0,0.0,0.3993595,488.83002,0.0,0.0,0.0,0.0,0.0,0.0,inf,inf,inf,inf,1,1,1,1,0,0,0,0,1,1,0
1463432000,0,47.3977508,8.5456074,0.22238986,-0.15053676,-1.9440002,0.0,0.0,0.0,0.01,0.01,-0.01,0.0,0.0,0.0,0.0,0.0,0.0,0.0,0.39953926,488.83002,0.0,0.0,0.0,0.0,0.0,0.0,inf,inf,inf,inf,1,1,1,1,0,0,0,0,1,1,0
1463532000,0,47.3977508,8.5456074,0.22238986,-0.15053676,-1.9450073,0.0,0.0,0.0,0.01,0.01,-0.01,0.0,0.0,0.0,0.0,0.0,0.0,0.0,0.39967087,488.83002,0.0,0.0,0.0,0.0,0.0,0.0,inf,inf,inf,inf,1,1,1,1,0,0,0,0,1,1,0
1463632000,0,47.3977508,8.5456074,0.22238986,-0.15053676,-1.9460144,0.0,0.0,0.0,0.01,0.01,0.0,0.0,0.0,0.0,0.0,0.0,0.0,0.0,0.39973104,488.83002,0.0,0.0,0.0,0.0,0.0,0.0,inf,inf,inf,inf,1,1,1,1,0,0,0,0,1,1,0
1463732000,0,47.3977508,8.5456074,0.22238986,-0.15053676,-1.946991,0.0,0.0,0.0,0.01,0.01,0.0,0.0,0.0,0.0,0.0,0.0,0.0,0.0,0.39981422,488.83002,0.0,0.0,0.0,0.0,0.0,0.0,inf,inf,inf,inf,1,1,1,1,0,0,0,0,1,1,0
1463832000,0,47.3977508,8.5456074,0.22238986,-0.14300993,-1.947998,0.0,0.0,0.0,0.01,0.01,0.0,0.0,0.0,0.0,0.0,0.0,0.0,0.0,0.3999728,488.83002,0.0,0.0,0.0,0.0,0.0,0.0,inf,inf,inf,inf,1,1,1,1,0,0,0,0,1,1,0
1463932000,0,47.3977508,8.5456074,0.23350935,-0.14300993,-1.947998,0.0,0.0,0.0,0.0,0.01,0.0,0.0,0.0,0.0,0.0,0.0,0.0,0.0,0.39998353,488.83002,0.0,0.0,0.0,0.0,0.0,0.0,inf,inf,inf,inf,1,1,1,1,0,0,0,0,1,1,0
1464032000,0,47.3977508,8.5456074,0.23350935,-0.14300993,-1.9490051,0.0,0.0,0.0,0.0,0.01,0.0,0.0,0.0,0.0,0.0,0.0,0.0,0.0,0.4001115,488.83002,0.0,0.0,0.0,0.0,0.0,0.0,inf,inf,inf,inf,1,1,1,1,0,0,0,0,1,1,0
1464132000,0,47.3977508,8.5456074,0.23350935,-0.14300993,-1.9490051,0.0,0.0,0.0,0.0,0.01,0.0,0.0,0.0,0.0,0.0,0.0,0.0,0.0,0.40023622,488.83002,0.0,0.0,0.0,0.0,0.0,0.0,inf,inf,inf,inf,1,1,1,1,0,0,0,0,1,1,0
1464232000,0,47.3977508,8.5456074,0.23350935,-0.14300993,-1.9490051,0.0,0.0,0.0,0.0,0.01,0.0,0.0,0.0,0.0,0.0,0.0,0.0,0.0,0.40023097,488.83002,0.0,0.0,0.0,0.0,0.0,0.0,inf,inf,inf,inf,1,1,1,1,0,0,0,0,1,1,0
1464332000,0,47.3977508,8.5456074,0.23350935,-0.14300993,-1.9490051,0.0,0.0,0.0,0.0,0.01,0.0,0.0,0.0,0.0,0.0,0.0,0.0,0.0,0.4002843,488.83002,0.0,0.0,0.0,0.0,0.0,0.0,inf,inf,inf,inf,1,1,1,1,0,0,0,0,1,1,0
1464432000,0,47.3977508,8.5456074,0.23350935,-0.13548309,-1.9490051,0.0,0.0,0.0,0.0,0.01,0.0,0.0,0.0,0.0,0.0,0.0,0.0,0.0,0.40031487,488.83002,0.0,0.0,0.0,0.0,0.0,0.0,inf,inf,inf,inf,1,1,1,1,0,0,0,0,1,1,0
1464532000,0,47.3977508,8.5456074,0.23350935,-0.13548309,-1.9490051,0.0,0.0,0.0,0.0,0.01,0.0,0.0,0.0,0.0,0.0,0.0,0.0,0.0,0.40021515,488.83002,0.0,0.0,0.0,0.0,0.0,0.0,inf,inf,inf,inf,1,1,1,1,0,0,0,0,1,1,0
1464632000,0,47.3977508,8.5456074,0.23350935,-0.13548309,-1.947998,0.0,0.0,0.0,0.0,0.01,0.0,0.0,0.0,0.0,0.0,0.0,0.0,0.0,0.40010116,488.83002,0.0,0.0,0.0,0.0,0.0,0.0,inf,inf,inf,inf,1,1,1,1,0,0,0,0,1,1,0
1464732000,0,47.3977508,8.5456074,0.23350935,-0.13548309,-1.946991,0.0,0.0,0.0,0.0,0.01,0.01,0.0,0.0,0.0,0.0,0.0,0.0,0.0,0.399987,488.83002,0.0,0.0,0.0,0.0,0.0,0.0,inf,inf,inf,inf,1,1,1,1,0,0,0,0,1,1,0
1464832000,0,47.3977508,8.5456074,0.23350935,-0.13548309,-1.9460144,0.0,0.0,0.0,0.0,0.01,0.01,0.0,0.0,0.0,0.0,0.0,0.0,0.0,0.39993095,488.83002,0.0,0.0,0.0,0.0,0.0,0.0,inf,inf,inf,inf,1,1,1,1,0,0,0,0,1,1,0
1464928000,0,47.3977508,8.5456074,0.23350935,-0.12795626,-1.9450073,0.0,0.0,0.0,0.0,0.0,0.01,0.0,0.0,0.0,0.0,0.0,0.0,0.0,0.3998823,488.83002,0.0,0.0,0.0,0.0,0.0,0.0,inf,inf,inf,inf,1,1,1,1,0,0,0,0,1,1,0
1465032000,0,47.3977508,8.5456074,0.23350935,-0.12795626,-1.9429932,0.0,0.0,0.0,0.0,0.0,0.01,0.0,0.0,0.0,0.0,0.0,0.0,0.0,0.3998854,488.83002,0.0,0.0,0.0,0.0,0.0,0.0,inf,inf,inf,inf,1,1,1,1,0,0,0,0,1,1,0
1465128000,0,47.3977508,8.5456074,0.23350935,-0.12795626,-1.9410095,0.0,0.0,0.0,0.0,0.0,0.02,0.0,0.0,0.0,0.0,0.0,0.0,0.0,0.39997774,488.83002,0.0,0.0,0.0,0.0,0.0,0.0,inf,inf,inf,inf,1,1,1,1,0,0,0,0,1,1,0
1465232000,0,47.3977508,8.5456074,0.23350935,-0.12795626,-1.9389954,0.0,0.0,0.0,0.0,0.0,0.01,0.0,0.0,0.0,0.0,0.0,0.0,0.0,0.40013084,488.83002,0.0,0.0,0.0,0.0,0.0,0.0,inf,inf,inf,inf,1,1,1,1,0,0,0,0,1,1,0
1465332000,0,47.3977508,8.5456074,0.23350935,-0.12795626,-1.9370117,0.0,0.0,0.0,0.0,0.0,0.01,0.0,0.0,0.0,0.0,0.0,0.0,0.0,0.40029517,488.83002,0.0,0.0,0.0,0.0,0.0,0.0,inf,inf,inf,inf,1,1,1,1,0,0,0,0,1,1,0
1465432000,0,47.3977508,8.5456074,0.23350935,-0.12795626,-1.9360046,0.0,0.0,0.0,0.0,0.0,0.01,0.0,0.0,0.0,0.0,0.0,0.0,0.0,0.40038538,488.83002,0.0,0.0,0.0,0.0,0.0,0.0,inf,inf,inf,inf,1,1,1,1,0,0,0,0,1,1,0
1465532000,0,47.3977508,8.5456074,0.23350935,-0.12795626,-1.934021,0.0,0.0,0.0,0.0,0.0,0.01,0.0,0.0,0.0,0.0,0.0,0.0,0.0,0.40039906,488.83002,0.0,0.0,0.0,0.0,0.0,0.0,inf,inf,inf,inf,1,1,1,1,0,0,0,0,1,1,0
1465632000,0,47.3977508,8.5456074,0.23350935,-0.12795626,-1.9320068,0.0,0.0,0.0,0.0,0.0,0.01,0.0,0.0,0.0,0.0,0.0,0.0,0.0,0.40047917,488.83002,0.0,0.0,0.0,0.0,0.0,0.0,inf,inf,inf,inf,1,1,1,1,0,0,0,0,1,1,0
1465732000,0,47.3977508,8.5456074,0.23350935,-0.12795626,-1.9309998,0.0,0.0,0.0,0.0,0.0,0.01,0.0,0.0,0.0,0.0,0.0,0.0,0.0,0.40042326,488.83002,0.0,0.0,0.0,0.0,0.0,0.0,inf,inf,inf,inf,1,1,1,1,0,0,0,0,1,1,0
1465832000,0,47.3977508,8.5456074,0.23350935,-0.12795626,-1.9290161,0.0,0.0,0.0,0.0,0.0,0.01,0.0,0.0,0.0,0.0,0.0,0.0,0.0,0.40037948,488.83002,0.0,0.0,0.0,0.0,0.0,0.0,inf,inf,inf,inf,1,1,1,1,0,0,0,0,1,1,0
1465928000,0,47.3977508,8.5456074,0.23350935,-0.12795626,-1.928009,0.0,0.0,0.0,0.0,0.0,0.01,0.0,0.0,0.0,0.0,0.0,0.0,0.0,0.40027007,488.83002,0.0,0.0,0.0,0.0,0.0,0.0,inf,inf,inf,inf,1,1,1,1,0,0,0,0,1,1,0
1466032000,0,47.3977508,8.5456074,0.23350935,-0.12795626,-1.9259949,0.0,0.0,0.0,0.0,0.0,0.01,0.0,0.0,0.0,0.0,0.0,0.0,0.0,0.40015328,488.83002,0.0,0.0,0.0,0.0,0.0,0.0,inf,inf,inf,inf,1,1,1,1,0,0,0,0,1,1,0
1466132000,0,47.3977508,8.5456074,0.23350935,-0.12795626,-1.9250183,0.0,0.0,0.0,0.0,0.0,0.01,0.0,0.0,0.0,0.0,0.0,0.0,0.0,0.40020484,488.83002,0.0,0.0,0.0,0.0,0.0,0.0,inf,inf,inf,inf,1,1,1,1,0,0,0,0,1,1,0
1466228000,0,47.3977508,8.5456074,0.23350935,-0.13548309,-1.9230042,0.0,0.0,0.0,0.0,0.0,0.01,0.0,0.0,0.0,0.0,0.0,0.0,0.0,0.40036327,488.83002,0.0,0.0,0.0,0.0,0.0,0.0,inf,inf,inf,inf,1,1,1,1,0,0,0,0,1,1,0
1466332000,0,47.3977508,8.5456074,0.23350935,-0.13548309,-1.9210205,0.0,0.0,0.0,0.0,0.0,0.02,0.0,0.0,0.0,0.0,0.0,0.0,0.0,0.4005489,488.83002,0.0,0.0,0.0,0.0,0.0,0.0,inf,inf,inf,inf,1,1,1,1,0,0,0,0,1,1,0
1466432000,0,47.3977508,8.5456074,0.23350935,-0.13548309,-1.9179993,0.0,0.0,0.0,0.0,0.0,0.02,0.0,0.0,0.0,0.0,0.0,0.0,0.0,0.40061393,488.83002,0.0,0.0,0.0,0.0,0.0,0.0,inf,inf,inf,inf,1,1,1,1,0,0,0,0,1,1,0
1466532000,0,47.3977508,8.5456074,0.23350935,-0.13548309,-1.9160156,0.0,0.0,0.0,-0.01,-0.01,0.02,0.0,0.0,0.0,0.0,0.0,0.0,0.0,0.40064347,488.83002,0.0,0.0,0.0,0.0,0.0,0.0,inf,inf,inf,inf,1,1,1,1,0,0,0,0,1,1,0
1466628000,0,47.3977508,8.5456074,0.23350935,-0.13548309,-1.9140015,0.0,0.0,0.0,-0.01,-0.01,0.02,0.0,0.0,0.0,0.0,0.0,0.0,0.0,0.40060914,488.83002,0.0,0.0,0.0,0.0,0.0,0.0,inf,inf,inf,inf,1,1,1,1,0,0,0,0,1,1,0
1466732000,0,47.3977508,8.5456074,0.23350935,-0.13548309,-1.9120178,0.0,0.0,0.0,-0.01,-0.01,0.02,0.0,0.0,0.0,0.0,0.0,0.0,0.0,0.40057597,488.83002,0.0,0.0,0.0,0.0,0.0,0.0,inf,inf,inf,inf,1,1,1,1,0,0,0,0,1,1,0
1466832000,0,47.3977508,8.5456074,0.23350935,-0.13548309,-1.9089966,0.0,0.0,0.0,-0.01,0.0,0.02,0.0,0.0,0.0,0.0,0.0,0.0,0.0,0.40061188,488.83002,0.0,0.0,0.0,0.0,0.0,0.0,inf,inf,inf,inf,1,1,1,1,0,0,0,0,1,1,0
1466932000,0,47.3977508,8.5456074,0.22238986,-0.13548309,-1.9070129,0.0,0.0,0.0,-0.01,0.0,0.02,0.0,0.0,0.0,0.0,0.0,0.0,0.0,0.40058887,488.83002,0.0,0.0,0.0,0.0,0.0,0.0,inf,inf,inf,inf,1,1,1,1,0,0,0,0,1,1,0
1467032000,0,47.3977508,8.5456074,0.22238986,-0.14300993,-1.9049988,0.0,0.0,0.0,-0.01,0.0,0.02,0.0,0.0,0.0,0.0,0.0,0.0,0.0,0.40061668,488.83002,0.0,0.0,0.0,0.0,0.0,0.0,inf,inf,inf,inf,1,1,1,1,0,0,0,0,1,1,0
1467132000,0,47.3977508,8.5456074,0.22238986,-0.14300993,-1.9030151,0.0,0.0,0.0,-0.01,0.0,0.02,0.0,0.0,0.0,0.0,0.0,0.0,0.0,0.40084144,488.83002,0.0,0.0,0.0,0.0,0.0,0.0,inf,inf,inf,inf,1,1,1,1,0,0,0,0,1,1,0
1467232000,0,47.3977508,8.5456074,0.22238986,-0.14300993,-1.8999939,0.0,0.0,0.0,-0.01,0.0,0.02,0.0,0.0,0.0,0.0,0.0,0.0,0.0,0.401027,488.83002,0.0,0.0,0.0,0.0,0.0,0.0,inf,inf,inf,inf,1,1,1,1,0,0,0,0,1,1,0
1467332000,0,47.3977508,8.5456074,0.22238986,-0.14300993,-1.8980103,0.0,0.0,0.0,-0.01,0.0,0.02,0.0,0.0,0.0,0.0,0.0,0.0,0.0,0.4011845,488.83002,0.0,0.0,0.0,0.0,0.0,0.0,inf,inf,inf,inf,1,1,1,1,0,0,0,0,1,1,0
1467432000,0,47.3977508,8.5456074,0.22238986,-0.14300993,-1.8950195,0.0,0.0,0.0,-0.02,0.0,0.02,0.0,0.0,0.0,0.0,0.0,0.0,0.0,0.4012248,488.83002,0.0,0.0,0.0,0.0,0.0,0.0,inf,inf,inf,inf,1,1,1,1,0,0,0,0,1,1,0
1467528000,0,47.3977508,8.5456074,0.21127036,-0.14300993,-1.8919983,0.0,0.0,0.0,-0.02,0.0,0.02,0.0,0.0,0.0,0.0,0.0,0.0,0.0,0.4012708,488.83002,0.0,0.0,0.0,0.0,0.0,0.0,inf,inf,inf,inf,1,1,1,1,0,0,0,0,1,1,0
1467632000,0,47.3977508,8.5456074,0.21127036,-0.14300993,-1.8900146,0.0,0.0,0.0,-0.02,0.0,0.02,0.0,0.0,0.0,0.0,0.0,0.0,0.0,0.4013719,488.83002,0.0,0.0,0.0,0.0,0.0,0.0,inf,inf,inf,inf,1,1,1,1,0,0,0,0,1,1,0
1467728000,0,47.3977508,8.5456074,0.21127036,-0.14300993,-1.8869934,0.0,0.0,0.0,-0.02,0.0,0.02,0.0,0.0,0.0,0.0,0.0,0.0,0.0,0.40142167,488.83002,0.0,0.0,0.0,0.0,0.0,0.0,inf,inf,inf,inf,1,1,1,1,0,0,0,0,1,1,0
1467832000,0,47.3977508,8.5456074,0.21127036,-0.14300993,-1.8850098,0.0,0.0,0.0,-0.02,0.0,0.02,0.0,0.0,0.0,0.0,0.0,0.0,0.0,0.40131402,488.83002,0.0,0.0,0.0,0.0,0.0,0.0,inf,inf,inf,inf,1,1,1,1,0,0,0,0,1,1,0
1467932000,0,47.3977508,8.5456074,0.20015088,-0.13548309,-1.882019,0.0,0.0,0.0,-0.02,0.0,0.02,0.0,0.0,0.0,0.0,0.0,0.0,0.0,0.40121529,488.83002,0.0,0.0,0.0,0.0,0.0,0.0,inf,inf,inf,inf,1,1,1,1,0,0,0,0,1,1,0
1468032000,0,47.3977508,8.5456074,0.20015088,-0.13548309,-1.8800049,0.0,0.0,0.0,-0.03,0.0,0.02,0.0,0.0,0.0,0.0,0.0,0.0,0.0,0.40122038,488.83002,0.0,0.0,0.0,0.0,0.0,0.0,inf,inf,inf,inf,1,1,1,1,0,0,0,0,1,1,0
1468132000,0,47.3977508,8.5456074,0.20015088,-0.13548309,-1.8780212,0.0,0.0,0.0,-0.03,0.0,0.02,0.0,0.0,0.0,0.0,0.0,0.0,0.0,0.40119314,488.83002,0.0,0.0,0.0,0.0,0.0,0.0,inf,inf,inf,inf,1,1,1,1,0,0,0,0,1,1,0
1468232000,0,47.3977508,8.5456074,0.20015088,-0.13548309,-1.8760071,0.0,0.0,0.0,-0.03,0.0,0.02,0.0,0.0,0.0,0.0,0.0,0.0,0.0,0.40123928,488.83002,0.0,0.0,0.0,0.0,0.0,0.0,inf,inf,inf,inf,1,1,1,1,0,0,0,0,1,1,0
1468332000,0,47.3977508,8.5456074,0.18903138,-0.13548309,-1.8739929,0.0,0.0,0.0,-0.03,0.0,0.02,0.0,0.0,0.0,0.0,0.0,0.0,0.0,0.40134698,488.83002,0.0,0.0,0.0,0.0,0.0,0.0,inf,inf,inf,inf,1,1,1,1,0,0,0,0,1,1,0
1468428000,0,47.3977508,8.5456074,0.18903138,-0.13548309,-1.8720093,0.0,0.0,0.0,-0.03,0.0,0.02,0.0,0.0,0.0,0.0,0.0,0.0,0.0,0.40144834,488.83002,0.0,0.0,0.0,0.0,0.0,0.0,inf,inf,inf,inf,1,1,1,1,0,0,0,0,1,1,0
1468532000,0,47.3977508,8.5456074,0.18903138,-0.13548309,-1.8699951,0.0,0.0,0.0,-0.03,0.0,0.02,0.0,0.0,0.0,0.0,0.0,0.0,0.0,0.4015275,488.83002,0.0,0.0,0.0,0.0,0.0,0.0,inf,inf,inf,inf,1,1,1,1,0,0,0,0,1,1,0
1468632000,0,47.3977508,8.5456074,0.17791188,-0.13548309,-1.8680115,0.0,0.0,0.0,-0.03,0.0,0.02,0.0,0.0,0.0,0.0,0.0,0.0,0.0,0.40157098,488.83002,0.0,0.0,0.0,0.0,0.0,0.0,inf,inf,inf,inf,1,1,1,1,0,0,0,0,1,1,0
1468732000,0,47.3977508,8.5456074,0.17791188,-0.13548309,-1.8659973,0.0,0.0,0.0,-0.04,0.01,0.01,0.0,0.0,0.0,0.0,0.0,0.0,0.0,0.4015012,488.83002,0.0,0.0,0.0,0.0,0.0,0.0,inf,inf,inf,inf,1,1,1,1,0,0,0,0,1,1,0
1468832000,0,47.3977508,8.5456074,0.17791188,-0.12795626,-1.8640137,0.0,0.0,0.0,-0.04,0.01,0.02,0.0,0.0,0.0,0.0,0.0,0.0,0.0,0.40147856,488.83002,0.0,0.0,0.0,0.0,0.0,0.0,inf,inf,inf,inf,1,1,1,1,0,0,0,0,1,1,0
1468932000,0,47.3977508,8.5456074,0.1667924,-0.12795626,-1.8609924,0.0,0.0,0.0,-0.04,0.01,0.12,0.0,0.0,0.0,0.0,0.0,0.0,0.0,0.40135053,488.83002,0.0,0.0,0.0,0.0,0.0,0.0,inf,inf,inf,inf,1,1,1,1,0,0,0,0,1,1,0
1469032000,0,47.3977508,8.5456074,0.1667924,-0.12795626,-1.8280029,0.0,0.0,0.0,-0.08,0.049999997,0.35999998,0.0,0.0,0.0,0.0,0.0,0.0,0.0,0.42788568,488.83002,0.0,0.0,0.0,0.0,0.0,0.0,inf,inf,inf,inf,1,1,1,1,0,0,0,0,1,1,0
1469128000,0,47.3977508,8.5456074,0.14455341,-0.112902574,-1.802002,0.0,0.0,0.0,-0.24,0.17999999,0.25,0.0,0.0,0.0,0.0,0.0,0.0,0.0,0.5919638,488.83002,0.0,0.0,0.0,0.0,0.0,0.0,inf,inf,inf,inf,1,1,1,1,0,0,0,0,1,1,0
1469232000,0,47.3977508,8.5456074,0.11119493,-0.0978489,-1.7650146,0.0,0.0,0.0,-0.39999998,0.19,0.45,0.0,0.0,0.0,0.0,0.0,0.0,0.0,0.8680076,488.83002,0.0,0.0,0.0,0.0,0.0,0.0,inf,inf,inf,inf,1,1,1,1,0,0,0,0,1,1,0
1469328000,0,47.3977508,8.5456074,0.066716954,-0.082795225,-1.7200012,0.0,0.0,0.0,-0.53,0.099999994,0.44,0.0,0.0,0.0,0.0,0.0,0.0,0.0,1.1358231,488.83002,0.0,0.0,0.0,0.0,0.0,0.0,inf,inf,inf,inf,1,1,1,1,0,0,0,0,1,1,0
1469432000,0,47.3977508,8.5456074,0.011119493,-0.07526839,-1.678009,0.0,0.0,0.0,-0.56,0.0,0.37,0.0,0.0,0.0,0.0,0.0,0.0,0.0,1.4294101,488.83002,0.0,0.0,0.0,0.0,0.0,0.0,inf,inf,inf,inf,1,1,1,1,0,0,0,0,1,1,0
1469532000,0,47.3977508,8.5456074,-0.04447797,-0.07526839,-1.6419983,0.0,0.0,0.0,-0.51,-0.03,0.34,0.0,0.0,0.0,0.0,0.0,0.0,0.0,1.7155677,488.83002,0.0,0.0,0.0,0.0,0.0,0.0,inf,inf,inf,inf,1,1,1,1,0,0,0,0,1,1,0
1469628000,0,47.3977508,8.5456074,-0.08895594,-0.082795225,-1.6109924,0.0,0.0,0.0,-0.47,-0.01,0.29999998,0.0,0.0,0.0,0.0,0.0,0.0,0.0,1.9928194,488.83002,0.0,0.0,0.0,0.0,0.0,0.0,inf,inf,inf,inf,1,1,1,1,0,0,0,0,1,1,0
1469732000,0,47.3977508,8.5456074,-0.14455341,-0.082795225,-1.5809937,0.0,0.0,0.0,-0.45999998,0.0,0.28,0.0,0.0,0.0,0.0,0.0,0.0,0.0,2.288793,488.83002,0.0,0.0,0.0,0.0,0.0,0.0,inf,inf,inf,inf,1,1,1,1,0,0,0,0,1,1,0
1469828000,0,47.3977508,8.5456074,-0.18903138,-0.082795225,-1.5540161,0.0,0.0,0.0,-0.45999998,0.0,0.26999998,0.0,0.0,0.0,0.0,0.0,0.0,0.0,2.5253434,488.83002,0.0,0.0,0.0,0.0,0.0,0.0,inf,inf,inf,inf,1,1,1,1,0,0,0,0,1,1,0
1469932000,0,47.3977508,8.5456074,-0.23350935,-0.07526839,-1.5280151,0.0,0.0,0.0,-0.47,0.0,0.22999999,0.0,0.0,0.0,0.0,0.0,0.0,0.0,2.7249663,488.83002,0.0,0.0,0.0,0.0,0.0,0.0,inf,inf,inf,inf,1,1,1,1,0,0,0,0,1,1,0
1470032000,0,47.3977508,8.5456074,-0.28910682,-0.07526839,-1.506012,0.0,0.0,0.0,-0.48,0.0,0.19999999,0.0,0.0,0.0,0.0,0.0,0.0,0.0,2.8675008,488.83002,0.0,0.0,0.0,0.0,0.0,0.0,inf,inf,inf,inf,1,1,1,1,0,0,0,0,1,1,0
1470132000,0,47.3977508,8.5456074,-0.3335848,-0.07526839,-1.4859924,0.0,0.0,0.0,-0.48999998,0.0,0.17999999,0.0,0.0,0.0,0.0,0.0,0.0,0.0,2.972874,488.83002,0.0,0.0,0.0,0.0,0.0,0.0,inf,inf,inf,inf,1,1,1,1,0,0,0,0,1,1,0
1470232000,0,47.3977508,8.5456074,-0.37806275,-0.075268395,-1.4689941,0.0,0.0,0.0,-0.5,0.0,0.16,0.0,0.0,0.0,0.0,0.0,0.0,0.0,3.0501933,488.83002,0.0,0.0,0.0,0.0,0.0,0.0,inf,inf,inf,inf,1,1,1,1,0,0,0,0,1,1,0
1470332000,0,47.3977508,8.5456074,-0.4336602,-0.075268395,-1.4530029,0.0,0.0,0.0,-0.51,0.0,0.14,0.0,0.0,0.0,0.0,0.0,0.0,0.0,3.1063266,488.83002,0.0,0.0,0.0,0.0,0.0,0.0,inf,inf,inf,inf,1,1,1,1,0,0,0,0,1,1,0
1470432000,0,47.3977508,8.5456074,-0.48925766,-0.075268395,-1.4389954,0.0,0.0,0.0,-0.52,-0.01,0.12,0.0,0.0,0.0,0.0,0.0,0.0,0.0,-3.1361759,488.83002,0.0,0.0,0.0,0.0,0.0,0.0,inf,inf,inf,inf,1,1,1,1,0,0,0,0,1,1,0
1470528000,0,47.3977508,8.5456074,-0.53373563,-0.08279523,-1.428009,0.0,0.0,0.0,-0.53999996,-0.02,0.11,0.0,0.0,0.0,0.0,0.0,0.0,0.0,-3.1077576,488.83002,0.0,0.0,0.0,0.0,0.0,0.0,inf,inf,inf,inf,1,1,1,1,0,0,0,0,1,1,0
1470632000,0,47.3977508,8.5456074,-0.5893331,-0.08279523,-1.4169922,0.0,0.0,0.0,-0.55,-0.02,0.089999996,0.0,0.0,0.0,0.0,0.0,0.0,0.0,-3.085866,488.83002,0.0,0.0,0.0,0.0,0.0,0.0,inf,inf,inf,inf,1,1,1,1,0,0,0,0,1,1,0
1470728000,0,47.3977508,8.5456074,-0.6449306,-0.08279523,-1.40802,0.0,0.0,0.0,-0.56,-0.03,0.08,0.0,0.0,0.0,0.0,0.0,0.0,0.0,-3.0716686,488.83002,0.0,0.0,0.0,0.0,0.0,0.0,inf,inf,inf,inf,1,1,1,1,0,0,0,0,1,1,0
1470828000,0,47.3977508,8.5456074,-0.700528,-0.09032208,-1.3999939,0.0,0.0,0.0,-0.57,-0.03,0.07,0.0,0.0,0.0,0.0,0.0,0.0,0.0,-3.0612912,488.83002,0.0,0.0,0.0,0.0,0.0,0.0,inf,inf,inf,inf,1,1,1,1,0,0,0,0,1,1,0
1470928000,0,47.3977508,8.5456074,-0.767245,-0.09032208,-1.3940125,0.0,0.0,0.0,-0.59,-0.03,0.06,0.0,0.0,0.0,0.0,0.0,0.0,0.0,-3.0543246,488.83002,0.0,0.0,0.0,0.0,0.0,0.0,inf,inf,inf,inf,1,1,1,1,0,0,0,0,1,1,0
1471032000,0,47.3977508,8.5456074,-0.8228425,-0.097848915,-1.3880005,0.0,0.0,0.0,-0.59999996,-0.03,0.049999997,0.0,0.0,0.0,0.0,0.0,0.0,0.0,-3.0497851,488.83002,0.0,0.0,0.0,0.0,0.0,0.0,inf,inf,inf,inf,1,1,1,1,0,0,0,0,1,1,0
1471128000,0,47.3977508,8.5456074,-0.8895594,-0.097848915,-1.3829956,0.0,0.0,0.0,-0.62,-0.04,0.04,0.0,0.0,0.0,0.0,0.0,0.0,0.0,-3.0472343,488.83002,0.0,0.0,0.0,0.0,0.0,0.0,inf,inf,inf,inf,1,1,1,1,0,0,0,0,1,1,0
1471232000,0,47.3977508,8.5456074,-0.95627636,-0.10537576,-1.3780212,0.0,0.0,0.0,-0.64,-0.04,0.04,0.0,0.0,0.0,0.0,0.0,0.0,0.0,-3.0458343,488.83002,0.0,0.0,0.0,0.0,0.0,0.0,inf,inf,inf,inf,1,1,1,1,0,0,0,0,1,1,0
1471328000,0,47.3977508,8.5456074,-1.0118738,-0.1129026,-1.375,0.0,0.0,0.0,-0.65,-0.04,0.03,0.0,0.0,0.0,0.0,0.0,0.0,0.0,-3.0454116,488.83002,0.0,0.0,0.0,0.0,0.0,0.0,inf,inf,inf,inf,1,1,1,1,0,0,0,0,1,1,0
1471428000,0,47.3977508,8.5456074,-1.0785908,-0.112902604,-1.3720093,0.0,0.0,0.0,-0.66999996,-0.04,0.02,0.0,0.0,0.0,0.0,0.0,0.0,0.0,-3.0455527,488.83002,0.0,0.0,0.0,0.0,0.0,0.0,inf,inf,inf,inf,1,1,1,1,0,0,0,0,1,1,0
1471532000,0,47.3977508,8.5456074,-1.1564273,-0.12042944,-1.3690186,0.0,0.0,0.0,-0.69,-0.049999997,0.02,0.0,0.0,0.0,0.0,0.0,0.0,0.0,-3.0460272,488.83002,0.0,0.0,0.0,0.0,0.0,0.0,inf,inf,inf,inf,1,1,1,1,0,0,0,0,1,1,0
1471632000,0,47.3977508,8.5456074,-1.2231442,-0.12042944,-1.3670044,0.0,0.0,0.0,-0.71999997,-0.049999997,0.02,0.0,0.0,0.0,0.0,0.0,0.0,0.0,-3.04678,488.83002,0.0,0.0,0.0,0.0,0.0,0.0,inf,inf,inf,inf,1,1,1,1,0,0,0,0,1,1,0
1471732000,0,47.3977508,8.5456074,-1.3009807,-0.12795629,-1.3650208,0.0,0.0,0.0,-0.74,-0.049999997,0.01,0.0,0.0,0.0,0.0,0.0,0.0,0.0,-3.0477498,488.83002,0.0,0.0,0.0,0.0,0.0,0.0,inf,inf,inf,inf,1,1,1,1,0,0,0,0,1,1,0
1471828000,0,47.3977508,8.5456074,-1.3676976,-0.13548313,-1.3640137,0.0,0.0,0.0,-0.76,-0.049999997,0.0,0.0,0.0,0.0,0.0,0.0,0.0,0.0,-3.048801,488.83002,0.0,0.0,0.0,0.0,0.0,0.0,inf,inf,inf,inf,1,1,1,1,0,0,0,0,1,1,0
1471932000,0,47.3977508,8.5456074,-1.4566536,-0.14300998,-1.3630066,0.0,0.0,0.0,-0.78,-0.049999997,0.0,0.0,0.0,0.0,0.0,0.0,0.0,0.0,-3.0500045,488.83002,0.0,0.0,0.0,0.0,0.0,0.0,inf,inf,inf,inf,1,1,1,1,0,0,0,0,1,1,0
1472032000,0,47.3977508,8.5456074,-1.53449,-0.15053682,-1.3630066,0.0,0.0,0.0,-0.81,-0.049999997,0.0,0.0,0.0,0.0,0.0,0.0,0.0,0.0,-3.0512147,488.83002,0.0,0.0,0.0,0.0,0.0,0.0,inf,inf,inf,inf,1,1,1,1,0,0,0,0,1,1,0
1472132000,0,47.3977508,8.5456074,-1.6123264,-0.15053682,-1.3619995,0.0,0.0,0.0,-0.84,-0.049999997,0.0,0.0,0.0,0.0,0.0,0.0,0.0,0.0,-3.0524156,488.83002,0.0,0.0,0.0,0.0,0.0,0.0,inf,inf,inf,inf,1,1,1,1,0,0,0,0,1,1,0
1472232000,0,47.3977508,8.5456074,-1.7012824,-0.15806367,-1.3630066,0.0,0.0,0.0,-0.85999995,-0.06,0.0,0.0,0.0,0.0,0.0,0.0,0.0,0.0,-3.0537295,488.83002,0.0,0.0,0.0,0.0,0.0,0.0,inf,inf,inf,inf,1,1,1,1,0,0,0,0,1,1,0
1472332000,0,47.3977508,8.5456074,-1.7902383,-0.1655905,-1.3630066,0.0,0.0,0.0,-0.89,-0.06,0.0,0.0,0.0,0.0,0.0,0.0,0.0,0.0,-3.0549805,488.83002,0.0,0.0,0.0,0.0,0.0,0.0,inf,inf,inf,inf,1,1,1,1,0,0,0,0,1,1,0
1472432000,0,47.3977508,8.5456074,-1.8791943,-0.17311734,-1.3640137,0.0,0.0,0.0,-0.91999996,-0.06,0.0,0.0,0.0,0.0,0.0,0.0,0.0,0.0,-3.0561666,488.83002,0.0,0.0,0.0,0.0,0.0,0.0,inf,inf,inf,inf,1,1,1,1,0,0,0,0,1,1,0
1472532000,0,47.3977508,8.5456074,-1.9792697,-0.18064418,-1.3650208,0.0,0.0,0.0,-0.95,-0.06,0.0,0.0,0.0,0.0,0.0,0.0,0.0,0.0,-3.057302,488.83002,0.0,0.0,0.0,0.0,0.0,0.0,inf,inf,inf,inf,1,1,1,1,0,0,0,0,1,1,0
1472628000,0,47.3977508,8.5456074,-2.0682256,-0.1806442,-1.3650208,0.0,0.0,0.0,-0.98999995,-0.06,0.0,0.0,0.0,0.0,0.0,0.0,0.0,0.0,-3.0582397,488.83002,0.0,0.0,0.0,0.0,0.0,0.0,inf,inf,inf,inf,1,1,1,1,0,0,0,0,1,1,0
1472732000,0,47.3977508,8.5456074,-2.1794205,-0.18817104,-1.3659973,0.0,0.0,0.0,-1.02,-0.07,0.0,0.0,0.0,0.0,0.0,0.0,0.0,0.0,-3.0593684,488.83002,0.0,0.0,0.0,0.0,0.0,0.0,inf,inf,inf,inf,1,1,1,1,0,0,0,0,1,1,0
1472832000,0,47.3977508,8.5456074,-2.279496,-0.19569789,-1.3670044,0.0,0.0,0.0,-1.06,-0.07,-0.01,0.0,0.0,0.0,0.0,0.0,0.0,0.0,-3.0603664,488.83002,0.0,0.0,0.0,0.0,0.0,0.0,inf,inf,inf,inf,1,1,1,1,0,0,0,0,1,1,0
1472928000,0,47.3977508,8.5456074,-2.3906908,-0.20322473,-1.3680115,0.0,0.0,0.0,-1.1,-0.07,0.0,0.0,0.0,0.0,0.0,0.0,0.0,0.0,-3.0613585,488.83002,0.0,0.0,0.0,0.0,0.0,0.0,inf,inf,inf,inf,1,1,1,1,0,0,0,0,1,1,0
1473032000,0,47.3977508,8.5456074,-2.501886,-0.21075158,-1.3690186,0.0,0.0,0.0,-1.14,-0.07,0.0,0.0,0.0,0.0,0.0,0.0,0.0,0.0,-3.062384,488.83002,0.0,0.0,0.0,0.0,0.0,0.0,inf,inf,inf,inf,1,1,1,1,0,0,0,0,1,1,0
1473132000,0,47.3977508,8.5456074,-2.6130807,-0.21827842,-1.3690186,0.0,0.0,0.0,-1.18,-0.07,0.0,0.0,0.0,0.0,0.0,0.0,0.0,0.0,-3.0633233,488.83002,0.0,0.0,0.0,0.0,0.0,0.0,inf,inf,inf,inf,1,1,1,1,0,0,0,0,1,1,0
1473228000,0,47.3977508,8.5456074,-2.7353952,-0.22580527,-1.3699951,0.0,0.0,0.0,-1.22,-0.08,0.0,0.0,0.0,0.0,0.0,0.0,0.0,0.0,-3.0641701,488.83002,0.0,0.0,0.0,0.0,0.0,0.0,inf,inf,inf,inf,1,1,1,1,0,0,0,0,1,1,0
1473328000,0,47.3977508,8.5456074,-2.8577096,-0.24085896,-1.3710022,0.0,0.0,0.0,-1.26,-0.08,-0.01,0.0,0.0,0.0,0.0,0.0,0.0,0.0,-3.0649114,488.83002,0.0,0.0,0.0,0.0,0.0,0.0,inf,inf,inf,inf,1,1,1,1,0,0,0,0,1,1,0
1473428000,0,47.3977508,8.5456074,-2.9911435,-0.2483858,-1.3720093,0.0,0.0,0.0,-1.31,-0.08,-0.01,0.0,0.0,0.0,0.0,0.0,0.0,0.0,-3.0655763,488.83002,0.0,0.0,0.0,0.0,0.0,0.0,inf,inf,inf,inf,1,1,1,1,0,0,0,0,1,1,0
1473532000,0,47.3977508,8.5456074,-3.1245775,-0.25591266,-1.3730164,0.0,0.0,0.0,-1.36,-0.089999996,-0.01,0.0,0.0,0.0,0.0,0.0,0.0,0.0,-3.0662339,488.83002,0.0,0.0,0.0,0.0,0.0,0.0,inf,inf,inf,inf,1,1,1,1,0,0,0,0,1,1,0
1473632000,0,47.3977508,8.5456074,-3.269131,-0.2634395,-1.3739929,0.0,0.0,0.0,-1.41,-0.089999996,0.0,0.0,0.0,0.0,0.0,0.0,0.0,0.0,-3.06686,488.83002,0.0,0.0,0.0,0.0,0.0,0.0,inf,inf,inf,inf,1,1,1,1,0,0,0,0,1,1,0
1473732000,0,47.3977508,8.5456074,-3.4136841,-0.27096635,-1.375,0.0,0.0,0.0,-1.4599999,-0.089999996,0.0,0.0,0.0,0.0,0.0,0.0,0.0,0.0,-3.0675414,488.83002,0.0,0.0,0.0,0.0,0.0,0.0,inf,inf,inf,inf,1,1,1,1,0,0,0,0,1,1,0
1473832000,0,47.3977508,8.5456074,-3.5582376,-0.28602004,-1.375,0.0,0.0,0.0,-1.51,-0.099999994,0.0,0.0,0.0,0.0,0.0,0.0,0.0,0.0,-3.0681963,488.83002,0.0,0.0,0.0,0.0,0.0,0.0,inf,inf,inf,inf,1,1,1,1,0,0,0,0,1,1,0
1473932000,0,47.3977508,8.5456074,-3.7139106,-0.2935469,-1.3760071,0.0,0.0,0.0,-1.5699999,-0.099999994,0.0,0.0,0.0,0.0,0.0,0.0,0.0,0.0,-3.068807,488.83002,0.0,0.0,0.0,0.0,0.0,0.0,inf,inf,inf,inf,1,1,1,1,0,0,0,0,1,1,0
1474032000,0,47.3977508,8.5456074,-3.880703,-0.3086006,-1.3770142,0.0,0.0,0.0,-1.62,-0.099999994,0.0,0.0,0.0,0.0,0.0,0.0,0.0,0.0,-3.0692143,488.83002,0.0,0.0,0.0,0.0,0.0,0.0,inf,inf,inf,inf,1,1,1,1,0,0,0,0,1,1,0
1474128000,0,47.3977508,8.5456074,-4.036376,-0.31612745,-1.3780212,0.0,0.0,0.0,-1.68,-0.099999994,0.0,0.0,0.0,0.0,0.0,0.0,0.0,0.0,-3.0695815,488.83002,0.0,0.0,0.0,0.0,0.0,0.0,inf,inf,inf,inf,1,1,1,1,0,0,0,0,1,1,0
1474228000,0,47.3977508,8.5456074,-4.2031684,-0.3236543,-1.3789978,0.0,0.0,0.0,-1.74,-0.11,-0.01,0.0,0.0,0.0,0.0,0.0,0.0,0.0,-3.0699623,488.83002,0.0,0.0,0.0,0.0,0.0,0.0,inf,inf,inf,inf,1,1,1,1,0,0,0,0,1,1,0
1474332000,0,47.3977508,8.5456074,-4.3921995,-0.33870798,-1.3800049,0.0,0.0,0.0,-1.81,-0.11,-0.01,0.0,0.0,0.0,0.0,0.0,0.0,0.0,-3.0703783,488.83002,0.0,0.0,0.0,0.0,0.0,0.0,inf,inf,inf,inf,1,1,1,1,0,0,0,0,1,1,0
1474432000,0,47.3977508,8.5456074,-4.581231,-0.3537617,-1.381012,0.0,0.0,0.0,-1.87,-0.12,-0.01,0.0,0.0,0.0,0.0,0.0,0.0,0.0,-3.0707426,488.83002,0.0,0.0,0.0,0.0,0.0,0.0,inf,inf,inf,inf,1,1,1,1,0,0,0,0,1,1,0
1474528000,0,47.3977508,8.5456074,-4.759143,-0.36128855,-1.382019,0.0,0.0,0.0,-1.9399999,-0.12,-0.01,0.0,0.0,0.0,0.0,0.0,0.0,0.0,-3.0709717,488.83002,0.0,0.0,0.0,0.0,0.0,0.0,inf,inf,inf,inf,1,1,1,1,0,0,0,0,1,1,0
1474632000,0,47.3977508,8.5456074,-4.970413,-0.37634227,-1.3840027,0.0,0.0,0.0,-2.01,-0.12,-0.01,0.0,0.0,0.0,0.0,0.0,0.0,0.0,-3.0712903,488.83002,0.0,0.0,0.0,0.0,0.0,0.0,inf,inf,inf,inf,1,1,1,1,0,0,0,0,1,1,0
1474732000,0,47.3977508,8.5456074,-5.1816835,-0.39139596,-1.3860168,0.0,0.0,0.0,-2.09,-0.13,-0.01,0.0,0.0,0.0,0.0,0.0,0.0,0.0,-3.0716681,488.83002,0.0,0.0,0.0,0.0,0.0,0.0,inf,inf,inf,inf,1,1,1,1,0,0,0,0,1,1,0
1474832000,0,47.3977508,8.5456074,-5.392954,-0.40644968,-1.3880005,0.0,0.0,0.0,-2.1699998,-0.14,-0.02,0.0,0.0,0.0,0.0,0.0,0.0,0.0,-3.0720043,488.83002,0.0,0.0,0.0,0.0,0.0,0.0,inf,inf,inf,inf,1,1,1,1,0,0,0,0,1,1,0
1474932000,0,47.3977508,8.5456074,-5.6153436,-0.41397652,-1.3900146,0.0,0.0,0.0,-2.25,-0.14,-0.01,0.0,0.0,0.0,0.0,0.0,0.0,0.0,-3.0723028,488.83002,0.0,0.0,0.0,0.0,0.0,0.0,inf,inf,inf,inf,1,1,1,1,0,0,0,0,1,1,0
1475028000,0,47.3977508,8.5456074,-5.8377337,-0.42903024,-1.3919983,0.0,0.0,0.0,-2.33,-0.14999999,-0.02,0.0,0.0,0.0,0.0,0.0,0.0,0.0,-3.0725474,488.83002,0.0,0.0,0.0,0.0,0.0,0.0,inf,inf,inf,inf,1,1,1,1,0,0,0,0,1,1,0
1475132000,0,47.3977508,8.5456074,-6.0823627,-0.44408393,-1.3940125,0.0,0.0,0.0,-2.4199998,-0.14999999,-0.02,0.0,0.0,0.0,0.0,0.0,0.0,0.0,-3.0729096,488.83002,0.0,0.0,0.0,0.0,0.0,0.0,inf,inf,inf,inf,1,1,1,1,0,0,0,0,1,1,0
1475232000,0,47.3977508,8.5456074,-6.326991,-0.4666645,-1.3959961,0.0,0.0,0.0,-2.51,-0.16,-0.01,0.0,0.0,0.0,0.0,0.0,0.0,0.0,-3.0732243,488.83002,0.0,0.0,0.0,0.0,0.0,0.0,inf,inf,inf,inf,1,1,1,1,0,0,0,0,1,1,0
1475328000,0,47.3977508,8.5456074,-6.57162,-0.4817182,-1.3980103,0.0,0.0,0.0,-2.6,-0.16,-0.01,0.0,0.0,0.0,0.0,0.0,0.0,0.0,-3.0733435,488.83002,0.0,0.0,0.0,0.0,0.0,0.0,inf,inf,inf,inf,1,1,1,1,0,0,0,0,1,1,0
1475428000,0,47.3977508,8.5456074,-6.838488,-0.49677193,-1.3990173,0.0,0.0,0.0,-2.7,-0.17,-0.01,0.0,0.0,0.0,0.0,0.0,0.0,0.0,-3.0736413,488.83002,0.0,0.0,0.0,0.0,0.0,0.0,inf,inf,inf,inf,1,1,1,1,0,0,0,0,1,1,0
1475532000,0,47.3977508,8.5456074,-7.127595,-0.5118257,-1.401001,0.0,0.0,0.0,-2.8,-0.17999999,-0.01,0.0,0.0,0.0,0.0,0.0,0.0,0.0,-3.0739615,488.83002,0.0,0.0,0.0,0.0,0.0,0.0,inf,inf,inf,inf,1,1,1,1,0,0,0,0,1,1,0
1475628000,0,47.3977508,8.5456074,-7.405582,-0.53440624,-1.4030151,0.0,0.0,0.0,-2.9099998,-0.17999999,-0.01,0.0,0.0,0.0,0.0,0.0,0.0,0.0,-3.0739582,488.83002,0.0,0.0,0.0,0.0,0.0,0.0,inf,inf,inf,inf,1,1,1,1,0,0,0,0,1,1,0
1475732000,0,47.3977508,8.5456074,-7.705808,-0.54945993,-1.4049988,0.0,0.0,0.0,-3.02,-0.19,-0.01,0.0,0.0,0.0,0.0,0.0,0.0,0.0,-3.0740826,488.83002,0.0,0.0,0.0,0.0,0.0,0.0,inf,inf,inf,inf,1,1,1,1,0,0,0,0,1,1,0
1475832000,0,47.3977508,8.5456074,-8.028274,-0.5720405,-1.4070129,0.0,0.0,0.0,-3.1399999,-0.19999999,-0.01,0.0,0.0,0.0,0.0,0.0,0.0,0.0,-3.0742664,488.83002,0.0,0.0,0.0,0.0,0.0,0.0,inf,inf,inf,inf,1,1,1,1,0,0,0,0,1,1,0
1475932000,0,47.3977508,8.5456074,-8.350739,-0.5946211,-1.4089966,0.0,0.0,0.0,-3.26,-0.21,-0.02,0.0,0.0,0.0,0.0,0.0,0.0,0.0,-3.0742483,488.83002,0.0,0.0,0.0,0.0,0.0,0.0,inf,inf,inf,inf,1,1,1,1,0,0,0,0,1,1,0
1476028000,0,47.3977508,8.5456074,-8.662085,-0.6172017,-1.4110107,0.0,0.0,0.0,-3.3799999,-0.21,-0.02,0.0,0.0,0.0,0.0,0.0,0.0,0.0,-3.074079,488.83002,0.0,0.0,0.0,0.0,0.0,0.0,inf,inf,inf,inf,1,1,1,1,0,0,0,0,1,1,0
1476132000,0,47.3977508,8.5456074,-9.029028,-0.63978225,-1.4140015,0.0,0.0,0.0,-3.52,-0.22,-0.02,0.0,0.0,0.0,0.0,0.0,0.0,0.0,-3.0741148,488.83002,0.0,0.0,0.0,0.0,0.0,0.0,inf,inf,inf,inf,1,1,1,1,0,0,0,0,1,1,0
1476232000,0,47.3977508,8.5456074,-9.373733,-0.6623629,-1.4150085,0.0,0.0,0.0,-3.6399999,-0.22,0.0,0.0,0.0,0.0,0.0,0.0,0.0,0.0,-3.0743024,488.83002,0.0,0.0,0.0,0.0,0.0,0.0,inf,inf,inf,inf,1,1,1,1,0,0,0,0,1,1,0
1476332000,0,47.3977508,8.5456074,-9.762915,-0.68494344,-1.4150085,0.0,0.0,0.0,-3.73,-0.22999999,0.01,0.0,0.0,0.0,0.0,0.0,0.0,0.0,-3.0745816,488.83002,0.0,0.0,0.0,0.0,0.0,0.0,inf,inf,inf,inf,1,1,1,1,0,0,0,0,1,1,0
1476432000,0,47.3977508,8.5456074,-10.129858,-0.70752406,-1.4140015,0.0,0.0,0.0,-3.77,-0.22999999,0.0,0.0,0.0,0.0,0.0,0.0,0.0,0.0,-3.074549,488.83002,0.0,0.0,0.0,0.0,0.0,0.0,inf,inf,inf,inf,1,1,1,1,0,0,0,0,1,1,0
1476528000,0,47.3977508,8.5456074,-10.496801,-0.7301047,-1.4140015,0.0,0.0,0.0,-3.78,-0.24,0.0,0.0,0.0,0.0,0.0,0.0,0.0,0.0,-3.0746536,488.83002,0.0,0.0,0.0,0.0,0.0,0.0,inf,inf,inf,inf,1,1,1,1,0,0,0,0,1,1,0
1476632000,0,47.3977508,8.5456074,-10.897102,-0.75268525,-1.4150085,0.0,0.0,0.0,-3.78,-0.24,-0.01,0.0,0.0,0.0,0.0,0.0,0.0,0.0,-3.0749717,488.83002,0.0,0.0,0.0,0.0,0.0,0.0,inf,inf,inf,inf,1,1,1,1,0,0,0,0,1,1,0
1476732000,0,47.3977508,8.5456074,-11.275166,-0.78279275,-1.4160156,0.0,0.0,0.0,-3.79,-0.24,0.0,0.0,0.0,0.0,0.0,0.0,0.0,0.0,-3.0753353,488.83002,0.0,0.0,0.0,0.0,0.0,0.0,inf,inf,inf,inf,1,1,1,1,0,0,0,0,1,1,0
1476828000,0,47.3977508,8.5456074,-11.642109,-0.8053733,-1.4160156,0.0,0.0,0.0,-3.8,-0.24,0.0,0.0,0.0,0.0,0.0,0.0,0.0,0.0,-3.07551,488.83002,0.0,0.0,0.0,0.0,0.0,0.0,inf,inf,inf,inf,1,1,1,1,0,0,0,0,1,1,0
1476932000,0,47.3977508,8.5456074,-12.031291,-0.82795393,-1.4169922,0.0,0.0,0.0,-3.82,-0.24,0.0,0.0,0.0,0.0,0.0,0.0,0.0,0.0,-3.0758321,488.83002,0.0,0.0,0.0,0.0,0.0,0.0,inf,inf,inf,inf,1,1,1,1,0,0,0,0,1,1,0
1477032000,0,47.3977508,8.5456074,-12.420473,-0.85053456,-1.4169922,0.0,0.0,0.0,-3.83,-0.24,0.0,0.0,0.0,0.0,0.0,0.0,0.0,0.0,-3.0761259,488.83002,0.0,0.0,0.0,0.0,0.0,0.0,inf,inf,inf,inf,1,1,1,1,0,0,0,0,1,1,0
1477132000,0,47.3977508,8.5456074,-12.809655,-0.88064206,-1.4169922,0.0,0.0,0.0,-3.83,-0.25,0.0,0.0,0.0,0.0,0.0,0.0,0.0,0.0,-3.0762804,488.83002,0.0,0.0,0.0,0.0,0.0,0.0,inf,inf,inf,inf,1,1,1,1,0,0,0,0,1,1,0
1477232000,0,47.3977508,8.5456074,-13.176599,-0.9032227,-1.4179993,0.0,0.0,0.0,-3.84,-0.25,0.0,0.0,0.0,0.0,0.0,0.0,0.0,0.0,-3.0764587,488.83002,0.0,0.0,0.0,0.0,0.0,0.0,inf,inf,inf,inf,1,1,1,1,0,0,0,0,1,1,0
1477328000,0,47.3977508,8.5456074,-13.565781,-0.9258033,-1.4190063,0.0,0.0,0.0,-3.85,-0.25,0.0,0.0,0.0,0.0,0.0,0.0,0.0,0.0,-3.0764413,488.83002,0.0,0.0,0.0,0.0,0.0,0.0,inf,inf,inf,inf,1,1,1,1,0,0,0,0,1,1,0
1477428000,0,47.3977508,8.5456074,-13.943844,-0.9559108,-1.4200134,0.0,0.0,0.0,-3.86,-0.25,0.0,0.0,0.0,0.0,0.0,0.0,0.0,0.0,-3.076726,488.83002,0.0,0.0,0.0,0.0,0.0,0.0,inf,inf,inf,inf,1,1,1,1,0,0,0,0,1,1,0
1477532000,0,47.3977508,8.5456074,-14.355265,-0.9784914,-1.4200134,0.0,0.0,0.0,-3.8799999,-0.25,0.0,0.0,0.0,0.0,0.0,0.0,0.0,0.0,-3.0769012,488.83002,0.0,0.0,0.0,0.0,0.0,0.0,inf,inf,inf,inf,1,1,1,1,0,0,0,0,1,1,0
1477632000,0,47.3977508,8.5456074,-14.722208,-1.0085989,-1.4210205,0.0,0.0,0.0,-3.8899999,-0.26,0.0,0.0,0.0,0.0,0.0,0.0,0.0,0.0,-3.077114,488.83002,0.0,0.0,0.0,0.0,0.0,0.0,inf,inf,inf,inf,1,1,1,1,0,0,0,0,1,1,0
