timestamp,timestamp_sample,xyz[0],xyz[1],xyz[2]
1449032000,1449032000,-0.0010828,0.0055576707,-0.0009445207
1449044000,1449044000,-0.003066643,-0.0027489779,-0.00016888243
1449052000,1449052000,-0.004178222,-0.006095869,-0.0009229529
1449068000,1449068000,0.002455847,2.7551781e-05,-0.0028237873
1449080000,1449080000,0.0010540654,5.3865835e-05,-0.00082753017
1449088000,1449088000,-0.0034347605,0.0010640393,-0.0038116453
1449104000,1449104000,0.0017949576,0.0040619923,-0.0030386993
1449116000,1449116000,-1.6765203e-05,0.007151493,-0.0010255573
1449128000,1449128000,-0.00395595,-0.0020969748,0.0011851367
1449140000,1449140000,-0.00053186784,0.0015907832,0.0008563984
1449148000,1449148000,0.0017662379,0.0043609138,0.00042722735
1449160000,1449160000,0.0010494943,-0.0005731704,-0.0013422391
1449176000,1449176000,-0.00068564236,-0.0024791071,0.0023251222
1449188000,1449188000,2.1580025e-05,-0.0017828206,-0.0024308169
1449200000,1449200000,-0.0023731524,0.0006718943,0.0013930812
1449212000,1449212000,-0.00057422096,-0.002931933,0.0038502552
1449224000,1449224000,-0.00028587703,0.00036804564,0.008519328
1449236000,1449236000,-0.0036727497,-0.0030484167,0.002273731
1449248000,1449248000,-0.003955208,-0.004390024,0.002392352
1449260000,1449260000,-0.0020372428,-0.002217474,-0.0016156316
1449272000,1449272000,-0.00093740906,0.003705056,-0.002901563
1449284000,1449284000,0.0017904132,0.00058663357,0.0005006297
1449296000,1449296000,0.00054298143,0.0040743416,0.003970653
1449308000,1449308000,0.0009550229,0.0011932529,0.005176126
1449316000,1449316000,0.0021863133,-0.0010431539,0.00028570456
1449328000,1449328000,0.0031100758,0.0011800257,0.0006507087
1449344000,1449344000,-0.0027403636,0.0019855457,0.0029309234
1449356000,1449356000,0.0010940067,0.00420106,-0.00328313
1449368000,1449368000,0.0022723316,0.0014972347,-0.0011220663
1449380000,1449380000,0.0018700911,0.002493409,0.0024876017
1449392000,1449392000,0.001286682,-0.0022773035,0.005134271
1449404000,1449404000,0.003236489,0.0039005415,5.726592e-05
1449412000,1449412000,0.0017263456,0.0063645747,-0.0018665803
1449428000,1449428000,0.0022935835,0.007144408,0.0013930306
1449436000,1449436000,-0.0018998396,0.004599137,0.0029867399
1449452000,1449452000,-0.0011298857,-0.0018589082,0.0012761429
1449460000,1449460000,0.00028255206,0.0024270825,-0.0012428765
1449476000,1449476000,0.0036972524,-0.0027564713,-0.0005250081
1449488000,1449488000,0.0010470994,-0.003302081,0.003030459
1449500000,1449500000,-0.0017229926,-0.0016282876,-0.0046002106
1449508000,1449508000,-0.0042599034,0.0008972087,-0.0045252624
1449524000,1449524000,0.0061166678,-0.0057285596,0.0017030744
1449536000,1449536000,0.001377983,-0.0025214422,0.0042157546
1449548000,1449548000,-0.0015690702,-0.0035421816,0.001023731
1449560000,1449560000,-0.0019452013,-0.0011231094,-0.002899555
1449572000,1449572000,0.00088647613,0.00011437433,0.0011668664
1449580000,1449580000,0.0018763416,-6.726943e-05,0.0072633848
1449596000,1449596000,-0.00014842983,0.0026328275,0.0036824232
1449608000,1449608000,-0.0030030215,0.00079701794,-0.0028115052
1449620000,1449620000,-0.0030942888,0.0035768354,-0.0016427
1449632000,1449632000,-0.0023313025,-0.0037681428,0.0059111253
1449644000,1449644000,0.0017324917,-0.0030365991,0.0028061238
1449656000,1449656000,0.0013778355,-0.0009907344,-0.0038966152
1449668000,1449668000,0.0020814352,-0.0004369649,-0.0037483936
1449680000,1449680000,-0.0041199345,-0.0022631432,-0.0043818457
1449692000,1449692000,-0.0047069998,-0.0010995846,0.0031179585
1449704000,1449704000,-0.00372121,0.0003672163,0.002527337
1449716000,1449716000,0.0034460637,0.0020277635,-0.0010398029
1449728000,1449728000,0.0022117065,0.0017055064,0.00031152082
1449740000,1449740000,0.001180088,-0.0022439826,0.0011817673
1449752000,1449752000,-0.00024969527,0.0011500791,-0.0023120097
1449760000,1449760000,-0.0028553046,0.0025259915,-0.0025748655
1449776000,1449776000,0.003066833,0.00034070294,-0.0016076737
1449784000,1449784000,0.0030411882,-0.0008324515,0.00091206323
1449800000,1449800000,-2.699031e-06,-0.002495979,0.0016886478
1449812000,1449812000,-0.001584925,0.00087573426,0.0024065597
1449824000,1449824000,0.0021782964,0.0036096731,-0.00048899156
1449836000,1449836000,0.00083730253,-0.0031722994,-0.00411522
1449848000,1449848000,-0.001649137,1.4534686e-05,-0.0051563727
1449856000,1449856000,0.0019672588,0.0011751628,-0.00047208616
1449872000,1449872000,0.002756111,0.0030929726,0.004759497
1449884000,1449884000,0.0010346929,-0.0002475842,0.0024085892
1449892000,1449892000,0.00029604725,-0.0007663057,0.0004199657
1449908000,1449908000,0.0013245475,-0.0022017718,-0.001626564
1449920000,1449920000,-0.0006207808,-1.5984755e-05,-0.005190723
1449932000,1449932000,0.0012345205,-0.00402464,-0.0050587393
1449944000,1449944000,0.0034574931,-0.0011544991,0.0045034094
1449956000,1449956000,-0.002393738,0.0031150396,6.3574465e-05
1449964000,1449964000,0.0038907034,-0.0007994594,-0.002979844
1449980000,1449980000,0.00033017417,2.1721702e-05,-0.006177811
1449992000,1449992000,-0.0014611593,-0.0011146343,-0.004973225
1450004000,1450004000,0.0017720083,-0.0027616331,-5.5623997e-05
1450016000,1450016000,-0.0042932658,-0.001282644,-0.00021691521
1450028000,1450028000,-0.0047572684,0.005595949,-0.000749765
1450040000,1450040000,-0.0075695203,0.002076189,0.00044398522
1450048000,1450048000,-0.003514873,-0.00081446674,-0.0007979874
1450060000,1450060000,-0.00010621804,0.0026380084,-0.0034176954
1450076000,1450076000,-0.0036169207,-0.0019934727,-0.004640034
1450088000,1450088000,0.004048585,-0.0073440415,-0.006391285
1450100000,1450100000,0.00014150643,0.0027162973,-0.0017109839
1450112000,1450112000,0.0022779005,-0.0037410394,0.0022243822
1450124000,1450124000,-0.0006547005,-0.00041778013,-0.0006656827
1450132000,1450132000,-0.0057250406,-0.0036382466,0.0012910215
1450148000,1450148000,0.00062477373,0.0011648922,0.0030171815
1450160000,1450160000,0.0029568297,0.0010316158,0.0018204482
1450172000,1450172000,0.0026015607,0.002369428,0.00058564264
1450184000,1450184000,-0.00044054567,0.0006098156,-0.0014686498
1450196000,1450196000,-0.00029436982,-0.001321644,0.0007339071
1450208000,1450208000,-0.001880893,-0.00016141124,-0.0018091612
1450220000,1450220000,-0.0027550426,-0.0007276987,-0.0025007876
1450232000,1450232000,0.00047697037,-0.0008037123,-0.0016403556
1450244000,1450244000,-0.0033344463,0.0033178797,0.0053166766
1450256000,1450256000,0.0006213798,0.00021884125,0.00630171
1450264000,1450264000,-0.0015404623,0.00037799682,0.0022751815
1450280000,1450280000,0.0029016733,-0.0011843215,-0.002246643
1450292000,1450292000,0.003968034,-0.003741718,-0.0023052436
1450304000,1450304000,-0.0008430482,-4.8498157e-05,0.0009445847
1450316000,1450316000,-0.0019044201,-0.0010468559,0.002283016
1450328000,1450328000,0.0008348216,0.0016356749,0.0010355767
1450340000,1450340000,0.00045454732,-4.899921e-05,-0.0038405831
1450352000,1450352000,0.0022594326,0.0017297878,-0.00029371592
1450360000,1450360000,0.0044699926,0.0019760649,0.0021884204
1450372000,1450372000,0.00019848795,-0.0051054847,-0.0036364873
1450384000,1450384000,0.0008849577,0.0010095108,0.00089549914
1450400000,1450400000,0.0048418753,0.0020698286,0.003172518
1450412000,1450412000,0.002455786,-0.00015749689,0.0028764682
1450424000,1450424000,0.005285255,-0.0072811097,-0.005995247
1450432000,1450432000,0.0044067856,-0.004723644,0.00083654467
1450448000,1450448000,0.0045900373,0.0024113255,0.0020334467
1450460000,1450460000,0.0020081173,-0.0013721557,-0.0010002601
1450472000,1450472000,-0.00024242885,0.0023128702,0.0019137685
1450484000,1450484000,-0.0010801061,-0.0013120333,-0.0051857657
1450492000,1450492000,-0.0016300103,-0.0050915056,-0.0052524814
1450508000,1450508000,0.00019386393,-0.0025959234,0.0048503536
1450520000,1450520000,-0.0006657286,-0.0023270305,0.0044307923
1450532000,1450532000,0.0004839483,0.0040778685,0.002493374
1450544000,1450544000,0.000476795,-0.005134768,0.0028559128
1450556000,1450556000,-0.0010973428,-0.0002862052,0.0016750474
1450568000,1450568000,-0.0007759444,0.0043010055,-0.0016744735
1450576000,1450576000,-0.0004091796,0.0017819218,-0.00042770302
1450592000,1450592000,-0.0034986997,-0.004477306,-0.0016107135
1450604000,1450604000,-0.00067932985,-0.00043918518,0.00066217716
1450616000,1450616000,0.0017471861,-0.00045764865,0.0004598305
1450624000,1450624000,0.0007158558,0.00033220276,0.0015515654
1450636000,1450636000,0.002162253,0.0028176256,0.0014089268
1450652000,1450652000,0.0007549606,1.8426217e-05,0.0020335123
1450664000,1450664000,-0.0066747074,0.0010714773,-0.0045549325
1450672000,1450672000,-0.0034335037,0.0018389272,-0.0011545777
1450688000,1450688000,0.0027793278,0.0019042045,-0.00218379
1450700000,1450700000,7.898727e-05,-0.0014530742,-0.00025296904
1450712000,1450712000,-0.0036368463,-0.0011958736,-0.0009950533
1450724000,1450724000,-0.004344005,-0.0013896679,0.0043340484
1450736000,1450736000,-0.0013774987,0.0014068894,0.0021712189
1450748000,1450748000,-0.0008789601,0.0032219454,-0.004908582
1450756000,1450756000,0.000502504,0.003023276,-0.005367232
1450772000,1450772000,0.0004134046,0.0014150366,0.00015479547
1450780000,1450780000,-0.002949318,-0.00038881367,-0.0010456975
1450792000,1450792000,-0.0050311335,0.0046987706,-0.00035196685
1450808000,1450808000,-0.004703533,-0.0010396694,-0.0024111685
1450820000,1450820000,-0.004339236,0.00065580336,-0.00043306997
1450832000,1450832000,-0.0043408535,-0.001973994,-0.0018944449
1450844000,1450844000,-0.005913846,-0.010755356,-0.001607704
1450856000,1450856000,-0.02159221,-0.02465666,-0.006572963
1450864000,1450864000,-0.027617974,-0.030668024,-0.0058090887
1450880000,1450880000,-0.037888892,-0.046081603,-0.0018200775
1450892000,1450892000,-0.04277455,-0.050886746,0.0024021626
1450904000,1450904000,-0.038098525,-0.047143202,0.0015681977
1450916000,1450916000,-0.034657262,-0.044092506,0.0010442422
1450928000,1450928000,-0.03385352,-0.038274515,-0.0018969437
1450940000,1450940000,-0.030594964,-0.033568643,-6.1570434e-05
1450952000,1450952000,-0.033001054,-0.029008612,0.0039023904
1450964000,1450964000,-0.028649598,-0.026242986,-0.0026756595
1450976000,1450976000,-0.024383284,-0.021621484,-0.0030035567
1450988000,1450988000,-0.024990397,-0.014439933,-0.000981451
1451000000,1451000000,-0.0164091,-0.012592131,0.003629039
1451012000,1451012000,-0.015790291,-0.009424692,-0.00025782821
1451024000,1451024000,-0.011049809,-0.0034719044,0.0014456689
1451036000,1451036000,-0.010227177,-0.0005444349,0.0023125317
1451048000,1451048000,-0.0040152073,-0.0003655539,-0.0047990917
1451060000,1451060000,-0.0013930365,0.005944136,-0.002048142
1451072000,1451072000,0.002368805,0.0115295015,6.5660744e-05
1451080000,1451080000,0.0033020033,0.017214974,0.001380194
1451096000,1451096000,0.004192082,0.017273707,-0.0024926707
1451108000,1451108000,0.0066391514,0.015588323,-0.003520228
1451120000,1451120000,0.00886908,0.02281836,-0.0019525788
1451132000,1451132000,0.0126583455,0.024783619,-0.0011392173
1451144000,1451144000,0.013974158,0.015728883,-0.003204232
1451156000,1451156000,0.012719177,0.018069774,-0.0006485715
1451168000,1451168000,0.0052739824,0.0061757625,0.0025036074
1451180000,1451180000,0.008744102,0.009794991,-0.00034784802
1451192000,1451192000,0.014881879,0.010897048,-0.002657796
1451200000,1451200000,0.0113790855,0.015414821,-0.0014325307
1451216000,1451216000,0.0051533706,0.017872885,-0.005323289
1451228000,1451228000,0.0055921995,0.018641582,-0.005170241
1451240000,1451240000,0.00020842231,0.018791143,-0.0066667967
1451252000,1451252000,0.00831653,0.018167164,-0.0045125093
1451264000,1451264000,0.0060850284,0.018459499,-0.0009696505
1451276000,1451276000,0.012999447,0.012375047,0.0001159003
1451288000,1451288000,0.018745845,0.010457988,-0.0019796563
1451300000,1451300000,0.016572677,0.011754032,-0.00080658455
1451312000,1451312000,0.010613629,0.008124637,-0.0036448268
1451324000,1451324000,0.004462179,0.0021582027,-0.0021199835
1451336000,1451336000,-0.003233143,0.00019792328,0.0056799557
1451348000,1451348000,-0.002620516,0.0022906377,0.00025812705
1451360000,1451360000,-0.0013888082,-0.006724613,0.0029143714
1451372000,1451372000,-0.005782771,-0.0028368938,0.0033099484
1451384000,1451384000,-0.008209697,-0.0029026787,-0.0017229754
1451392000,1451392000,-0.0017334044,-0.0015134062,-0.0039952644
1451408000,1451408000,0.0029863997,-0.0024381941,0.0018647292
1451420000,1451420000,0.0007312687,-0.0057992954,-0.0036510034
1451432000,1451432000,0.0020624807,-0.009924391,-0.006635799
1451444000,1451444000,-0.005024534,-0.0086541455,-0.0022415363
1451456000,1451456000,-0.008054135,-0.008509668,-0.0008609176
1451468000,1451468000,-0.0021801689,-0.0027217008,-0.00010009133
1451480000,1451480000,-0.0016112525,0.002463453,-0.0039672107
1451488000,1451488000,0.0029208465,-0.00078855455,-0.007826414
1451504000,1451504000,-0.004686079,-0.0027168798,-0.00026562018
1451516000,1451516000,-0.0036653928,0.00051524723,-0.0019533671
1451528000,1451528000,-0.0035548694,0.0003324612,0.003141678
1451540000,1451540000,0.0020039491,0.00035169162,-6.842677e-05
1451552000,1451552000,0.0076461923,-0.0015306226,0.0010879708
1451564000,1451564000,0.0053719277,0.0023177788,0.0020173886
1451576000,1451576000,0.0011354776,0.007566547,0.00049567537
1451584000,1451584000,0.004283287,0.00946104,-0.0009614526
1451600000,1451600000,-0.0017007878,0.007936164,-0.0038835232
1451612000,1451612000,-0.0023878552,0.008001922,-0.0015411468
1451624000,1451624000,0.0005517417,0.0033858893,-0.0009891974
1451636000,1451636000,0.0061591445,0.0029650005,-0.0030326974
1451648000,1451648000,0.0058984356,0.0010182257,-0.0014096675
1451660000,1451660000,0.0059418012,0.00461757,-0.0004092245
1451672000,1451672000,0.0093231,0.0035244015,0.0034157394
1451684000,1451684000,0.011155007,0.0030098232,0.003411963
1451696000,1451696000,0.014569805,0.0032695944,-0.0011765222
1451708000,1451708000,0.011407117,0.00329532,0.005189573
1451720000,1451720000,0.012472828,0.006141986,0.001518744
1451732000,1451732000,0.0071373326,0.010045284,0.0018383652
1451744000,1451744000,0.0025179042,0.008055288,0.0015462801
1451756000,1451756000,0.0034718537,0.007258537,0.0019214767
1451768000,1451768000,0.0041732495,0.012596301,0.00197306
1451780000,1451780000,0.005120734,0.0105313165,-0.0021638984
1451792000,1451792000,0.01254007,0.007925576,-0.0024843086
1451804000,1451804000,0.012614348,0.0050084833,-0.0012385854
1451816000,1451816000,0.0110481195,0.0020655422,0.0032720035
1451828000,1451828000,0.00584356,-0.0005817036,0.0017855889
1451840000,1451840000,0.006680585,0.002535914,-0.0032560062
1451848000,1451848000,0.007917581,-0.0006875838,-0.005040359
1451864000,1451864000,0.0045934417,-0.005043809,0.0019523434
1451876000,1451876000,0.002085256,-0.004380344,0.0026613204
1451888000,1451888000,0.0016027433,-0.0003111516,0.001501173
1451900000,1451900000,0.0012467443,-0.0011198674,0.00062351127
1451912000,1451912000,0.004550303,-0.00018121162,0.00026422896
1451920000,1451920000,0.005908452,0.005156099,-0.00052914757
1451936000,1451936000,-0.002274064,0.005632576,-0.0007571679
1451948000,1451948000,0.00060634105,0.0077938796,-0.002298523
1451960000,1451960000,-0.00028550305,0.012102139,-0.0048901155
1451972000,1451972000,-0.0014647527,0.016400293,-0.0010794206
1451980000,1451980000,-0.0043899924,0.013661936,-0.0034978075
1451996000,1451996000,-0.0016985742,0.014827823,0.0022731428
1452008000,1452008000,-0.0020857244,0.011444876,4.4995104e-06
1452020000,1452020000,0.0007797718,0.0066066855,-0.0032620723
1452032000,1452032000,0.001836627,0.008805228,-0.0016702923
1452044000,1452044000,0.0044314675,0.014919284,0.00096957776
1452056000,1452056000,0.0075083906,0.014675172,-0.0014666463
1452064000,1452064000,0.0066377013,0.016909122,-0.0018829554
1452076000,1452076000,0.009742098,0.014193149,0.0016713121
1452092000,1452092000,0.0016123081,0.0059891148,-0.00029194867
1452104000,1452104000,0.002092543,0.0073801507,0.00021929282
1452112000,1452112000,0.0017897447,0.0036362389,-0.0013089557
1452128000,1452128000,0.008109368,-0.0033125286,1.0559976e-05
1452140000,1452140000,0.009590545,-0.0021435055,-0.00036962147
1452152000,1452152000,0.005528377,0.0027227332,0.004079051
1452164000,1452164000,0.0028704652,0.0010451889,0.0027871747
1452176000,1452176000,0.0019198526,-0.004008867,-0.0019514257
1452188000,1452188000,0.0029650019,0.0019790195,-0.00026821403
1452200000,1452200000,0.0073869317,0.0063112965,0.0011837659
1452208000,1452208000,0.0068299146,0.0040508304,0.002484313
1452224000,1452224000,0.005712722,-0.0020358432,0.003129216
1452232000,1452232000,-0.0010480729,-0.0069257487,0.0066964487
1452248000,1452248000,-0.008244299,-0.008771538,-0.0002515185
1452256000,1452256000,-0.0083475765,-0.009636964,0.0024418011
1452272000,1452272000,-0.009335311,-0.009024435,-0.0025087227
1452280000,1452280000,-0.0034414812,-0.009632219,-0.0011102621
1452296000,1452296000,-0.0053784074,-0.0016900497,-0.002353711
1452308000,1452308000,-0.001891283,-0.00042150822,-0.0032369588
1452320000,1452320000,8.084619e-05,-0.003076056,0.00026148354
1452332000,1452332000,-0.0028813053,0.0037884284,0.0022861739
1452344000,1452344000,-0.0031484633,0.0073194006,0.00057301857
1452356000,1452356000,-0.0017610537,0.009477161,-0.0022615318
1452368000,1452368000,-0.00030851277,0.008376217,5.2095274e-06
1452376000,1452376000,0.0050551957,0.010159259,0.0020407934
1452392000,1452392000,0.004083324,0.009235455,-0.002485512
1452404000,1452404000,0.0044454173,0.009827834,0.00056300906
1452416000,1452416000,0.005224147,0.009412803,-0.0040399367
1452428000,1452428000,0.007625303,0.0037654869,-0.0023763173
1452440000,1452440000,0.002655164,0.0035017058,-0.0065625734
1452448000,1452448000,0.00058895675,0.0033616023,-0.004233449
1452464000,1452464000,0.0031311742,0.007870836,0.0012685312
1452476000,1452476000,-0.00015365094,0.007767088,0.0034819096
1452488000,1452488000,-0.00476085,0.008769292,0.0021174622
1452500000,1452500000,-0.00057082815,0.0066180667,-0.00351445
1452512000,1452512000,-0.0011745295,0.0055290856,-0.00032471144
1452524000,1452524000,-0.0032008514,0.004888396,0.0047306106
1452536000,1452536000,-0.009814466,-0.0008141482,0.0033961656
1452544000,1452544000,-0.01086667,0.0023344276,0.0013091546
1452556000,1452556000,-0.0048237885,0.0053726393,-0.0044013606
1452572000,1452572000,-0.0043934295,0.0039222687,0.00051553827
1452584000,1452584000,-0.008844268,-0.0048170774,0.0022111407
1452592000,1452592000,-0.011002514,-0.0051712487,0.0035946958
1452608000,1452608000,-0.008852309,-0.0012828032,-0.00026428525
1452620000,1452620000,-0.0097977435,-0.0019748518,0.0064086854
1452632000,1452632000,-0.0056751803,0.0029355688,0.0011305294
1452644000,1452644000,-0.0011665252,-0.001395782,0.001966665
1452656000,1452656000,0.00727385,-0.005249754,0.0036744485
1452668000,1452668000,0.004006532,-0.0017900723,0.00076269696
1452676000,1452676000,0.0042898525,-0.0006286362,0.0004679368
1452692000,1452692000,0.003235841,-0.0037907017,-0.0033021541
1452704000,1452704000,-0.0013069613,0.0023191592,-0.00067649956
1452716000,1452716000,0.0014747037,0.006345542,0.00097187125
1452728000,1452728000,-0.0015511601,0.00056324014,-0.0010025197
1452740000,1452740000,-0.00041137007,-0.0007141712,0.0023333896
1452748000,1452748000,-0.0022774532,-0.002019735,0.0029921646
1452764000,1452764000,0.003245515,0.004223483,0.00041541277
1452776000,1452776000,0.004489552,-0.0010986421,-0.00039920973
1452788000,1452788000,0.0042059706,-0.00054290285,-0.00020548061
1452800000,1452800000,0.004837695,0.00041740574,-0.0019149184
1452812000,1452812000,0.009665028,0.0048524425,-0.0050392384
1452824000,1452824000,0.010075518,0.0027722642,-0.006591383
1452836000,1452836000,0.0049577975,0.00267167,-0.0058167875
1452848000,1452848000,0.0038284578,0.0041669244,-0.0017957573
1452860000,1452860000,0.00948,0.0069903703,-0.003743688
1452872000,1452872000,0.007325476,0.006397264,-0.00444209
1452880000,1452880000,0.009286383,0.007233282,-8.068135e-05
1452896000,1452896000,0.006749707,0.0045418753,0.0061531817
1452908000,1452908000,0.0035199146,0.005280797,0.003952357
1452916000,1452916000,0.004461982,0.0067331046,0.0038170544
1452932000,1452932000,0.00314413,0.0075323638,0.00044390786
1452944000,1452944000,0.0008879411,0.0030688688,0.0029838833
1452956000,1452956000,0.006290637,0.0021249512,0.0019678434
1452968000,1452968000,0.005075778,0.007970089,-0.0037631653
1452976000,1452976000,0.0053751646,0.006831508,-0.0009575033
1452992000,1452992000,0.0068355203,0.0080957,0.00082197034
1453004000,1453004000,0.0072023296,0.008131873,0.002658968
1453012000,1453012000,0.00065016607,0.01177882,0.0029923334
1453028000,1453028000,-0.006499622,0.0015480779,-0.003278018
1453040000,1453040000,-0.0029350554,0.0006715981,0.0012871015
1453048000,1453048000,-0.0032655555,0.00035928562,-0.00018981716
1453064000,1453064000,0.0020735678,0.0042809485,-0.00012815109
1453076000,1453076000,-0.0022211904,0.004187685,-0.00034767616
1453088000,1453088000,-8.178956e-05,0.0051401905,-0.001821839
1453100000,1453100000,-0.004040141,0.0022173766,0.0007436717
1453112000,1453112000,-0.0018005332,-0.0011524409,0.0016257988
1453124000,1453124000,-0.0006060868,0.004360184,-0.002616045
1453136000,1453136000,-0.004293913,-7.215515e-05,0.00057012157
1453148000,1453148000,0.0005631018,-0.0053137415,0.00090197567
1453160000,1453160000,-0.0040415106,-0.00847506,0.00054449076
1453172000,1453172000,-0.0028011058,-0.0069340887,-0.00564618
1453184000,1453184000,-0.0069904737,-0.01012199,-1.6590755e-05
1453196000,1453196000,-0.00077156676,-0.008685518,-0.0018246997
1453208000,1453208000,-0.0028514918,-0.006878129,-5.4021773e-05
1453216000,1453216000,-0.0005369912,-0.005551566,-0.0014206949
1453232000,1453232000,-0.004899904,-0.00808065,-0.003399802
1453240000,1453240000,-0.004395933,-0.004625124,-0.0012552773
1453256000,1453256000,-0.004665981,0.0012714951,-0.0036053716
1453268000,1453268000,-0.0048645968,0.0034688693,0.0005883786
1453280000,1453280000,-0.003995846,0.0007861997,0.0021300083
1453292000,1453292000,-0.007281905,0.00087947026,0.00027512136
1453300000,1453300000,-0.01204967,0.0013747741,0.00029071362
1453316000,1453316000,-0.008707168,-0.005719546,-0.0026902894
1453324000,1453324000,-0.0059467405,-0.009684885,-0.005447556
1453340000,1453340000,-0.008018436,-0.0035028793,0.0010634811
1453352000,1453352000,-0.0074589276,-0.0044910586,-0.0016933446
1453364000,1453364000,-0.010723125,-0.0010190383,0.0014420922
1453376000,1453376000,-0.011316961,0.0004234244,-3.294513e-05
1453388000,1453388000,-0.008066014,-0.0045772707,-0.00027853728
1453400000,1453400000,-0.004001597,-0.009441435,0.0055203945
1453412000,1453412000,-0.0053833467,-0.006480113,-0.0026121847
1453420000,1453420000,-0.0075047663,-0.013041645,-0.0032602083
1453436000,1453436000,-0.00799905,-0.018093687,-0.0014967239
1453448000,1453448000,-0.0047931885,-0.013880791,-0.0021048668
1453460000,1453460000,-0.004019933,-0.006732486,-0.009670754
1453468000,1453468000,-0.0070878007,-0.0010828772,-0.0048284144
1453480000,1453480000,-0.0041289404,-0.0054431097,0.005149612
1453492000,1453492000,-0.0014476192,-0.006173049,0.0013212226
1453508000,1453508000,-0.0018868498,-0.00057514245,0.0036411858
1453520000,1453520000,-0.004548716,0.0008993,-0.00069537084
1453532000,1453532000,-0.0030233955,0.005852693,0.0014652205
1453544000,1453544000,-0.0039588506,0.00014611753,-0.0014522113
1453556000,1453556000,-0.005358286,0.003912433,0.0015678428
1453568000,1453568000,-0.0034921644,0.0049795946,0.00020256196
1453576000,1453576000,-0.0053009437,0.0040063653,-0.0019065693
1453592000,1453592000,0.0011246263,0.0012571122,-0.0035737385
1453604000,1453604000,0.006459183,0.00278576,-2.5325571e-05
1453616000,1453616000,0.006440767,0.00030574342,-0.0012445414
1453628000,1453628000,0.00015646912,0.0024534934,-0.0015817841
1453636000,1453636000,-0.0035911526,0.0037692634,-0.0006961909
1453652000,1453652000,-0.00054609135,0.0034850538,-0.002676923
1453664000,1453664000,0.0068659396,0.0019617947,-0.0002514799
1453672000,1453672000,0.0035454272,-0.003278955,-0.0016955181
1453688000,1453688000,-0.00091276254,-0.0031034262,-0.00074923417
1453700000,1453700000,0.0018232756,-0.006193966,0.0005596115
1453712000,1453712000,0.005338601,-0.002497741,0.0012072874
1453724000,1453724000,-0.0014007175,-0.0049577886,0.0023119743
1453732000,1453732000,-0.0051769447,-0.0019475892,0.0016619477
1453744000,1453744000,-0.010796135,-0.0021500369,0.0036855233
1453756000,1453756000,-0.010494325,-0.008028173,0.003724748
1453772000,1453772000,-0.0056441245,-0.0043970016,-0.00026520126
1453784000,1453784000,-0.0066356673,-0.0026713782,0.0016335489
1453796000,1453796000,-0.0014876231,0.0020999755,0.003423689
1453808000,1453808000,0.0020429743,0.0077971923,0.0048425943
1453820000,1453820000,-0.0019120316,0.0069329217,-0.007099037
1453832000,1453832000,-0.0016753549,0.002421062,-0.00019014633
1453844000,1453844000,-0.001846835,0.0033338275,-0.00023459969
1453856000,1453856000,0.00074869604,-0.0028591738,0.0026236158
1453868000,1453868000,0.0028727918,-0.00797971,0.0046181846
1453880000,1453880000,0.0030951179,-0.002422695,-0.00046016715
1453892000,1453892000,0.00043085488,-0.003979872,-0.0044969283
1453904000,1453904000,-0.00030510384,-0.005334609,0.00014954316
1453916000,1453916000,-0.0053123524,0.0027897707,-0.0028845093
1453924000,1453924000,-0.00522005,0.0027108125,-0.0021750238
1453940000,1453940000,0.0009288501,0.004455123,-0.0065118526
1453952000,1453952000,-0.004797537,0.00034404453,-0.012614732
1453964000,1453964000,-0.0059498693,0.011150923,-0.0144698145
1453976000,1453976000,-0.0062512094,0.01629812,-0.012645774
1453988000,1453988000,-0.008884354,0.010780251,-0.020150272
1454000000,1454000000,-0.0047265305,0.0141385235,-0.021106146
1454012000,1454012000,-0.0017792161,0.01019906,-0.02105434
1454020000,1454020000,-0.00015191874,0.012363084,-0.023560606
1454036000,1454036000,-0.00052530237,0.015194695,-0.019477207
1454048000,1454048000,-0.00095971854,0.014437487,-0.024990555
1454060000,1454060000,0.0021181675,0.015835863,-0.028089447
1454068000,1454068000,0.0025471223,0.01584205,-0.027480813
1454084000,1454084000,0.008384159,0.009883305,-0.024221404
1454092000,1454092000,0.010173729,0.0047280546,-0.025611693
1454104000,1454104000,0.010683361,-0.0007569804,-0.023342554
1454120000,1454120000,0.011545818,-0.0015716311,-0.023869397
1454132000,1454132000,0.0036530534,-0.0015200721,-0.023957537
1454144000,1454144000,0.00266152,-0.0073769065,-0.025212485
1454156000,1454156000,0.0031993114,-0.0009782021,-0.022664728
1454168000,1454168000,0.005519192,4.0172134e-05,-0.016333194
1454180000,1454180000,0.0067564067,-0.003620821,-0.019406935
1454192000,1454192000,0.005102718,-0.003545056,-0.020639472
1454204000,1454204000,0.0072564036,-0.00633022,-0.020951316
1454216000,1454216000,0.005960746,-0.0072480836,-0.021339227
1454228000,1454228000,0.0003676839,-0.0040618046,-0.019905165
1454240000,1454240000,-0.0040400745,-0.0033992012,-0.01740289
1454252000,1454252000,-0.006571386,-0.009535691,-0.016642697
1454264000,1454264000,0.002582622,-0.014597043,-0.019059747
1454276000,1454276000,0.005012529,-0.014072668,-0.014591228
1454288000,1454288000,0.00084105623,-0.01750429,-0.013048374
1454300000,1454300000,0.0007951502,-0.013393918,-0.009945589
1454312000,1454312000,0.0013945351,-0.009311654,-0.010339072
1454324000,1454324000,0.004069898,-0.008458371,-0.0076269517
1454332000,1454332000,0.0036773344,-0.0052034957,-0.0069025834
1454348000,1454348000,0.0035786864,-0.0045371866,-0.009402331
1454356000,1454356000,0.004633501,-0.0060155652,-0.008059806
1454372000,1454372000,0.0077402648,-0.002390679,-0.0047194986
1454384000,1454384000,0.009613255,-0.0055515803,-0.010931645
1454396000,1454396000,0.009717232,-0.007421674,-0.008918859
1454408000,1454408000,0.0034812859,-0.0016952236,-0.0076611773
1454420000,1454420000,0.001964489,-0.006563155,-0.007993312
1454432000,1454432000,0.008471226,-0.0025897492,-0.0046005873
1454444000,1454444000,0.0037981302,-0.0074463906,-0.0041315285
1454456000,1454456000,0.004650579,-0.0025891638,-0.0073374254
1454468000,1454468000,0.0074045714,-0.0023658588,-0.0058994708
1454480000,1454480000,0.0062050903,-0.00034139818,-0.0045045996
1454492000,1454492000,0.004278526,-0.0015941337,-0.0049543045
1454504000,1454504000,0.004502269,0.00037062587,-0.0046222704
1454516000,1454516000,0.0069997003,0.0062156883,-0.00027944718
1454528000,1454528000,0.004370708,0.0052561653,-0.002704953
1454536000,1454536000,0.0032922653,0.002823936,-0.0027821278
1454552000,1454552000,-0.0053059408,0.002245463,-4.1783613e-05
1454564000,1454564000,-0.0039805896,-0.0013839882,-0.0026570563
1454576000,1454576000,-0.0005312199,-0.00404804,-0.0026512544
1454588000,1454588000,4.165049e-06,-0.000773245,4.8388436e-05
1454600000,1454600000,0.005989864,-0.005887398,0.00332512
1454612000,1454612000,0.0055428413,-0.005112841,-0.0013274857
1454624000,1454624000,0.005475706,-0.008903014,0.0021112997
1454636000,1454636000,-0.0003769982,-0.0033744136,-0.0007105419
1454644000,1454644000,-0.001145796,-0.0014841249,-0.0030049172
1454660000,1454660000,-0.008246317,0.001419147,0.0010118769
1454672000,1454672000,-0.013078415,0.0082758665,0.00096822507
1454680000,1454680000,-0.012854791,0.010548154,0.00043017825
1454696000,1454696000,-0.008808935,0.007484124,0.0005365779
1454704000,1454704000,-0.004495057,0.0103032235,0.00092891185
1454720000,1454720000,-0.00296112,0.0067895297,1.527858e-05
1454728000,1454728000,9.585894e-05,0.0014217114,0.0034957575
1454744000,1454744000,-0.00047204294,-0.00093761645,0.0030907851
1454756000,1454756000,-0.0014457136,-0.004440495,0.007947614
1454764000,1454764000,-0.003471552,-0.0025327443,0.00834052
1454780000,1454780000,-0.0023989384,-0.0024063434,-0.00060401973
1454792000,1454792000,0.0008456683,0.0036715558,8.400908e-05
1454800000,1454800000,0.0071336217,0.0055494877,0.006243126
1454816000,1454816000,0.0039958702,0.0019377037,0.0040633846
1454828000,1454828000,-8.098793e-05,0.002555654,0.003133128
1454840000,1454840000,0.007337689,0.007681426,0.0026105053
1454852000,1454852000,0.0074890894,0.013733994,0.0016369196
1454864000,1454864000,0.0012902154,0.009324658,-1.7116603e-05
1454876000,1454876000,-0.0018030498,0.0016858005,0.0008209493
1454888000,1454888000,-0.0042901277,-0.00016874494,0.004158832
1454900000,1454900000,-0.008671969,0.002326417,0.0063731656
1454912000,1454912000,-0.008850147,0.005939316,0.0031513819
1454924000,1454924000,-0.0053835325,-0.0034944923,0.004369182
1454936000,1454936000,-0.0022288486,-0.0015688553,-0.0015688306
1454948000,1454948000,-0.0055846935,-0.0042507793,0.008161435
1454960000,1454960000,-0.0040756604,-0.0009944816,0.006055342
1454972000,1454972000,-0.009763745,-3.3795834e-05,0.002717258
1454984000,1454984000,-0.00043245347,0.0009777369,0.004724679
1454996000,1454996000,0.00343588,0.00277026,0.0034977873
1455008000,1455008000,0.004617606,-0.00056765415,0.0031468319
1455020000,1455020000,0.0009933419,-0.001376878,0.004720036
1455032000,1455032000,-0.0011171155,-0.009714406,0.0026103482
1455044000,1455044000,0.004112814,-0.011370314,0.0019384214
1455056000,1455056000,0.008769509,-0.004125574,0.005292445
1455068000,1455068000,0.0033610302,-0.0030526477,0.0075512985
1455080000,1455080000,0.0048314016,-0.01164348,0.0058354577
1455092000,1455092000,0.004335847,-0.0036477307,0.0045234594
1455104000,1455104000,0.008380541,0.0031352378,0.003710409
1455116000,1455116000,0.008069253,-0.0012098565,0.003906353
1455128000,1455128000,0.010526618,0.001867115,0.004642175
1455140000,1455140000,0.000354073,-0.00030002464,-0.001612833
1455152000,1455152000,0.0017929638,-0.0066497703,0.0015711286
1455164000,1455164000,0.00804762,-0.0018414618,0.0014277045
1455176000,1455176000,0.010682893,-0.001682553,-0.0025846031
1455188000,1455188000,0.0027456575,0.0020181844,0.0039390884
1455200000,1455200000,0.0015059143,-0.0065237004,-0.00021727121
1455212000,1455212000,0.0017915011,-0.0060382695,0.0038049098
1455224000,1455224000,-0.00038820948,-0.006151316,0.0031306841
1455236000,1455236000,-0.0018812111,-0.0027716667,0.0052327793
1455248000,1455248000,-0.0067591434,-0.00030139275,0.005908674
1455256000,1455256000,-0.011231404,-0.0010661688,0.005415859
1455268000,1455268000,-0.01102812,-0.007564724,0.008439694
1455280000,1455280000,-0.006414753,-0.0050234115,0.0056478516
1455296000,1455296000,-0.008696323,-0.010131589,0.0043701907
1455308000,1455308000,-0.0040805577,-0.0051438147,0.0016145585
1455320000,1455320000,-0.0012630392,-0.009555735,0.0045770155
1455332000,1455332000,-0.0020837653,-0.004178746,0.0006316956
1455344000,1455344000,-0.0014174549,0.003400873,0.0005833218
1455356000,1455356000,-0.0029423658,0.0013770568,0.0028906867
1455368000,1455368000,-0.0052564223,0.0054381685,0.0038400283
1455380000,1455380000,-0.0031574015,0.008791818,0.0031197853
1455392000,1455392000,0.0012385284,0.0083628,0.0028798354
1455404000,1455404000,0.0014447178,0.0040043364,0.003914678
1455416000,1455416000,0.0024168484,-0.0005978313,0.00064945
1455428000,1455428000,0.0026293562,-0.001944833,0.002054463
1455436000,1455436000,0.0036514914,-0.0020090244,0.0059454357
1455452000,1455452000,-0.0045983884,0.001886419,0.008582865
1455464000,1455464000,-0.006983052,0.008941365,0.007350504
1455472000,1455472000,-0.01239372,0.0023226861,0.0021151085
1455484000,1455484000,-0.014286527,0.00078002084,0.0019212323
1455500000,1455500000,-0.013798931,-0.002158585,0.0048304116
1455512000,1455512000,-0.01436741,-0.00051033683,0.005561015
1455520000,1455520000,-0.011748321,0.004311218,0.008027614
1455536000,1455536000,-0.006851334,0.0012092246,0.002947154
1455544000,1455544000,-0.0032425036,-0.0031552403,0.006370117
1455560000,1455560000,-0.0031706113,0.0009521046,0.0054621235
1455572000,1455572000,-0.0029146164,0.0004844321,0.002766556
1455584000,1455584000,-0.0035720898,-0.0050305,-0.0031876338
1455596000,1455596000,-0.007829402,-0.0070848223,6.7783054e-05
1455608000,1455608000,-0.012059184,-0.003811038,0.004886693
1455620000,1455620000,-0.005928349,-0.00014539156,-0.0003553463
1455632000,1455632000,-0.0033081954,-0.0004385379,0.0007678365
1455644000,1455644000,0.004172918,-0.004556681,-9.0205926e-05
1455656000,1455656000,0.006573802,-0.0032019438,-0.0010567957
1455668000,1455668000,-5.3769327e-06,-0.0082102455,-0.003865607
1455680000,1455680000,-0.004064382,-0.004787523,0.002721736
1455692000,1455692000,0.00057638413,-0.0091877375,0.0032820252
1455704000,1455704000,0.007880343,-0.007470221,0.00047093973
1455716000,1455716000,0.0046023913,-0.004401876,4.1329477e-05
1455728000,1455728000,0.009993514,-0.0117104575,0.0025239722
1455740000,1455740000,0.008281325,-0.008436122,0.003152345
1455752000,1455752000,0.011404733,-0.010866159,0.004036629
1455764000,1455764000,0.0072360225,-0.010890619,0.0019395637
1455776000,1455776000,0.0048858486,-0.009942893,0.0058621233
1455788000,1455788000,0.0076013724,-0.0099712815,0.003689064
1455800000,1455800000,0.011161375,-0.0121888,0.001102655
1455812000,1455812000,0.013340539,-0.010299785,0.0031716297
1455824000,1455824000,0.007000274,-0.008218393,0.00060621573
1455836000,1455836000,0.011322066,0.001289899,0.0023613216
1455844000,1455844000,0.009731857,0.0001919195,0.0010110316
1455860000,1455860000,0.0051685697,0.001795413,0.0064979396
1455872000,1455872000,0.0035657873,0.0038278578,0.0034600124
1455880000,1455880000,0.0016509389,0.006145416,0.0027207003
1455892000,1455892000,-0.0023334897,0.006990615,0.0052988906
1455908000,1455908000,0.0008964705,-0.00096567906,0.0011313711
1455920000,1455920000,0.0030364504,0.0008401545,0.0033381262
1455932000,1455932000,0.0037469214,0.0033311679,0.00019905501
1455944000,1455944000,0.0019786516,0.0042081685,-0.0014566951
1455956000,1455956000,0.0023639337,0.007326224,-0.0026008014
1455968000,1455968000,-0.0019683936,0.0038611072,-0.004045264
1455980000,1455980000,-0.0033883527,0.0040075397,-0.0050231256
1455988000,1455988000,-0.006503593,0.0036283308,1.4242833e-06
1456000000,1456000000,-0.0009143285,0.0026277942,0.0054338616
1456016000,1456016000,0.0006572326,-0.0039597433,-0.0015522742
1456024000,1456024000,0.0015681655,-0.0060512805,-0.0019375855
1456040000,1456040000,0.0027241847,-0.00085800746,0.00039675762
1456048000,1456048000,0.0040647485,-0.0010905839,0.0019279396
1456064000,1456064000,0.0063575404,-0.0038745678,-0.0018663728
1456076000,1456076000,0.0008702477,-0.003192429,-0.0016344178
1456088000,1456088000,-0.0006541152,-0.0035422063,-0.0004947474
1456100000,1456100000,0.000869577,-0.007477817,0.00034542545
1456112000,1456112000,-0.006807227,-0.006569647,-0.0032490203
1456124000,1456124000,-0.0033895494,-0.0036847712,-0.0016581973
1456136000,1456136000,-0.00593277,-0.009071229,-0.0013594856
1456144000,1456144000,-0.004869905,-0.00682239,-0.002261417
1456156000,1456156000,0.0016691929,-0.0119435815,-0.0017227062
1456172000,1456172000,-0.0022143947,-0.0082025435,0.0025602758
1456184000,1456184000,-0.0044108895,-0.0032753362,0.0049828566
1456196000,1456196000,-0.004744089,-0.0009828173,0.0018138669
1456208000,1456208000,-0.0059288484,0.000823312,0.00046221662
1456220000,1456220000,-0.0069636023,-0.0041172323,0.0015921465
1456232000,1456232000,-0.007522485,-0.005745497,0.0024087534
1456244000,1456244000,-0.0066919066,0.00051613245,0.0022369223
1456256000,1456256000,0.0016378361,0.0071991747,0.00224595
1456268000,1456268000,0.0005792857,0.008871308,-0.00031891087
1456276000,1456276000,-0.0036653837,0.012040822,-0.0024192475
1456292000,1456292000,-0.0024704346,0.010442796,0.0015694598
1456304000,1456304000,-0.005831413,0.009059513,-0.0023809748
1456316000,1456316000,-0.003912313,0.008740375,-0.0013373857
1456328000,1456328000,-0.0033731803,0.0078108916,0.00016574818
1456340000,1456340000,-0.00501868,0.002397759,0.0016047689
1456352000,1456352000,-0.0012878634,0.0106561985,0.005165891
1456364000,1456364000,0.00092121505,0.009554608,0.0010436281
1456376000,1456376000,0.0013395317,0.003338627,0.0021596283
1456388000,1456388000,0.006783689,-0.00094170263,0.0016713382
1456400000,1456400000,0.0027556021,-0.0032359269,0.004083319
1456412000,1456412000,0.002435641,-0.0020882562,0.0030891742
1456420000,1456420000,-0.00062612206,-0.000121067744,0.004147947
1456436000,1456436000,-0.004430632,-0.0014583864,0.0024883803
1456448000,1456448000,-0.0018781112,-0.0063959034,0.0015491422
1456460000,1456460000,-6.944558e-05,-0.0023347521,0.0036165304
1456472000,1456472000,0.0019647405,-0.009868735,-0.0010623332
1456484000,1456484000,0.0034226433,-0.0030093598,0.0005273186
1456496000,1456496000,0.0032791495,-0.0012039016,0.00041931937
1456508000,1456508000,0.0017678802,0.0035121925,-0.00014821399
1456516000,1456516000,0.00091790536,0.0005976488,0.0007141568
1456532000,1456532000,0.0040053874,0.002307258,-0.00012772175
1456544000,1456544000,0.0001545311,0.0020201532,-0.0023265644
1456556000,1456556000,-0.0033778108,0.0053342353,-0.0010727595
1456564000,1456564000,-0.002825682,0.00094532175,0.001665247
1456580000,1456580000,-0.004951863,-0.0036174129,5.222275e-06
1456588000,1456588000,-0.0072414405,-0.002458407,0.00086641026
1456604000,1456604000,-0.0037251892,-0.0010580672,-0.0024196072
1456616000,1456616000,-0.0039477786,-0.0045448393,-0.0017191091
1456628000,1456628000,-0.0015334578,-0.008458694,0.0036693886
1456640000,1456640000,0.005434495,-0.005973366,-0.00034386915
1456652000,1456652000,0.00834579,-0.007861918,0.0014361627
1456660000,1456660000,0.011513495,-0.007955974,0.002068364
1456672000,1456672000,0.0069269063,-0.00761311,0.0016675999
1456688000,1456688000,0.0031180724,-0.007299197,-0.002478451
1456700000,1456700000,0.0027321898,-0.005287283,0.003488287
1456712000,1456712000,0.006038635,-0.0086775385,0.0029607587
1456724000,1456724000,0.0072018625,-0.008957747,0.004579283
1456736000,1456736000,0.01541016,-0.0067353398,0.007521973
1456748000,1456748000,0.012848571,-0.0024001976,0.0078174975
1456756000,1456756000,0.009596425,-0.002613572,0.008018275
1456772000,1456772000,0.0018005623,0.0026009753,-0.000740062
1456784000,1456784000,0.003981999,0.0028714798,0.001399262
1456796000,1456796000,-0.0035337147,0.0075782505,0.0025323224
1456808000,1456808000,-0.008255459,0.009233868,0.0009068098
1456820000,1456820000,-0.010250547,0.0081258025,-0.008235426
1456828000,1456828000,-0.008907508,0.009615174,-0.007589317
1456844000,1456844000,-0.0054051704,0.0056220256,-0.0036042493
1456856000,1456856000,-0.0016556138,0.010504141,-0.00082933996
1456868000,1456868000,-0.0038192666,0.0025887717,0.0014856432
1456880000,1456880000,-0.0037952508,0.0025443693,-0.0012761366
1456892000,1456892000,-0.0034895837,0.009907899,0.0007066381
1456904000,1456904000,0.0013277035,0.007839605,-0.0039380286
1456916000,1456916000,0.0016527507,0.009240033,-0.0013111897
1456928000,1456928000,0.0042359265,0.008408575,0.0018344785
1456940000,1456940000,-0.00011176057,0.0092292875,-0.001172835
1456952000,1456952000,-0.0019164463,0.009916265,0.003903099
1456964000,1456964000,-0.008297711,0.002679907,0.004756055
1456976000,1456976000,-0.009416962,-0.004771519,-0.004501571
1456988000,1456988000,-0.006053095,-0.0023733578,-0.003004918
1457000000,1457000000,-0.0053045996,0.0034218468,-0.0004930825
1457012000,1457012000,-0.0023219541,-0.0050420044,-0.0037744087
1457024000,1457024000,0.00035839938,0.0061485386,-0.002085879
1457036000,1457036000,-0.004198426,0.0039732996,-0.0001000723
1457048000,1457048000,-0.006032604,0.0053598876,0.00026847475
1457060000,1457060000,-0.008501367,-0.0035859747,-0.0021918113
1457068000,1457068000,-0.0064498354,-0.0012027575,-0.003621435
1457084000,1457084000,-0.0024253093,0.006542154,0.0038795222
1457096000,1457096000,8.949527e-05,0.004202555,-0.0025346729
1457108000,1457108000,0.00068909186,-0.0009500468,0.0009287956
1457120000,1457120000,0.0013759972,-0.0026337733,-0.0012805784
1457128000,1457128000,0.0015194679,-0.003944959,-0.002042111
1457140000,1457140000,-0.0011030766,-0.0036728168,-0.002810729
1457156000,1457156000,0.0020807886,-0.008925019,0.0034652834
1457164000,1457164000,0.0018276875,-0.008674154,0.003486209
1457176000,1457176000,0.0023229562,-0.007412569,0.00095912133
1457192000,1457192000,0.0041436125,-0.00565024,2.6815396e-05
1457204000,1457204000,0.002363689,-0.008348504,0.0023778195
1457216000,1457216000,0.0068415506,-0.010277094,0.0007885356
1457228000,1457228000,0.009277058,-0.0033400152,-0.00016513228
1457240000,1457240000,0.0050118887,-0.0056633158,-0.002251689
1457252000,1457252000,0.0073802816,-0.007710566,-0.0005833375
1457264000,1457264000,0.010508089,-0.00048125256,0.0017550916
1457276000,1457276000,0.00772334,-0.0014234884,0.0017123097
1457288000,1457288000,0.011298828,-0.00301984,-3.5981007e-05
1457296000,1457296000,0.007236666,-0.006529052,-0.001824805
1457312000,1457312000,0.0010818201,-0.00091784075,-2.1738873e-05
1457324000,1457324000,0.005301033,0.0027915994,0.003922844
1457332000,1457332000,0.004456884,0.0046509765,0.001381797
1457344000,1457344000,0.0047735893,-0.00057109864,-0.008056578
1457360000,1457360000,0.0027195644,-0.001617542,-0.0019485215
1457372000,1457372000,0.0044585583,-0.0039377264,0.004927863
1457384000,1457384000,0.0037183282,0.0001739501,0.003211942
1457396000,1457396000,0.008640189,0.00024636416,-0.001000728
1457408000,1457408000,0.010066727,5.2194577e-05,0.0012538631
1457416000,1457416000,0.0033287683,-0.00043498958,0.0014336086
1457432000,1457432000,-0.00229994,0.0006905366,-0.003774014
1457440000,1457440000,-0.0038467168,0.002747674,-0.0029657837
1457456000,1457456000,0.00033255035,0.005627018,0.0043654405
1457468000,1457468000,-0.0010243308,0.002833885,0.0014160875
1457480000,1457480000,0.005671151,-0.005797366,-0.001183162
1457492000,1457492000,0.005117286,-0.006877591,-0.0019265137
1457504000,1457504000,0.00061939337,-0.00541481,-0.0026090143
1457516000,1457516000,-0.000981583,-0.0065441946,0.00079432246
1457524000,1457524000,-0.00041944813,-0.0061946283,0.0037653681
1457536000,1457536000,0.002800599,-0.007868573,-0.002707419
1457548000,1457548000,-0.0017729693,-0.008399695,-0.0018333471
1457564000,1457564000,-0.0046237586,-0.009001186,-0.0018837553
1457576000,1457576000,-0.007043324,-0.009962789,-0.0010042876
1457588000,1457588000,-0.0058286963,-0.0069663515,-0.0024145169
1457596000,1457596000,-0.0033705514,-0.0037150616,-0.001227834
1457608000,1457608000,0.0038821003,-0.0046467036,-0.0012256826
1457624000,1457624000,0.0019246307,-0.007105081,0.0026228093
1457636000,1457636000,-0.0034735994,-0.0070144474,8.3982595e-05
1457648000,1457648000,-0.009443774,-0.012122493,-0.002440701
1457660000,1457660000,-0.0085372925,-0.0052783694,-0.001595691
1457672000,1457672000,-0.005825293,-0.0069479505,-0.00158407
1457680000,1457680000,-0.006766646,-0.012387314,0.0019569413
1457696000,1457696000,-0.0042964616,-0.013604332,0.0011615312
1457708000,1457708000,-0.012305655,-0.005953062,0.0012204307
1457720000,1457720000,-0.005433018,-0.008721456,-0.0035603934
1457728000,1457728000,-0.0035772447,-0.011233866,-0.0030922992
1457744000,1457744000,-0.0019352699,-0.009379961,-0.0022192043
1457756000,1457756000,-3.8769096e-05,-0.010513194,0.008367644
1457764000,1457764000,0.000989327,-0.009682484,0.010805282
1457780000,1457780000,0.0036546336,-0.009009618,0.0036614724
1457792000,1457792000,0.0039388034,-0.007368088,0.0044571124
1457800000,1457800000,0.005047624,-0.0034851143,0.00014075416
1457816000,1457816000,0.0029838847,-0.007066578,0.0002928191
1457828000,1457828000,0.016384924,-0.0033443277,-0.0005811978
1457840000,1457840000,0.013296375,-0.0011581546,0.0006871617
1457848000,1457848000,0.008250237,0.0024817935,0.001420161
1457860000,1457860000,0.010350886,0.0035941454,0.00028452586
1457876000,1457876000,0.017070891,0.009866048,0.0029340563
1457888000,1457888000,0.014094133,0.012543984,0.00030372752
1457900000,1457900000,0.013983072,0.018865438,0.006274983
1457912000,1457912000,0.01274265,0.018362274,0.0044666813
1457924000,1457924000,0.01259472,0.012819044,0.0024157458
1457936000,1457936000,0.010613016,0.012270581,0.0014228729
1457948000,1457948000,0.0012681249,0.015614146,-0.0022681528
1457960000,1457960000,0.0014217256,0.01055612,-0.0013947077
1457972000,1457972000,2.383336e-05,0.004497215,0.0033743284
1457984000,1457984000,0.0030726513,0.0069902423,0.0028329834
1457996000,1457996000,0.008343469,0.009339627,-0.0013245661
1458004000,1458004000,0.005954998,0.0059355237,-0.00090213306
1458020000,1458020000,0.0030275425,0.0022280605,0.0020835986
1458032000,1458032000,-0.00031462824,-0.0016638604,-0.0029320582
1458044000,1458044000,0.0045400527,0.0017691026,-0.0016585793
1458056000,1458056000,0.0022770676,0.0017545861,-0.00028767472
1458068000,1458068000,-0.00013100175,0.006157071,0.0002852371
1458080000,1458080000,0.0023402737,0.005118915,-0.0019367496
1458088000,1458088000,-0.0040665767,0.003419502,-0.0012771449
1458104000,1458104000,-0.005923653,0.0002832748,-0.0015059782
1458116000,1458116000,-0.009610699,-0.0070314514,-0.0025196236
1458128000,1458128000,-0.0092535615,-0.008654178,-0.005601956
1458140000,1458140000,-0.011734747,-0.0055036023,-0.002494615
1458152000,1458152000,-0.010664489,0.0008651917,0.00017866807
1458160000,1458160000,-0.009949322,0.0011219201,4.943309e-05
1458176000,1458176000,-0.004215267,0.0022697141,0.001618238
1458188000,1458188000,-0.0057161953,0.0053042187,0.0024417904
1458196000,1458196000,-0.004309424,0.0060283616,0.0012700055
1458212000,1458212000,-0.002851221,0.0032854113,-0.0014461873
1458224000,1458224000,0.0011017255,0.010057885,0.000516808
1458236000,1458236000,0.0033964308,0.0072744363,0.0058734827
1458248000,1458248000,0.004484681,0.0043482585,0.00036351586
1458260000,1458260000,0.00535302,0.0076040556,-0.00052482344
1458272000,1458272000,0.005414076,0.0077961963,-0.0017528355
1458284000,1458284000,-0.00064852415,0.013094807,-0.0030637076
1458292000,1458292000,0.0021445877,0.008281909,-0.0007229497
1458308000,1458308000,0.007031254,0.013666344,0.0001674199
1458320000,1458320000,0.011484133,0.005427954,0.0004757514
1458328000,1458328000,0.0076237195,0.001078622,0.0022594333
1458344000,1458344000,0.005378176,-0.0004069223,0.002989438
1458356000,1458356000,-0.0012800181,-0.0036915299,0.0007633933
1458368000,1458368000,-0.0049864147,7.0579816e-05,-0.0005746563
1458380000,1458380000,-0.0004968331,0.003452448,0.003043697
1458392000,1458392000,-0.0021742545,-0.0043543875,0.0013244089
1458400000,1458400000,-0.0046651717,-0.0013979622,8.376385e-05
1458416000,1458416000,-0.0004842393,0.0042501222,0.0031821516
1458428000,1458428000,0.004404015,0.003180432,0.002317542
1458440000,1458440000,-0.0027969084,0.008671014,0.0051235
1458452000,1458452000,-0.003984721,0.005604476,0.0016053969
1458460000,1458460000,-0.006421714,-0.00011763163,0.0006573275
1458476000,1458476000,-9.036844e-05,-0.0061101364,0.0010948529
1458488000,1458488000,0.00057269004,-0.0077593406,0.008735966
1458500000,1458500000,0.0066807405,-0.0033716797,0.0039979056
1458512000,1458512000,0.003796414,-0.002891777,-0.0029449142
1458524000,1458524000,0.003616892,0.001026222,-0.00060294906
1458536000,1458536000,0.0039386023,0.001517063,-0.0013550026
1458548000,1458548000,0.008294979,-0.0063611045,-0.0035320858
1458560000,1458560000,0.00718446,-0.0024860296,-0.004478645
1458572000,1458572000,-0.0020895186,0.0013791099,-0.0005295252
1458584000,1458584000,-0.0055677737,0.0051465603,-0.0025413232
1458596000,1458596000,-0.0054034744,0.0020960122,-0.001686996
1458608000,1458608000,-0.006827762,-0.0030178688,0.0051426366
1458620000,1458620000,-0.0008580916,-0.010455048,0.0015495103
1458632000,1458632000,-0.003640237,-0.0064235856,0.0012511598
1458644000,1458644000,0.00034262534,-0.005271315,-0.00079416
1458656000,1458656000,-0.0036705602,-0.004625875,0.0019152525
1458668000,1458668000,-0.009004506,0.0017174636,0.002057884
1458680000,1458680000,-0.008747217,-0.001966328,0.0039140303
1458692000,1458692000,-0.006410725,0.008906202,0.0047330363
1458704000,1458704000,-0.003251812,0.007937484,-0.00022005872
1458716000,1458716000,0.0017986078,0.0077377083,0.0024536874
1458728000,1458728000,0.0022826456,0.0014847126,0.003086749
1458736000,1458736000,0.0011658656,0.0011412096,-4.968437e-05
1458752000,1458752000,-0.0026032794,0.004096447,-0.0003985267
1458760000,1458760000,-0.0031287158,0.0052950145,0.0023202873
1458776000,1458776000,-0.006118726,0.00024198834,0.0024965487
1458788000,1458788000,-0.0045334753,0.0010681967,0.00088849483
1458800000,1458800000,0.0013587996,0.004650808,4.0226674e-05
1458812000,1458812000,0.0037486732,0.002804269,-0.0021561638
1458824000,1458824000,0.0011603825,0.005014587,-0.0021633813
1458836000,1458836000,0.0034647018,0.007767739,0.0007494346
1458844000,1458844000,0.0043594185,0.006184953,0.0011523768
1458860000,1458860000,0.0007551273,0.00714239,-0.0025015308
1458872000,1458872000,0.00058574183,0.0063586384,0.00012413313
1458884000,1458884000,-0.0044659995,0.008033115,-0.00073964574
1458896000,1458896000,-0.0030557262,0.005217917,-0.0017920185
1458908000,1458908000,0.0054290174,0.0023070364,-0.0027160894
1458920000,1458920000,0.0053938087,-0.00053251116,-0.0018245858
1458932000,1458932000,0.0093511045,0.0012206901,-0.003523321
1458940000,1458940000,0.010597656,0.0060939128,-0.004888114
1458956000,1458956000,0.008274578,0.006160637,0.0049167676
1458968000,1458968000,0.0040980144,0.010207441,0.004946052
1458980000,1458980000,0.006675343,0.0071938685,0.0059307558
1458988000,1458988000,0.009033084,0.006470583,0.0027184137
1459004000,1459004000,0.0024265158,-0.00023528328,0.0042397585
1459016000,1459016000,-0.0013745687,-0.0019208211,0.0002073868
1459028000,1459028000,-0.0014779689,2.677273e-05,0.00059040944
1459040000,1459040000,0.0071916208,-0.000785789,0.0022787526
1459052000,1459052000,0.0055787503,-0.00014516572,0.0012333496
1459064000,1459064000,0.0083661955,-0.0036420953,-0.0005323071
1459076000,1459076000,0.0028015596,-0.0019767694,-0.0016433308
1459088000,1459088000,-0.0036354917,-0.0006670775,-0.0011659228
1459100000,1459100000,-0.0061505293,-0.0037413193,0.002269231
1459112000,1459112000,-0.0038995964,-0.004257386,0.0015860838
1459124000,1459124000,-0.007911303,-0.0017919918,0.0020956772
1459136000,1459136000,-0.012748471,-0.0030047344,0.0037208674
1459144000,1459144000,-0.009027279,-0.0040685106,0.0006352565
1459160000,1459160000,-0.006725365,-0.0003809766,-0.0018327569
1459172000,1459172000,-0.00693299,-0.010009307,-0.00043427205
1459184000,1459184000,4.108227e-05,-0.0092543755,-0.0036661597
1459196000,1459196000,-0.012384291,-0.0026293132,0.0027367717
1459208000,1459208000,-0.012894481,-0.005726581,0.0033815615
1459220000,1459220000,-0.0131448675,-0.002065972,0.002232054
1459232000,1459232000,-0.007065314,-0.005351469,0.0065011503
1459244000,1459244000,-0.003154745,-0.008707032,0.0043116566
1459256000,1459256000,-0.00429658,-0.009024659,-1.2085831e-05
1459268000,1459268000,-0.007038495,0.00016748207,0.0025213421
1459280000,1459280000,-0.0023885572,-0.0066483268,0.0022943267
1459292000,1459292000,-0.011753577,-0.009279948,0.00033432373
1459304000,1459304000,-0.006543802,-0.008229973,-0.0018219779
1459312000,1459312000,-9.500538e-06,-0.006565238,-0.0024470617
1459328000,1459328000,0.00041838168,-0.0062822155,-0.0012246245
1459336000,1459336000,0.0033961884,-0.0064455783,0.0028812091
1459352000,1459352000,0.00047724083,-0.0028680386,0.005792902
1459364000,1459364000,-0.0069658635,0.00019193813,0.0040677353
1459376000,1459376000,-0.006830941,-0.0022163512,-6.07071e-06
1459388000,1459388000,-0.0062493407,0.005378425,0.0005794409
1459400000,1459400000,-0.002964425,-0.0009779925,0.002113094
1459412000,1459412000,-0.0006850092,0.00696264,0.00025179627
1459424000,1459424000,-0.003908441,0.011198457,0.0027690772
1459436000,1459436000,0.00017141685,0.009893056,0.0070348154
1459448000,1459448000,-0.00044782064,0.011973971,0.0062997853
1459460000,1459460000,0.0016021436,0.017212588,-0.00046775545
1459472000,1459472000,-0.00018826529,0.013625037,-0.005209145
1459480000,1459480000,-0.0009748949,0.012229643,-0.0014143297
1459496000,1459496000,3.3499848e-05,0.011380691,-0.0022009187
1459508000,1459508000,-0.002718072,0.012455026,-0.0015351793
1459520000,1459520000,0.0014054154,0.0116347205,-2.8578273e-05
1459532000,1459532000,-0.0021278542,0.011673318,-0.0010028409
1459544000,1459544000,-0.00070380763,0.003495393,-0.00048284448
1459556000,1459556000,-0.00015699223,0.003090345,0.0008597903
1459568000,1459568000,0.004187836,0.006616132,0.0015073032
1459580000,1459580000,0.0034535108,0.0011889916,-0.00056510186
1459592000,1459592000,-0.0033262076,-0.0027236063,-0.0031163942
1459604000,1459604000,0.0057130354,-0.0012066974,-0.004590417
1459616000,1459616000,0.0042569353,-0.0026111598,-0.00022387016
1459628000,1459628000,-0.0029883038,-0.010670178,0.0023112677
1459640000,1459640000,0.0037672054,-0.012085926,0.0030019605
1459652000,1459652000,0.010181108,-0.008884974,0.0039639445
1459664000,1459664000,0.0006108915,-0.0009024129,0.002201988
1459676000,1459676000,0.00036725917,0.0009490689,0.00040125562
1459688000,1459688000,0.004061413,-0.00020418735,-0.0031959077
1459696000,1459696000,0.0067174006,0.0034312196,-0.001223655
1459708000,1459708000,0.0070424904,0.0039217356,-0.0028371832
1459720000,1459720000,0.00048879546,0.0057262722,-0.000492213
1459736000,1459736000,0.00013758952,0.00067910925,0.0005345529
1459748000,1459748000,0.0034862964,-0.0067494777,0.0027988448
1459760000,1459760000,0.0030235117,-0.0052670576,0.0033558782
1459768000,1459768000,0.0031075375,-0.0037649376,0.003818583
1459784000,1459784000,-0.006056838,-0.003101586,-0.0009409895
1459796000,1459796000,-0.003430181,-0.0010504923,0.0007613959
1459808000,1459808000,0.0004972263,0.0022741542,0.0038809932
1459820000,1459820000,-0.0024742095,0.0060801464,0.0026823438
1459832000,1459832000,-0.0019213343,0.010818385,0.0038942792
1459844000,1459844000,0.00077755656,0.0048291506,-0.0013330737
1459856000,1459856000,0.0072265696,0.0045520556,-0.0016208829
1459868000,1459868000,0.00296711,0.0024418926,-0.0013694925
1459876000,1459876000,0.0031965764,0.0056389095,0.0027518866
1459892000,1459892000,-0.0017654742,0.005270861,0.0025467034
1459904000,1459904000,-0.0017765085,0.0021493332,0.0039763693
1459916000,1459916000,0.0019805783,-0.0013098638,-0.00073118374
1459928000,1459928000,0.0008132218,-0.0007808362,-0.00045187076
1459936000,1459936000,0.004315654,-0.0019868878,0.00017760787
1459948000,1459948000,0.003386335,-0.0015067942,0.0010318604
1459964000,1459964000,-0.0010675819,-0.0022552684,0.000384886
1459972000,1459972000,-0.0035846368,-0.0058148075,0.0016056967
1459988000,1459988000,-0.006066181,-0.0049840775,0.0042212503
1459996000,1459996000,-0.0036908262,-0.0030599148,0.0055103186
1460008000,1460008000,0.0012373799,-0.0026915022,0.0013530138
1460024000,1460024000,-0.002692016,-0.0015000436,-0.00016018888
1460036000,1460036000,-0.014139279,-0.0017968719,0.0023939223
1460044000,1460044000,-0.01570974,-4.04194e-05,0.003978578
1460060000,1460060000,-0.012048753,0.003257353,0.0030149631
1460072000,1460072000,-0.0060527227,0.0042308075,0.0022568726
1460084000,1460084000,-0.0067331567,-0.0025889985,0.0034314648
1460092000,1460092000,-0.0037791505,-0.0074102352,-0.00069941295
1460108000,1460108000,-0.0069815195,-0.010476887,-0.0034440972
1460116000,1460116000,-0.010698231,-0.008179324,0.0003464268
1460132000,1460132000,-0.009546356,-0.009786591,0.0009971847
1460144000,1460144000,-0.009142717,-0.0070172707,-0.0037390108
1460156000,1460156000,-0.004175725,-0.002890497,-0.0038222414
1460164000,1460164000,0.0002535876,-0.0025608386,-0.0012929287
1460180000,1460180000,0.005897491,0.0023900624,0.0043632905
1460192000,1460192000,0.0072503933,-0.0006981604,0.005237119
1460204000,1460204000,0.0035652742,0.00011406792,0.0052101724
1460216000,1460216000,0.006245317,-0.006795164,-0.0011664185
1460228000,1460228000,0.004697056,-0.007624496,-0.006691517
1460236000,1460236000,0.006602727,-0.0064538093,-0.0011016293
1460248000,1460248000,0.007022631,-0.0070255464,0.0021631
1460264000,1460264000,0.0054378263,-0.0008762339,0.00035151478
1460276000,1460276000,0.009286547,0.0033247212,-0.0029980713
1460288000,1460288000,0.0006037307,-0.00013214583,-0.002597129
1460300000,1460300000,-0.0012821844,-0.003823989,0.0013055843
1460308000,1460308000,0.0003500857,-0.0029923776,0.004437867
1460320000,1460320000,0.00014730252,-0.0029480653,0.0026355172
1460336000,1460336000,-0.007098313,-0.0047329552,0.0029204632
1460348000,1460348000,-0.008836666,-0.002598186,0.0049552256
1460360000,1460360000,-0.011305326,-0.0054140408,0.007733658
1460372000,1460372000,-0.0059081796,-0.004513678,0.0040825363
1460380000,1460380000,-0.00533467,0.00041434914,0.00079367385
1460396000,1460396000,-0.004308614,-0.0027942867,0.0053374995
1460408000,1460408000,-0.0005192977,-0.0027227136,0.0036709565
1460420000,1460420000,-0.0026711735,-0.0069358577,0.00088078715
1460428000,1460428000,-0.0019490479,-0.00581539,-0.0016376872
1460444000,1460444000,-0.0008438102,0.0013783714,-0.00063500693
1460456000,1460456000,-0.00094658945,0.0029438422,0.0010179998
1460468000,1460468000,-0.0051364093,-0.003915205,-0.0010188774
1460480000,1460480000,-0.0042727743,-0.0046638087,-0.0002512816
1460492000,1460492000,-0.0033868565,-0.005828631,0.00462987
1460504000,1460504000,-0.0019146524,-0.010358028,0.0046283896
1460516000,1460516000,-0.0016961715,-0.0057295244,-0.0009485354
1460528000,1460528000,-0.0005157598,0.001258479,-0.00012686144
1460540000,1460540000,0.00013008446,0.0018345495,-0.0015774607
1460552000,1460552000,-0.0029706522,-0.004028032,-0.0028362642
1460564000,1460564000,-0.005262149,-0.0066520306,-0.006487608
1460576000,1460576000,-0.0017064868,-0.0037605278,-0.006446435
1460588000,1460588000,-0.0023975372,-0.0015009968,-0.0076116403
1460600000,1460600000,-0.0023523127,-0.0015993635,-0.000863584
1460612000,1460612000,0.006176083,-0.0033080229,-0.0024717455
1460624000,1460624000,0.0077598244,-0.0048776576,-0.005134083
1460636000,1460636000,0.0056462125,-0.0063710893,-0.0002666451
1460644000,1460644000,0.007677382,-0.006414914,0.0028074195
1460660000,1460660000,0.007566097,-0.0146997515,0.0035812901
1460668000,1460668000,0.0067824717,-0.016113238,-0.0026033586
1460680000,1460680000,0.0024383226,-0.008207362,-0.000907825
