timestamp,roll,pitch,yaw,thrust_body[0],thrust_body[1],thrust_body[2]
1449028000,-0.032205343,-0.0493294,-1.1347299,0.0,0.0,0.0
1449048000,-0.031891793,-0.04898625,-1.1346819,0.0,0.0,0.0
1449064000,-0.031884253,-0.048671626,-1.1345924,0.0,0.0,0.0
1449088000,-0.03186994,-0.048693836,-1.1345009,0.0,0.0,0.0
1449108000,-0.031883232,-0.049135096,-1.1343747,0.0,0.0,0.0
1449124000,-0.031603422,-0.04939204,-1.1343716,0.0,0.0,0.0
1449148000,-0.031507213,-0.049666546,-1.1344386,0.0,0.0,0.0
1449172000,-0.031714097,-0.049439773,-1.134396,0.0,0.0,0.0
1449188000,-0.03172602,-0.04931418,-1.1343987,0.0,0.0,0.0
1449208000,-0.03151863,-0.049039543,-1.1345428,0.0,0.0,0.0
1449232000,-0.03143772,-0.048900425,-1.1349562,0.0,0.0,0.0
1449244000,-0.031127166,-0.04849858,-1.1350806,0.0,0.0,0.0
1449272000,-0.030871628,-0.0483708,-1.1349837,0.0,0.0,0.0
1449292000,-0.030966885,-0.04855079,-1.1350305,0.0,0.0,0.0
1449312000,-0.031016612,-0.048823573,-1.1353413,0.0,0.0,0.0
1449328000,-0.031374115,-0.048912905,-1.1353624,0.0,0.0,0.0
1449348000,-0.030978478,-0.0492198,-1.1354055,0.0,0.0,0.0
1449368000,-0.031206748,-0.049284775,-1.1353352,0.0,0.0,0.0
1449392000,-0.031507317,-0.049390987,-1.1355969,0.0,0.0,0.0
1449408000,-0.031748682,-0.049700562,-1.1356463,0.0,0.0,0.0
1449428000,-0.031774953,-0.050364114,-1.1356832,0.0,0.0,0.0
1449452000,-0.0314416,-0.050392695,-1.1358981,0.0,0.0,0.0
1449472000,-0.031437773,-0.050407544,-1.1357638,0.0,0.0,0.0
1449488000,-0.031774428,-0.050046332,-1.1359525,0.0,0.0,0.0
1449508000,-0.031375766,-0.049913082,-1.135747,0.0,0.0,0.0
1449532000,-0.03181836,-0.049189344,-1.1358213,0.0,0.0,0.0
1449552000,-0.031818073,-0.048913915,-1.1359773,0.0,0.0,0.0
1449572000,-0.031757385,-0.048838794,-1.135969,0.0,0.0,0.0
1449592000,-0.031779975,-0.049064487,-1.1363814,0.0,0.0,0.0
1449608000,-0.031598125,-0.049095564,-1.1364095,0.0,0.0,0.0
1449632000,-0.031179212,-0.04915612,-1.1365033,0.0,0.0,0.0
1449648000,-0.03143972,-0.048759036,-1.1366405,0.0,0.0,0.0
1449668000,-0.031587098,-0.048696734,-1.1364638,0.0,0.0,0.0
1449692000,-0.031106137,-0.04844547,-1.136469,0.0,0.0,0.0
1449708000,-0.03071203,-0.048425585,-1.1366028,0.0,0.0,0.0
1449732000,-0.031045958,-0.048626672,-1.136633,0.0,0.0,0.0
1449752000,-0.031151695,-0.04852874,-1.1366341,0.0,0.0,0.0
1449764000,-0.030913303,-0.048739016,-1.1365534,0.0,0.0,0.0
1449788000,-0.031270787,-0.048605416,-1.1366231,0.0,0.0,0.0
1449808000,-0.031190433,-0.048426423,-1.1366897,0.0,0.0,0.0
1449832000,-0.031361047,-0.048645213,-1.136685,0.0,0.0,0.0
1449852000,-0.031252276,-0.048537962,-1.1364619,0.0,0.0,0.0
1449872000,-0.03148947,-0.0489162,-1.1366348,0.0,0.0,0.0
1449888000,-0.031673696,-0.048881,-1.1367395,0.0,0.0,0.0
1449912000,-0.03198244,-0.048624393,-1.1366718,0.0,0.0,0.0
1449932000,-0.031939864,-0.04859014,-1.1363237,0.0,0.0,0.0
1449952000,-0.03215956,-0.0482971,-1.1364735,0.0,0.0,0.0
1449968000,-0.032450806,-0.048271522,-1.1363767,0.0,0.0,0.0
1449992000,-0.03231818,-0.048310302,-1.1359789,0.0,0.0,0.0
1450004000,-0.032473326,-0.047920004,-1.1359909,0.0,0.0,0.0
1450032000,-0.03174963,-0.048164956,-1.135989,0.0,0.0,0.0
1450044000,-0.031140218,-0.048204985,-1.1359979,0.0,0.0,0.0
1450068000,0.03660824,-0.65892667,0.0016220212,0.0,0.0,-0.12063991
1450088000,-0.006278783,-0.4637915,0.00033313036,0.0,0.0,-0.120295204
1450112000,-0.058961697,-0.3491459,-0.0006288886,0.0,0.0,-0.12015589
1450132000,-0.048106633,-0.24289083,-0.000585258,0.0,0.0,-0.120066084
1450148000,-0.0661259,-0.17950284,-0.0009319782,0.0,0.0,-0.12003215
1450172000,-0.04478438,-0.13765715,-0.00088745356,0.0,0.0,-0.12001469
1450188000,-0.056303915,-0.11150419,-0.00094234943,0.0,0.0,-0.120008275
1450212000,-0.034769576,-0.0833533,-0.00080502033,0.0,0.0,-0.13611306
1450232000,-0.04464281,-0.081520066,-0.00063353777,0.0,0.0,-0.14671473
1450248000,-0.04435997,-0.08176934,-0.0008867383,0.0,0.0,-0.14671473
1450268000,-0.02933156,-0.07054101,-0.0011216998,0.0,0.0,-0.1766367
1450292000,-0.040018644,-0.054503884,-0.00103122,0.0,0.0,-0.1881842
1450308000,-0.04016731,-0.053938486,-0.0009915233,0.0,0.0,-0.20367971
1450332000,-0.03409405,-0.048353087,-0.0010660887,0.0,0.0,-0.21912318
1450352000,-0.022882996,-0.048599884,-0.0008992553,0.0,0.0,-0.23135862
1450372000,-0.02827292,-0.05046744,-0.000826478,0.0,0.0,-0.24669458
1450388000,-0.02574183,-0.041741103,-0.0009019375,0.0,0.0,-0.26192817
1450408000,-0.026018817,-0.03844942,-0.001054287,0.0,0.0,-0.2741388
1450432000,-0.031296466,-0.0403871,-0.00094234943,0.0,0.0,-0.28985068
1450452000,-0.027991343,-0.04421534,-0.0010546446,0.0,0.0,-0.3054706
1450468000,-0.018898152,-0.045066465,-0.0011095405,0.0,0.0,-0.3178375
1450488000,-0.027369814,-0.04907587,-0.00087815523,0.0,0.0,-0.3329439
1450512000,-0.028457887,-0.04291298,-0.0010287166,0.0,0.0,-0.36112306
1450532000,-0.031196902,-0.039064538,-0.0012175441,0.0,0.0,-0.37687236
1450548000,-0.034636855,-0.03459809,-0.0013464689,0.0,0.0,-0.39142525
1450568000,-0.03633898,-0.032498363,-0.001342535,0.0,0.0,-0.40276206
1450592000,-0.034559958,-0.03179829,-0.0013461113,0.0,0.0,-0.41757992
1450612000,-0.03674105,-0.026837237,-0.001429081,0.0,0.0,-0.43213794
1450624000,-0.034087338,-0.028878704,-0.0014707446,0.0,0.0,-0.44317636
1450648000,-0.030096952,-0.032112762,-0.001658678,0.0,0.0,-0.45858708
1450668000,-0.030999636,-0.032171827,-0.0015236735,0.0,0.0,-0.47382575
1450692000,-0.03325648,-0.034402512,-0.0015462041,0.0,0.0,-0.48541418
1450712000,-0.033048343,-0.033637356,-0.0016003847,0.0,0.0,-0.50027305
1450732000,-0.033483636,-0.03190561,-0.0017724037,0.0,0.0,-0.51581717
1450748000,-0.027875908,-0.03129722,-0.0016348958,0.0,0.0,-0.52790976
1450768000,-0.025652133,-0.02585004,-0.0015231371,0.0,0.0,-0.5430434
1450788000,-0.026430234,-0.028454602,-0.0014791489,0.0,0.0,-0.5582516
1450808000,-0.025491184,-0.026439954,-0.0014308691,0.0,0.0,-0.5700886
1450828000,-0.023258382,-0.026869528,-0.0014741421,0.0,0.0,-0.5853509
1450848000,-0.018707331,-0.026979055,-0.001303196,0.0,0.0,-0.60991716
1450864000,-0.022898708,-0.02412653,-0.00096416473,0.0,0.0,-0.61927825
1450888000,-0.021904316,-0.0160309,-0.00093466043,0.0,0.0,-0.62491035
1450912000,-0.015959729,-0.003935376,-0.0010716319,0.0,0.0,-0.6170353
1450928000,-0.009575165,0.0001594062,-0.00107342,0.0,0.0,-0.61622566
1450952000,-0.0043991064,0.0023436311,-0.0012270212,0.0,0.0,-0.61486703
1450968000,-0.0008093419,0.01463465,-0.0011394024,0.0,0.0,-0.6040323
1450988000,0.005753101,0.017992917,-0.0010451674,0.0,0.0,-0.60468435
1451008000,0.011240652,0.017678859,-0.0011742711,0.0,0.0,-0.60607874
1451028000,0.019453898,0.028205914,-0.0012812018,0.0,0.0,-0.59969294
1451052000,0.020528868,0.033857,-0.0011923313,0.0,0.0,-0.6041003
1451064000,0.017548997,0.029425774,-0.0011351109,0.0,0.0,-0.60835814
1451088000,0.02104223,0.030835854,-0.0011646152,0.0,0.0,-0.61004543
1451108000,0.023539089,0.030754458,-0.0010458827,0.0,0.0,-0.61444366
1451128000,0.020711362,0.03326263,-0.00094252825,0.0,0.0,-0.6101693
1451144000,0.018996371,0.031117257,-0.00083595514,0.0,0.0,-0.6101693
1451172000,0.017850047,0.025403786,-0.00092178583,0.0,0.0,-0.615317
1451192000,0.019314155,0.029673453,-0.00087976456,0.0,0.0,-0.60854304
1451212000,0.020024562,0.027252387,-0.000711143,0.0,0.0,-0.61101633
1451228000,0.01807303,0.02451253,-0.00054591894,0.0,0.0,-0.6140091
1451252000,0.014175391,0.020770976,-0.0001757741,0.0,0.0,-0.6089735
1451268000,0.013337016,0.017189056,-0.00013804436,0.0,0.0,-0.6123963
1451288000,0.012002075,0.01404308,-6.723404e-05,0.0,0.0,-0.61622095
1451308000,0.005663353,0.0068581696,3.9696693e-05,0.0,0.0,-0.6112928
1451328000,0.005974513,0.0061903754,0.000114798546,0.0,0.0,-0.6148249
1451352000,0.008213266,0.0022736394,-8.529425e-05,0.0,0.0,-0.61215484
1451368000,0.007086278,0.007096622,-0.00021511316,0.0,0.0,-0.61475444
1451388000,0.008629488,0.006851783,-0.00021833181,0.0,0.0,-0.6183663
1451408000,0.001431847,0.0047849026,-0.00025463104,0.0,0.0,-0.613089
1451432000,0.0030825587,0.008046366,1.770258e-05,0.0,0.0,-0.6163984
1451448000,0.0060466784,0.007303645,0.00011050701,0.0,0.0,-0.6196524
1451468000,0.0064203767,0.0056210286,0.00012910366,0.0,0.0,-0.61481243
1451488000,0.009054318,0.008645734,0.00041395426,0.0,0.0,-0.61756796
1451508000,0.009610285,0.014635302,0.00043988228,0.0,0.0,-0.6020792
1451532000,0.0070578456,0.014714457,0.0003606677,0.0,0.0,-0.57549214
1451552000,0.0070168255,0.016921977,0.0003079176,0.0,0.0,-0.55965
1451572000,0.0072420426,0.012797505,0.00023317337,0.0,0.0,-0.54734284
1451588000,0.012507325,0.011222057,0.0003785491,0.0,0.0,-0.5336275
1451612000,0.013302117,0.0112451585,0.0004888773,0.0,0.0,-0.5324436
1451628000,0.013295702,0.010862263,0.0005223155,0.0,0.0,-0.5324436
1451648000,0.01715098,0.013451116,0.00066554546,0.0,0.0,-0.54412764
1451668000,0.016362894,0.012916528,0.0006428361,0.0,0.0,-0.54412764
1451692000,0.0148614105,0.017577598,0.0004491806,0.0,0.0,-0.55735826
1451712000,0.01285053,0.01891172,0.000248909,0.0,0.0,-0.5622478
1451732000,0.010031272,0.014590778,0.00015950203,0.0,0.0,-0.565528
1451752000,0.014822714,0.012025558,4.094839e-05,0.0,0.0,-0.5646511
1451768000,0.014209792,0.0072711864,-4.5239925e-05,0.0,0.0,-0.5642795
1451788000,0.012614438,0.003611213,6.0260296e-05,0.0,0.0,-0.56391865
1451812000,0.007239664,0.003953579,4.3809414e-05,0.0,0.0,-0.5602544
1451828000,0.009617978,0.009195303,-1.9848347e-05,0.0,0.0,-0.55964214
1451848000,0.005404422,0.006712626,0.00014734268,0.0,0.0,-0.55951345
1451872000,0.006774906,0.01535157,4.1127205e-06,0.0,0.0,-0.558141
1451884000,0.0066627413,0.015452342,-8.2433224e-05,0.0,0.0,-0.558141
1451912000,0.007026747,0.021575075,-0.0001308918,0.0,0.0,-0.5589201
1451932000,0.0037835052,0.017692301,-0.00018811226,0.0,0.0,-0.5603931
1451948000,0.0038358243,0.017016746,-9.083748e-05,0.0,0.0,-0.5603931
1451972000,0.004512529,0.016321702,9.852648e-05,0.0,0.0,-0.5603457
1451992000,0.007843165,0.017298657,0.00014930964,0.0,0.0,-0.56088924
1452008000,0.0072843153,0.016523093,0.00018775463,0.0,0.0,-0.5616267
1452028000,0.013074283,0.012810655,0.00028002262,0.0,0.0,-0.55988103
1452048000,0.012396039,0.0070524076,0.00029987097,0.0,0.0,-0.559945
1452068000,0.015267465,0.0056785033,0.00038659573,0.0,0.0,-0.56076384
1452092000,0.006032829,0.0066904966,0.00033259392,0.0,0.0,-0.5593388
1452108000,0.009385702,0.008331682,0.00028663874,0.0,0.0,-0.55959487
1452132000,0.009367202,0.0066173463,0.00035637617,0.0,0.0,-0.5605825
1452144000,0.008069297,0.0050789746,0.0003029108,0.0,0.0,-0.5598919
1452172000,0.0071614916,-7.280032e-06,0.00020366907,0.0,0.0,-0.5603877
1452188000,0.0030799778,0.006187915,0.00025177002,0.0,0.0,-0.56110966
1452208000,-0.0030522058,-0.0036066724,0.00017112494,0.0,0.0,-0.5609828
1452232000,-0.0007808204,-0.0010269892,-5.8829784e-05,0.0,0.0,-0.5615422
1452252000,0.002219502,0.0055355,-7.2956085e-05,0.0,0.0,-0.5602246
1452272000,0.0001138011,0.008478131,-1.8417835e-05,0.0,0.0,-0.5605324
1452292000,0.0031090009,0.011834166,5.0246716e-05,0.0,0.0,-0.56011385
1452308000,0.0056255497,0.009752249,0.0001924038,0.0,0.0,-0.5612252
1452332000,0.007948503,0.011146164,0.00017219782,0.0,0.0,-0.5622484
1452348000,0.0064216005,0.010150267,0.00011640787,0.0,0.0,-0.56112254
1452372000,0.0054796343,0.00996945,0.00017631054,0.0,0.0,-0.56174827
1452392000,0.008625682,0.014113905,0.00020635128,0.0,0.0,-0.5627894
1452412000,0.00618539,0.009669562,0.00030630827,0.0,0.0,-0.56154037
1452432000,0.0022040661,0.010494903,0.0004529357,0.0,0.0,-0.562242
1452448000,0.00042112218,0.0057139006,0.0007376075,0.0,0.0,-0.56278574
1452468000,-0.0012469394,0.008691875,0.00062584877,0.0,0.0,-0.5614264
1452488000,-0.002839726,0.010948593,0.0004645586,0.0,0.0,-0.5619348
1452512000,-0.006129324,0.0044731745,0.0006585717,0.0,0.0,-0.5616416
1452528000,-0.004630035,0.00145116,0.00045365095,0.0,0.0,-0.5618939
1452548000,-0.0001668306,0.0026426534,0.000397861,0.0,0.0,-0.56267536
1452568000,-0.0018179119,0.0033146243,0.0004298687,0.0,0.0,-0.5614855
1452588000,-0.00026283832,0.0007121401,0.0003710389,0.0,0.0,-0.5623838
1452608000,-0.0017791176,0.0007670842,0.00037926435,0.0,0.0,-0.563004
1452632000,0.0023703407,0.0034699575,6.401539e-05,0.0,0.0,-0.5620746
1452644000,0.004466107,0.0030924731,-5.364418e-05,0.0,0.0,-0.5620878
1452668000,0.0058714813,0.0081319865,-0.00018882751,0.0,0.0,-0.56254685
1452688000,0.005936659,0.00638588,-0.00015646219,0.0,0.0,-0.5618864
1452708000,0.0054174867,0.002512225,-0.00010317564,0.0,0.0,-0.56276584
1452732000,0.0046745343,0.0040835645,-0.00012266636,0.0,0.0,-0.56447756
1452748000,0.00505886,0.006579449,-0.00031918287,0.0,0.0,-0.5634763
1452768000,0.008967835,0.00926901,-0.00035655499,0.0,0.0,-0.5640176
1452792000,0.00923886,0.007854103,-0.00041377544,0.0,0.0,-0.5631289
1452812000,0.010344068,0.0063320794,-0.00025767088,0.0,0.0,-0.563559
1452832000,0.009329291,0.00650523,-7.867813e-06,0.0,0.0,-0.5637473
1452852000,0.0066242893,0.010728294,0.000102996826,0.0,0.0,-0.5618335
1452868000,0.004887443,0.0087590255,0.00031757355,0.0,0.0,-0.5619362
1452888000,0.005536381,0.0064521977,0.0002283454,0.0,0.0,-0.56236106
1452908000,0.0050002453,0.006501131,-9.816885e-05,0.0,0.0,-0.56140906
1452928000,0.0068878233,0.009491511,-0.00037372112,0.0,0.0,-0.56216234
1452948000,0.00092315907,0.010652028,-0.00060367584,0.0,0.0,-0.56302816
1452972000,-0.0020024716,0.006864677,-0.0005328655,0.0,0.0,-0.5622763
1452988000,-0.002584539,0.0080139255,-0.00050371885,0.0,0.0,-0.563133
1453012000,0.0015203655,0.009794079,-0.0007864237,0.0,0.0,-0.56408244
1453028000,8.198479e-05,0.0023693256,-0.00068575144,0.0,0.0,-0.56269497
1453048000,0.000946803,0.0061286534,-0.00074994564,0.0,0.0,-0.5631738
1453072000,0.00033285655,0.0011233723,-0.0007531643,0.0,0.0,-0.5623314
1453092000,0.00017379876,-0.0010206448,-0.0006916523,0.0,0.0,-0.5620902
1453108000,0.0005961014,-0.00095964724,-0.00072973967,0.0,0.0,-0.5620902
1453128000,-0.0011438043,-0.009364343,-0.0006939769,0.0,0.0,-0.5609824
1453148000,9.6373726e-05,-0.0064094104,-0.00079232454,0.0,0.0,-0.56110054
1453164000,-0.0007213075,-0.000843348,-0.00079858303,0.0,0.0,-0.5618035
1453188000,-0.0034881192,0.0003160847,-0.0007377863,0.0,0.0,-0.56089896
1453204000,-0.0034707463,0.0004806019,-0.0007029176,0.0,0.0,-0.5614712
1453232000,-0.004726829,0.006988479,-0.0005069375,0.0,0.0,-0.56228405
1453244000,-0.0060402886,0.001007529,-0.0004361272,0.0,0.0,-0.56196386
1453268000,-0.0057243244,-0.0025544725,-0.00033456087,0.0,0.0,-0.5628341
1453288000,-0.009358322,0.0020590133,-0.00042325258,0.0,0.0,-0.56395084
1453308000,-0.0060173753,-0.0022822833,-0.00042146444,0.0,0.0,-0.56328756
1453324000,-0.0077212597,-0.0040096305,-0.00019061565,0.0,0.0,-0.56384736
1453352000,-0.004252951,-0.008949891,-0.00020617247,0.0,0.0,-0.5629035
1453368000,-0.0032161314,-0.008784121,-0.00027179718,0.0,0.0,-0.56296587
1453392000,-0.0076253023,-0.00924605,-0.0002837777,0.0,0.0,-0.56315786
1453408000,-0.0036164909,-0.0028363336,-0.000420928,0.0,0.0,-0.5612948
1453432000,-0.0022438103,-0.001196898,-0.00017130375,0.0,0.0,-0.5612952
1453448000,8.079875e-05,0.0031832266,-0.0001398325,0.0,0.0,-0.56139094
1453468000,-0.0032238322,0.0040901694,0.000287354,0.0,0.0,-0.5610318
1453488000,-0.0028006802,0.0039198454,0.0001655817,0.0,0.0,-0.56128746
1453512000,-0.00046538003,0.0061065685,-8.511543e-05,0.0,0.0,-0.56253177
1453532000,0.0001612315,0.0025403562,-0.00015556812,0.0,0.0,-0.562279
1453552000,0.00044313795,0.0019034048,-0.00016504526,0.0,0.0,-0.56235564
1453568000,0.0017580965,0.003553663,-0.0001514554,0.0,0.0,-0.5630002
1453588000,0.0021464531,0.00017269165,-4.3809414e-05,0.0,0.0,-0.5632308
1453612000,0.0014268297,0.0039665583,0.00012677908,0.0,0.0,-0.56401837
1453632000,-0.0037836742,-0.0021620092,0.000172019,0.0,0.0,-0.5633224
1453652000,-0.0005741946,-0.0026631407,0.0002449751,0.0,0.0,-0.56327987
1453668000,-0.0011613665,-0.0028022858,0.00025248528,0.0,0.0,-0.56327987
1453692000,-0.0037424199,-0.0053320825,0.00037032366,0.0,0.0,-0.5618034
1453708000,-0.0038544468,-0.0028859307,0.00031667948,0.0,0.0,-0.56156695
1453732000,-0.004529494,0.0017571078,0.00016987324,0.0,0.0,-0.5623151
1453748000,-0.0014316835,0.0041940194,-6.6161156e-06,0.0,0.0,-0.5621533
1453772000,-0.0016133781,0.0034775126,-0.000109255314,0.0,0.0,-0.5622615
1453792000,0.00015856465,0.003928398,-0.00019901991,0.0,0.0,-0.5629027
1453812000,0.001676352,0.0015506027,-0.0004466772,0.0,0.0,-0.5624628
1453832000,0.00021677837,0.0011660047,-0.00023442507,0.0,0.0,-0.5622739
1453848000,0.0024291,0.0003938033,-0.00021225214,0.0,0.0,-0.5630056
1453868000,0.0029795207,-0.0013082945,-0.00044685602,0.0,0.0,-0.56258625
1453888000,-0.00019741897,0.0032423388,-0.03472209,0.0,0.0,-0.5628342
1453912000,-0.0022579492,0.010914621,-0.03462553,0.0,0.0,-0.56179345
1453932000,0.0012519783,0.013239199,-0.034556866,0.0,0.0,-0.56168455
1453952000,0.0013016327,0.017315667,-0.03411573,0.0,0.0,-0.56218255
1453972000,-0.0017051054,0.01772746,-0.033293545,0.0,0.0,-0.56177205
1453988000,0.0021363976,0.018444326,-0.032480657,0.0,0.0,-0.562381
1454012000,0.0055817664,0.013924336,-0.030954838,0.0,0.0,-0.56373245
1454032000,0.009648899,0.004929982,-0.02927506,0.0,0.0,-0.5633597
1454048000,0.008212413,0.0032546525,-0.02829212,0.0,0.0,-0.5643055
1454068000,0.008369904,0.00012713531,-0.02645731,0.0,0.0,-0.5654364
1454092000,0.0077497624,-0.00075872673,-0.024348736,0.0,0.0,-0.5648891
1454104000,0.0046864925,-0.0019362725,-0.023045182,0.0,0.0,-0.56478435
1454132000,0.0023998618,-0.0021891836,-0.021114707,0.0,0.0,-0.56521535
1454152000,0.003480584,-0.005852361,-0.019447625,0.0,0.0,-0.5639047
1454172000,0.0025020519,-0.0039470373,-0.018072367,0.0,0.0,-0.5638241
1454188000,0.0019064143,-0.0035015433,-0.016771138,0.0,0.0,-0.5638241
1454208000,0.0024058877,-0.010696501,-0.015153229,0.0,0.0,-0.56277525
1454232000,-0.0019479669,-0.010365445,-0.013094723,0.0,0.0,-0.5639077
1454252000,0.003075821,-0.005151339,-0.011529565,0.0,0.0,-0.5637122
1454268000,0.0021957695,-0.0052994946,-0.010174155,0.0,0.0,-0.5641742
1454292000,0.0010080279,-0.0048624724,-0.008550346,0.0,0.0,-0.5646626
1454308000,0.009656867,-0.009220191,-0.0073569417,0.0,0.0,-0.56375873
1454332000,0.0052409396,-0.0045152674,-0.006251335,0.0,0.0,-0.56327444
1454348000,0.006547766,-0.00781996,-0.0052111745,0.0,0.0,-0.56398976
1454368000,0.006819492,-0.0068186233,-0.003918886,0.0,0.0,-0.5633216
1454388000,0.0023342238,-0.00035965594,-0.0025877953,0.0,0.0,-0.5640204
1454412000,0.007673058,-0.001421283,-0.001444459,0.0,0.0,-0.56459373
1454432000,0.003963858,0.0011221678,-0.00039088726,0.0,0.0,-0.5650836
1454448000,0.003610474,0.0017706833,0.00039482117,0.0,0.0,-0.5650836
1454468000,0.002393449,0.0020569284,0.0014784336,0.0,0.0,-0.5657109
1454488000,0.0020163374,0.004114284,0.0024252534,0.0,0.0,-0.5643562
1454508000,0.0028867568,0.00013078842,-3.5762787e-07,0.0,0.0,-0.5638301
1454528000,0.0019712525,-0.0015889043,0.00070023537,0.0,0.0,-0.5622009
1454552000,0.0022067812,-0.0022196895,0.0014301538,0.0,0.0,-0.561961
1454572000,5.2280026e-05,-0.0019595516,0.0021455884,0.0,0.0,-0.5621182
1454588000,-0.0036302204,0.0018830546,0.0024760365,0.0,0.0,-0.562353
1454612000,-0.008883022,0.0057040555,0.0028767586,0.0,0.0,-0.5637523
1454632000,-0.010656092,0.008176342,0.0031238794,0.0,0.0,-0.5648604
1454648000,-0.0061507663,0.0064295526,0.0036742687,0.0,0.0,-0.56358534
1454672000,-0.0020508938,0.0038219364,0.0040147305,0.0,0.0,-0.5636211
1454692000,-0.00038765045,0.0015232642,0.004353583,0.0,0.0,-0.5642231
1454708000,0.0020830545,-0.0038613915,0.004642725,0.0,0.0,-0.56358165
1454728000,0.0016488335,-0.001378119,0.004785061,0.0,0.0,-0.5638429
1454752000,0.002707396,0.0050450503,0.004812956,0.0,0.0,-0.5628489
1454768000,0.0037750695,0.006798095,0.0047126412,0.0,0.0,-0.56317055
1454792000,0.00025231764,0.005506976,0.005026996,0.0,0.0,-0.5635879
1454808000,-0.0009147953,0.0039082635,0.005022168,0.0,0.0,-0.56345
1454832000,-0.0048250747,0.005326709,0.005079031,0.0,0.0,-0.563982
1454852000,-0.0035244115,0.0050656153,0.0052140355,0.0,0.0,-0.56468195
1454868000,-0.0016791439,0.0009427006,0.0053340197,0.0,0.0,-0.56431305
1454888000,-0.0043085525,-0.0002461964,0.0053476095,0.0,0.0,-0.56430095
1454912000,-0.003853302,-4.0930754e-05,0.0052676797,0.0,0.0,-0.5649273
1454932000,-0.0073286965,-0.003804446,0.0053207874,0.0,0.0,-0.5640777
1454948000,-0.0040869922,-0.0038448893,0.0052331686,0.0,0.0,-0.564163
1454968000,0.001980548,-0.0023494218,0.005107641,0.0,0.0,-0.56464565
1454992000,0.0053116805,-0.0009268017,0.005061686,0.0,0.0,-0.56422853
1455008000,0.005533678,-0.0038385927,0.0050936937,0.0,0.0,-0.5639215
1455028000,0.0030616801,-0.0045129554,0.004983723,0.0,0.0,-0.5643503
1455048000,0.004865515,-0.006341921,0.0049803257,0.0,0.0,-0.56437254
1455068000,0.009767259,-0.004562327,0.004763782,0.0,0.0,-0.5648305
1455088000,0.009701847,-0.0022965902,0.0046459436,0.0,0.0,-0.56388056
1455112000,0.010300424,0.0016614874,0.0046218038,0.0,0.0,-0.5637592
1455132000,0.0039353278,0.00038822286,0.004515767,0.0,0.0,-0.56425875
1455152000,0.0007132329,-0.0032252911,0.004685998,0.0,0.0,-0.563916
1455168000,-0.0008704453,-0.002705753,0.004832089,0.0,0.0,-0.5643828
1455184000,-0.0020130076,-0.0059148213,0.004844606,0.0,0.0,-0.5647932
1455212000,-0.011237354,-0.008260764,0.0048333406,0.0,0.0,-0.5642421
1455232000,-0.0106336875,-0.0051713297,0.004776478,0.0,0.0,-0.56457454
1455248000,-0.0063058888,-0.0044605713,0.004561901,0.0,0.0,-0.5653449
1455264000,-0.0043394105,-0.0020410905,0.0042790174,0.0,0.0,-0.5649839
1455288000,-0.0043614367,-0.00088964036,0.00406301,0.0,0.0,-0.56457275
1455308000,-0.002185834,0.0038603963,0.003968954,0.0,0.0,-0.5646806
1455332000,0.0035819414,0.0040279203,0.003916383,0.0,0.0,-0.56389046
1455352000,0.0052491017,0.0014697772,0.00397861,0.0,0.0,-0.5651032
1455368000,-0.0045463345,0.0027066586,0.0039337277,0.0,0.0,-0.5644595
1455388000,-0.006672661,0.0027261577,0.0039251447,0.0,0.0,-0.564708
1455412000,-0.007080732,0.0028088656,0.0038713217,0.0,0.0,-0.5648663
1455428000,-0.00856344,-0.0012220566,0.0039981008,0.0,0.0,-0.5639592
1455452000,-0.011290218,0.00037164128,0.003713429,0.0,0.0,-0.5644151
1455468000,-0.008957267,0.001281265,0.0035276413,0.0,0.0,-0.56518775
1455488000,-0.007627056,-0.00095356663,0.0036132932,0.0,0.0,-0.5644297
1455512000,-0.0025389665,6.978196e-05,0.003468454,0.0,0.0,-0.5645406
1455532000,-0.0029678335,0.0011071041,0.0032465458,0.0,0.0,-0.5651542
1455548000,-0.0072955014,-0.003268602,0.0030652285,0.0,0.0,-0.56489515
1455572000,-0.0015675388,-0.0046060644,0.002863884,0.0,0.0,-0.5656703
1455588000,-0.001108045,-0.0039055105,0.0029600859,0.0,0.0,-0.5656703
1455612000,-0.00082771364,-0.005132746,0.0027973652,0.0,0.0,-0.56522375
1455632000,0.0018001709,-0.0058093066,0.0027875304,0.0,0.0,-0.5652556
1455648000,0.008793387,-0.011028073,0.002723515,0.0,0.0,-0.5650516
1455672000,0.0112424055,-0.009672456,0.002784133,0.0,0.0,-0.5649448
1455692000,0.005277847,-0.0052031185,0.002556324,0.0,0.0,-0.565106
1455712000,0.007977311,-0.012530314,0.0024695992,0.0,0.0,-0.56442195
1455732000,0.007453352,-0.012265755,0.0022791624,0.0,0.0,-0.56419533
1455752000,0.006259932,-0.008503209,0.0019794703,0.0,0.0,-0.5641714
1455768000,0.010881318,-0.004146249,0.00184232,0.0,0.0,-0.5643915
1455788000,0.007722129,-0.0016857072,0.001494348,0.0,0.0,-0.5647926
1455812000,0.0040350035,0.0024782405,0.0013212562,0.0,0.0,-0.56530094
1455832000,0.0021223,0.0031745941,0.0012266636,0.0,0.0,-0.5645188
1455852000,0.0014131267,0.0021356568,0.0011143684,0.0,0.0,-0.5645975
1455872000,0.0033779265,0.0058314935,0.00079768896,0.0,0.0,-0.563939
1455888000,0.00072229304,0.004515216,0.00053697824,0.0,0.0,-0.56415087
1455912000,0.0019836137,0.0033770066,0.00045990944,0.0,0.0,-0.5641616
1455932000,-0.0032559524,0.0030211643,0.00038856268,0.0,0.0,-0.56351167
1455952000,0.003647932,6.0733175e-05,0.0005527139,0.0,0.0,-0.56371194
1455968000,0.0033756872,0.0003504582,0.0007849932,0.0,0.0,-0.5641299
1455988000,0.0014107525,-0.0035845437,0.0010271072,0.0,0.0,-0.56332076
1456008000,0.00081993034,-0.0036528152,0.00081932545,0.0,0.0,-0.5633534
1456028000,0.0032845403,-0.0042772777,0.0009897351,0.0,0.0,-0.5642141
1456048000,-0.0031969612,-0.009156698,0.0009954572,0.0,0.0,-0.5641454
1456072000,-0.004421419,-0.008703314,0.001141727,0.0,0.0,-0.56427294
1456092000,-0.0024533411,-0.0087275915,0.0012967587,0.0,0.0,-0.56516224
1456108000,-0.001100055,-0.007228387,0.0014217496,0.0,0.0,-0.56530136
1456124000,-0.0012935386,-0.0072966954,0.0015361905,0.0,0.0,-0.5656479
1456148000,-0.003996386,-0.0017434069,0.0017130375,0.0,0.0,-0.56631535
1456172000,-0.0047630463,0.0009783081,0.0017809868,0.0,0.0,-0.5663904
1456192000,-0.005275806,0.0019473552,0.0016874671,0.0,0.0,-0.56693596
1456208000,-0.0064275637,0.009620964,0.0016012788,0.0,0.0,-0.5660092
1456232000,-0.0055820057,0.008668782,0.0015226007,0.0,0.0,-0.5657638
1456252000,-0.0023745436,0.0063970573,0.001471281,0.0,0.0,-0.565929
1456268000,-0.0007456904,0.006304004,0.0014144182,0.0,0.0,-0.5651761
1456292000,-0.00047097355,0.0066468185,0.0014203191,0.0,0.0,-0.56471956
1456308000,0.0019350937,0.005249911,0.0015240312,0.0,0.0,-0.5645986
1456328000,-0.00060659694,-4.679023e-06,0.0015742779,0.0,0.0,-0.5639561
1456348000,-0.0015190614,-0.0007995833,0.0014047623,0.0,0.0,-0.56422377
1456372000,0.00094331754,-0.0024560043,0.0013162494,0.0,0.0,-0.5646308
1456392000,-0.00043183425,-0.00049222517,0.0012266636,0.0,0.0,-0.56463873
1456408000,0.0011522959,-0.0036363644,0.0011288524,0.0,0.0,-0.56525147
1456432000,0.0020029682,-0.0016525394,0.0008863807,0.0,0.0,-0.56561685
1456448000,0.0022115316,-0.00017009676,0.0008842349,0.0,0.0,-0.5665954
1456468000,-0.000114367576,-0.0003407111,0.00086402893,0.0,0.0,-0.5665201
1456488000,0.0010129167,-0.0025670691,0.0008981824,0.0,0.0,-0.56540287
1456512000,-0.00208035,-0.002099312,0.0009473562,0.0,0.0,-0.56477755
1456532000,-0.0010185654,-4.35267e-05,0.0008815527,0.0,0.0,-0.56412584
1456548000,-0.0007335087,-0.0009781538,0.0009800792,0.0,0.0,-0.5632439
1456572000,-0.00018608244,-0.0064982157,0.0009675622,0.0,0.0,-0.56316096
1456588000,0.0029379877,-0.006471199,0.00093895197,0.0,0.0,-0.5634372
1456612000,0.004899307,-0.011475602,0.0011132956,0.0,0.0,-0.5630951
1456632000,0.0047519887,-0.009674894,0.0010342598,0.0,0.0,-0.56349534
1456648000,0.0010224239,-0.0048021805,0.0011374354,0.0,0.0,-0.5645434
1456668000,0.0070128497,-0.0022932342,0.0009060502,0.0,0.0,-0.5657475
1456692000,0.009265659,-0.004246095,0.0010921955,0.0,0.0,-0.5666286
1456712000,0.0054714372,-0.0013227045,0.0009114146,0.0,0.0,-0.5659624
1456732000,0.005098561,0.0049710693,0.00061672926,0.0,0.0,-0.5660489
1456744000,0.0014875713,0.007205918,0.00021636486,0.0,0.0,-0.565254
1456768000,-0.006715347,0.0053765257,-6.866455e-05,0.0,0.0,-0.56393355
1456788000,-0.008149036,0.004615248,-0.0001924038,0.0,0.0,-0.56354094
1456808000,-0.005750156,0.009024171,-0.00040519238,0.0,0.0,-0.563
1456828000,-0.0021464014,0.009221537,-9.226799e-05,0.0,0.0,-0.56343967
1456852000,-0.00026865886,0.008851523,6.955862e-05,0.0,0.0,-0.56399214
1456868000,0.002651868,0.010367944,-5.0246716e-05,0.0,0.0,-0.56410563
1456888000,-0.0025772376,0.0041638007,-6.651878e-05,0.0,0.0,-0.5645604
1456908000,-0.0026140823,0.0016028794,1.5735626e-05,0.0,0.0,-0.5650126
1456924000,-0.009472633,-0.0011023144,-9.691715e-05,0.0,0.0,-0.56498414
1456948000,-0.008942376,-0.0020672446,-0.00017541647,0.0,0.0,-0.56547433
1456972000,-0.0023423096,0.0010700065,-0.0004105568,0.0,0.0,-0.5659291
1456988000,-0.0042135622,0.0043038903,-0.00027626753,0.0,0.0,-0.5651112
1457012000,-0.0039387643,0.0020246638,-0.00017935038,0.0,0.0,-0.5644004
1457028000,-0.0037077859,-0.0015830849,-0.00016361475,0.0,0.0,-0.56376964
1457052000,-0.0011816772,-0.0012679717,-0.00012803078,0.0,0.0,-0.56391054
1457068000,-0.00046038372,-0.00093215983,1.8954277e-05,0.0,0.0,-0.56391054
1457088000,0.0027497706,-0.006641795,-0.00013393164,0.0,0.0,-0.56412727
1457112000,0.0014480904,-0.007830591,-4.184246e-05,0.0,0.0,-0.56455994
1457128000,0.002877851,-0.008854212,6.812811e-05,0.0,0.0,-0.56492126
1457152000,0.007873562,-0.0041613416,0.00012052059,0.0,0.0,-0.56445307
1457172000,0.006062652,-0.00036842236,-3.0577183e-05,0.0,0.0,-0.5650638
1457192000,0.008404136,-0.008020921,-2.8967857e-05,0.0,0.0,-0.564711
1457208000,0.008560146,-0.008638096,-0.0001283884,0.0,0.0,-0.56428593
1457232000,0.005353694,-0.0051851333,-0.00017237663,0.0,0.0,-0.56434447
1457252000,0.004607888,0.0017025364,-0.00011855364,0.0,0.0,-0.5644912
1457268000,0.007308543,0.00052470085,-0.00023925304,0.0,0.0,-0.5635116
1457288000,0.002691121,-0.0015070327,-0.000264287,0.0,0.0,-0.5636297
1457312000,0.0016372183,-0.00201009,-0.00023460388,0.0,0.0,-0.56344235
1457328000,0.005325188,-0.005218166,-0.0003912449,0.0,0.0,-0.56348693
1457348000,0.0047780387,-0.0010206092,-1.6450882e-05,0.0,0.0,-0.56397367
1457368000,0.005779973,-0.0003659504,-0.00012856722,0.0,0.0,-0.56335443
1457388000,0.0032596977,0.0017961496,-0.00026357174,0.0,0.0,-0.56384665
1457408000,-0.0002372819,0.0012213879,-0.00029557943,0.0,0.0,-0.56421715
1457432000,-0.0022701637,-0.0044241925,-0.00020635128,0.0,0.0,-0.56415564
1457448000,0.00094845775,-0.0050827265,-9.7095966e-05,0.0,0.0,-0.56474423
1457468000,0.0040891813,-0.006590737,-0.0002709031,0.0,0.0,-0.5652292
1457492000,-0.0054805633,-0.007243566,-0.0001809597,0.0,0.0,-0.5644262
1457508000,-0.0037447535,-0.006716309,-4.9352646e-05,0.0,0.0,-0.56417274
1457532000,0.00031623803,-0.005411526,-5.2034855e-05,0.0,0.0,-0.56397504
1457548000,-0.0016927819,-0.0065827416,3.0755997e-05,0.0,0.0,-0.5629014
1457568000,0.0011198097,-0.010263797,0.00022190809,0.0,0.0,-0.5630863
1457592000,-0.006534304,-0.013500361,0.0003876686,0.0,0.0,-0.5628901
1457608000,-0.006410657,-0.012202222,0.00047385693,0.0,0.0,-0.5632885
1457632000,-0.0074148,-0.007877199,0.00035566092,0.0,0.0,-0.56367815
1457648000,-0.007178822,-0.010681084,0.0005042553,0.0,0.0,-0.5645565
1457672000,-0.0048329085,-0.009300204,0.00068181753,0.0,0.0,-0.56487703
1457692000,-0.004140194,-0.010157933,0.00063961744,0.0,0.0,-0.56498206
1457712000,0.0013124077,-0.00854831,0.00062155724,0.0,0.0,-0.56515443
1457728000,0.004664551,-0.007842524,0.0007930398,0.0,0.0,-0.56495804
1457748000,0.0037386585,-0.005300307,0.0009300113,0.0,0.0,-0.56521493
1457768000,0.003830022,-0.00059329695,0.0004734993,0.0,0.0,-0.56456834
1457788000,0.01605047,0.008884679,0.00022798777,0.0,0.0,-0.5648482
1457808000,0.019278727,0.008181023,0.00026285648,0.0,0.0,-0.56490636
1457832000,0.016460648,0.010191057,0.00030702353,0.0,0.0,-0.5646175
1457848000,0.010884289,0.0154217435,0.00024300814,0.0,0.0,-0.5640206
1457868000,0.008136816,0.010395466,0.00027036667,0.0,0.0,-0.5640053
1457892000,0.007273211,0.008792715,0.00021797419,0.0,0.0,-0.56450963
1457912000,0.002274646,0.011011711,-5.453825e-05,0.0,0.0,-0.5638168
1457928000,0.0048419787,0.008061915,-0.00017237663,0.0,0.0,-0.5638257
1457952000,0.0033940554,0.002620565,-1.6272068e-05,0.0,0.0,-0.56356186
1457968000,0.003911875,0.0024525414,-8.940697e-05,0.0,0.0,-0.56305194
1457988000,0.0030737403,0.0032889205,-0.00016093254,0.0,0.0,-0.56316257
1458012000,0.00072399806,0.0022358007,-6.920099e-05,0.0,0.0,-0.5637687
1458032000,-0.0016135583,-0.0033802665,3.4689903e-05,0.0,0.0,-0.56392103
1458052000,-0.002179371,-0.0035748566,0.00018364191,0.0,0.0,-0.56392103
1458064000,-0.0073991995,-0.0005259536,0.00015199184,0.0,0.0,-0.563888
1458088000,-0.01271088,-0.0012915444,0.00032132864,0.0,0.0,-0.5638754
1458108000,-0.011962099,-0.0013317667,0.0004159212,0.0,0.0,-0.5638754
1458132000,-0.0029771319,0.0017889866,0.0007683635,0.0,0.0,-0.56332016
1458148000,-0.0029400957,0.004619724,0.00087994337,0.0,0.0,-0.5638661
1458168000,0.0027620948,0.008412186,0.00085794926,0.0,0.0,-0.5636151
1458192000,0.0050761728,0.011369837,0.00083595514,0.0,0.0,-0.56277
1458208000,0.00380749,0.0084281815,0.00082057714,0.0,0.0,-0.5631241
1458232000,0.005521723,0.0052785417,0.0007917881,0.0,0.0,-0.5633066
1458252000,0.0073579075,0.007418289,0.00072419643,0.0,0.0,-0.5637549
1458268000,0.007575387,0.0039812964,0.0007660389,0.0,0.0,-0.5633161
1458288000,0.0054382673,-0.0007831963,0.00095558167,0.0,0.0,-0.56360686
1458312000,-0.00028464035,-0.0017692801,0.00090676546,0.0,0.0,-0.5635007
1458328000,-0.0041077407,-0.00041133142,0.00090301037,0.0,0.0,-0.5637616
1458348000,-0.002841519,-0.00049484905,0.00067698956,0.0,0.0,-0.5636407
1458372000,-0.00024077715,0.002142112,0.0006887913,0.0,0.0,-0.5647563
1458388000,-0.0016584322,0.001415372,0.00064980984,0.0,0.0,-0.565005
1458412000,-0.0018656307,0.0030828891,0.0006374717,0.0,0.0,-0.5647663
1458428000,0.0022219985,-0.0032686316,0.00052285194,0.0,0.0,-0.5652244
1458452000,0.007115023,-0.0044152355,0.0003617406,0.0,0.0,-0.5649925
1458472000,0.008187711,-0.0014036789,0.00044631958,0.0,0.0,-0.56424916
1458488000,0.005506617,-0.0012204379,0.0001475215,0.0,0.0,-0.56385523
1458504000,0.0023196756,0.0016724195,8.332729e-05,0.0,0.0,-0.56351745
1458532000,-0.0030220142,-0.0048810565,0.00026392937,0.0,0.0,-0.5635127
1458548000,-0.005214221,-0.0070171254,0.00043934584,0.0,0.0,-0.56353176
1458572000,-0.007107079,-0.0056055663,0.00071811676,0.0,0.0,-0.56355816
1458588000,-0.0051085283,-0.0021949653,0.00089496374,0.0,0.0,-0.5635642
1458612000,-0.0060890964,-0.0014382022,0.0008060932,0.0,0.0,-0.56337345
1458632000,-0.001358879,0.00086781057,0.00076800585,0.0,0.0,-0.5640252
1458652000,-0.0009490417,0.0063880957,0.00088351965,0.0,0.0,-0.5640448
1458672000,0.0009444149,0.0017763174,0.0008125305,0.0,0.0,-0.5643921
1458692000,0.0030488656,-0.00035353575,0.0006222725,0.0,0.0,-0.56389153
1458708000,-0.0014812883,-0.00077398075,0.0006585717,0.0,0.0,-0.56357485
1458728000,0.0035075457,-0.0006290426,0.0005366206,0.0,0.0,-0.563738
1458748000,0.0019279139,0.0033875275,0.0006288886,0.0,0.0,-0.5633297
1458772000,-0.00067115994,0.0105482135,0.0005636215,0.0,0.0,-0.56356806
1458788000,-0.0018177044,0.011024753,0.0005105138,0.0,0.0,-0.5631235
1458812000,0.00032459898,0.008867839,0.00062584877,0.0,0.0,-0.56329924
1458832000,-0.0022169764,0.0072259647,0.0007547736,0.0,0.0,-0.5629404
1458848000,0.0032667539,0.002762924,0.0008071661,0.0,0.0,-0.5628644
1458872000,0.0026839608,-0.00421495,0.0009012222,0.0,0.0,-0.56294984
1458888000,0.0042578457,0.004630981,0.0009584427,0.0,0.0,-0.56350654
1458908000,0.00669167,0.001498935,0.0011274219,0.0,0.0,-0.5641879
1458928000,0.006189054,0.006492136,0.0013255477,0.0,0.0,-0.5635771
1458948000,0.0043098615,0.002984719,0.0014360547,0.0,0.0,-0.5636677
1458972000,0.005129602,0.0013257359,0.0011613965,0.0,0.0,-0.5633732
1458988000,0.005915488,-0.002908941,0.0010170937,0.0,0.0,-0.562954
1459012000,0.0040497743,0.0021413579,0.0007508397,0.0,0.0,-0.5624635
1459032000,-0.0040066773,-0.009024782,0.0007842779,0.0,0.0,-0.562117
1459052000,-0.0056660785,-0.0016960449,0.00071310997,0.0,0.0,-0.5621702
1459072000,-0.0045138225,-0.0014439106,0.0007073879,0.0,0.0,-0.5618915
1459092000,-0.0044347392,-0.0045641046,0.00083452463,0.0,0.0,-0.56178117
1459112000,-0.004279751,-0.0040918877,0.00071293116,0.0,0.0,-0.5623777
1459132000,-0.006764603,-0.006977044,0.00060367584,0.0,0.0,-0.5621198
1459148000,-0.00988087,-0.0076711345,0.00068700314,0.0,0.0,-0.5624043
1459172000,-0.008210961,-0.002894998,0.0007533431,0.0,0.0,-0.5631223
1459192000,-0.005599554,-0.007300744,0.0009824038,0.0,0.0,-0.5632312
1459212000,-0.006108665,-0.0075133843,0.0007991195,0.0,0.0,-0.56347877
1459232000,-0.004124169,-0.0067714015,0.00061923265,0.0,0.0,-0.56371915
1459248000,0.0012970213,-0.0025959243,0.00047510862,0.0,0.0,-0.56292516
1459268000,-0.0013144354,-0.0032884544,0.00051391125,0.0,0.0,-0.563253
1459292000,-0.00097035547,-0.0063205957,0.00046813488,0.0,0.0,-0.5632515
1459308000,-0.0009988588,-0.00078832323,0.00060135126,0.0,0.0,-0.5628883
1459332000,-0.004950028,0.0010021138,0.00086277723,0.0,0.0,-0.56291336
1459348000,-0.003073801,0.0021480112,0.0007429719,0.0,0.0,-0.5625413
1459368000,-0.0032643601,0.011348071,0.00061762333,0.0,0.0,-0.5620877
1459392000,0.0004011006,0.010929437,0.00066268444,0.0,0.0,-0.56267315
1459412000,-0.0012349254,0.010575006,0.0006905794,0.0,0.0,-0.56282735
1459432000,0.00012001558,0.013309054,0.00059992075,0.0,0.0,-0.5626134
1459448000,0.00021728617,0.012255305,0.00033080578,0.0,0.0,-0.5626134
1459472000,-0.0060334965,0.008686693,0.00059080124,0.0,0.0,-0.5625254
1459492000,-0.0020721776,0.002210708,0.0007150769,0.0,0.0,-0.5623448
1459504000,-0.0018688543,0.0009804734,0.0008729696,0.0,0.0,-0.5623448
1459528000,0.0022922019,0.00073063583,0.0009904504,0.0,0.0,-0.5625682
1459548000,0.0025385069,-0.00041571516,0.0010646582,0.0,0.0,-0.5625135
1459572000,0.0024767204,-0.00413016,0.0011127591,0.0,0.0,-0.5632282
1459592000,0.003985213,-0.005899648,0.0012851357,0.0,0.0,-0.5628945
1459608000,0.0017397667,-0.0033564712,0.0014694929,0.0,0.0,-0.5628596
1459632000,0.004581989,7.700769e-05,0.0014845133,0.0,0.0,-0.562765
1459652000,0.0026049754,0.0028539514,0.0013402104,0.0,0.0,-0.56215173
1459672000,-0.00085962494,0.00044848595,0.0012826324,0.0,0.0,-0.5618659
1459692000,0.0023665053,-0.0018591655,0.0014535785,0.0,0.0,-0.56183934
1459708000,0.0032241591,-0.0013319358,0.0015512109,0.0,0.0,-0.56136996
1459732000,-0.0007660878,-0.0019278332,0.0015410185,0.0,0.0,-0.5620331
1459748000,-0.000877667,-0.00036095653,0.0015168786,0.0,0.0,-0.5622768
1459768000,-0.0006210159,0.00418265,0.0013489723,0.0,0.0,-0.56243986
1459792000,-0.001849615,0.0041968618,0.0012749434,0.0,0.0,-0.56234306
1459808000,0.00177023,0.0054658297,0.0012322068,0.0,0.0,-0.5617051
1459828000,0.0033662526,0.00533784,0.0010303259,0.0,0.0,-0.56174713
1459848000,0.0048343074,0.0015635864,0.0010991693,0.0,0.0,-0.5622639
1459872000,0.0014366317,-0.0014054698,0.0012450814,0.0,0.0,-0.5629982
1459892000,-0.00261001,-0.00527321,0.0011698008,0.0,0.0,-0.56313354
1459912000,-0.001048676,-0.0004311878,0.0010499954,0.0,0.0,-0.56338304
1459932000,0.0002018013,-0.0031875358,0.0011581779,0.0,0.0,-0.5628697
1459948000,-0.0022199093,-0.0038886182,0.0011501312,0.0,0.0,-0.5628678
1459968000,-0.0035307957,-0.0026807876,0.0011572838,0.0,0.0,-0.5630518
1459988000,-0.0049602,0.0015461674,0.0010453463,0.0,0.0,-0.5631126
1460008000,-0.008655199,0.00145804,0.0009126663,0.0,0.0,-0.56349033
1460032000,-0.009453556,-0.0028620227,0.0009496808,0.0,0.0,-0.56405485
1460048000,-0.010418031,-0.0071375803,0.00080269575,0.0,0.0,-0.56374735
1460072000,-0.0046871873,-0.011729423,0.0007172227,0.0,0.0,-0.56336695
1460088000,-0.00014655828,-0.009507065,0.0005854368,0.0,0.0,-0.5628737
1460112000,-0.000567758,-0.0013771118,0.00086563826,0.0,0.0,-0.5634212
1460132000,0.00059265713,0.0033076252,0.0008350611,0.0,0.0,-0.5633712
1460148000,0.0038649088,-0.003950417,0.0010471344,0.0,0.0,-0.5632689
1460168000,0.006102805,-0.0028178683,0.0011816025,0.0,0.0,-0.56362104
1460192000,0.004948723,-0.00334438,0.0009471774,0.0,0.0,-0.5638751
1460208000,0.006928169,-0.005286594,0.0007402897,0.0,0.0,-0.56347966
1460232000,0.0075266557,0.00023887726,0.0010719895,0.0,0.0,-0.5635473
1460244000,0.0021567154,-0.00080048223,0.0009942055,0.0,0.0,-0.56322026
1460264000,-0.008254635,-6.273837e-05,0.0010170937,0.0,0.0,-0.56311464
1460288000,-0.005682106,-0.0012275311,0.0011892915,0.0,0.0,-0.56280136
1460308000,-0.0030404984,-0.0016597926,0.0011501312,0.0,0.0,-0.5632861
1460332000,-0.0061102104,-0.003784148,0.00094234943,0.0,0.0,-0.56348723
1460352000,-0.0028194103,-0.0034485203,0.00074225664,0.0,0.0,-0.563369
1460368000,-0.00022219378,-0.0083922325,0.0004836917,0.0,0.0,-0.5628955
1460388000,-0.0014691423,-0.0065426286,0.00037246943,0.0,0.0,-0.5623801
1460408000,-0.0012933074,-0.0028441888,0.00011962652,0.0,0.0,-0.56212825
1460428000,-0.0027847092,-0.0053998097,0.00012820959,0.0,0.0,-0.5616493
1460448000,-0.004436369,-0.0035032255,0.00023388863,0.0,0.0,-0.56154126
1460468000,-0.0055659064,-0.002295385,0.0002657175,0.0,0.0,-0.5619019
1460492000,-0.003961297,-0.00468384,0.00019294024,0.0,0.0,-0.5622445
1460512000,-0.0046743583,-0.0054179877,4.184246e-05,0.0,0.0,-0.5625688
1460532000,0.0009840704,-0.003006963,8.940697e-07,0.0,0.0,-0.56285566
1460552000,0.0036447798,-0.0059728054,0.00017398596,0.0,0.0,-0.5633294
1460572000,0.005641178,-0.0047534276,0.0005123019,0.0,0.0,-0.56306344
1460592000,0.0036870714,-0.006059047,0.0008454323,0.0,0.0,-0.5629515
1460612000,0.0004831336,-0.0057563884,0.00087350607,0.0,0.0,-0.56239176
1460632000,0.00048087118,-0.0046325717,0.0010567904,0.0,0.0,-0.56230253
1460648000,-0.00020091282,-0.0016101296,0.0009008646,0.0,0.0,-0.5627386
1460668000,-0.0046122586,-0.00048754824,0.0007599592,0.0,0.0,-0.56310135
1460688000,-0.009390132,-0.00058109453,0.00073868036,0.0,0.0,-0.56329054
1460708000,-0.004062297,0.00087740505,0.0007120371,0.0,0.0,-0.5631202
1460728000,0.00138657,-0.00012192316,0.00050765276,0.0,0.0,-0.563785
1460748000,-0.001164655,0.0037382804,0.0006081462,0.0,0.0,-0.56386435
1460768000,0.0032816925,0.0017266637,0.00038784742,0.0,0.0,-0.5633738
1460792000,0.0008555255,0.004045538,-7.671118e-05,0.0,0.0,-0.5630614
1460808000,0.0018249052,0.010824837,-0.00030255318,0.0,0.0,-0.56300384
1460832000,0.00074164965,0.009647935,-0.0004954934,0.0,0.0,-0.5628324
1460848000,0.0023861448,0.0025916097,-0.00063693523,0.0,0.0,-0.5630946
1460864000,0.0017460189,-0.002114477,-0.0009874105,0.0,0.0,-0.5633783
1460892000,-0.004214517,-0.0049103154,-0.0009723902,0.0,0.0,-0.5642486
1460912000,-0.002530567,-0.008428559,-0.0006671548,0.0,0.0,-0.5639059
1460928000,-0.0028862196,-0.0043014004,-0.0005080104,0.0,0.0,-0.5636515
1460944000,-0.0022698026,-0.004962283,-0.00040090084,0.0,0.0,-0.56337434
1460972000,-0.0038587076,0.00032579288,-0.0003116727,0.0,0.0,-0.5631062
1460988000,4.57149e-05,0.0041113333,-0.00037175417,0.0,0.0,-0.5627553
1461008000,-0.00019222568,0.00050547573,-0.00033527613,0.0,0.0,-0.56309664
1461032000,-0.00058663543,0.0009033783,-0.00025838614,0.0,0.0,-0.5632502
1461048000,-0.0028787786,-0.0010411146,-9.8347664e-05,0.0,0.0,-0.56300294
1461072000,-0.0020565873,-0.002897358,-6.0796738e-06,0.0,0.0,-0.5630656
1461088000,0.0008525171,-0.0031409818,-7.1525574e-05,0.0,0.0,-0.56317216
1461112000,-0.0057056136,-0.0025036908,-0.00016057491,0.0,0.0,-0.5635432
1461132000,-0.00088338484,0.00035511574,-0.00024747849,0.0,0.0,-0.56355584
1461148000,-0.00071325037,0.00070745463,-9.548664e-05,0.0,0.0,-0.56355584
1461172000,0.0035251658,0.0067326603,2.3066998e-05,0.0,0.0,-0.5645769
1461188000,0.003662912,0.0071494477,1.8775463e-05,0.0,0.0,-0.5645769
1461212000,0.0029592994,0.0073119127,7.098913e-05,0.0,0.0,-0.56413376
1461232000,0.0015063265,0.004198828,-0.00019937754,0.0,0.0,-0.5637992
1461248000,0.0024238026,0.0055890717,-5.2392483e-05,0.0,0.0,-0.5631779
1461272000,0.0039530033,0.0003817805,-6.66976e-05,0.0,0.0,-0.5634431
1461288000,-0.0022104566,0.0027570985,-0.000116586685,0.0,0.0,-0.5632616
1461308000,0.00017561833,-0.0030024138,-0.00015825033,0.0,0.0,-0.56354994
1461332000,0.0011939881,-0.00019823306,-0.00016218424,0.0,0.0,-0.5627429
1461352000,0.0028424305,0.0027950255,7.867813e-06,0.0,0.0,-0.56237495
1461368000,0.0039418023,0.002982286,6.043911e-05,0.0,0.0,-0.5616553
1461392000,0.006258961,0.0034750218,0.00023782253,0.0,0.0,-0.56160444
1461412000,0.0020233998,0.0018233445,0.00017952919,0.0,0.0,-0.5622485
1461432000,-0.005127948,-0.0019223109,0.00024855137,0.0,0.0,-0.562886
1461448000,-0.004222444,-0.0019959006,0.00023245811,0.0,0.0,-0.5637547
1461472000,-0.0041564615,-0.00093943166,0.00030702353,0.0,0.0,-0.56424075
1461488000,-0.0023810018,-0.005159286,0.00043308735,0.0,0.0,-0.5647792
1461508000,-0.0026537078,0.00042307272,0.00025963783,0.0,0.0,-0.5648298
1461528000,-0.003674845,0.00455792,0.00019437075,0.0,0.0,-0.56443506
1461552000,-0.0018881662,1.5248428e-05,0.00025355816,0.0,0.0,-0.56466144
1461572000,-0.0020965983,0.0016013926,0.00018936396,0.0,0.0,-0.5645469
1461588000,0.0006407965,0.002905821,0.00022423267,0.0,0.0,-0.5643631
1461612000,0.005272016,0.00044378755,0.00027430058,0.0,0.0,-0.56401426
1461628000,0.0050393054,-0.00074284564,0.00038015842,0.0,0.0,-0.5636177
1461652000,0.003211985,0.0057766386,0.00030308962,0.0,0.0,-0.56352615
1461672000,0.0064330613,-0.0007052118,0.000459373,0.0,0.0,-0.56377757
1461692000,0.009735156,-0.0038931067,0.0003299117,0.0,0.0,-0.5638393
1461712000,0.008672357,-0.0030357416,0.00041395426,0.0,0.0,-0.5631357
1461732000,0.005082988,-0.0020059678,0.00022476912,0.0,0.0,-0.56263566
1461748000,0.0041243173,-0.0020154137,0.00039178133,0.0,0.0,-0.56263566
1461768000,-0.004111401,-0.009998931,0.00047332048,0.0,0.0,-0.5636735
1461792000,-0.0069793467,-0.0130374385,0.0005246401,0.0,0.0,-0.5642584
1461808000,-0.007970879,-0.014425442,0.0003798008,0.0,0.0,-0.5646296
1461832000,-0.0047966214,-0.012053182,0.00050264597,0.0,0.0,-0.5643855
1461852000,-0.001268519,-0.011687018,0.00042432547,0.0,0.0,-0.56444454
1461872000,-0.0012023903,-0.0039110375,0.00046044588,0.0,0.0,-0.5642187
1461888000,-0.0006990731,-0.0010702717,0.0005738139,0.0,0.0,-0.5638369
1461908000,0.0010624083,-0.0025786865,0.0005890131,0.0,0.0,-0.5639816
1461932000,-0.002131233,-0.0029563643,0.00078088045,0.0,0.0,-0.56396085
1461948000,-0.003118793,0.0010732377,0.00094270706,0.0,0.0,-0.56364053
1461972000,0.0004304729,0.00076396175,0.0008853078,0.0,0.0,-0.5633881
1461988000,0.00036156876,0.0011099068,0.00080895424,0.0,0.0,-0.5633881
1462012000,4.79382e-05,-0.004251424,0.00095003843,0.0,0.0,-0.5640457
1462028000,-0.00062849466,-0.0016935149,0.0010432005,0.0,0.0,-0.5644526
1462052000,-0.005194043,0.00071038917,0.0011116862,0.0,0.0,-0.56498235
1462072000,0.0008330648,-0.0014020092,0.0010086894,0.0,0.0,-0.56540424
1462092000,-0.0017547242,0.0030759845,0.0007830262,0.0,0.0,-0.56536514
1462108000,0.00062682875,0.0063757044,0.0007955432,0.0,0.0,-0.5647909
1462132000,0.0015981317,0.0062744645,0.00085777044,0.0,0.0,-0.5648604
1462148000,0.0016862217,0.006308082,0.0009060502,0.0,0.0,-0.5641647
1462172000,-0.002995755,0.0051354626,0.00094270706,0.0,0.0,-0.5633433
1462192000,-0.004400923,0.006415572,0.00071918964,0.0,0.0,-0.5633028
1462208000,-0.006638729,0.005719144,0.00085794926,0.0,0.0,-0.56340754
1462224000,-0.008778398,-3.4131852e-05,0.00090014935,0.0,0.0,-0.5634907
1462248000,-0.011876339,0.0006437125,0.00074511766,0.0,0.0,-0.56358653
1462272000,-0.0074904617,0.0013352474,0.0007109642,0.0,0.0,-0.56402034
1462288000,-0.0077715986,0.008500528,0.00061798096,0.0,0.0,-0.5640987
1462304000,-0.006587501,0.008921742,0.0005021095,0.0,0.0,-0.5640987
1462328000,-7.085223e-05,0.011296786,0.00049459934,0.0,0.0,-0.5637671
1462352000,0.0002077301,0.008246933,0.00065785646,0.0,0.0,-0.5643091
1462364000,-0.0034175226,0.010014054,0.0006389022,0.0,0.0,-0.5639407
1462392000,0.00018157926,0.005255229,0.0008075237,0.0,0.0,-0.56335527
1462412000,0.0029890405,0.0064798025,0.0007401109,0.0,0.0,-0.563697
1462432000,0.0027947542,0.0062339464,0.00043559074,0.0,0.0,-0.563624
1462452000,0.008522483,0.008597397,0.00031596422,0.0,0.0,-0.56276655
1462468000,0.00640125,0.0058157383,0.00026589632,0.0,0.0,-0.56235075
1462488000,0.00504147,0.006254702,0.0003851652,0.0,0.0,-0.56235087
1462512000,-0.0027857681,0.0070924237,0.00032275915,0.0,0.0,-0.5620953
1462532000,-0.0036062154,0.005966367,0.00014269352,0.0,0.0,-0.56269544
1462548000,-0.0041356715,0.005340241,0.00014805794,0.0,0.0,-0.56269544
1462568000,-0.00017754338,0.0013238981,5.3286552e-05,0.0,0.0,-0.56312424
1462592000,-0.00090764347,0.004440083,-7.939339e-05,0.0,0.0,-0.5641162
1462612000,-0.007157539,-0.00012059786,-0.00020331144,0.0,0.0,-0.5641953
1462632000,-0.0052341176,0.0007999645,-6.991625e-05,0.0,0.0,-0.5636299
1462648000,-0.0026517275,0.0015540142,0.00020992756,0.0,0.0,-0.56329805
1462672000,0.00046953536,0.0037949854,0.00025856495,0.0,0.0,-0.5624184
1462692000,-0.0018460737,0.006030211,0.00033295155,0.0,0.0,-0.56288505
1462712000,-0.0017285601,0.00077653216,0.00044184923,0.0,0.0,-0.56343967
1462732000,0.0006953452,0.0012170672,0.0004491806,0.0,0.0,-0.5638193
1462748000,0.004913458,0.0027381838,0.0004287958,0.0,0.0,-0.56409925
1462768000,0.009421597,0.004751376,0.00034224987,0.0,0.0,-0.56463194
1462788000,0.011599509,0.0018632882,0.0002449751,0.0,0.0,-0.56427157
1462808000,0.009721034,-0.00093362964,0.00033187866,0.0,0.0,-0.5640262
1462828000,0.006208527,-5.3155236e-06,0.00030237436,0.0,0.0,-0.5634443
1462852000,0.009175329,0.0068665277,0.0002952218,0.0,0.0,-0.5618858
1462868000,0.0116790775,0.009534627,0.00026625395,0.0,0.0,-0.56168854
1462888000,0.013227979,0.009575587,0.00036889315,0.0,0.0,-0.5618565
1462908000,0.0086117145,0.007220247,0.00022798777,0.0,0.0,-0.5617055
1462932000,0.01295693,0.0041816505,0.00012803078,0.0,0.0,-0.5619414
1462952000,0.010676736,0.003370361,3.772974e-05,0.0,0.0,-0.56203234
1462968000,0.0064914892,-0.0016132436,4.0769577e-05,0.0,0.0,-0.5626852
1462988000,0.00094563235,-0.0034602475,4.094839e-05,0.0,0.0,-0.56300193
1463012000,-0.00077762967,-0.0017908632,6.097555e-05,0.0,0.0,-0.56357557
1463032000,-0.002776787,0.0037492956,0.00017559528,0.0,0.0,-0.5636127
1463048000,-0.00490445,0.005849655,0.00011086464,0.0,0.0,-0.5633677
1463072000,-0.0046233265,0.007566643,3.8087368e-05,0.0,0.0,-0.5623828
1463088000,-0.0055449363,0.011256967,7.939339e-05,0.0,0.0,-0.5621107
1463108000,-0.006127016,0.009694546,-0.00013697147,0.0,0.0,-0.56177354
1463132000,-0.006233617,0.008359397,-9.834766e-06,0.0,0.0,-0.5611724
1463148000,-0.007117355,0.010428076,-5.1140785e-05,0.0,0.0,-0.5611165
1463168000,-0.006393308,0.009333478,0.00032955408,0.0,0.0,-0.5614468
1463188000,-0.004377579,0.003359755,0.00027394295,0.0,0.0,-0.5618437
1463212000,-0.0051258774,0.0055658002,0.0004312992,0.0,0.0,-0.56217307
1463228000,0.0010391967,0.002758401,0.00039857626,0.0,0.0,-0.56230587
1463248000,0.0044000256,-0.0005077481,0.0005557537,0.0,0.0,-0.56270236
1463272000,0.004206732,0.0021732077,0.00082826614,0.0,0.0,-0.5632901
1463288000,0.004048005,-0.0028240918,0.0009943843,0.0,0.0,-0.56363773
1463308000,0.0048057,-0.0012135162,0.0010576844,0.0,0.0,-0.5636223
1463332000,0.0015772968,0.0023605903,0.0012229085,0.0,0.0,-0.5631341
1463348000,-0.0008621989,-0.0036156708,0.0011476278,0.0,0.0,-0.5626023
1463372000,-0.0015272722,0.0030649358,0.00090157986,0.0,0.0,-0.5629485
1463392000,0.00082779466,-0.005815424,0.0010040402,0.0,0.0,-0.56280935
1463412000,-0.0018561278,-0.007752273,0.0010510683,0.0,0.0,-0.5632857
1463432000,-0.002576569,-0.0018842188,0.0008568764,0.0,0.0,-0.5630704
1463448000,-0.0042734924,-0.0005493035,0.00071150064,0.0,0.0,-0.5627069
1463472000,-0.0041578487,0.0007971298,0.0007805228,0.0,0.0,-0.5629532
1463492000,-0.0010817936,0.005334837,0.000872612,0.0,0.0,-0.56288755
1463512000,0.0012929449,0.0099999495,0.0007612109,0.0,0.0,-0.56301814
1463528000,0.0026302803,0.010141562,0.0007789135,0.0,0.0,-0.5625409
1463552000,0.0015414306,0.00890375,0.00052016973,0.0,0.0,-0.5623089
1463572000,0.005282686,0.0062572905,0.00048565865,0.0,0.0,-0.56277925
1463588000,-0.0017552683,0.004257287,0.000520885,0.0,0.0,-0.5631635
1463608000,-0.0027786554,0.0050019557,0.00052142143,0.0,0.0,-0.56303954
1463628000,0.0019112562,0.0015847804,0.00065392256,0.0,0.0,-0.5635014
1463652000,-3.7732534e-05,0.001836168,0.00069719553,0.0,0.0,-0.5627244
1463672000,0.00540788,0.002098504,0.00065875053,0.0,0.0,-0.5625468
1463688000,0.0055990275,0.0019757145,0.00069630146,0.0,0.0,-0.5625468
1463712000,0.003157602,0.0056906594,0.001008153,0.0,0.0,-0.5627636
1463732000,-0.002433613,0.00087949715,0.0010442734,0.0,0.0,-0.5624684
1463748000,-0.0045417286,-0.0009591796,0.0011896491,0.0,0.0,-0.5628716
1463772000,-0.0077161063,-0.0068313023,0.000906229,0.0,0.0,-0.56257296
1463788000,-0.002980454,-0.0044166106,0.00078874826,0.0,0.0,-0.5627553
1463812000,0.0006240201,0.00059311796,0.00044488907,0.0,0.0,-0.5631206
1463832000,0.004593934,-0.0015347688,0.00039070845,0.0,0.0,-0.56325376
1463848000,0.008183853,-0.002690245,0.00052016973,0.0,0.0,-0.5636855
1463868000,0.00549789,-0.0038087242,0.0006124377,0.0,0.0,-0.5635685
1463888000,0.0051061143,-0.010126688,0.0006374717,0.0,0.0,-0.5638361
1463912000,0.0058603697,-0.0102129765,0.00048691034,0.0,0.0,-0.5637347
1463932000,0.004947193,-0.0062678377,0.00082468987,0.0,0.0,-0.5631317
1463948000,0.0016288657,-0.0046665967,0.001011908,0.0,0.0,-0.562486
1463972000,0.0016304548,-0.010806127,0.0010548234,0.0,0.0,-0.5619237
1463988000,0.00068153953,-0.00974568,0.0010807514,0.0,0.0,-0.5619237
1464008000,-0.00044375611,-0.008315674,0.0009967089,0.0,0.0,-0.56244713
1464028000,0.0012159459,-0.005723845,0.00091445446,0.0,0.0,-0.56271553
1464048000,0.0023109305,0.0016107694,0.00093215704,0.0,0.0,-0.5628039
1464072000,0.00052461424,0.0007749761,0.0008575916,0.0,0.0,-0.5629737
1464092000,-0.0005731804,0.0020923652,0.0006414056,0.0,0.0,-0.56325203
1464104000,-0.004649569,-0.00019898725,0.0006326437,0.0,0.0,-0.5632416
1464132000,-0.0056069763,0.00048817418,0.00048565865,0.0,0.0,-0.5629444
1464148000,-0.010376908,-0.0010184807,0.00040233135,0.0,0.0,-0.56297934
1464168000,-0.0071904473,-0.0016870546,0.00023031235,0.0,0.0,-0.56313264
1464188000,-0.007371832,-0.0071762013,0.0002835989,0.0,0.0,-0.5633381
1464212000,-0.0048759,-0.0019288855,0.00035226345,0.0,0.0,-0.5631829
1464228000,-0.0010801675,0.0012460136,0.0005013943,0.0,0.0,-0.56316084
1464248000,-0.0011713884,0.002691344,0.00057953596,0.0,0.0,-0.56282526
1464268000,0.0017935869,0.0048652566,0.0006406903,0.0,0.0,-0.5620094
1464288000,0.008343004,0.006823944,0.0004786849,0.0,0.0,-0.5616101
1464308000,0.010299092,0.009080804,0.00033169985,0.0,0.0,-0.5615129
1464332000,0.0047205463,0.0048943213,0.00040483475,0.0,0.0,-0.56220937
1464348000,0.0041987086,0.0066717,0.00044077635,0.0,0.0,-0.56246316
1464372000,0.001810109,0.0086423475,0.00031274557,0.0,0.0,-0.562582
1464392000,0.0047035594,0.0077552376,0.00021010637,0.0,0.0,-0.5626512
1464408000,-0.00015448406,0.003897233,0.00012499094,0.0,0.0,-0.5623502
1464432000,-0.0030036326,0.0029481845,-9.8884106e-05,0.0,0.0,-0.5628109
1464452000,-0.0034946054,0.003653259,-0.00025302172,0.0,0.0,-0.5630158
1464472000,-0.0049731173,0.00461956,-6.920099e-05,0.0,0.0,-0.5629755
1464492000,-0.007991527,0.006852288,4.2915344e-05,0.0,0.0,-0.5630579
1464512000,-0.012112931,0.011048827,0.00032383204,0.0,0.0,-0.56286305
1464532000,-0.009546672,0.010667143,0.00020760298,0.0,0.0,-0.563423
1464552000,-0.010185812,0.0086423885,0.00014412403,0.0,0.0,-0.5627839
1464568000,-0.008723039,0.00787583,-8.314848e-05,0.0,0.0,-0.5627839
1464592000,-0.006484774,0.004498605,3.5226345e-05,0.0,0.0,-0.5621806
1464608000,-0.0057598706,0.0033585825,1.7166138e-05,0.0,0.0,-0.5621806
1464632000,-0.004763054,0.003984544,0.00021475554,0.0,0.0,-0.5621066
1464648000,-0.0050679194,0.002861454,0.00041216612,0.0,0.0,-0.5621729
1464668000,-0.0047566323,0.0010884824,0.0003274083,0.0,0.0,-0.56263566
1464688000,-0.00079287495,0.0019909323,0.00022423267,0.0,0.0,-0.5628068
1464712000,0.0044058845,0.0010725424,0.00033456087,0.0,0.0,-0.5633719
1464732000,0.001501034,0.004833087,0.00033545494,0.0,0.0,-0.5639436
1464748000,0.0013374053,0.0064245276,0.00038337708,0.0,0.0,-0.56377447
1464772000,0.0013954332,0.008145932,0.0005866885,0.0,0.0,-0.5632638
1464788000,0.0028978446,0.010714389,0.0005453825,0.0,0.0,-0.56334186
1464812000,0.002717677,0.0052476395,0.00058829784,0.0,0.0,-0.5632235
1464832000,-0.00081737246,0.0061911056,0.00048655272,0.0,0.0,-0.5622093
1464852000,-0.001101125,0.005388155,0.00029414892,0.0,0.0,-0.5622093
1464868000,0.0026402925,0.0015522926,0.00018131733,0.0,0.0,-0.5619623
1464892000,0.00087838294,-0.0009847694,0.00031077862,0.0,0.0,-0.56135255
1464908000,0.00096096005,-0.0044540865,0.00029540062,0.0,0.0,-0.5618049
1464932000,-0.0016269498,-0.0044474555,0.000351727,0.0,0.0,-0.56163937
1464952000,-0.0019672662,-0.006134848,0.0006528497,0.0,0.0,-0.5623735
1464972000,-0.0050266706,-0.0057719685,0.0008196831,0.0,0.0,-0.562555
1464992000,-0.0013175542,-0.0051946305,0.0008368492,0.0,0.0,-0.56258446
1465008000,-0.0018900465,-0.005315888,0.0008302331,0.0,0.0,-0.5625885
1465032000,-0.0031821057,-0.0021199908,0.00082075596,0.0,0.0,-0.5628204
1465052000,-0.0068398314,0.0021613485,0.0008561611,0.0,0.0,-0.5621742
1465068000,-0.0096660135,0.009473225,0.0006982684,0.0,0.0,-0.56238264
1465092000,-0.0029388545,0.0089854505,0.0009716749,0.0,0.0,-0.5621502
1465108000,-0.0018446487,0.010053564,0.0009856224,0.0,0.0,-0.5625397
1465128000,-0.0030093086,0.00968678,0.00093609095,0.0,0.0,-0.5635651
1465148000,-0.0025658724,0.009850141,0.0010904074,0.0,0.0,-0.563924
1465168000,-0.007503294,0.010986367,0.0012091398,0.0,0.0,-0.56439143
1465188000,-0.0060930513,0.006826106,0.0012683272,0.0,0.0,-0.5644662
1465212000,-0.0029933816,0.004000345,0.0011592507,0.0,0.0,-0.5640369
1465232000,-0.0066508055,0.0027696015,0.0012674332,0.0,0.0,-0.5641104
1465248000,-0.0031454181,0.0004605594,0.0012334585,0.0,0.0,-0.5637042
1465272000,-0.0023852885,0.0022365998,0.0012516975,0.0,0.0,-0.56422675
1465292000,-0.00025028782,0.0051526744,0.0011179447,0.0,0.0,-0.56440526
1465308000,0.004976278,0.0021216837,0.0011479855,0.0,0.0,-0.56415784
1465332000,-0.002277303,0.0023185243,0.0010455251,0.0,0.0,-0.5633025
1465352000,-0.007882507,-0.0024534217,0.001039803,0.0,0.0,-0.563741
1465368000,-0.008371621,-0.00033863029,0.00083988905,0.0,0.0,-0.563305
1465388000,-0.01165372,-0.0069697145,0.00053429604,0.0,0.0,-0.56304973
1465408000,-0.010606635,-0.0050693,0.0006290674,0.0,0.0,-0.5631181
1465432000,-0.0073658656,-0.0015165402,0.00045472383,0.0,0.0,-0.56293184
1465444000,-0.005702794,-0.00071482826,0.0004888773,0.0,0.0,-0.56293184
1465472000,-0.0010686507,0.003006565,0.0006045699,0.0,0.0,-0.5630893
1465488000,0.0028839167,0.005352199,0.00076264143,0.0,0.0,-0.5631808
1465508000,0.004033084,0.003670042,0.00077426434,0.0,0.0,-0.563706
1465532000,0.008968899,0.0065199374,0.00090783834,0.0,0.0,-0.5640945
1465548000,0.0006544953,0.0049603092,0.00071668625,0.0,0.0,-0.5642206
1465568000,-0.00030867197,0.0020993473,0.00064086914,0.0,0.0,-0.5640286
1465592000,-0.0016599116,0.00017236371,0.0003016591,0.0,0.0,-0.56390315
1465608000,-2.4993438e-05,0.0009006568,0.00020545721,0.0,0.0,-0.5640901
1465632000,-0.0008753529,-0.0028259903,0.00023120642,0.0,0.0,-0.5647582
1465648000,0.0007807785,0.0027552135,0.00010764599,0.0,0.0,-0.5648838
1465668000,-0.0016858983,0.0014593379,-2.7000904e-05,0.0,0.0,-0.5641394
1465688000,-0.0046857465,0.0047768108,-1.6093254e-06,0.0,0.0,-0.56419116
1465708000,-0.005547659,0.004700537,-3.182888e-05,0.0,0.0,-0.5640097
1465732000,-0.006336449,-0.0023361486,0.00016629696,0.0,0.0,-0.5631131
1465748000,-0.001809597,-0.0038041463,0.00026535988,0.0,0.0,-0.5630236
1465768000,-0.0016586264,-0.0028312574,0.0001732707,0.0,0.0,-0.56296784
1465792000,0.0027035717,-0.0064110314,-1.2516975e-05,0.0,0.0,-0.56258005
1465812000,0.006216549,-0.005878325,-0.00023370981,0.0,0.0,-0.5625262
1465828000,0.009148307,-0.006332975,-0.00019186735,0.0,0.0,-0.56229144
1465848000,0.008714267,-0.0013179681,-9.781122e-05,0.0,0.0,-0.5623728
1465872000,0.0024082563,0.0015650463,-0.00015950203,0.0,0.0,-0.5625829
1465892000,0.001056782,0.0015680871,-0.00015377998,0.0,0.0,-0.56307745
1465912000,-0.0034032497,0.005256214,-0.00017380714,0.0,0.0,-0.5634976
1465928000,-0.0007540374,0.0063740285,-0.00014358759,0.0,0.0,-0.56337327
1465944000,0.0015729005,0.00624183,-0.00013715029,0.0,0.0,-0.5641544
1465972000,0.0015543234,0.00286327,-0.00017899275,0.0,0.0,-0.5642783
1465992000,-0.0024460307,0.005206238,-0.00012427568,0.0,0.0,-0.5633744
1466012000,-0.00017843535,0.0021002616,0.00012767315,0.0,0.0,-0.5635311
1466032000,-0.0047740093,0.0030120194,0.00027054548,0.0,0.0,-0.5637804
1466052000,-0.0023507592,0.0052896836,0.00041216612,0.0,0.0,-0.56296676
1466068000,-0.0024233772,0.009430701,0.00035834312,0.0,0.0,-0.56261146
1466088000,-0.00413176,0.009324539,0.0005659461,0.0,0.0,-0.56242007
1466112000,-0.002130522,0.007571521,0.00073349476,0.0,0.0,-0.56232095
1466132000,-0.0019637863,0.010758445,0.0007240176,0.0,0.0,-0.5617326
1466148000,0.00035313377,0.015594254,0.0006060004,0.0,0.0,-0.5621008
1466168000,0.0008932706,0.008105859,0.00083452463,0.0,0.0,-0.5622207
1466188000,0.0006262148,0.005934826,0.00088995695,0.0,0.0,-0.5619017
1466208000,0.00043247687,0.0026297153,0.00095790625,0.0,0.0,-0.56209034
1466224000,-0.0030597467,0.00047922868,0.0009303689,0.0,0.0,-0.5621938
1466248000,-0.0024312562,0.002037655,0.00088852644,0.0,0.0,-0.5620281
1466272000,0.0010220557,-0.00093079323,0.00059080124,0.0,0.0,-0.56219214
