timestamp,q[0],q[1],q[2],q[3],delta_q_reset[0],delta_q_reset[1],delta_q_reset[2],delta_q_reset[3],quat_reset_counter
1449032000,0.97946995,0.0022210302,0.004376401,0.20153086,0.9999981,-2.473826e-10,-5.820767e-11,0.0019910338,5
1449080000,0.97947407,0.0022088361,0.0043213326,0.20151201,0.9999981,-2.473826e-10,-5.820767e-11,0.0019910338,5
1449132000,0.9794799,0.0021615827,0.0043721274,0.20148325,0.9999981,-2.473826e-10,-5.820767e-11,0.0019910338,5
1449188000,0.9794802,0.0021822385,0.0043634223,0.20148164,0.9999981,-2.473826e-10,-5.820767e-11,0.0019910338,5
1449236000,0.9794591,0.0021502972,0.004319321,0.20158537,0.9999981,-2.473826e-10,-5.820767e-11,0.0019910338,5
1449288000,0.979457,0.0021283063,0.0043010428,0.20159638,0.9999981,-2.473826e-10,-5.820767e-11,0.0019910338,5
1449340000,0.97944164,0.0021498392,0.00433086,0.20167015,0.9999981,-2.473826e-10,-5.820767e-11,0.0019910338,5
1449396000,0.97943354,0.002169714,0.0043754834,0.20170812,0.9999981,-2.473826e-10,-5.820767e-11,0.0019910338,5
1449444000,0.97942513,0.0021527684,0.004460313,0.20174743,0.9999981,-2.473826e-10,-5.820767e-11,0.0019910338,5
1449496000,0.97942686,0.002176007,0.004419927,0.20173948,0.9999981,-2.473826e-10,-5.820767e-11,0.0019910338,5
1449548000,0.97942233,0.002195161,0.0043389895,0.20176266,0.9999981,-2.473826e-10,-5.820767e-11,0.0019910338,5
1449600000,0.9794054,0.0021807395,0.0043544476,0.20184532,0.9999981,-2.473826e-10,-5.820767e-11,0.0019910338,5
1449652000,0.9794005,0.0021641424,0.0043195593,0.2018699,0.9999981,-2.473826e-10,-5.820767e-11,0.0019910338,5
1449704000,0.9794001,0.0021076757,0.0042886925,0.20187259,0.9999981,-2.473826e-10,-5.820767e-11,0.0019910338,5
1449756000,0.9793999,0.0021267335,0.0043144273,0.20187292,0.9999981,-2.473826e-10,-5.820767e-11,0.0019910338,5
1449808000,0.97939616,0.0021479467,0.004294168,0.20189153,0.9999981,-2.473826e-10,-5.820767e-11,0.0019910338,5
1449860000,0.9794024,0.002162391,0.004316952,0.20186068,0.9999981,-2.473826e-10,-5.820767e-11,0.0019910338,5
1449916000,0.97940207,0.0022040121,0.004317911,0.20186214,0.9999981,-2.473826e-10,-5.820767e-11,0.0019910338,5
1449964000,0.979408,0.0022532046,0.004291558,0.20183286,0.9999981,-2.473826e-10,-5.820767e-11,0.0019910338,5
1450016000,0.97942114,0.0022282293,0.0042560264,0.20176996,0.9999981,-2.473826e-10,-5.820767e-11,0.0019910338,5
1450068000,0.9794325,0.0021048049,0.0042759995,0.20171592,0.9999981,-2.473826e-10,-5.820767e-11,0.0019910338,5
1450124000,0.97944325,0.0021474133,0.004217946,0.20166464,0.9999981,-2.473826e-10,-5.820767e-11,0.0019910338,5
1450176000,0.979435,0.0021573745,0.0042111487,0.20170487,0.9999981,-2.473826e-10,-5.820767e-11,0.0019910338,5
1450224000,0.9794451,0.0021345736,0.0041835136,0.20165627,0.9999981,-2.473826e-10,-5.820767e-11,0.0019910338,5
1450280000,0.9794308,0.0021230895,0.004188066,0.2017257,0.9999981,-2.473826e-10,-5.820767e-11,0.0019910338,5
1450332000,0.9794321,0.002133521,0.0041877674,0.20171994,0.9999981,-2.473826e-10,-5.820767e-11,0.0019910338,5
1450380000,0.97943723,0.0021747705,0.0041726413,0.20169418,0.9999981,-2.473826e-10,-5.820767e-11,0.0019910338,5
1450432000,0.9794327,0.0022799962,0.0041530337,0.2017157,0.9999981,-2.473826e-10,-5.820767e-11,0.0019910338,5
1450484000,0.9794343,0.002313616,0.004164714,0.20170723,0.9999981,-2.473826e-10,-5.820767e-11,0.0019910338,5
1450536000,0.979422,0.0023171948,0.004107332,0.20176835,0.9999981,-2.473826e-10,-5.820767e-11,0.0019910338,5
1450592000,0.9794206,0.0022863355,0.004074455,0.20177566,0.9999981,-2.473826e-10,-5.820767e-11,0.0019910338,5
1450644000,0.97940886,0.0023166514,0.004094273,0.20183195,0.9999981,-2.473826e-10,-5.820767e-11,0.0019910338,5
1450692000,0.97941035,0.002291931,0.0041167093,0.20182508,0.9999981,-2.473826e-10,-5.820767e-11,0.0019910338,5
1450748000,0.97941077,0.0022257015,0.004113646,0.20182326,0.9999981,-2.473826e-10,-5.820767e-11,0.0019910338,5
1450796000,0.97941476,0.0021907154,0.0041561737,0.20180345,0.9999981,-2.473826e-10,-5.820767e-11,0.0019910338,5
1450848000,0.9794268,0.0020528864,0.003975393,0.2017503,0.9999981,-2.473826e-10,-5.820767e-11,0.0019910338,5
1450904000,0.97943753,0.0013247067,0.0026196446,0.2017265,0.9999981,-2.473826e-10,-5.820767e-11,0.0019910338,5
1450952000,0.97943366,0.0007209469,0.0016124088,0.20175909,0.9999981,-2.473826e-10,-5.820767e-11,0.0019910338,5
1451004000,0.97943646,0.0002394181,0.001037204,0.20175026,0.9999981,-2.473826e-10,-5.820767e-11,0.0019910338,5
1451056000,0.9794383,5.3685642e-05,0.00096564944,0.20174196,0.9999981,-2.473826e-10,-5.820767e-11,0.0019910338,5
1451108000,0.97944355,4.8959646e-05,0.0013599645,0.20171382,0.9999981,-2.473826e-10,-5.820767e-11,0.0019910338,5
1451160000,0.9794474,0.00024923283,0.0019020791,0.20169035,0.9999981,-2.473826e-10,-5.820767e-11,0.0019910338,5
1451212000,0.9794549,0.00042528682,0.0022831417,0.20165052,0.9999981,-2.473826e-10,-5.820767e-11,0.0019910338,5
1451268000,0.9794709,0.0004905479,0.0028110896,0.20156538,0.9999981,-2.473826e-10,-5.820767e-11,0.0019910338,5
1451316000,0.97947645,0.0007741262,0.003094769,0.20153333,0.9999981,-2.473826e-10,-5.820767e-11,0.0019910338,5
1451368000,0.97946554,0.0007274876,0.0030541192,0.20158765,0.9999981,-2.473826e-10,-5.820767e-11,0.0019910338,5
1451420000,0.97947216,0.0007208935,0.0029722874,0.20155622,0.9999981,-2.473826e-10,-5.820767e-11,0.0019910338,5
1451472000,0.9794817,0.0006582775,0.0027812747,0.20151344,0.9999981,-2.473826e-10,-5.820767e-11,0.0019910338,5
1451528000,0.97948974,0.0006158772,0.0027639118,0.20147417,0.9999981,-2.473826e-10,-5.820767e-11,0.0019910338,5
1451576000,0.9794848,0.00070029264,0.002838797,0.20149727,0.9999981,-2.473826e-10,-5.820767e-11,0.0019910338,5
1451628000,0.97949636,0.00068957347,0.0030131664,0.20143874,0.9999981,-2.473826e-10,-5.820767e-11,0.0019910338,5
1451684000,0.979492,0.00088852836,0.0031385347,0.20145701,0.9999981,-2.473826e-10,-5.820767e-11,0.0019910338,5
1451732000,0.9794804,0.001125283,0.003327741,0.20150888,0.9999981,-2.473826e-10,-5.820767e-11,0.0019910338,5
1451784000,0.9794761,0.0011984747,0.0035991112,0.20152509,0.9999981,-2.473826e-10,-5.820767e-11,0.0019910338,5
1451836000,0.9794743,0.001431332,0.003718667,0.20153,0.9999981,-2.473826e-10,-5.820767e-11,0.0019910338,5
1451888000,0.9794719,0.0015504309,0.0036656593,0.20154169,0.9999981,-2.473826e-10,-5.820767e-11,0.0019910338,5
1451940000,0.9794707,0.001582229,0.003752757,0.20154557,0.9999981,-2.473826e-10,-5.820767e-11,0.0019910338,5
1451992000,0.9794787,0.0014765549,0.0040886584,0.201501,0.9999981,-2.473826e-10,-5.820767e-11,0.0019910338,5
1452044000,0.9794814,0.0014531382,0.004362985,0.20148237,0.9999981,-2.473826e-10,-5.820767e-11,0.0019910338,5
1452100000,0.97948116,0.0015413599,0.0047136573,0.20147447,0.9999981,-2.473826e-10,-5.820767e-11,0.0019910338,5
1452148000,0.9794782,0.0016860309,0.0047418787,0.20148751,0.9999981,-2.473826e-10,-5.820767e-11,0.0019910338,5
1452200000,0.9794766,0.0017838139,0.0047942395,0.20149317,0.9999981,-2.473826e-10,-5.820767e-11,0.0019910338,5
1452252000,0.9794662,0.0018005989,0.004648687,0.20154674,0.9999981,-2.473826e-10,-5.820767e-11,0.0019910338,5
1452304000,0.9794781,0.0016942649,0.004469205,0.20149404,0.9999981,-2.473826e-10,-5.820767e-11,0.0019910338,5
1452356000,0.9794788,0.001621332,0.0045567863,0.20148973,0.9999981,-2.473826e-10,-5.820767e-11,0.0019910338,5
1452412000,0.97948194,0.0016863897,0.0048332694,0.2014668,0.9999981,-2.473826e-10,-5.820767e-11,0.0019910338,5
1452464000,0.97949153,0.0017563443,0.004979783,0.20141637,0.9999981,-2.473826e-10,-5.820767e-11,0.0019910338,5
1452516000,0.979488,0.0016731434,0.005139761,0.20143016,0.9999981,-2.473826e-10,-5.820767e-11,0.0019910338,5
1452564000,0.9794832,0.0015026255,0.0051881787,0.20145328,0.9999981,-2.473826e-10,-5.820767e-11,0.0019910338,5
1452616000,0.9794722,0.0012803731,0.0050896266,0.2015107,0.9999981,-2.473826e-10,-5.820767e-11,0.0019910338,5
1452668000,0.97946024,0.0012990482,0.0050555384,0.20156977,0.9999981,-2.473826e-10,-5.820767e-11,0.0019910338,5
1452720000,0.97946274,0.001329779,0.0050810557,0.2015569,0.9999981,-2.473826e-10,-5.820767e-11,0.0019910338,5
1452772000,0.9794551,0.0013384038,0.00509953,0.20159355,0.9999981,-2.473826e-10,-5.820767e-11,0.0019910338,5
1452824000,0.97946674,0.0015049864,0.005181814,0.20153405,0.9999981,-2.473826e-10,-5.820767e-11,0.0019910338,5
1452880000,0.9794759,0.001663374,0.005370832,0.20148303,0.9999981,-2.473826e-10,-5.820767e-11,0.0019910338,5
1452928000,0.979454,0.0017512541,0.005521378,0.2015853,0.9999981,-2.473826e-10,-5.820767e-11,0.0019910338,5
1452980000,0.97944725,0.0018291466,0.0056806332,0.20161217,0.9999981,-2.473826e-10,-5.820767e-11,0.0019910338,5
1453032000,0.9794397,0.0017986036,0.0058391104,0.20164512,0.9999981,-2.473826e-10,-5.820767e-11,0.0019910338,5
1453084000,0.9794391,0.0017512687,0.005913159,0.20164618,0.9999981,-2.473826e-10,-5.820767e-11,0.0019910338,5
1453136000,0.97943515,0.0016754221,0.0059378836,0.20166507,0.9999981,-2.473826e-10,-5.820767e-11,0.0019910338,5
1453188000,0.97943926,0.0016430274,0.005718097,0.20165186,0.9999981,-2.473826e-10,-5.820767e-11,0.0019910338,5
1453240000,0.97944903,0.0016048229,0.0055404208,0.20160955,0.9999981,-2.473826e-10,-5.820767e-11,0.0019910338,5
1453292000,0.97945124,0.001454869,0.0055467226,0.20159976,0.9999981,-2.473826e-10,-5.820767e-11,0.0019910338,5
1453344000,0.97945654,0.0012809369,0.005383092,0.20157981,0.9999981,-2.473826e-10,-5.820767e-11,0.0019910338,5
1453400000,0.97945106,0.0010688952,0.005235128,0.20161131,0.9999981,-2.473826e-10,-5.820767e-11,0.0019910338,5
1453448000,0.9794668,0.0009833386,0.0048881876,0.20154396,0.9999981,-2.473826e-10,-5.820767e-11,0.0019910338,5
1453500000,0.979467,0.00090800115,0.004766643,0.20154665,0.9999981,-2.473826e-10,-5.820767e-11,0.0019910338,5
1453556000,0.9794659,0.00078332436,0.004811922,0.2015516,0.9999981,-2.473826e-10,-5.820767e-11,0.0019910338,5
1453604000,0.9794701,0.00077117217,0.004870694,0.20152938,0.9999981,-2.473826e-10,-5.820767e-11,0.0019910338,5
1453656000,0.9794766,0.00079174014,0.004947631,0.2014958,0.9999981,-2.473826e-10,-5.820767e-11,0.0019910338,5
1453712000,0.97947973,0.0008798342,0.004872373,0.20148209,0.9999981,-2.473826e-10,-5.820767e-11,0.0019910338,5
1453760000,0.97946566,0.00072741916,0.0047198297,0.20155454,0.9999981,-2.473826e-10,-5.820767e-11,0.0019910338,5
1453812000,0.9794564,0.0006491952,0.0047433125,0.20159952,0.9999981,-2.473826e-10,-5.820767e-11,0.0019910338,5
1453868000,0.97945124,0.00064699043,0.0047285557,0.20162478,0.9999981,-2.473826e-10,-5.820767e-11,0.0019910338,5
1453916000,0.97820574,0.0006098149,0.0046837316,0.20758447,0.9999812,1.1641532e-10,-6.9849193e-10,0.0061260164,6
1453968000,0.97825456,0.00048305097,0.0048180455,0.20735157,0.9999812,1.1641532e-10,-6.9849193e-10,0.0061260164,6
1454020000,0.9783737,0.00031629895,0.00510173,0.2067819,0.9999812,1.1641532e-10,-6.9849193e-10,0.0061260164,6
1454072000,0.9785293,0.00025011986,0.005484506,0.20603481,0.9999812,1.1641532e-10,-6.9849193e-10,0.0061260164,6
1454124000,0.9786875,0.000501666,0.0055918675,0.20527853,0.9999812,1.1641532e-10,-6.9849193e-10,0.0061260164,6
1454176000,0.9788346,0.00062112167,0.0055394443,0.20457676,0.9999812,1.1641532e-10,-6.9849193e-10,0.0061260164,6
1454232000,0.9790044,0.0007521508,0.0054243426,0.20376605,0.9999812,1.1641532e-10,-6.9849193e-10,0.0061260164,6
1454280000,0.9791395,0.0008126589,0.0051458073,0.2031223,0.9999812,1.1641532e-10,-6.9849193e-10,0.0061260164,6
1454332000,0.9792522,0.00091412826,0.004895263,0.20258433,0.9999812,1.1641532e-10,-6.9849193e-10,0.0061260164,6
1454384000,0.97936594,0.0011223844,0.0048119193,0.20203452,0.9999812,1.1641532e-10,-6.9849193e-10,0.0061260164,6
1454440000,0.979477,0.001300265,0.0047031986,0.20149732,0.9999812,1.1641532e-10,-6.9849193e-10,0.0061260164,6
1454488000,0.9795645,0.0014445797,0.0046897093,0.20107058,0.9999812,1.1641532e-10,-6.9849193e-10,0.0061260164,6
1454540000,0.9796346,0.0015370212,0.0048005017,0.20072548,0.9999812,1.1641532e-10,-6.9849193e-10,0.0061260164,6
1454592000,0.97968364,0.001501225,0.0047464576,0.20048718,0.9999812,1.1641532e-10,-6.9849193e-10,0.0061260164,6
1454644000,0.97971755,0.0016058482,0.0046404707,0.20032364,0.9999812,1.1641532e-10,-6.9849193e-10,0.0061260164,6
1454696000,0.97974813,0.0013156253,0.0047609527,0.20017315,0.9999812,1.1641532e-10,-6.9849193e-10,0.0061260164,6
1454752000,0.97976094,0.0012699343,0.0048119854,0.20010945,0.9999812,1.1641532e-10,-6.9849193e-10,0.0061260164,6
1454800000,0.9797679,0.0012687373,0.0048129396,0.20007515,0.9999812,1.1641532e-10,-6.9849193e-10,0.0061260164,6
1454852000,0.97977465,0.0013475175,0.005000199,0.20003746,0.9999812,1.1641532e-10,-6.9849193e-10,0.0061260164,6
1454908000,0.9797769,0.0012091253,0.005087233,0.20002456,0.9999812,1.1641532e-10,-6.9849193e-10,0.0061260164,6
1454956000,0.9797723,0.0011079666,0.0050030826,0.20004985,0.9999812,1.1641532e-10,-6.9849193e-10,0.0061260164,6
1455012000,0.9797657,0.0010963901,0.005014965,0.20008208,0.9999812,1.1641532e-10,-6.9849193e-10,0.0061260164,6
1455060000,0.97976226,0.0011995413,0.0048750085,0.20010205,0.9999812,1.1641532e-10,-6.9849193e-10,0.0061260164,6
1455112000,0.9797538,0.0013666411,0.0048065493,0.20014432,0.9999812,1.1641532e-10,-6.9849193e-10,0.0061260164,6
1455168000,0.9797621,0.0015437225,0.004813139,0.20010169,0.9999812,1.1641532e-10,-6.9849193e-10,0.0061260164,6
1455220000,0.9797618,0.0016326209,0.0047181943,0.20010531,0.9999812,1.1641532e-10,-6.9849193e-10,0.0061260164,6
1455268000,0.9797404,0.0014860162,0.0045991465,0.20021394,0.9999812,1.1641532e-10,-6.9849193e-10,0.0061260164,6
1455320000,0.9797307,0.0013888418,0.004384241,0.20026663,0.9999812,1.1641532e-10,-6.9849193e-10,0.0061260164,6
1455372000,0.9797303,0.0012876244,0.0044322945,0.20026799,0.9999812,1.1641532e-10,-6.9849193e-10,0.0061260164,6
1455424000,0.97973377,0.0013074501,0.004530996,0.20024899,0.9999812,1.1641532e-10,-6.9849193e-10,0.0061260164,6
1455476000,0.9797214,0.0011763456,0.0045690765,0.2003095,0.9999812,1.1641532e-10,-6.9849193e-10,0.0061260164,6
1455528000,0.9797072,0.00081823545,0.0045191017,0.2003817,0.9999812,1.1641532e-10,-6.9849193e-10,0.0061260164,6
1455580000,0.97969764,0.000742822,0.004464239,0.20042983,0.9999812,1.1641532e-10,-6.9849193e-10,0.0061260164,6
1455636000,0.97968954,0.000591903,0.0043518115,0.20047238,0.9999812,1.1641532e-10,-6.9849193e-10,0.0061260164,6
1455684000,0.9796848,0.00064314983,0.0042187925,0.20049775,0.9999812,1.1641532e-10,-6.9849193e-10,0.0061260164,6
1455736000,0.9796689,0.00085335615,0.0040474464,0.20057864,0.9999812,1.1641532e-10,-6.9849193e-10,0.0061260164,6
1455788000,0.97964555,0.0011169714,0.003823214,0.20069587,0.9999812,1.1641532e-10,-6.9849193e-10,0.0061260164,6
1455840000,0.9796345,0.0014292018,0.0037085072,0.20074971,0.9999812,1.1641532e-10,-6.9849193e-10,0.0061260164,6
1455896000,0.979612,0.0014635426,0.0038261956,0.20085682,0.9999812,1.1641532e-10,-6.9849193e-10,0.0061260164,6
1455944000,0.9796107,0.001506917,0.0038907074,0.20086226,0.9999812,1.1641532e-10,-6.9849193e-10,0.0061260164,6
1455996000,0.97962415,0.0014260351,0.0039881226,0.20079507,0.9999812,1.1641532e-10,-6.9849193e-10,0.0061260164,6
1456048000,0.9796276,0.0015082284,0.00393598,0.20077857,0.9999812,1.1641532e-10,-6.9849193e-10,0.0061260164,6
1456104000,0.9796424,0.0015662455,0.003824214,0.20070834,0.9999812,1.1641532e-10,-6.9849193e-10,0.0061260164,6
1456152000,0.97965616,0.0015129653,0.0036120187,0.20064512,0.9999812,1.1641532e-10,-6.9849193e-10,0.0061260164,6
1456204000,0.979652,0.0014479643,0.0034930785,0.20066825,0.9999812,1.1641532e-10,-6.9849193e-10,0.0061260164,6
1456256000,0.9796452,0.0013282705,0.0034630063,0.20070274,0.9999812,1.1641532e-10,-6.9849193e-10,0.0061260164,6
1456308000,0.9796483,0.0011886868,0.0036928644,0.20068462,0.9999812,1.1641532e-10,-6.9849193e-10,0.0061260164,6
1456364000,0.97964114,0.001083512,0.003887174,0.20071614,0.9999812,1.1641532e-10,-6.9849193e-10,0.0061260164,6
1456416000,0.97962797,0.0011524922,0.0038883863,0.20078032,0.9999812,1.1641532e-10,-6.9849193e-10,0.0061260164,6
1456464000,0.97962385,0.0011345127,0.0037959716,0.20080212,0.9999812,1.1641532e-10,-6.9849193e-10,0.0061260164,6
1456516000,0.97962594,0.0011976917,0.0037554062,0.20079224,0.9999812,1.1641532e-10,-6.9849193e-10,0.0061260164,6
1456572000,0.9796271,0.0011642077,0.0038145734,0.20078574,0.9999812,1.1641532e-10,-6.9849193e-10,0.0061260164,6
1456620000,0.9796323,0.0010676385,0.0037199066,0.20076276,0.9999812,1.1641532e-10,-6.9849193e-10,0.0061260164,6
1456672000,0.9796292,0.0012679423,0.0035676956,0.20077896,0.9999812,1.1641532e-10,-6.9849193e-10,0.0061260164,6
1456724000,0.9796194,0.001444147,0.0034011693,0.20082906,0.9999812,1.1641532e-10,-6.9849193e-10,0.0061260164,6
1456780000,0.9795869,0.0016701028,0.0034158432,0.20098521,0.9999812,1.1641532e-10,-6.9849193e-10,0.0061260164,6
1456828000,0.9795923,0.0014656731,0.0035753183,0.2009582,0.9999812,1.1641532e-10,-6.9849193e-10,0.0061260164,6
1456880000,0.97959244,0.0013367581,0.0037028242,0.20095591,0.9999812,1.1641532e-10,-6.9849193e-10,0.0061260164,6
1456932000,0.9795907,0.0013229359,0.0039185686,0.20096037,0.9999812,1.1641532e-10,-6.9849193e-10,0.0061260164,6
1456984000,0.979583,0.0011617526,0.0039557125,0.20099764,0.9999812,1.1641532e-10,-6.9849193e-10,0.0061260164,6
1457036000,0.9795887,0.0010598096,0.003990204,0.2009699,0.9999812,1.1641532e-10,-6.9849193e-10,0.0061260164,6
1457088000,0.9795881,0.00091393135,0.004037271,0.20097312,0.9999812,1.1641532e-10,-6.9849193e-10,0.0061260164,6
1457140000,0.97959816,0.00093357457,0.0039869435,0.2009246,0.9999812,1.1641532e-10,-6.9849193e-10,0.0061260164,6
1457192000,0.97959065,0.0010246047,0.0038119599,0.2009643,0.9999812,1.1641532e-10,-6.9849193e-10,0.0061260164,6
1457244000,0.97958976,0.0012102415,0.0036539326,0.20097041,0.9999812,1.1641532e-10,-6.9849193e-10,0.0061260164,6
1457296000,0.9795868,0.0014409635,0.0036131663,0.2009844,0.9999812,1.1641532e-10,-6.9849193e-10,0.0061260164,6
1457352000,0.9795948,0.0015410346,0.0036482734,0.20094368,0.9999812,1.1641532e-10,-6.9849193e-10,0.0061260164,6
1457404000,0.979583,0.0017010274,0.0036520588,0.20099972,0.9999812,1.1641532e-10,-6.9849193e-10,0.0061260164,6
1457456000,0.97958356,0.0016719631,0.0036909746,0.20099676,0.9999812,1.1641532e-10,-6.9849193e-10,0.0061260164,6
1457504000,0.9795911,0.0017522671,0.0036056736,0.20096108,0.9999812,1.1641532e-10,-6.9849193e-10,0.0061260164,6
1457560000,0.9796014,0.0017756686,0.0033824954,0.20091462,0.9999812,1.1641532e-10,-6.9849193e-10,0.0061260164,6
1457608000,0.9796106,0.0017352126,0.0032110426,0.20087239,0.9999812,1.1641532e-10,-6.9849193e-10,0.0061260164,6
1457660000,0.9796172,0.0016617264,0.0029780332,0.2008449,0.9999812,1.1641532e-10,-6.9849193e-10,0.0061260164,6
1457712000,0.9796197,0.0015147744,0.0026849874,0.20083821,0.9999812,1.1641532e-10,-6.9849193e-10,0.0061260164,6
1457764000,0.9796134,0.0015151431,0.0024168952,0.20087177,0.9999812,1.1641532e-10,-6.9849193e-10,0.0061260164,6
1457816000,0.9796058,0.0016239996,0.0023201846,0.20090929,0.9999812,1.1641532e-10,-6.9849193e-10,0.0061260164,6
1457868000,0.9796043,0.0019504542,0.0024556175,0.20091192,0.9999812,1.1641532e-10,-6.9849193e-10,0.0061260164,6
1457920000,0.97959083,0.0022184,0.0029145053,0.2009689,0.9999812,1.1641532e-10,-6.9849193e-10,0.0061260164,6
1457972000,0.9795914,0.0022491924,0.0031989967,0.20096116,0.9999812,1.1641532e-10,-6.9849193e-10,0.0061260164,6
1458024000,0.9795923,0.0023189457,0.0033421966,0.20095412,0.9999812,1.1641532e-10,-6.9849193e-10,0.0061260164,6
1458076000,0.9796031,0.0023648513,0.0034244135,0.20089892,0.9999812,1.1641532e-10,-6.9849193e-10,0.0061260164,6
1458128000,0.97962135,0.0021814208,0.0033050007,0.20081472,0.9999812,1.1641532e-10,-6.9849193e-10,0.0061260164,6
1458180000,0.9796268,0.0019477026,0.0032595876,0.20079066,0.9999812,1.1641532e-10,-6.9849193e-10,0.0061260164,6
1458232000,0.97962034,0.0018767779,0.003405177,0.20082061,0.9999812,1.1641532e-10,-6.9849193e-10,0.0061260164,6
1458284000,0.9796273,0.0019137814,0.0036193838,0.2007827,0.9999812,1.1641532e-10,-6.9849193e-10,0.0061260164,6
1458336000,0.9796198,0.0020956423,0.0038026897,0.20081381,0.9999812,1.1641532e-10,-6.9849193e-10,0.0061260164,6
1458388000,0.9796151,0.0020568606,0.0037554086,0.20083821,0.9999812,1.1641532e-10,-6.9849193e-10,0.0061260164,6
1458440000,0.97960454,0.0019965698,0.003838204,0.20088911,0.9999812,1.1641532e-10,-6.9849193e-10,0.0061260164,6
1458492000,0.9795925,0.0019840032,0.0037414597,0.2009494,0.9999812,1.1641532e-10,-6.9849193e-10,0.0061260164,6
1458548000,0.9796094,0.0021414056,0.0037145307,0.20086585,0.9999812,1.1641532e-10,-6.9849193e-10,0.0061260164,6
1458596000,0.97962517,0.0020837055,0.0037417442,0.20078935,0.9999812,1.1641532e-10,-6.9849193e-10,0.0061260164,6
1458652000,0.9796235,0.002046887,0.0035585132,0.20080084,0.9999812,1.1641532e-10,-6.9849193e-10,0.0061260164,6
1458704000,0.9796167,0.0018618235,0.0036126985,0.20083472,0.9999812,1.1641532e-10,-6.9849193e-10,0.0061260164,6
1458752000,0.9796156,0.0018568492,0.0036995395,0.20083866,0.9999812,1.1641532e-10,-6.9849193e-10,0.0061260164,6
1458804000,0.9796135,0.0017640671,0.0037392809,0.20084919,0.9999812,1.1641532e-10,-6.9849193e-10,0.0061260164,6
1458860000,0.9796243,0.0017980619,0.003924352,0.20079279,0.9999812,1.1641532e-10,-6.9849193e-10,0.0061260164,6
1458908000,0.979633,0.0017649771,0.0040461235,0.200748,0.9999812,1.1641532e-10,-6.9849193e-10,0.0061260164,6
1458960000,0.979637,0.001913549,0.0041920417,0.20072433,0.9999812,1.1641532e-10,-6.9849193e-10,0.0061260164,6
1459012000,0.9796191,0.0020168032,0.004310349,0.20080785,0.9999812,1.1641532e-10,-6.9849193e-10,0.0061260164,6
1459064000,0.97961646,0.002148856,0.0042908606,0.20081991,0.9999812,1.1641532e-10,-6.9849193e-10,0.0061260164,6
1459120000,0.9796149,0.0020569256,0.0041916072,0.20083033,0.9999812,1.1641532e-10,-6.9849193e-10,0.0061260164,6
1459172000,0.9796187,0.0018610791,0.0040323907,0.20081729,0.9999812,1.1641532e-10,-6.9849193e-10,0.0061260164,6
1459220000,0.97961855,0.0016521189,0.003870472,0.20082323,0.9999812,1.1641532e-10,-6.9849193e-10,0.0061260164,6
1459272000,0.9796089,0.0015662762,0.0036938798,0.20087387,0.9999812,1.1641532e-10,-6.9849193e-10,0.0061260164,6
1459324000,0.9796251,0.0014773451,0.0034764414,0.20079947,0.9999812,1.1641532e-10,-6.9849193e-10,0.0061260164,6
1459376000,0.9796189,0.0014378107,0.003387915,0.20083164,0.9999812,1.1641532e-10,-6.9849193e-10,0.0061260164,6
1459428000,0.97961634,0.0013422344,0.003525697,0.20084207,0.9999812,1.1641532e-10,-6.9849193e-10,0.0061260164,6
1459480000,0.9796163,0.0012627305,0.0038542722,0.20083681,0.9999812,1.1641532e-10,-6.9849193e-10,0.0061260164,6
1459532000,0.9796292,0.0011804064,0.0041286857,0.20076922,0.9999812,1.1641532e-10,-6.9849193e-10,0.0061260164,6
1459588000,0.97963756,0.0011904392,0.0041913954,0.20072691,0.9999812,1.1641532e-10,-6.9849193e-10,0.0061260164,6
1459636000,0.97964454,0.0012694355,0.004059257,0.20069546,0.9999812,1.1641532e-10,-6.9849193e-10,0.0061260164,6
1459692000,0.9796451,0.0013936325,0.004015089,0.20069276,0.9999812,1.1641532e-10,-6.9849193e-10,0.0061260164,6
1459740000,0.9796475,0.0014326574,0.0041000927,0.20067883,0.9999812,1.1641532e-10,-6.9849193e-10,0.0061260164,6
1459792000,0.9796383,0.0014532481,0.0039874557,0.20072603,0.9999812,1.1641532e-10,-6.9849193e-10,0.0061260164,6
1459844000,0.9796316,0.0014012047,0.0041241604,0.20075633,0.9999812,1.1641532e-10,-6.9849193e-10,0.0061260164,6
1459896000,0.9796298,0.0014280969,0.004251884,0.2007618,0.9999812,1.1641532e-10,-6.9849193e-10,0.0061260164,6
1459948000,0.979633,0.0014863459,0.004231835,0.20074679,0.9999812,1.1641532e-10,-6.9849193e-10,0.0061260164,6
1460000000,0.97962594,0.0014519164,0.0041371672,0.20078336,0.9999812,1.1641532e-10,-6.9849193e-10,0.0061260164,6
1460052000,0.979621,0.0012596167,0.0040702247,0.20081003,0.9999812,1.1641532e-10,-6.9849193e-10,0.0061260164,6
1460104000,0.9796249,0.0011195521,0.0039487635,0.20079397,0.9999812,1.1641532e-10,-6.9849193e-10,0.0061260164,6
1460156000,0.9796344,0.00095754926,0.0037186686,0.20075285,0.9999812,1.1641532e-10,-6.9849193e-10,0.0061260164,6
1460208000,0.9796204,0.0010681392,0.003734652,0.20082052,0.9999812,1.1641532e-10,-6.9849193e-10,0.0061260164,6
1460260000,0.9796299,0.001254078,0.003603067,0.20077571,0.9999812,1.1641532e-10,-6.9849193e-10,0.0061260164,6
1460316000,0.9796322,0.0013330232,0.0035977277,0.20076373,0.9999812,1.1641532e-10,-6.9849193e-10,0.0061260164,6
1460364000,0.9796111,0.0011660699,0.0034650331,0.20087008,0.9999812,1.1641532e-10,-6.9849193e-10,0.0061260164,6
1460416000,0.9795981,0.0010734248,0.0033636363,0.20093547,0.9999812,1.1641532e-10,-6.9849193e-10,0.0061260164,6
1460468000,0.979604,0.0010189493,0.0033166811,0.2009079,0.9999812,1.1641532e-10,-6.9849193e-10,0.0061260164,6
1460520000,0.97959673,0.0009864606,0.003144272,0.2009464,0.9999812,1.1641532e-10,-6.9849193e-10,0.0061260164,6
1460576000,0.97961473,0.0009432965,0.0030737724,0.20085984,0.9999812,1.1641532e-10,-6.9849193e-10,0.0061260164,6
1460628000,0.9796332,0.001032499,0.0030020527,0.20077029,0.9999812,1.1641532e-10,-6.9849193e-10,0.0061260164,6
1460680000,0.97962296,0.001237642,0.0027678546,0.20082223,0.9999812,1.1641532e-10,-6.9849193e-10,0.0061260164,6
1460728000,0.97961354,0.00112521,0.0027441136,0.20086983,0.9999812,1.1641532e-10,-6.9849193e-10,0.0061260164,6
1460784000,0.97959834,0.0010591793,0.0027493816,0.20094371,0.9999812,1.1641532e-10,-6.9849193e-10,0.0061260164,6
1460832000,0.9795785,0.0010274843,0.002841467,0.20103931,0.9999812,1.1641532e-10,-6.9849193e-10,0.0061260164,6
1460884000,0.97956043,0.0010138678,0.0030235231,0.20112517,0.9999812,1.1641532e-10,-6.9849193e-10,0.0061260164,6
1460936000,0.97958195,0.000983776,0.0030185003,0.2010208,0.9999812,1.1641532e-10,-6.9849193e-10,0.0061260164,6
1460988000,0.97958237,0.0009397211,0.002810138,0.20102128,0.9999812,1.1641532e-10,-6.9849193e-10,0.0061260164,6
1461044000,0.9795926,0.00092019764,0.0027967042,0.20097208,0.9999812,1.1641532e-10,-6.9849193e-10,0.0061260164,6
1461096000,0.9795918,0.000876449,0.002845769,0.20097502,0.9999812,1.1641532e-10,-6.9849193e-10,0.0061260164,6
1461144000,0.97959083,0.00083597004,0.002748497,0.20098175,0.9999812,1.1641532e-10,-6.9849193e-10,0.0061260164,6
1461196000,0.9795976,0.00084036845,0.0027116544,0.20094875,0.9999812,1.1641532e-10,-6.9849193e-10,0.0061260164,6
1461248000,0.97959435,0.000765725,0.002895327,0.20096266,0.9999812,1.1641532e-10,-6.9849193e-10,0.0061260164,6
1461304000,0.9795895,0.0008308292,0.0031313398,0.20098248,0.9999812,1.1641532e-10,-6.9849193e-10,0.0061260164,6
1461352000,0.9795965,0.0008263975,0.0031363836,0.20094857,0.9999812,1.1641532e-10,-6.9849193e-10,0.0061260164,6
1461408000,0.9796016,0.0008774099,0.003219842,0.20092183,0.9999812,1.1641532e-10,-6.9849193e-10,0.0061260164,6
1461456000,0.97960186,0.0010079896,0.0033019173,0.20091896,0.9999812,1.1641532e-10,-6.9849193e-10,0.0061260164,6
1461508000,0.9796041,0.0008847403,0.0032356458,0.20090929,0.9999812,1.1641532e-10,-6.9849193e-10,0.0061260164,6
1461560000,0.979599,0.0007551337,0.0031318332,0.20093651,0.9999812,1.1641532e-10,-6.9849193e-10,0.0061260164,6
1461612000,0.9796055,0.00070705917,0.0031788335,0.20090412,0.9999812,1.1641532e-10,-6.9849193e-10,0.0061260164,6
1461664000,0.97961015,0.0007456328,0.0032440575,0.20088047,0.9999812,1.1641532e-10,-6.9849193e-10,0.0061260164,6
1461716000,0.97960544,0.00090231956,0.0033207142,0.20090152,0.9999812,1.1641532e-10,-6.9849193e-10,0.0061260164,6
1461768000,0.9796124,0.0011463049,0.0033319674,0.20086603,0.9999812,1.1641532e-10,-6.9849193e-10,0.0061260164,6
1461824000,0.979614,0.001192578,0.0032770445,0.20085907,0.9999812,1.1641532e-10,-6.9849193e-10,0.0061260164,6
1461872000,0.97961295,0.0011259639,0.0028965173,0.20087051,0.9999812,1.1641532e-10,-6.9849193e-10,0.0061260164,6
1461924000,0.97962505,0.0011194756,0.0026212228,0.20081504,0.9999812,1.1641532e-10,-6.9849193e-10,0.0061260164,6
1461976000,0.9796273,0.0010835069,0.0025324689,0.20080513,0.9999812,1.1641532e-10,-6.9849193e-10,0.0061260164,6
1462028000,0.9796341,0.0010712474,0.002493485,0.20077302,0.9999812,1.1641532e-10,-6.9849193e-10,0.0061260164,6
1462080000,0.97962916,0.0010525906,0.0024868639,0.20079729,0.9999812,1.1641532e-10,-6.9849193e-10,0.0061260164,6
1462136000,0.979629,0.001017474,0.0024082926,0.20079947,0.9999812,1.1641532e-10,-6.9849193e-10,0.0061260164,6
1462184000,0.97962517,0.0010792894,0.0025180224,0.20081589,0.9999812,1.1641532e-10,-6.9849193e-10,0.0061260164,6
1462236000,0.9796252,0.0009386752,0.002735067,0.2008135,0.9999812,1.1641532e-10,-6.9849193e-10,0.0061260164,6
1462288000,0.97961944,0.00068364,0.0028003084,0.20084174,0.9999812,1.1641532e-10,-6.9849193e-10,0.0061260164,6
1462344000,0.9796185,0.0004015036,0.0027984974,0.20084761,0.9999812,1.1641532e-10,-6.9849193e-10,0.0061260164,6
1462392000,0.97962433,0.0002873512,0.0029565888,0.20081699,0.9999812,1.1641532e-10,-6.9849193e-10,0.0061260164,6
1462444000,0.97960943,0.0002393567,0.0032000097,0.20088601,0.9999812,1.1641532e-10,-6.9849193e-10,0.0061260164,6
1462500000,0.97960246,0.00031208928,0.0034665412,0.20091505,0.9999812,1.1641532e-10,-6.9849193e-10,0.0061260164,6
1462548000,0.97960085,0.00044429544,0.0036728622,0.20091958,0.9999812,1.1641532e-10,-6.9849193e-10,0.0061260164,6
1462600000,0.97958595,0.00028431937,0.0037805166,0.20099011,0.9999812,1.1641532e-10,-6.9849193e-10,0.0061260164,6
1462656000,0.97960055,0.00020427025,0.0038456721,0.20091788,0.9999812,1.1641532e-10,-6.9849193e-10,0.0061260164,6
1462708000,0.97960865,0.00012485286,0.003924509,0.20087688,0.9999812,1.1641532e-10,-6.9849193e-10,0.0061260164,6
1462760000,0.9796067,9.628722e-05,0.003944303,0.20088637,0.9999812,1.1641532e-10,-6.9849193e-10,0.0061260164,6
1462808000,0.97960603,0.00020409164,0.003994367,0.20088834,0.9999812,1.1641532e-10,-6.9849193e-10,0.0061260164,6
1462860000,0.9795994,0.00038272,0.004088139,0.20091832,0.9999812,1.1641532e-10,-6.9849193e-10,0.0061260164,6
1462912000,0.9795984,0.0005653431,0.004182652,0.200921,0.9999812,1.1641532e-10,-6.9849193e-10,0.0061260164,6
1462964000,0.9795946,0.0008613103,0.004422556,0.2009335,0.9999812,1.1641532e-10,-6.9849193e-10,0.0061260164,6
1463016000,0.97959185,0.0010089837,0.004560692,0.2009431,0.9999812,1.1641532e-10,-6.9849193e-10,0.0061260164,6
1463068000,0.9795927,0.0010939379,0.0045031155,0.20094007,0.9999812,1.1641532e-10,-6.9849193e-10,0.0061260164,6
1463120000,0.97958994,0.001008338,0.0046917615,0.2009491,0.9999812,1.1641532e-10,-6.9849193e-10,0.0061260164,6
1463176000,0.9795966,0.0006973426,0.004827689,0.2009148,0.9999812,1.1641532e-10,-6.9849193e-10,0.0061260164,6
1463224000,0.97960305,0.00048232262,0.005009718,0.20087925,0.9999812,1.1641532e-10,-6.9849193e-10,0.0061260164,6
1463276000,0.97961926,0.00039833307,0.0051169335,0.20079811,0.9999812,1.1641532e-10,-6.9849193e-10,0.0061260164,6
1463332000,0.97963184,0.0005512093,0.0051262057,0.20073603,0.9999812,1.1641532e-10,-6.9849193e-10,0.0061260164,6
1463380000,0.97962105,0.0005907513,0.0050944597,0.20078912,0.9999812,1.1641532e-10,-6.9849193e-10,0.0061260164,6
1463436000,0.9796157,0.00060901814,0.005125031,0.2008149,0.9999812,1.1641532e-10,-6.9849193e-10,0.0061260164,6
1463484000,0.97962075,0.00066471234,0.004997374,0.20079307,0.9999812,1.1641532e-10,-6.9849193e-10,0.0061260164,6
1463536000,0.9796163,0.0004608968,0.004860576,0.20081887,0.9999812,1.1641532e-10,-6.9849193e-10,0.0061260164,6
1463592000,0.979606,0.0004375362,0.0051749186,0.20086133,0.9999812,1.1641532e-10,-6.9849193e-10,0.0061260164,6
1463640000,0.9796138,0.00050118996,0.005249735,0.20082133,0.9999812,1.1641532e-10,-6.9849193e-10,0.0061260164,6
1463692000,0.9796166,0.00046734634,0.0052924664,0.20080602,0.9999812,1.1641532e-10,-6.9849193e-10,0.0061260164,6
1463744000,0.97962976,0.0005868003,0.005366748,0.20074007,0.9999812,1.1641532e-10,-6.9849193e-10,0.0061260164,6
1463796000,0.9796093,0.0005179434,0.0054345443,0.20083763,0.9999812,1.1641532e-10,-6.9849193e-10,0.0061260164,6
1463848000,0.9796071,0.00040933167,0.005296042,0.20085241,0.9999812,1.1641532e-10,-6.9849193e-10,0.0061260164,6
1463904000,0.9796067,0.00056410057,0.0051810546,0.20085745,0.9999812,1.1641532e-10,-6.9849193e-10,0.0061260164,6
1463952000,0.97963005,0.0007585332,0.0050608525,0.20074561,0.9999812,1.1641532e-10,-6.9849193e-10,0.0061260164,6
1464008000,0.9796246,0.00094031845,0.004851261,0.20077647,0.9999812,1.1641532e-10,-6.9849193e-10,0.0061260164,6
1464056000,0.97962606,0.0009317795,0.0045363572,0.20077717,0.9999812,1.1641532e-10,-6.9849193e-10,0.0061260164,6
1464108000,0.9796122,0.0010477294,0.0044541922,0.20084569,0.9999812,1.1641532e-10,-6.9849193e-10,0.0061260164,6
1464160000,0.9795984,0.0010633377,0.0044642137,0.20091295,0.9999812,1.1641532e-10,-6.9849193e-10,0.0061260164,6
1464212000,0.97960365,0.0007713992,0.0043706163,0.20089057,0.9999812,1.1641532e-10,-6.9849193e-10,0.0061260164,6
1464264000,0.9796151,0.00066321134,0.0042187637,0.20083812,0.9999812,1.1641532e-10,-6.9849193e-10,0.0061260164,6
1464316000,0.979606,0.0006224488,0.0042573027,0.20088221,0.9999812,1.1641532e-10,-6.9849193e-10,0.0061260164,6
1464372000,0.9796034,0.0007603275,0.004480822,0.2008896,0.9999812,1.1641532e-10,-6.9849193e-10,0.0061260164,6
1464420000,0.97959036,0.0008517769,0.0046290997,0.20094942,0.9999812,1.1641532e-10,-6.9849193e-10,0.0061260164,6
1464472000,0.97958857,0.00086645054,0.004769897,0.2009543,0.9999812,1.1641532e-10,-6.9849193e-10,0.0061260164,6
1464524000,0.9795987,0.00072268024,0.0048517417,0.20090356,0.9999812,1.1641532e-10,-6.9849193e-10,0.0061260164,6
1464576000,0.9795891,0.00041497263,0.0049898224,0.20094806,0.9999812,1.1641532e-10,-6.9849193e-10,0.0061260164,6
1464628000,0.9795955,0.000119908465,0.005180295,0.20091256,0.9999812,1.1641532e-10,-6.9849193e-10,0.0061260164,6
1464684000,0.9795961,-8.101536e-05,0.0051862975,0.20090975,0.9999812,1.1641532e-10,-6.9849193e-10,0.0061260164,6
1464732000,0.97959936,-0.00021107496,0.0051207165,0.20089519,0.9999812,1.1641532e-10,-6.9849193e-10,0.0061260164,6
1464784000,0.97960675,-0.00023389766,0.0052798525,0.20085505,0.9999812,1.1641532e-10,-6.9849193e-10,0.0061260164,6
1464836000,0.97960263,-0.00021524618,0.0054469504,0.20087066,0.9999812,1.1641532e-10,-6.9849193e-10,0.0061260164,6
1464892000,0.97959554,-0.0002034582,0.0055708974,0.20090187,0.9999812,1.1641532e-10,-6.9849193e-10,0.0061260164,6
1464940000,0.97960496,-0.00012698743,0.0056052487,0.20085523,0.9999812,1.1641532e-10,-6.9849193e-10,0.0061260164,6
1464992000,0.9796144,-6.681408e-05,0.0054378533,0.20081379,0.9999812,1.1641532e-10,-6.9849193e-10,0.0061260164,6
1465048000,0.97961813,-0.00016870086,0.0051923348,0.2008021,0.9999812,1.1641532e-10,-6.9849193e-10,0.0061260164,6
1465100000,0.97962207,-0.00027532296,0.005178556,0.2007832,0.9999812,1.1641532e-10,-6.9849193e-10,0.0061260164,6
1465148000,0.97962976,-0.00048043355,0.0052613034,0.20074303,0.9999812,1.1641532e-10,-6.9849193e-10,0.0061260164,6
1465200000,0.97962433,-0.000576292,0.0054701776,0.2007633,0.9999812,1.1641532e-10,-6.9849193e-10,0.0061260164,6
1465256000,0.97962767,-0.0007851585,0.0056942636,0.20074056,0.9999812,1.1641532e-10,-6.9849193e-10,0.0061260164,6
1465304000,0.9796249,-0.0008932961,0.0056948364,0.20075339,0.9999812,1.1641532e-10,-6.9849193e-10,0.0061260164,6
1465356000,0.9796175,-0.0009634543,0.0057729413,0.20078723,0.9999812,1.1641532e-10,-6.9849193e-10,0.0061260164,6
1465408000,0.97960633,-0.00093198754,0.0057786433,0.2008412,0.9999812,1.1641532e-10,-6.9849193e-10,0.0061260164,6
1465464000,0.97960365,-0.0013116779,0.005494291,0.20086037,0.9999812,1.1641532e-10,-6.9849193e-10,0.0061260164,6
1465512000,0.9796148,-0.0013583268,0.0054005813,0.20080833,0.9999812,1.1641532e-10,-6.9849193e-10,0.0061260164,6
1465564000,0.9796063,-0.0013339039,0.0055960636,0.2008449,0.9999812,1.1641532e-10,-6.9849193e-10,0.0061260164,6
1465616000,0.9795909,-0.0012065236,0.005628682,0.20091969,0.9999812,1.1641532e-10,-6.9849193e-10,0.0061260164,6
1465668000,0.97958255,-0.0012290496,0.0055783805,0.20096114,0.9999812,1.1641532e-10,-6.9849193e-10,0.0061260164,6
1465720000,0.97958845,-0.0012586524,0.0056542554,0.20093046,0.9999812,1.1641532e-10,-6.9849193e-10,0.0061260164,6
1465776000,0.97959024,-0.0014414287,0.0056146984,0.20092122,0.9999812,1.1641532e-10,-6.9849193e-10,0.0061260164,6
1465824000,0.9795757,-0.0015070357,0.0055316403,0.20099393,0.9999812,1.1641532e-10,-6.9849193e-10,0.0061260164,6
1465880000,0.9795764,-0.0013323559,0.0053677945,0.2009967,0.9999812,1.1641532e-10,-6.9849193e-10,0.0061260164,6
1465928000,0.97958,-0.0010748347,0.005330204,0.20098124,0.9999812,1.1641532e-10,-6.9849193e-10,0.0061260164,6
1465980000,0.9795821,-0.001260454,0.005409293,0.20096828,0.9999812,1.1641532e-10,-6.9849193e-10,0.0061260164,6
1466032000,0.9795957,-0.0011350942,0.005521078,0.20089927,0.9999812,1.1641532e-10,-6.9849193e-10,0.0061260164,6
1466084000,0.97960365,-0.0012089835,0.0056058737,0.20085756,0.9999812,1.1641532e-10,-6.9849193e-10,0.0061260164,6
1466140000,0.9796054,-0.0013010495,0.005648648,0.2008478,0.9999812,1.1641532e-10,-6.9849193e-10,0.0061260164,6
1466188000,0.97961354,-0.001379769,0.0058600605,0.20080109,0.9999812,1.1641532e-10,-6.9849193e-10,0.0061260164,6
1466240000,0.9796116,-0.0013103208,0.0061849835,0.20080155,0.9999812,1.1641532e-10,-6.9849193e-10,0.0061260164,6
1466292000,0.97960097,-0.0013696983,0.0061994386,0.2008528,0.9999812,1.1641532e-10,-6.9849193e-10,0.0061260164,6
1466344000,0.9795917,-0.0013460924,0.006190437,0.20089793,0.9999812,1.1641532e-10,-6.9849193e-10,0.0061260164,6
1466396000,0.97959346,-0.0013877572,0.0062078526,0.20088845,0.9999812,1.1641532e-10,-6.9849193e-10,0.0061260164,6
1466448000,0.97958946,-0.0015459795,0.0061731953,0.20090808,0.9999812,1.1641532e-10,-6.9849193e-10,0.0061260164,6
1466500000,0.97959435,-0.0014830271,0.0061597866,0.20088494,0.9999812,1.1641532e-10,-6.9849193e-10,0.0061260164,6
1466552000,0.9795885,-0.0013088158,0.006089124,0.20091687,0.9999812,1.1641532e-10,-6.9849193e-10,0.0061260164,6
1466608000,0.9795796,-0.0012869603,0.0061314874,0.2009589,0.9999812,1.1641532e-10,-6.9849193e-10,0.0061260164,6
1466656000,0.9795951,-0.0012325566,0.0060745394,0.20088612,0.9999812,1.1641532e-10,-6.9849193e-10,0.0061260164,6
1466708000,0.9795894,-0.00091173436,0.0060176854,0.20091675,0.9999812,1.1641532e-10,-6.9849193e-10,0.0061260164,6
1466760000,0.9795939,-0.0005644884,0.0060326518,0.2008963,0.9999812,1.1641532e-10,-6.9849193e-10,0.0061260164,6
1466812000,0.97959244,-0.0003955683,0.005990812,0.20090446,0.9999812,1.1641532e-10,-6.9849193e-10,0.0061260164,6
1466868000,0.9795868,-0.00027471918,0.0059281215,0.2009342,0.9999812,1.1641532e-10,-6.9849193e-10,0.0061260164,6
1466916000,0.97959095,-0.00032906953,0.0059818863,0.20091233,0.9999812,1.1641532e-10,-6.9849193e-10,0.0061260164,6
1466968000,0.9796023,-0.00040275493,0.0057879575,0.20086262,0.9999812,1.1641532e-10,-6.9849193e-10,0.0061260164,6
1467020000,0.9796203,-0.00036056482,0.0056030336,0.20078038,0.9999812,1.1641532e-10,-6.9849193e-10,0.0061260164,6
1467076000,0.9796338,-0.00020016798,0.0056394725,0.20071298,0.9999812,1.1641532e-10,-6.9849193e-10,0.0061260164,6
1467124000,0.979626,-0.00010258743,0.0056946827,0.20074989,0.9999812,1.1641532e-10,-6.9849193e-10,0.0061260164,6
1467176000,0.9796284,-3.084336e-05,0.0058530997,0.20073363,0.9999812,1.1641532e-10,-6.9849193e-10,0.0061260164,6
1467232000,0.97962826,0.00018861395,0.005939272,0.20073129,0.9999812,1.1641532e-10,-6.9849193e-10,0.0061260164,6
1467280000,0.97962,0.00028644502,0.0060452526,0.20076896,0.9999812,1.1641532e-10,-6.9849193e-10,0.0061260164,6
1467336000,0.97960573,0.0002677956,0.006327259,0.20082979,0.9999812,1.1641532e-10,-6.9849193e-10,0.0061260164,6
1467384000,0.9796029,0.00039031598,0.006559545,0.20083618,0.9999812,1.1641532e-10,-6.9849193e-10,0.0061260164,6
1467436000,0.97960275,0.00028129198,0.006614069,0.20083487,0.9999812,1.1641532e-10,-6.9849193e-10,0.0061260164,6
1467492000,0.97960615,0.0002638483,0.0067179757,0.20081535,0.9999812,1.1641532e-10,-6.9849193e-10,0.0061260164,6
1467540000,0.9796059,0.00031475708,0.006863658,0.20081127,0.9999812,1.1641532e-10,-6.9849193e-10,0.0061260164,6
1467596000,0.9796107,0.0002693959,0.0069607683,0.20078482,0.9999812,1.1641532e-10,-6.9849193e-10,0.0061260164,6
1467644000,0.97960097,0.00028181492,0.006995635,0.20083068,0.9999812,1.1641532e-10,-6.9849193e-10,0.0061260164,6
1467700000,0.9795896,0.00019647767,0.007000103,0.20088643,0.9999812,1.1641532e-10,-6.9849193e-10,0.0061260164,6
1467748000,0.97957546,4.7990954e-05,0.006861151,0.20095964,0.9999812,1.1641532e-10,-6.9849193e-10,0.0061260164,6
1467800000,0.979582,4.6206773e-05,0.0065499633,0.20093869,0.9999812,1.1641532e-10,-6.9849193e-10,0.0061260164,6
1467852000,0.97958636,7.9262536e-05,0.0064810035,0.2009195,0.9999812,1.1641532e-10,-6.9849193e-10,0.0061260164,6
1467904000,0.97959566,-6.4584565e-05,0.0065818224,0.20087087,0.9999812,1.1641532e-10,-6.9849193e-10,0.0061260164,6
1467956000,0.97960293,-9.3162737e-07,0.0068009263,0.2008278,0.9999812,1.1641532e-10,-6.9849193e-10,0.0061260164,6
1468012000,0.9795983,-6.4650685e-06,0.006788512,0.20085122,0.9999812,1.1641532e-10,-6.9849193e-10,0.0061260164,6
1468064000,0.9795963,0.00019529572,0.0067424136,0.20086218,0.9999812,1.1641532e-10,-6.9849193e-10,0.0061260164,6
1468112000,0.9796001,0.00022771597,0.006658794,0.20084679,0.9999812,1.1641532e-10,-6.9849193e-10,0.0061260164,6
1468164000,0.97960734,0.00023158494,0.0064550852,0.20081747,0.9999812,1.1641532e-10,-6.9849193e-10,0.0061260164,6
1468216000,0.97960943,0.00026735855,0.0064053824,0.20080955,0.9999812,1.1641532e-10,-6.9849193e-10,0.0061260164,6
1468268000,0.979604,0.00015443646,0.006552633,0.20083113,0.9999812,1.1641532e-10,-6.9849193e-10,0.0061260164,6
1468324000,0.97960234,0.00021470193,0.0067760986,0.20083193,0.9999812,1.1641532e-10,-6.9849193e-10,0.0061260164,6
1468372000,0.9796007,0.00022100401,0.0067909136,0.20083895,0.9999812,1.1641532e-10,-6.9849193e-10,0.0061260164,6
1468424000,0.97960275,0.00022039424,0.006896792,0.20082533,0.9999812,1.1641532e-10,-6.9849193e-10,0.0061260164,6
1468476000,0.9795866,0.0002991005,0.0071764924,0.20089428,0.9999812,1.1641532e-10,-6.9849193e-10,0.0061260164,6
1468532000,0.9795993,0.00031251728,0.007345156,0.20082612,0.9999812,1.1641532e-10,-6.9849193e-10,0.0061260164,6
1468580000,0.9795923,0.00040834583,0.0073417914,0.2008601,0.9999812,1.1641532e-10,-6.9849193e-10,0.0061260164,6
1468632000,0.979589,0.0005054127,0.0072347485,0.20088023,0.9999812,1.1641532e-10,-6.9849193e-10,0.0061260164,6
1468684000,0.9795839,0.00051027787,0.0070529464,0.20091163,0.9999812,1.1641532e-10,-6.9849193e-10,0.0061260164,6
1468740000,0.97959936,0.0006949355,0.0068893363,0.20084131,0.9999812,1.1641532e-10,-6.9849193e-10,0.0061260164,6
1468792000,0.97960377,0.0009803581,0.006668643,0.20082591,0.9999812,1.1641532e-10,-6.9849193e-10,0.0061260164,6
1468840000,0.97959185,0.001202974,0.0066837687,0.20088239,0.9999812,1.1641532e-10,-6.9849193e-10,0.0061260164,6
1468892000,0.9795916,0.0011489368,0.006854725,0.20087841,0.9999812,1.1641532e-10,-6.9849193e-10,0.0061260164,6
1468948000,0.9795452,0.007146124,0.013061674,0.20067318,0.9999812,1.1641532e-10,-6.9849193e-10,0.0061260164,6
1468996000,0.9783204,0.031822708,0.03426701,0.2017486,0.9999812,1.1641532e-10,-6.9849193e-10,0.0061260164,6
1469048000,0.97248566,0.061160818,0.059291504,0.21683048,0.9999812,1.1641532e-10,-6.9849193e-10,0.0061260164,6
1469100000,0.9607402,0.07464777,0.082305245,0.25422776,0.9999812,1.1641532e-10,-6.9849193e-10,0.0061260164,6
1469156000,0.94122654,0.0684944,0.103286125,0.31421825,0.9999812,1.1641532e-10,-6.9849193e-10,0.0061260164,6
1469204000,0.9190979,0.048961233,0.11469762,0.3737731,0.9999812,1.1641532e-10,-6.9849193e-10,0.0061260164,6
1469256000,0.8901314,0.026828537,0.11415751,0.44035697,0.9999812,1.1641532e-10,-6.9849193e-10,0.0061260164,6
1469312000,0.8536505,0.0088057825,0.098327704,0.51140475,0.9999812,1.1641532e-10,-6.9849193e-10,0.0061260164,6
1469360000,0.81777084,-0.0014998664,0.07737073,0.57031775,0.9999812,1.1641532e-10,-6.9849193e-10,0.0061260164,6
1469416000,0.7704953,-0.0056617483,0.051508993,0.63533604,0.9999812,1.1641532e-10,-6.9849193e-10,0.0061260164,6
1469464000,0.72547257,-0.0032243875,0.032285366,0.6874859,0.9999812,1.1641532e-10,-6.9849193e-10,0.0061260164,6
1469516000,0.67235905,0.0041506635,0.017463753,0.7400076,0.9999812,1.1641532e-10,-6.9849193e-10,0.0061260164,6
1469568000,0.6150546,0.013901489,0.009599856,0.78830355,0.9999812,1.1641532e-10,-6.9849193e-10,0.0061260164,6
1469620000,0.55395675,0.023255663,0.007611688,0.83218586,0.9999812,1.1641532e-10,-6.9849193e-10,0.0061260164,6
1469672000,0.48949084,0.030588668,0.009195365,0.8714233,0.9999812,1.1641532e-10,-6.9849193e-10,0.0061260164,6
1469724000,0.42408314,0.034931988,0.011236627,0.90487957,0.9999812,1.1641532e-10,-6.9849193e-10,0.0061260164,6
1469776000,0.36122853,0.036829013,0.012101422,0.93167114,0.9999812,1.1641532e-10,-6.9849193e-10,0.0061260164,6
1469828000,0.30357212,0.037513644,0.011418392,0.9520013,0.9999812,1.1641532e-10,-6.9849193e-10,0.0061260164,6
1469880000,0.25199667,0.03795501,0.010190753,0.9669298,0.9999812,1.1641532e-10,-6.9849193e-10,0.0061260164,6
1469932000,0.2067717,0.038726322,0.008844247,0.9775825,0.9999812,1.1641532e-10,-6.9849193e-10,0.0061260164,6
1469988000,0.16487676,0.039848458,0.008101157,0.98547566,0.9999812,1.1641532e-10,-6.9849193e-10,0.0061260164,6
1470036000,0.1338933,0.041077923,0.007841888,0.990113,0.9999812,1.1641532e-10,-6.9849193e-10,0.0061260164,6
1470088000,0.10488992,0.04229959,0.007743211,0.99355376,0.9999812,1.1641532e-10,-6.9849193e-10,0.0061260164,6
1470140000,0.080206625,0.04316019,0.00756687,0.9958147,0.9999812,1.1641532e-10,-6.9849193e-10,0.0061260164,6
1470196000,0.057579238,0.04416213,0.0072590085,0.99733734,0.9999812,1.1641532e-10,-6.9849193e-10,0.0061260164,6
1470244000,0.04111351,0.04490987,0.0070083807,0.9981201,0.9999812,1.1641532e-10,-6.9849193e-10,0.0061260164,6
1470300000,0.024954008,0.04564213,0.006635674,0.99862415,0.9999812,1.1641532e-10,-6.9849193e-10,0.0061260164,6
1470348000,0.013242376,0.046139088,0.006299259,0.99882746,0.9999812,1.1641532e-10,-6.9849193e-10,0.0061260164,6
1470400000,0.0025344647,0.04682359,0.0058620563,0.9988828,0.9999812,1.1641532e-10,-6.9849193e-10,0.0061260164,6
1470452000,-0.006565443,0.047394063,0.005484907,0.9988397,0.9999812,1.1641532e-10,-6.9849193e-10,0.0061260164,6
1470504000,-0.014306639,0.047773894,0.0050218063,0.9987431,0.9999812,1.1641532e-10,-6.9849193e-10,0.0061260164,6
1470556000,-0.020690314,0.048256796,0.0048219278,0.998609,0.9999812,1.1641532e-10,-6.9849193e-10,0.0061260164,6
1470612000,-0.026486063,0.048784744,0.0045779673,0.9984476,0.9999812,1.1641532e-10,-6.9849193e-10,0.0061260164,6
1470660000,-0.030601444,0.04927364,0.0044586514,0.9983065,0.9999812,1.1641532e-10,-6.9849193e-10,0.0061260164,6
1470712000,-0.034344736,0.049971484,0.0041517057,0.9981514,0.9999812,1.1641532e-10,-6.9849193e-10,0.0061260164,6
1470764000,-0.037355606,0.050537866,0.0038127773,0.998016,0.9999812,1.1641532e-10,-6.9849193e-10,0.0061260164,6
1470820000,-0.04007471,0.05128884,0.0035182796,0.9978733,0.9999812,1.1641532e-10,-6.9849193e-10,0.0061260164,6
1470868000,-0.042029865,0.051891964,0.0032991807,0.9977624,0.9999812,1.1641532e-10,-6.9849193e-10,0.0061260164,6
1470920000,-0.043741234,0.05251363,0.0030752139,0.9976571,0.9999812,1.1641532e-10,-6.9849193e-10,0.0061260164,6
1470972000,-0.04499018,0.053245123,0.0028022567,0.99756354,0.9999812,1.1641532e-10,-6.9849193e-10,0.0061260164,6
1471024000,-0.046017606,0.054071393,0.0025898647,0.9974729,0.9999812,1.1641532e-10,-6.9849193e-10,0.0061260164,6
1471076000,-0.046784688,0.05497419,0.002668473,0.9973875,0.9999812,1.1641532e-10,-6.9849193e-10,0.0061260164,6
1471128000,-0.047417276,0.05594985,0.0027147706,0.99730337,0.9999812,1.1641532e-10,-6.9849193e-10,0.0061260164,6
1471180000,-0.047883965,0.056509398,0.0027526845,0.9972494,0.9999812,1.1641532e-10,-6.9849193e-10,0.0061260164,6
1471232000,-0.048124116,0.057207018,0.0025547463,0.9971986,0.9999812,1.1641532e-10,-6.9849193e-10,0.0061260164,6
1471284000,-0.04823342,0.058089785,0.0026400636,0.9971421,0.9999812,1.1641532e-10,-6.9849193e-10,0.0061260164,6
1471336000,-0.048340395,0.059057042,0.0025713686,0.9970802,0.9999812,1.1641532e-10,-6.9849193e-10,0.0061260164,6
1471388000,-0.048254114,0.060110774,0.002548601,0.99702144,0.9999812,1.1641532e-10,-6.9849193e-10,0.0061260164,6
1471440000,-0.04812653,0.06098608,0.0028105057,0.99697375,0.9999812,1.1641532e-10,-6.9849193e-10,0.0061260164,6
1471492000,-0.04791853,0.062000044,0.0029647849,0.9969208,0.9999812,1.1641532e-10,-6.9849193e-10,0.0061260164,6
1471548000,-0.04776779,0.06316487,0.0030733014,0.9968546,0.9999812,1.1641532e-10,-6.9849193e-10,0.0061260164,6
1471600000,-0.047583647,0.06409484,0.0030904233,0.996804,0.9999812,1.1641532e-10,-6.9849193e-10,0.0061260164,6
1471648000,-0.047325667,0.0649039,0.003018543,0.99676406,0.9999812,1.1641532e-10,-6.9849193e-10,0.0061260164,6
1471700000,-0.047006454,0.0657975,0.0030513187,0.9967205,0.9999812,1.1641532e-10,-6.9849193e-10,0.0061260164,6
1471752000,-0.046749327,0.066738725,0.0029339227,0.99667037,0.9999812,1.1641532e-10,-6.9849193e-10,0.0061260164,6
1471808000,-0.04638448,0.067894824,0.0029664868,0.9966092,0.9999812,1.1641532e-10,-6.9849193e-10,0.0061260164,6
1471860000,-0.04606032,0.06893829,0.0029279124,0.99655277,0.9999812,1.1641532e-10,-6.9849193e-10,0.0061260164,6
1471908000,-0.045777783,0.06987899,0.0028524694,0.9965005,0.9999812,1.1641532e-10,-6.9849193e-10,0.0061260164,6
1471960000,-0.045410126,0.071102545,0.0026147112,0.9964314,0.9999812,1.1641532e-10,-6.9849193e-10,0.0061260164,6
1472012000,-0.045004502,0.07242777,0.00237205,0.99635494,0.9999812,1.1641532e-10,-6.9849193e-10,0.0061260164,6
1472064000,-0.04461465,0.07366442,0.0022647728,0.99628204,0.9999812,1.1641532e-10,-6.9849193e-10,0.0061260164,6
1472116000,-0.044355106,0.07492959,0.002395449,0.9961991,0.9999812,1.1641532e-10,-6.9849193e-10,0.0061260164,6
1472168000,-0.044001114,0.07660389,0.002393412,0.99608743,0.9999812,1.1641532e-10,-6.9849193e-10,0.0061260164,6
1472220000,-0.043606408,0.078084394,0.002469999,0.99598956,0.9999812,1.1641532e-10,-6.9849193e-10,0.0061260164,6
1472272000,-0.04329254,0.07928897,0.002614724,0.9959077,0.9999812,1.1641532e-10,-6.9849193e-10,0.0061260164,6
1472324000,-0.042930122,0.08049604,0.0024963196,0.99582696,0.9999812,1.1641532e-10,-6.9849193e-10,0.0061260164,6
1472376000,-0.04261331,0.08174789,0.0025705935,0.9957383,0.9999812,1.1641532e-10,-6.9849193e-10,0.0061260164,6
1472432000,-0.042250365,0.08288645,0.0026106231,0.9956596,0.9999812,1.1641532e-10,-6.9849193e-10,0.0061260164,6
1472480000,-0.041925937,0.08416248,0.0028176568,0.99556565,0.9999812,1.1641532e-10,-6.9849193e-10,0.0061260164,6
1472532000,-0.041586634,0.08561482,0.0030009332,0.9954555,0.9999812,1.1641532e-10,-6.9849193e-10,0.0061260164,6
1472584000,-0.041340075,0.087248765,0.0031864129,0.9953233,0.9999812,1.1641532e-10,-6.9849193e-10,0.0061260164,6
1472636000,-0.041104957,0.08888902,0.0032246348,0.99518776,0.9999812,1.1641532e-10,-6.9849193e-10,0.0061260164,6
1472688000,-0.040838007,0.09040164,0.0032301578,0.99506253,0.9999812,1.1641532e-10,-6.9849193e-10,0.0061260164,6
1472740000,-0.04049659,0.092024304,0.003238885,0.9949277,0.9999812,1.1641532e-10,-6.9849193e-10,0.0061260164,6
1472796000,-0.040187847,0.09379881,0.0031495742,0.9947748,0.9999812,1.1641532e-10,-6.9849193e-10,0.0061260164,6
1472844000,-0.039939776,0.09512902,0.0030711887,0.99465865,0.9999812,1.1641532e-10,-6.9849193e-10,0.0061260164,6
1472896000,-0.039661873,0.096746646,0.0030948818,0.99451375,0.9999812,1.1641532e-10,-6.9849193e-10,0.0061260164,6
1472952000,-0.039369147,0.098587714,0.0031558007,0.99434435,0.9999812,1.1641532e-10,-6.9849193e-10,0.0061260164,6
1473000000,-0.039088253,0.100101046,0.0032201724,0.9942039,0.9999812,1.1641532e-10,-6.9849193e-10,0.0061260164,6
1473052000,-0.038894266,0.101707235,0.00321994,0.9940486,0.9999812,1.1641532e-10,-6.9849193e-10,0.0061260164,6
1473104000,-0.038563155,0.10358464,0.0032449067,0.9938675,0.9999812,1.1641532e-10,-6.9849193e-10,0.0061260164,6
1473160000,-0.038343962,0.10566794,0.0033574412,0.99365634,0.9999812,1.1641532e-10,-6.9849193e-10,0.0061260164,6
1473208000,-0.038132045,0.1072703,0.0034924808,0.99349225,0.9999812,1.1641532e-10,-6.9849193e-10,0.0061260164,6
1473260000,-0.03782985,0.10883359,0.0035089997,0.9933337,0.9999812,1.1641532e-10,-6.9849193e-10,0.0061260164,6
1473316000,-0.03754405,0.11050103,0.0035866431,0.9931602,0.9999812,1.1641532e-10,-6.9849193e-10,0.0061260164,6
1473364000,-0.037411485,0.11203782,0.0036625096,0.9929927,0.9999812,1.1641532e-10,-6.9849193e-10,0.0061260164,6
1473416000,-0.037175003,0.11400372,0.003754649,0.9927775,0.9999812,1.1641532e-10,-6.9849193e-10,0.0061260164,6
1473468000,-0.03697553,0.116032325,0.0038586974,0.99254954,0.9999812,1.1641532e-10,-6.9849193e-10,0.0061260164,6
1473520000,-0.036799513,0.11825305,0.00390774,0.9922938,0.9999812,1.1641532e-10,-6.9849193e-10,0.0061260164,6
1473572000,-0.03658051,0.12049819,0.0038837495,0.9920318,0.9999812,1.1641532e-10,-6.9849193e-10,0.0061260164,6
1473624000,-0.03648184,0.12272427,0.0038993107,0.9917624,0.9999812,1.1641532e-10,-6.9849193e-10,0.0061260164,6
1473676000,-0.03625386,0.12465108,0.0038050886,0.9915309,0.9999812,1.1641532e-10,-6.9849193e-10,0.0061260164,6
1473732000,-0.03605842,0.12681639,0.0037782458,0.99126345,0.9999812,1.1641532e-10,-6.9849193e-10,0.0061260164,6
1473780000,-0.035858467,0.12864688,0.0038383587,0.99103457,0.9999812,1.1641532e-10,-6.9849193e-10,0.0061260164,6
1473832000,-0.03571784,0.13065915,0.0038338886,0.99077636,0.9999812,1.1641532e-10,-6.9849193e-10,0.0061260164,6
1473884000,-0.035476018,0.13267711,0.003850905,0.9905168,0.9999812,1.1641532e-10,-6.9849193e-10,0.0061260164,6
1473936000,-0.035241906,0.13494095,0.0039797053,0.99021876,0.9999812,1.1641532e-10,-6.9849193e-10,0.0061260164,6
1473988000,-0.035100233,0.13722035,0.0041780574,0.9899097,0.9999812,1.1641532e-10,-6.9849193e-10,0.0061260164,6
1474040000,-0.035001207,0.13950408,0.004364652,0.9895931,0.9999812,1.1641532e-10,-6.9849193e-10,0.0061260164,6
1474092000,-0.034802213,0.14173114,0.004504932,0.98928297,0.9999812,1.1641532e-10,-6.9849193e-10,0.0061260164,6
1474144000,-0.03473544,0.14407271,0.004635406,0.9889465,0.9999812,1.1641532e-10,-6.9849193e-10,0.0061260164,6
1474196000,-0.034655847,0.14646079,0.0046731853,0.9885982,0.9999812,1.1641532e-10,-6.9849193e-10,0.0061260164,6
1474248000,-0.03451041,0.14872941,0.004672908,0.9882645,0.9999812,1.1641532e-10,-6.9849193e-10,0.0061260164,6
1474304000,-0.034273725,0.15131,0.0047204825,0.98788077,0.9999812,1.1641532e-10,-6.9849193e-10,0.0061260164,6
1474352000,-0.03416382,0.15361586,0.004778788,0.9875284,0.9999812,1.1641532e-10,-6.9849193e-10,0.0061260164,6
1474404000,-0.034020897,0.15612578,0.0048652603,0.98713917,0.9999812,1.1641532e-10,-6.9849193e-10,0.0061260164,6
1474456000,-0.033823486,0.15863809,0.004950969,0.98674494,0.9999812,1.1641532e-10,-6.9849193e-10,0.0061260164,6
1474508000,-0.03376413,0.16139904,0.005037666,0.9862986,0.9999812,1.1641532e-10,-6.9849193e-10,0.0061260164,6
1474560000,-0.033630412,0.16408654,0.005221488,0.98585874,0.9999812,1.1641532e-10,-6.9849193e-10,0.0061260164,6
1474616000,-0.033543047,0.16698919,0.0054341657,0.985373,0.9999812,1.1641532e-10,-6.9849193e-10,0.0061260164,6
1474668000,-0.033434633,0.16953497,0.0055064363,0.9849415,0.9999812,1.1641532e-10,-6.9849193e-10,0.0061260164,6
1474716000,-0.033312567,0.17188533,0.005654911,0.98453736,0.9999812,1.1641532e-10,-6.9849193e-10,0.0061260164,6
1474768000,-0.03319469,0.17459491,0.005921698,0.98406285,0.9999812,1.1641532e-10,-6.9849193e-10,0.0061260164,6
1474820000,-0.03321604,0.17730984,0.0062979767,0.9835743,0.9999812,1.1641532e-10,-6.9849193e-10,0.0061260164,6
1474872000,-0.03312085,0.18013386,0.0065089907,0.9830628,0.9999812,1.1641532e-10,-6.9849193e-10,0.0061260164,6
1474928000,-0.03300788,0.18318763,0.006420595,0.9825027,0.9999812,1.1641532e-10,-6.9849193e-10,0.0061260164,6
1474976000,-0.03291514,0.18604547,0.0063060727,0.9819695,0.9999812,1.1641532e-10,-6.9849193e-10,0.0061260164,6
1475032000,-0.032780156,0.18909402,0.006257,0.9813918,0.9999812,1.1641532e-10,-6.9849193e-10,0.0061260164,6
1475084000,-0.03270203,0.19202214,0.0063530128,0.98082507,0.9999812,1.1641532e-10,-6.9849193e-10,0.0061260164,6
1475136000,-0.032595314,0.19531828,0.006673495,0.9801754,0.9999812,1.1641532e-10,-6.9849193e-10,0.0061260164,6
1475184000,-0.032497123,0.19824447,0.007023992,0.9795886,0.9999812,1.1641532e-10,-6.9849193e-10,0.0061260164,6
1475236000,-0.03240737,0.20111112,0.007254077,0.97900534,0.9999812,1.1641532e-10,-6.9849193e-10,0.0061260164,6
1475292000,-0.03236991,0.2041642,0.007350786,0.97837377,0.9999812,1.1641532e-10,-6.9849193e-10,0.0061260164,6
1475340000,-0.032353994,0.20689857,0.007548436,0.9777982,0.9999812,1.1641532e-10,-6.9849193e-10,0.0061260164,6
1475392000,-0.03238547,0.20990361,0.007707551,0.97715527,0.9999812,1.1641532e-10,-6.9849193e-10,0.0061260164,6
1475444000,-0.032253426,0.21304643,0.00785864,0.976478,0.9999812,1.1641532e-10,-6.9849193e-10,0.0061260164,6
1475500000,-0.032118022,0.21649742,0.008067894,0.97572136,0.9999812,1.1641532e-10,-6.9849193e-10,0.0061260164,6
1475548000,-0.0319722,0.21959773,0.008257894,0.9750316,0.9999812,1.1641532e-10,-6.9849193e-10,0.0061260164,6
1475600000,-0.03194847,0.22301985,0.008394822,0.9742541,0.9999812,1.1641532e-10,-6.9849193e-10,0.0061260164,6
1475656000,-0.03194942,0.22678581,0.00854075,0.973383,0.9999812,1.1641532e-10,-6.9849193e-10,0.0061260164,6
1475704000,-0.03193528,0.22985563,0.008805342,0.9726608,0.9999812,1.1641532e-10,-6.9849193e-10,0.0061260164,6
1475756000,-0.03191417,0.23314966,0.009027015,0.97187513,0.9999812,1.1641532e-10,-6.9849193e-10,0.0061260164,6
1475812000,-0.03188368,0.23654038,0.009258011,0.9710543,0.9999812,1.1641532e-10,-6.9849193e-10,0.0061260164,6
1475864000,-0.031765718,0.23954874,0.009449712,0.97031856,0.9999812,1.1641532e-10,-6.9849193e-10,0.0061260164,6
1475912000,-0.03164214,0.24238573,0.009323261,0.9696191,0.9999812,1.1641532e-10,-6.9849193e-10,0.0061260164,6
1475968000,-0.031577963,0.24594615,0.009301095,0.9687243,0.9999812,1.1641532e-10,-6.9849193e-10,0.0061260164,6
1476016000,-0.031566806,0.2490726,0.009318441,0.96792537,0.9999812,1.1641532e-10,-6.9849193e-10,0.0061260164,6
1476068000,-0.031523302,0.25260466,0.0094123585,0.96701014,0.9999812,1.1641532e-10,-6.9849193e-10,0.0061260164,6
1476120000,-0.031501707,0.25619042,0.009574147,0.9660655,0.9999812,1.1641532e-10,-6.9849193e-10,0.0061260164,6
1476172000,-0.031539675,0.2584045,0.009784998,0.96547234,0.9999812,1.1641532e-10,-6.9849193e-10,0.0061260164,6
1476224000,-0.03155597,0.25750735,0.009969613,0.9657095,0.9999812,1.1641532e-10,-6.9849193e-10,0.0061260164,6
1476276000,-0.031620268,0.253049,0.010001675,0.9668849,0.9999812,1.1641532e-10,-6.9849193e-10,0.0061260164,6
1476332000,-0.03156565,0.24593492,0.010117737,0.9687194,0.9999812,1.1641532e-10,-6.9849193e-10,0.0061260164,6
1476380000,-0.031561024,0.23927471,0.009978551,0.9703875,0.9999812,1.1641532e-10,-6.9849193e-10,0.0061260164,6
1476432000,-0.03167304,0.23315056,0.0098781735,0.97187454,0.9999812,1.1641532e-10,-6.9849193e-10,0.0061260164,6
1476484000,-0.031677946,0.22909808,0.00974789,0.9728389,0.9999812,1.1641532e-10,-6.9849193e-10,0.0061260164,6
1476536000,-0.03162535,0.22744763,0.00959504,0.97322935,0.9999812,1.1641532e-10,-6.9849193e-10,0.0061260164,6
1476588000,-0.03156697,0.2280332,0.009520557,0.973095,0.9999812,1.1641532e-10,-6.9849193e-10,0.0061260164,6
1476640000,-0.0314462,0.22965391,0.009570071,0.97271717,0.9999812,1.1641532e-10,-6.9849193e-10,0.0061260164,6
1476692000,-0.031352926,0.2315348,0.009745148,0.9722724,0.9999812,1.1641532e-10,-6.9849193e-10,0.0061260164,6
1476744000,-0.031320892,0.23299366,0.009953694,0.97192276,0.9999812,1.1641532e-10,-6.9849193e-10,0.0061260164,6
1476796000,-0.031279646,0.23374231,0.009984903,0.971744,0.9999812,1.1641532e-10,-6.9849193e-10,0.0061260164,6
1476848000,-0.03127636,0.23389708,0.009907606,0.9717077,0.9999812,1.1641532e-10,-6.9849193e-10,0.0061260164,6
