timestamp,q[0],q[1],q[2],q[3],delta_q_reset[0],delta_q_reset[1],delta_q_reset[2],delta_q_reset[3],quat_reset_counter
1449032000,0.9798086,0.0007580595,0.00015466279,0.19995886,0.0,0.0,0.0,0.0,0
1449044000,0.9798086,0.00075814,0.00015467922,0.19995886,0.0,0.0,0.0,0.0,0
1449056000,0.9798086,0.00075821957,0.00015469397,0.19995886,0.0,0.0,0.0,0.0,0
1449064000,0.9798086,0.0007582804,0.00015470543,0.19995886,0.0,0.0,0.0,0.0,0
1449080000,0.9798086,0.0007584239,0.00015473312,0.19995886,0.0,0.0,0.0,0.0,0
1449088000,0.9798086,0.0007584675,0.00015474416,0.19995886,0.0,0.0,0.0,0.0,0
1449104000,0.9798086,0.00075857923,0.00015477066,0.19995886,0.0,0.0,0.0,0.0,0
1449116000,0.9798086,0.0007586483,0.00015479064,0.19995886,0.0,0.0,0.0,0.0,0
1449124000,0.9798086,0.000758715,0.00015480792,0.19995886,0.0,0.0,0.0,0.0,0
1449140000,0.9798086,0.0007588225,0.00015483744,0.19995886,0.0,0.0,0.0,0.0,0
1449152000,0.9798086,0.0007589028,0.0001548641,0.19995886,0.0,0.0,0.0,0.0,0
1449164000,0.9798086,0.0007589912,0.00015490327,0.19995886,0.0,0.0,0.0,0.0,0
1449176000,0.9798086,0.00075906806,0.00015493184,0.19995886,0.0,0.0,0.0,0.0,0
1449188000,0.9798086,0.00075914536,0.00015492752,0.19995886,0.0,0.0,0.0,0.0,0
1449196000,0.9798086,0.0007591989,0.00015493944,0.19995886,0.0,0.0,0.0,0.0,0
1449208000,0.9798086,0.0007592632,0.00015498791,0.19995886,0.0,0.0,0.0,0.0,0
1449220000,0.9798086,0.0007593314,0.00015503615,0.19995886,0.0,0.0,0.0,0.0,0
1449236000,0.9798086,0.00075941894,0.00015504008,0.19995886,0.0,0.0,0.0,0.0,0
1449244000,0.9798086,0.00075946905,0.0001550402,0.19995886,0.0,0.0,0.0,0.0,0
1449260000,0.9798086,0.00075957895,0.00015505492,0.19995886,0.0,0.0,0.0,0.0,0
1449272000,0.9798086,0.0007596655,0.00015508001,0.19995886,0.0,0.0,0.0,0.0,0
1449284000,0.9798086,0.0007597341,0.00015509035,0.19995886,0.0,0.0,0.0,0.0,0
1449296000,0.9798086,0.0007598087,0.00015509609,0.19995886,0.0,0.0,0.0,0.0,0
1449304000,0.9798086,0.0007598559,0.00015509938,0.19995886,0.0,0.0,0.0,0.0,0
1449316000,0.9798086,0.00075992924,0.00015510476,0.19995886,0.0,0.0,0.0,0.0,0
1449332000,0.9798086,0.00076005445,0.00015511217,0.19995886,0.0,0.0,0.0,0.0,0
1449344000,0.9798086,0.000760174,0.00015512091,0.19995886,0.0,0.0,0.0,0.0,0
1449356000,0.9798086,0.0007602593,0.0001551248,0.19995886,0.0,0.0,0.0,0.0,0
1449368000,0.9798086,0.00076034997,0.00015513484,0.19995886,0.0,0.0,0.0,0.0,0
1449376000,0.9798086,0.0007604174,0.00015514433,0.19995886,0.0,0.0,0.0,0.0,0
1449392000,0.9798086,0.0007605316,0.0001551626,0.19995886,0.0,0.0,0.0,0.0,0
1449404000,0.9798086,0.00076061516,0.00015518222,0.19995886,0.0,0.0,0.0,0.0,0
1449412000,0.9798086,0.0007606543,0.0001551921,0.19995886,0.0,0.0,0.0,0.0,0
1449428000,0.9798086,0.00076079293,0.00015522701,0.19995886,0.0,0.0,0.0,0.0,0
1449436000,0.9798086,0.00076082937,0.00015523791,0.19995886,0.0,0.0,0.0,0.0,0
1449452000,0.9798086,0.0007609373,0.00015526712,0.19995886,0.0,0.0,0.0,0.0,0
1449460000,0.9798086,0.00076100655,0.00015528662,0.19995886,0.0,0.0,0.0,0.0,0
1449476000,0.9798086,0.0007611237,0.00015533342,0.19995886,0.0,0.0,0.0,0.0,0
1449488000,0.9798086,0.00076118804,0.00015536287,0.19995886,0.0,0.0,0.0,0.0,0
1449500000,0.9798086,0.0007612559,0.00015536728,0.19995886,0.0,0.0,0.0,0.0,0
1449508000,0.9798086,0.0007613097,0.00015536085,0.19995886,0.0,0.0,0.0,0.0,0
1449524000,0.9798086,0.0007614,0.00015542869,0.19995886,0.0,0.0,0.0,0.0,0
1449536000,0.9798086,0.0007614714,0.00015547316,0.19995886,0.0,0.0,0.0,0.0,0
1449548000,0.9798086,0.00076155545,0.00015548505,0.19995886,0.0,0.0,0.0,0.0,0
1449556000,0.9798086,0.00076158874,0.00015547997,0.19995886,0.0,0.0,0.0,0.0,0
1449572000,0.9798086,0.00076170044,0.00015548628,0.19995886,0.0,0.0,0.0,0.0,0
1449580000,0.9798086,0.0007617569,0.00015550156,0.19995886,0.0,0.0,0.0,0.0,0
1449596000,0.9798086,0.000761855,0.00015552419,0.19995886,0.0,0.0,0.0,0.0,0
1449608000,0.9798086,0.00076193095,0.0001555308,0.19995886,0.0,0.0,0.0,0.0,0
1449616000,0.9798086,0.00076197844,0.00015553414,0.19995886,0.0,0.0,0.0,0.0,0
1449632000,0.9798086,0.00076207676,0.00015554135,0.19995886,0.0,0.0,0.0,0.0,0
1449644000,0.9798086,0.0007621705,0.00015554678,0.19995886,0.0,0.0,0.0,0.0,0
1449652000,0.9798086,0.00076224585,0.00015555086,0.19995886,0.0,0.0,0.0,0.0,0
1449668000,0.9798086,0.000762396,0.00015556316,0.19995886,0.0,0.0,0.0,0.0,0
1449676000,0.9798086,0.0007624367,0.00015556549,0.19995886,0.0,0.0,0.0,0.0,0
1449692000,0.9798086,0.00076257484,0.00015558416,0.19995886,0.0,0.0,0.0,0.0,0
1449704000,0.9798086,0.0007626416,0.0001555936,0.19995886,0.0,0.0,0.0,0.0,0
1449716000,0.9798086,0.0007627294,0.00015561227,0.19995886,0.0,0.0,0.0,0.0,0
1449724000,0.9798086,0.0007627696,0.00015561996,0.19995886,0.0,0.0,0.0,0.0,0
1449740000,0.9798086,0.0007629115,0.00015565722,0.19995886,0.0,0.0,0.0,0.0,0
1449752000,0.9798086,0.00076298125,0.00015567722,0.19995886,0.0,0.0,0.0,0.0,0
1449760000,0.9798086,0.0007630487,0.0001556946,0.19995886,0.0,0.0,0.0,0.0,0
1449776000,0.9798086,0.00076315884,0.00015572729,0.19995886,0.0,0.0,0.0,0.0,0
1449784000,0.9798086,0.0007632068,0.00015574688,0.19995886,0.0,0.0,0.0,0.0,0
1449800000,0.9798086,0.0007633089,0.00015579398,0.19995886,0.0,0.0,0.0,0.0,0
1449808000,0.9798086,0.0007633535,0.00015579483,0.19995886,0.0,0.0,0.0,0.0,0
1449824000,0.9798086,0.00076345925,0.00015580855,0.19995886,0.0,0.0,0.0,0.0,0
1449836000,0.9798086,0.00076352514,0.00015585669,0.19995886,0.0,0.0,0.0,0.0,0
1449848000,0.9798086,0.0007635939,0.0001559058,0.19995886,0.0,0.0,0.0,0.0,0
1449860000,0.9798086,0.00076367863,0.00015592012,0.19995886,0.0,0.0,0.0,0.0,0
1449872000,0.9798086,0.0007637357,0.00015591498,0.19995886,0.0,0.0,0.0,0.0,0
1449884000,0.9798086,0.00076382176,0.0001559253,0.19995886,0.0,0.0,0.0,0.0,0
1449892000,0.9798086,0.00076387747,0.00015593592,0.19995886,0.0,0.0,0.0,0.0,0
1449908000,0.9798086,0.00076397764,0.00015595998,0.19995886,0.0,0.0,0.0,0.0,0
1449920000,0.9798086,0.0007640552,0.00015596682,0.19995886,0.0,0.0,0.0,0.0,0
1449932000,0.9798086,0.00076412625,0.00015597144,0.19995886,0.0,0.0,0.0,0.0,0
1449944000,0.9798086,0.0007641989,0.0001559766,0.19995886,0.0,0.0,0.0,0.0,0
1449956000,0.9798086,0.0007642876,0.00015598169,0.19995886,0.0,0.0,0.0,0.0,0
1449964000,0.9798086,0.0007643604,0.00015598592,0.19995886,0.0,0.0,0.0,0.0,0
1449980000,0.9798086,0.00076450745,0.00015599448,0.19995886,0.0,0.0,0.0,0.0,0
1449992000,0.9798086,0.0007645973,0.00015600443,0.19995886,0.0,0.0,0.0,0.0,0
1450004000,0.9798086,0.0007646853,0.00015601539,0.19995886,0.0,0.0,0.0,0.0,0
1450016000,0.9798086,0.000764755,0.00015602645,0.19995886,0.0,0.0,0.0,0.0,0
1450028000,0.9798086,0.00076484587,0.0001560452,0.19995886,0.0,0.0,0.0,0.0,0
1450040000,0.9798086,0.00076492346,0.00015606308,0.19995886,0.0,0.0,0.0,0.0,0
1450052000,0.9798086,0.000765029,0.0001560895,0.19995886,0.0,0.0,0.0,0.0,0
1450060000,0.9798086,0.0007650649,0.0001561004,0.19995886,0.0,0.0,0.0,0.0,0
1450072000,0.9798086,0.00076516496,0.0001561266,0.19995886,0.0,0.0,0.0,0.0,0
1450084000,0.9798086,0.00076523825,0.00015615382,0.19995886,0.0,0.0,0.0,0.0,0
1450100000,0.9798086,0.00076535397,0.00015618715,0.19995885,0.0,0.0,0.0,0.0,0
1450112000,0.9798086,0.0007654218,0.00015620688,0.19995885,0.0,0.0,0.0,0.0,0
1450120000,0.9798086,0.00076547643,0.00015621222,0.19995885,0.0,0.0,0.0,0.0,0
1450132000,0.9798086,0.00076555426,0.0001562299,0.19995885,0.0,0.0,0.0,0.0,0
1450148000,0.9798086,0.0007656527,0.00015625852,0.19995885,0.0,0.0,0.0,0.0,0
1450160000,0.9798086,0.0007657454,0.000156252,0.19995885,0.0,0.0,0.0,0.0,0
1450172000,0.9798086,0.0007658165,0.00015626731,0.19995885,0.0,0.0,0.0,0.0,0
1450184000,0.9798086,0.000765906,0.00015627862,0.19995885,0.0,0.0,0.0,0.0,0
1450196000,0.9798086,0.00076597027,0.00015629132,0.19995885,0.0,0.0,0.0,0.0,0
1450204000,0.9798086,0.0007660361,0.00015630454,0.19995885,0.0,0.0,0.0,0.0,0
1450220000,0.9798086,0.0007661274,0.00015632425,0.19995885,0.0,0.0,0.0,0.0,0
1450232000,0.9798086,0.00076619553,0.00015632504,0.19995885,0.0,0.0,0.0,0.0,0
1450244000,0.9798086,0.0007662956,0.00015634809,0.19995885,0.0,0.0,0.0,0.0,0
1450252000,0.9798086,0.0007663299,0.00015635265,0.19995885,0.0,0.0,0.0,0.0,0
1450264000,0.9798086,0.00076642435,0.00015636763,0.19995885,0.0,0.0,0.0,0.0,0
1450280000,0.9798086,0.0007665158,0.00015637463,0.19995885,0.0,0.0,0.0,0.0,0
1450292000,0.9798086,0.00076658785,0.0001564007,0.19995885,0.0,0.0,0.0,0.0,0
1450304000,0.9798086,0.0007666579,0.00015641277,0.19995885,0.0,0.0,0.0,0.0,0
1450316000,0.9798086,0.0007667312,0.00015642379,0.19995885,0.0,0.0,0.0,0.0,0
1450328000,0.9798086,0.00076679606,0.00015643187,0.19995885,0.0,0.0,0.0,0.0,0
1450340000,0.9798086,0.00076686207,0.00015644544,0.19995885,0.0,0.0,0.0,0.0,0
1450352000,0.9798086,0.0007669381,0.00015644521,0.19995885,0.0,0.0,0.0,0.0,0
1450360000,0.9798086,0.00076696795,0.00015644892,0.19995885,0.0,0.0,0.0,0.0,0
1450372000,0.9798086,0.0007670755,0.0001564612,0.19995885,0.0,0.0,0.0,0.0,0
1450388000,0.9798086,0.00076715526,0.00015646915,0.19995885,0.0,0.0,0.0,0.0,0
1450400000,0.9798086,0.00076722074,0.00015648815,0.19995885,0.0,0.0,0.0,0.0,0
1450408000,0.9798086,0.0007672576,0.00015649055,0.19995885,0.0,0.0,0.0,0.0,0
1450420000,0.9798086,0.0007673258,0.00015649869,0.19995885,0.0,0.0,0.0,0.0,0
1450432000,0.9798086,0.0007673862,0.00015651072,0.19995885,0.0,0.0,0.0,0.0,0
1450448000,0.9798086,0.000767447,0.00015650876,0.19995885,0.0,0.0,0.0,0.0,0
1450456000,0.9798086,0.0007675256,0.00015651803,0.19995885,0.0,0.0,0.0,0.0,0
1450472000,0.9798086,0.0007675951,0.00015652334,0.19995885,0.0,0.0,0.0,0.0,0
1450484000,0.9798086,0.00076766295,0.00015653366,0.19995885,0.0,0.0,0.0,0.0,0
1450492000,0.9798086,0.0007676934,0.00015654226,0.19995885,0.0,0.0,0.0,0.0,0
1450508000,0.9798086,0.0007677375,0.00015654307,0.19995885,0.0,0.0,0.0,0.0,0
1450516000,0.9798086,0.0007677623,0.00015654351,0.19995885,0.0,0.0,0.0,0.0,0
1450532000,0.9798086,0.0007678705,0.00015655212,0.19995885,0.0,0.0,0.0,0.0,0
1450540000,0.9798086,0.0007678943,0.00015654923,0.19995885,0.0,0.0,0.0,0.0,0
1450556000,0.9798086,0.00076794723,0.00015655693,0.19995885,0.0,0.0,0.0,0.0,0
1450568000,0.9798086,0.00076801813,0.00015656815,0.19995885,0.0,0.0,0.0,0.0,0
1450580000,0.9798086,0.00076800527,0.0001565581,0.19995885,0.0,0.0,0.0,0.0,0
1450592000,0.9798086,0.00076806755,0.0001565622,0.19995885,0.0,0.0,0.0,0.0,0
1450604000,0.9798086,0.0007681344,0.00015656438,0.19995885,0.0,0.0,0.0,0.0,0
1450616000,0.9798086,0.00076820847,0.0001565739,0.19995885,0.0,0.0,0.0,0.0,0
1450624000,0.9798086,0.0007682296,0.00015657736,0.19995885,0.0,0.0,0.0,0.0,0
1450636000,0.9798086,0.00076820917,0.00015656398,0.19995885,0.0,0.0,0.0,0.0,0
1450652000,0.9798086,0.0007683226,0.00015658203,0.19995885,0.0,0.0,0.0,0.0,0
1450664000,0.9798086,0.0007682921,0.00015656537,0.19995885,0.0,0.0,0.0,0.0,0
1450672000,0.9798086,0.00076831004,0.00015656167,0.19995883,0.0,0.0,0.0,0.0,0
1450688000,0.9798086,0.0007683437,0.00015655562,0.19995883,0.0,0.0,0.0,0.0,0
1450700000,0.9798086,0.0007684066,0.00015656267,0.19995883,0.0,0.0,0.0,0.0,0
1450712000,0.9798086,0.0007684671,0.00015657001,0.19995883,0.0,0.0,0.0,0.0,0
1450720000,0.9798086,0.00076847617,0.00015656496,0.19995883,0.0,0.0,0.0,0.0,0
1450736000,0.9798086,0.00076850987,0.00015655995,0.19995883,0.0,0.0,0.0,0.0,0
1450748000,0.9798086,0.00076846377,0.00015653775,0.19995883,0.0,0.0,0.0,0.0,0
1450760000,0.9798086,0.0007685232,0.00015654684,0.19995883,0.0,0.0,0.0,0.0,0
1450772000,0.9798086,0.0007685813,0.00015655303,0.19995883,0.0,0.0,0.0,0.0,0
1450780000,0.9798086,0.0007685862,0.00015654709,0.19995883,0.0,0.0,0.0,0.0,0
1450796000,0.9798086,0.00076859194,0.00015653663,0.19995883,0.0,0.0,0.0,0.0,0
1450808000,0.9798086,0.0007685209,0.00015652826,0.19995883,0.0,0.0,0.0,0.0,0
1450820000,0.97980875,0.0007676523,0.00015278217,0.19995838,0.0,0.0,0.0,0.0,0
1450832000,0.97980905,0.0007553128,0.0001222337,0.19995679,0.0,0.0,0.0,0.0,0
1450840000,0.9798097,0.00072858797,6.423365e-05,0.19995391,0.0,0.0,0.0,0.0,0
1450856000,0.9798117,0.0006041132,-0.00018204235,0.19994432,0.0,0.0,0.0,0.0,0
1450868000,0.97981316,0.00045018806,-0.0004648187,0.19993713,0.0,0.0,0.0,0.0,0
1450880000,0.9798142,0.00027758625,-0.00079004606,0.19993158,0.0,0.0,0.0,0.0,0
1450888000,0.9798144,0.00016194562,-0.0010176206,0.19992927,0.0,0.0,0.0,0.0,0
1450904000,0.9798143,-5.3316555e-05,-0.0014603068,0.19992723,0.0,0.0,0.0,0.0,0
1450916000,0.9798141,-0.00020023028,-0.0017553561,0.1999258,0.0,0.0,0.0,0.0,0
1450928000,0.9798141,-0.0003490222,-0.002018565,0.19992296,0.0,0.0,0.0,0.0,0
1450940000,0.9798144,-0.000499847,-0.0022548463,0.19991884,0.0,0.0,0.0,0.0,0
1450952000,0.9798148,-0.0006459392,-0.0024620441,0.19991384,0.0,0.0,0.0,0.0,0
1450964000,0.9798155,-0.00078896654,-0.0026368776,0.19990799,0.0,0.0,0.0,0.0,0
1450976000,0.9798164,-0.0009213423,-0.002784542,0.19990084,0.0,0.0,0.0,0.0,0
1450988000,0.9798175,-0.001039009,-0.0029055942,0.19989292,0.0,0.0,0.0,0.0,0
1450996000,0.97981834,-0.0011107693,-0.002969128,0.19988763,0.0,0.0,0.0,0.0,0
1451012000,0.9798201,-0.0012324102,-0.0030539413,0.19987707,0.0,0.0,0.0,0.0,0
1451024000,0.9798217,-0.0013066555,-0.0030855846,0.19986834,0.0,0.0,0.0,0.0,0
1451032000,0.97982293,-0.0013459385,-0.0030923903,0.19986196,0.0,0.0,0.0,0.0,0
1451048000,0.9798258,-0.0014001043,-0.0030734777,0.19984776,0.0,0.0,0.0,0.0,0
1451060000,0.9798284,-0.001415814,-0.0030250824,0.19983546,0.0,0.0,0.0,0.0,0
1451068000,0.97983027,-0.0014171604,-0.0029726736,0.1998271,0.0,0.0,0.0,0.0,0
1451080000,0.97983307,-0.0014070071,-0.0028698307,0.19981498,0.0,0.0,0.0,0.0,0
1451096000,0.9798368,-0.001376639,-0.0027133257,0.19979894,0.0,0.0,0.0,0.0,0
1451108000,0.97983974,-0.0013444409,-0.002593924,0.19978641,0.0,0.0,0.0,0.0,0
1451120000,0.97984266,-0.0013064388,-0.0024736654,0.19977386,0.0,0.0,0.0,0.0,0
1451132000,0.97984546,-0.0012644689,-0.0023524752,0.1997619,0.0,0.0,0.0,0.0,0
1451144000,0.979848,-0.0012142227,-0.0022468015,0.19975087,0.0,0.0,0.0,0.0,0
1451156000,0.97985035,-0.0011630969,-0.0021598793,0.19974068,0.0,0.0,0.0,0.0,0
1451168000,0.97985256,-0.0011207234,-0.00207781,0.19973117,0.0,0.0,0.0,0.0,0
1451180000,0.9798546,-0.0010843797,-0.0019946627,0.19972207,0.0,0.0,0.0,0.0,0
1451192000,0.97985685,-0.0010443527,-0.0018927436,0.19971226,0.0,0.0,0.0,0.0,0
1451200000,0.97985846,-0.0010195228,-0.0018186833,0.19970518,0.0,0.0,0.0,0.0,0
1451216000,0.97986186,-0.000988851,-0.0016629117,0.19969016,0.0,0.0,0.0,0.0,0
1451228000,0.9798643,-0.00097315334,-0.0015462539,0.19967896,0.0,0.0,0.0,0.0,0
1451240000,0.9798665,-0.00094854383,-0.0014333848,0.19966914,0.0,0.0,0.0,0.0,0
1451252000,0.9798683,-0.000909439,-0.0013224295,0.19966128,0.0,0.0,0.0,0.0,0
1451260000,0.9798692,-0.0008708396,-0.0012499728,0.1996575,0.0,0.0,0.0,0.0,0
1451276000,0.97987014,-0.0007765651,-0.0011198277,0.19965395,0.0,0.0,0.0,0.0,0
1451288000,0.9798704,-0.0006988231,-0.0010407015,0.19965371,0.0,0.0,0.0,0.0,0
1451300000,0.9798703,-0.0006357806,-0.0009739216,0.19965443,0.0,0.0,0.0,0.0,0
1451312000,0.97987014,-0.0006037872,-0.0009250793,0.19965574,0.0,0.0,0.0,0.0,0
1451324000,0.9798698,-0.0005979071,-0.00090128364,0.19965744,0.0,0.0,0.0,0.0,0
1451332000,0.9798695,-0.00060577336,-0.0008977029,0.19965903,0.0,0.0,0.0,0.0,0
1451348000,0.97986865,-0.0006370368,-0.00090764277,0.19966309,0.0,0.0,0.0,0.0,0
1451356000,0.97986823,-0.0006512354,-0.0009175157,0.19966485,0.0,0.0,0.0,0.0,0
1451368000,0.97986794,-0.0006657475,-0.0009404382,0.19966632,0.0,0.0,0.0,0.0,0
1451384000,0.9798679,-0.0006836527,-0.00097611203,0.19966644,0.0,0.0,0.0,0.0,0
1451396000,0.9798682,-0.00068671553,-0.0010057804,0.19966482,0.0,0.0,0.0,0.0,0
1451408000,0.97986865,-0.0006762765,-0.0010362812,0.19966225,0.0,0.0,0.0,0.0,0
1451416000,0.97986895,-0.00067127496,-0.0010608429,0.19966076,0.0,0.0,0.0,0.0,0
1451432000,0.97986954,-0.0006755918,-0.001118508,0.19965735,0.0,0.0,0.0,0.0,0
1451444000,0.97987,-0.0006894352,-0.0011622397,0.19965462,0.0,0.0,0.0,0.0,0
1451452000,0.9798702,-0.0007061031,-0.0011876001,0.19965373,0.0,0.0,0.0,0.0,0
1451468000,0.97986996,-0.0007374107,-0.0012237516,0.19965458,0.0,0.0,0.0,0.0,0
1451480000,0.97986954,-0.0007505193,-0.0012352145,0.19965637,0.0,0.0,0.0,0.0,0
1451492000,0.97986907,-0.00076056994,-0.0012444955,0.19965869,0.0,0.0,0.0,0.0,0
1451504000,0.97986835,-0.00076986826,-0.0012589943,0.19966212,0.0,0.0,0.0,0.0,0
1451516000,0.9798671,-0.0007846561,-0.001274188,0.19966792,0.0,0.0,0.0,0.0,0
1451528000,0.9798656,-0.00079006114,-0.0012827608,0.19967519,0.0,0.0,0.0,0.0,0
1451540000,0.97986394,-0.00078212033,-0.001283134,0.19968356,0.0,0.0,0.0,0.0,0
1451552000,0.97986215,-0.00076468685,-0.0012744196,0.19969237,0.0,0.0,0.0,0.0,0
1451564000,0.9798604,-0.0007497723,-0.0012562679,0.19970112,0.0,0.0,0.0,0.0,0
1451576000,0.97985876,-0.0007467903,-0.0012270624,0.19970946,0.0,0.0,0.0,0.0,0
1451588000,0.9798572,-0.00075278507,-0.0011915585,0.19971733,0.0,0.0,0.0,0.0,0
1451600000,0.9798557,-0.00076162006,-0.0011574223,0.19972457,0.0,0.0,0.0,0.0,0
1451612000,0.9798543,-0.0007708617,-0.0011278884,0.19973174,0.0,0.0,0.0,0.0,0
1451624000,0.97985274,-0.0007700021,-0.0011021711,0.19973972,0.0,0.0,0.0,0.0,0
1451636000,0.97985095,-0.0007525832,-0.0010801952,0.1997487,0.0,0.0,0.0,0.0,0
1451648000,0.979849,-0.000722716,-0.0010578462,0.19975851,0.0,0.0,0.0,0.0,0
1451660000,0.97984684,-0.00068599836,-0.0010329694,0.19976938,0.0,0.0,0.0,0.0,0
1451668000,0.9798452,-0.0006563109,-0.0010131842,0.19977726,0.0,0.0,0.0,0.0,0
1451684000,0.979842,-0.0005828193,-0.00097230735,0.19979367,0.0,0.0,0.0,0.0,0
1451696000,0.9798396,-0.00052454026,-0.00093841803,0.19980548,0.0,0.0,0.0,0.0,0
1451708000,0.97983766,-0.00047246314,-0.00090000994,0.19981556,0.0,0.0,0.0,0.0,0
1451720000,0.9798358,-0.00043161638,-0.0008561494,0.19982485,0.0,0.0,0.0,0.0,0
1451732000,0.97983426,-0.000398885,-0.0008034823,0.1998328,0.0,0.0,0.0,0.0,0
1451740000,0.97983336,-0.0003831705,-0.0007650256,0.19983724,0.0,0.0,0.0,0.0,0
1451756000,0.979832,-0.00035362868,-0.0006889035,0.19984427,0.0,0.0,0.0,0.0,0
1451768000,0.9798313,-0.00032583304,-0.00062942307,0.19984803,0.0,0.0,0.0,0.0,0
1451780000,0.9798308,-0.00028786052,-0.0005720267,0.1998506,0.0,0.0,0.0,0.0,0
1451788000,0.9798306,-0.00025573454,-0.000539645,0.19985168,0.0,0.0,0.0,0.0,0
1451804000,0.97983044,-0.00018005275,-0.00049225276,0.19985284,0.0,0.0,0.0,0.0,0
1451816000,0.97983027,-0.00012608181,-0.00047572248,0.19985387,0.0,0.0,0.0,0.0,0
1451828000,0.97982997,-7.957613e-05,-0.00047488604,0.19985536,0.0,0.0,0.0,0.0,0
1451840000,0.97982967,-4.239085e-05,-0.00048514098,0.19985673,0.0,0.0,0.0,0.0,0
1451852000,0.9798295,-1.1205596e-05,-0.0004993441,0.19985749,0.0,0.0,0.0,0.0,0
1451864000,0.9798294,1.4158235e-05,-0.0005174978,0.19985807,0.0,0.0,0.0,0.0,0
1451876000,0.9798291,2.9053015e-05,-0.00053467875,0.1998596,0.0,0.0,0.0,0.0,0
1451888000,0.9798286,3.3712065e-05,-0.00054343435,0.19986165,0.0,0.0,0.0,0.0,0
1451900000,0.9798283,3.0292136e-05,-0.00053849246,0.19986323,0.0,0.0,0.0,0.0,0
1451912000,0.9798282,2.290651e-05,-0.0005191794,0.19986391,0.0,0.0,0.0,0.0,0
1451920000,0.9798282,1.4728573e-05,-0.0004962281,0.19986396,0.0,0.0,0.0,0.0,0
1451932000,0.9798283,-8.340827e-06,-0.00044845272,0.19986345,0.0,0.0,0.0,0.0,0
1451948000,0.97982866,-5.8143945e-05,-0.0003620681,0.19986199,0.0,0.0,0.0,0.0,0
1451960000,0.979829,-9.6168034e-05,-0.0002797701,0.19986016,0.0,0.0,0.0,0.0,0
1451972000,0.9798294,-0.00013518153,-0.00018895327,0.19985862,0.0,0.0,0.0,0.0,0
1451980000,0.97982943,-0.00016024221,-0.00012845175,0.19985841,0.0,0.0,0.0,0.0,0
1451992000,0.97982925,-0.0001933349,-4.2888627e-05,0.19985913,0.0,0.0,0.0,0.0,0
1452008000,0.9798288,-0.00022544018,6.269366e-05,0.19986163,0.0,0.0,0.0,0.0,0
1452016000,0.9798285,-0.000236069,0.00011083935,0.199863,0.0,0.0,0.0,0.0,0
1452032000,0.97982794,-0.000244288,0.00020895299,0.19986542,0.0,0.0,0.0,0.0,0
1452044000,0.9798275,-0.00024836915,0.00029340433,0.19986752,0.0,0.0,0.0,0.0,0
1452056000,0.97982687,-0.0002492847,0.00038332003,0.19987054,0.0,0.0,0.0,0.0,0
1452068000,0.9798261,-0.00024396258,0.00046457053,0.19987413,0.0,0.0,0.0,0.0,0
1452076000,0.97982556,-0.00023811517,0.00050998945,0.19987671,0.0,0.0,0.0,0.0,0
1452092000,0.9798243,-0.00021608175,0.00057205703,0.19988264,0.0,0.0,0.0,0.0,0
1452104000,0.97982335,-0.00019186574,0.00059472414,0.19988711,0.0,0.0,0.0,0.0,0
1452112000,0.9798228,-0.00016979741,0.0006033266,0.19988996,0.0,0.0,0.0,0.0,0
1452128000,0.9798217,-0.000112045884,0.0006112488,0.19989535,0.0,0.0,0.0,0.0,0
1452140000,0.97982085,-6.3455635e-05,0.0006177872,0.19989948,0.0,0.0,0.0,0.0,0
1452152000,0.9798199,-2.1836902e-05,0.000631802,0.19990404,0.0,0.0,0.0,0.0,0
1452164000,0.97981894,1.039499e-05,0.000649463,0.19990888,0.0,0.0,0.0,0.0,0
1452176000,0.979818,3.8280392e-05,0.0006641892,0.19991332,0.0,0.0,0.0,0.0,0
1452188000,0.97981733,6.754352e-05,0.0006762615,0.19991666,0.0,0.0,0.0,0.0,0
1452196000,0.9798169,8.870441e-05,0.0006854099,0.19991857,0.0,0.0,0.0,0.0,0
1452212000,0.97981614,0.00012737585,0.0006982261,0.19992238,0.0,0.0,0.0,0.0,0
1452224000,0.9798157,0.00014017499,0.0006861261,0.19992448,0.0,0.0,0.0,0.0,0
1452236000,0.9798155,0.00012849708,0.00065281364,0.19992574,0.0,0.0,0.0,0.0,0
1452248000,0.9798155,9.502228e-05,0.00060517783,0.19992581,0.0,0.0,0.0,0.0,0
1452256000,0.9798158,6.746744e-05,0.0005736542,0.1999246,0.0,0.0,0.0,0.0,0
1452272000,0.9798166,1.6892915e-05,0.0005182332,0.19992052,0.0,0.0,0.0,0.0,0
1452280000,0.9798172,-3.5086803e-06,0.00049717864,0.19991775,0.0,0.0,0.0,0.0,0
1452296000,0.97981846,-3.3019765e-05,0.00047671876,0.1999117,0.0,0.0,0.0,0.0,0
1452308000,0.97981924,-5.6229568e-05,0.00048466813,0.19990768,0.0,0.0,0.0,0.0,0
1452320000,0.9798199,-7.657344e-05,0.0005063186,0.19990462,0.0,0.0,0.0,0.0,0
1452332000,0.9798202,-9.6154945e-05,0.00054195937,0.19990294,0.0,0.0,0.0,0.0,0
1452340000,0.97982025,-0.0001106043,0.0005749701,0.19990243,0.0,0.0,0.0,0.0,0
1452356000,0.9798204,-0.00013195793,0.00065073423,0.19990161,0.0,0.0,0.0,0.0,0
1452368000,0.97982055,-0.00013082288,0.0007103515,0.19990054,0.0,0.0,0.0,0.0,0
1452376000,0.9798207,-0.00012344487,0.00074925355,0.19989976,0.0,0.0,0.0,0.0,0
1452392000,0.9798209,-9.914779e-05,0.0008237551,0.19989851,0.0,0.0,0.0,0.0,0
1452404000,0.9798211,-8.515117e-05,0.0008707886,0.1998974,0.0,0.0,0.0,0.0,0
1452416000,0.9798212,-7.175963e-05,0.0009161208,0.19989662,0.0,0.0,0.0,0.0,0
1452424000,0.9798212,-6.291542e-05,0.0009458563,0.19989637,0.0,0.0,0.0,0.0,0
1452436000,0.97982115,-5.0618244e-05,0.0009869806,0.1998967,0.0,0.0,0.0,0.0,0
1452452000,0.97982043,-4.7841764e-05,0.0010440773,0.19989982,0.0,0.0,0.0,0.0,0
1452464000,0.9798193,-5.210598e-05,0.0010901345,0.1999051,0.0,0.0,0.0,0.0,0
1452476000,0.97981775,-6.195324e-05,0.0011325039,0.1999126,0.0,0.0,0.0,0.0,0
1452488000,0.97981596,-8.134776e-05,0.00116378,0.19992104,0.0,0.0,0.0,0.0,0
1452500000,0.97981423,-0.00010562556,0.0011866259,0.19992936,0.0,0.0,0.0,0.0,0
1452512000,0.9798126,-0.00013218094,0.0012045648,0.199937,0.0,0.0,0.0,0.0,0
1452520000,0.97981155,-0.00015595545,0.0012142591,0.19994223,0.0,0.0,0.0,0.0,0
1452536000,0.9798091,-0.00022041258,0.001228253,0.19995417,0.0,0.0,0.0,0.0,0
1452548000,0.97980726,-0.00027925053,0.0012314377,0.19996314,0.0,0.0,0.0,0.0,0
1452560000,0.97980565,-0.00033657346,0.0012342202,0.19997086,0.0,0.0,0.0,0.0,0
1452572000,0.9798042,-0.00038912686,0.0012309862,0.19997776,0.0,0.0,0.0,0.0,0
1452584000,0.9798028,-0.000438897,0.0012150299,0.19998495,0.0,0.0,0.0,0.0,0
1452592000,0.9798018,-0.00046991234,0.0011985161,0.19998989,0.0,0.0,0.0,0.0,0
1452604000,0.9798003,-0.0005094765,0.0011759679,0.19999705,0.0,0.0,0.0,0.0,0
1452620000,0.9797986,-0.0005389888,0.0011537948,0.20000528,0.0,0.0,0.0,0.0,0
1452628000,0.9797979,-0.00054400234,0.0011423877,0.20000899,0.0,0.0,0.0,0.0,0
1452644000,0.9797968,-0.00053730246,0.0011204686,0.20001425,0.0,0.0,0.0,0.0,0
1452656000,0.9797965,-0.00052130065,0.0010989781,0.20001596,0.0,0.0,0.0,0.0,0
1452668000,0.97979647,-0.00050739833,0.0010772289,0.20001635,0.0,0.0,0.0,0.0,0
1452676000,0.9797966,-0.00050612865,0.0010652278,0.20001598,0.0,0.0,0.0,0.0,0
1452688000,0.9797969,-0.0005103497,0.001050892,0.20001453,0.0,0.0,0.0,0.0,0
1452704000,0.9797975,-0.0005240839,0.0010390043,0.20001148,0.0,0.0,0.0,0.0,0
1452716000,0.97979796,-0.00053624524,0.0010399272,0.20000935,0.0,0.0,0.0,0.0,0
1452728000,0.9797982,-0.00054103526,0.001040145,0.20000792,0.0,0.0,0.0,0.0,0
1452740000,0.97979856,-0.00053997367,0.0010314398,0.20000646,0.0,0.0,0.0,0.0,0
1452748000,0.97979873,-0.0005347536,0.0010257968,0.2000054,0.0,0.0,0.0,0.0,0
1452764000,0.9797993,-0.00051605096,0.0010199762,0.20000283,0.0,0.0,0.0,0.0,0
1452776000,0.9797999,-0.0004912792,0.0010244381,0.19999972,0.0,0.0,0.0,0.0,0
1452788000,0.9798008,-0.00046228708,0.0010314862,0.19999553,0.0,0.0,0.0,0.0,0
1452800000,0.9798018,-0.00043473704,0.0010486997,0.19999072,0.0,0.0,0.0,0.0,0
1452812000,0.9798028,-0.0004048895,0.0010775933,0.19998556,0.0,0.0,0.0,0.0,0
1452824000,0.9798038,-0.00037019158,0.0011147223,0.19998051,0.0,0.0,0.0,0.0,0
1452836000,0.9798046,-0.0003367915,0.0011531514,0.1999765,0.0,0.0,0.0,0.0,0
1452848000,0.97980493,-0.0003055438,0.001193535,0.19997467,0.0,0.0,0.0,0.0,0
1452860000,0.9798047,-0.00026843857,0.0012367611,0.1999756,0.0,0.0,0.0,0.0,0
1452868000,0.9798043,-0.0002396747,0.0012658307,0.19997762,0.0,0.0,0.0,0.0,0
1452880000,0.9798032,-0.00019598282,0.0013063336,0.19998246,0.0,0.0,0.0,0.0,0
1452896000,0.9798011,-0.0001448514,0.0013587717,0.19999243,0.0,0.0,0.0,0.0,0
1452908000,0.9797993,-0.00011467321,0.0013941769,0.20000137,0.0,0.0,0.0,0.0,0
1452916000,0.9797981,-9.729002e-05,0.0014168321,0.20000699,0.0,0.0,0.0,0.0,0
1452932000,0.9797962,-6.358294e-05,0.0014596885,0.20001602,0.0,0.0,0.0,0.0,0
1452944000,0.9797953,-4.0563056e-05,0.0014884273,0.20002036,0.0,0.0,0.0,0.0,0
1452952000,0.97979486,-2.4380031e-05,0.0015064469,0.20002215,0.0,0.0,0.0,0.0,0
1452968000,0.9797945,1.4865379e-05,0.001546518,0.20002347,0.0,0.0,0.0,0.0,0
1452976000,0.97979456,3.0042744e-05,0.0015705004,0.20002311,0.0,0.0,0.0,0.0,0
1452992000,0.9797947,4.6656445e-05,0.0016151551,0.20002216,0.0,0.0,0.0,0.0,0
1453004000,0.97979474,4.196626e-05,0.0016425893,0.20002168,0.0,0.0,0.0,0.0,0
1453012000,0.9797948,2.8335788e-05,0.0016559514,0.20002131,0.0,0.0,0.0,0.0,0
1453024000,0.97979504,-7.0513556e-06,0.0016699212,0.20002003,0.0,0.0,0.0,0.0,0
1453040000,0.97979575,-5.5912755e-05,0.0016792363,0.20001628,0.0,0.0,0.0,0.0,0
1453048000,0.9797963,-7.335164e-05,0.0016864116,0.20001371,0.0,0.0,0.0,0.0,0
1453064000,0.9797974,-0.00010158433,0.0017061307,0.20000811,0.0,0.0,0.0,0.0,0
1453076000,0.97979826,-0.000117796495,0.001724562,0.20000373,0.0,0.0,0.0,0.0,0
1453088000,0.97979915,-0.00013800006,0.0017397352,0.19999927,0.0,0.0,0.0,0.0,0
1453100000,0.97980005,-0.00015914036,0.00175026,0.19999461,0.0,0.0,0.0,0.0,0
1453108000,0.9798007,-0.00017302661,0.0017523963,0.19999158,0.0,0.0,0.0,0.0,0
1453124000,0.9798019,-0.00019493967,0.0017469062,0.19998552,0.0,0.0,0.0,0.0,0
1453132000,0.9798026,-0.00020371906,0.0017423524,0.1999821,0.0,0.0,0.0,0.0,0
1453148000,0.9798043,-0.0002236735,0.0017130438,0.19997439,0.0,0.0,0.0,0.0,0
1453156000,0.9798051,-0.00023332628,0.0016884125,0.19997035,0.0,0.0,0.0,0.0,0
1453168000,0.9798065,-0.00025019847,0.0016412608,0.19996394,0.0,0.0,0.0,0.0,0
1453184000,0.97980857,-0.00027090032,0.0015725767,0.1999543,0.0,0.0,0.0,0.0,0
1453196000,0.97981006,-0.00028398595,0.0015204174,0.1999474,0.0,0.0,0.0,0.0,0
1453208000,0.97981143,-0.00029290796,0.0014786299,0.19994104,0.0,0.0,0.0,0.0,0
1453216000,0.97981226,-0.00030078168,0.0014559762,0.19993697,0.0,0.0,0.0,0.0,0
1453232000,0.97981393,-0.00032386018,0.00141864,0.19992916,0.0,0.0,0.0,0.0,0
1453240000,0.9798147,-0.00034045172,0.0014037311,0.19992541,0.0,0.0,0.0,0.0,0
1453256000,0.979816,-0.00037994067,0.0013918576,0.1999189,0.0,0.0,0.0,0.0,0
1453268000,0.9798168,-0.00041452915,0.0013931949,0.19991508,0.0,0.0,0.0,0.0,0
1453280000,0.97981733,-0.000451569,0.001390904,0.1999125,0.0,0.0,0.0,0.0,0
1453292000,0.9798177,-0.0004909254,0.0013765558,0.19991057,0.0,0.0,0.0,0.0,0
1453304000,0.97981817,-0.0005375611,0.0013530168,0.19990847,0.0,0.0,0.0,0.0,0
1453312000,0.97981846,-0.000571692,0.0013340705,0.19990683,0.0,0.0,0.0,0.0,0
1453324000,0.97981906,-0.0006180542,0.001301588,0.19990411,0.0,0.0,0.0,0.0,0
1453336000,0.97981966,-0.0006614571,0.0012692953,0.19990136,0.0,0.0,0.0,0.0,0
1453352000,0.97982,-0.0007315328,0.0012313254,0.19989946,0.0,0.0,0.0,0.0,0
1453364000,0.97982013,-0.0007874335,0.0011998919,0.19989888,0.0,0.0,0.0,0.0,0
1453376000,0.9798202,-0.0008382198,0.0011655972,0.19989866,0.0,0.0,0.0,0.0,0
1453384000,0.9798202,-0.00086471345,0.0011372615,0.19989872,0.0,0.0,0.0,0.0,0
1453400000,0.97982025,-0.0008985172,0.0010628088,0.19989866,0.0,0.0,0.0,0.0,0
1453412000,0.97982025,-0.0009125216,0.000995129,0.19989875,0.0,0.0,0.0,0.0,0
1453424000,0.9798205,-0.00092785945,0.0009202327,0.19989796,0.0,0.0,0.0,0.0,0
1453436000,0.97982085,-0.0009446923,0.0008386671,0.19989641,0.0,0.0,0.0,0.0,0
1453448000,0.97982115,-0.00096155156,0.000768998,0.1998951,0.0,0.0,0.0,0.0,0
1453460000,0.9798213,-0.0009785744,0.0007205428,0.19989458,0.0,0.0,0.0,0.0,0
1453472000,0.9798212,-0.0009957441,0.00068970706,0.19989498,0.0,0.0,0.0,0.0,0
1453480000,0.9798209,-0.001004212,0.00067532586,0.19989657,0.0,0.0,0.0,0.0,0
1453492000,0.97981995,-0.0010080871,0.00065823604,0.19990137,0.0,0.0,0.0,0.0,0
1453508000,0.9798183,-0.0010076726,0.0006551274,0.19990936,0.0,0.0,0.0,0.0,0
1453516000,0.97981757,-0.0010107985,0.00066018396,0.19991302,0.0,0.0,0.0,0.0,0
1453532000,0.97981656,-0.001021691,0.0006768442,0.19991788,0.0,0.0,0.0,0.0,0
1453544000,0.9798161,-0.0010255653,0.00069433945,0.19992006,0.0,0.0,0.0,0.0,0
1453556000,0.9798158,-0.0010264477,0.0007083992,0.19992141,0.0,0.0,0.0,0.0,0
1453564000,0.9798156,-0.0010254116,0.0007185049,0.19992217,0.0,0.0,0.0,0.0,0
1453576000,0.9798155,-0.0010172873,0.0007326911,0.19992277,0.0,0.0,0.0,0.0,0
1453588000,0.9798155,-0.00099965,0.0007413889,0.19992295,0.0,0.0,0.0,0.0,0
1453604000,0.9798154,-0.000959543,0.0007494691,0.19992329,0.0,0.0,0.0,0.0,0
1453616000,0.97981524,-0.0009291832,0.0007534883,0.19992426,0.0,0.0,0.0,0.0,0
1453624000,0.97981507,-0.00091569294,0.0007535038,0.19992532,0.0,0.0,0.0,0.0,0
1453636000,0.9798146,-0.00090674066,0.0007531439,0.19992761,0.0,0.0,0.0,0.0,0
1453652000,0.97981375,-0.0008961043,0.00075553986,0.19993183,0.0,0.0,0.0,0.0,0
1453660000,0.9798133,-0.0008876146,0.00075627,0.19993433,0.0,0.0,0.0,0.0,0
1453672000,0.9798124,-0.00087465346,0.000751617,0.19993854,0.0,0.0,0.0,0.0,0
1453684000,0.9798115,-0.0008716774,0.0007350288,0.19994318,0.0,0.0,0.0,0.0,0
1453700000,0.97981006,-0.0008826974,0.00070490997,0.19995017,0.0,0.0,0.0,0.0,0
1453712000,0.9798088,-0.0008939127,0.00067824085,0.19995633,0.0,0.0,0.0,0.0,0
1453724000,0.97980744,-0.0009111586,0.0006481353,0.19996297,0.0,0.0,0.0,0.0,0
1453732000,0.97980654,-0.0009303205,0.000623893,0.19996735,0.0,0.0,0.0,0.0,0
1453744000,0.97980535,-0.00096528203,0.0005852936,0.19997329,0.0,0.0,0.0,0.0,0
1453756000,0.9798043,-0.0009989294,0.000543118,0.19997844,0.0,0.0,0.0,0.0,0
1453772000,0.9798033,-0.001025203,0.0004958467,0.199983,0.0,0.0,0.0,0.0,0
1453780000,0.97980314,-0.0010315343,0.00048466583,0.19998395,0.0,0.0,0.0,0.0,0
1453796000,0.9798031,-0.0010379385,0.00048231496,0.19998422,0.0,0.0,0.0,0.0,0
1453808000,0.97980326,-0.001036242,0.0004924506,0.19998334,0.0,0.0,0.0,0.0,0
1453820000,0.9798038,-0.0010347172,0.00050125795,0.19998085,0.0,0.0,0.0,0.0,0
1453832000,0.97980475,-0.0010366277,0.0004981335,0.19997612,0.0,0.0,0.0,0.0,0
1453844000,0.9798058,-0.0010353844,0.0004840543,0.19997098,0.0,0.0,0.0,0.0,0
1453856000,0.9798067,-0.0010308757,0.0004645908,0.1999664,0.0,0.0,0.0,0.0,0
1453868000,0.9798077,-0.0010222859,0.00043925105,0.19996198,0.0,0.0,0.0,0.0,0
1453876000,0.97980833,-0.0010165615,0.0004234408,0.19995886,0.0,0.0,0.0,0.0,0
1453892000,0.97981,-0.0010097264,0.0004052269,0.19995075,0.0,0.0,0.0,0.0,0
1453904000,0.97981167,-0.0010112341,0.00039724325,0.19994244,0.0,0.0,0.0,0.0,0
1453916000,0.97981477,-0.0010180876,0.00039667258,0.19992718,0.0,0.0,0.0,0.0,0
1453924000,0.9798183,-0.0010271106,0.00040331707,0.19990999,0.0,0.0,0.0,0.0,0
1453940000,0.97982943,-0.0010518141,0.0004277783,0.19985515,0.0,0.0,0.0,0.0,0
1453952000,0.97984165,-0.0010805858,0.00045483402,0.19979507,0.0,0.0,0.0,0.0,0
1453964000,0.97985715,-0.0011205848,0.00049141806,0.19971879,0.0,0.0,0.0,0.0,0
1453972000,0.9798691,-0.0011494458,0.00052632584,0.19965972,0.0,0.0,0.0,0.0,0
1453988000,0.9798963,-0.0012005209,0.0006091258,0.19952567,0.0,0.0,0.0,0.0,0
1454000000,0.97991925,-0.0012303333,0.00067364716,0.19941273,0.0,0.0,0.0,0.0,0
1454012000,0.9799439,-0.0012542593,0.0007473105,0.1992911,0.0,0.0,0.0,0.0,0
1454024000,0.9799698,-0.0012724216,0.0008288587,0.1991631,0.0,0.0,0.0,0.0,0
1454036000,0.97999674,-0.0012868555,0.0009204374,0.19903018,0.0,0.0,0.0,0.0,0
1454048000,0.9800243,-0.0012963462,0.0010171435,0.19889383,0.0,0.0,0.0,0.0,0
1454060000,0.9800525,-0.001293842,0.0011090918,0.1987546,0.0,0.0,0.0,0.0,0
1454072000,0.9800809,-0.0012718589,0.0011883455,0.198614,0.0,0.0,0.0,0.0,0
1454084000,0.9801092,-0.0012315367,0.0012490776,0.1984741,0.0,0.0,0.0,0.0,0
1454092000,0.9801279,-0.0011952823,0.001277565,0.19838189,0.0,0.0,0.0,0.0,0
1454108000,0.9801645,-0.0011175497,0.0013088268,0.19820096,0.0,0.0,0.0,0.0,0
1454120000,0.9801913,-0.0010649596,0.0013205955,0.1980689,0.0,0.0,0.0,0.0,0
1454132000,0.9802174,-0.0010235938,0.0013267102,0.19793978,0.0,0.0,0.0,0.0,0
1454144000,0.9802429,-0.0009951658,0.0013271087,0.1978134,0.0,0.0,0.0,0.0,0
1454156000,0.9802678,-0.0009675494,0.0013247001,0.19769023,0.0,0.0,0.0,0.0,0
1454168000,0.9802919,-0.00093726855,0.0013247271,0.19757088,0.0,0.0,0.0,0.0,0
1454180000,0.9803152,-0.00090522785,0.0013178145,0.19745542,0.0,0.0,0.0,0.0,0
1454192000,0.9803379,-0.0008768486,0.0012967776,0.197343,0.0,0.0,0.0,0.0,0
1454204000,0.98036,-0.0008557213,0.0012665337,0.19723357,0.0,0.0,0.0,0.0,0
1454216000,0.98038137,-0.0008409338,0.0012301104,0.1971276,0.0,0.0,0.0,0.0,0
1454228000,0.98040193,-0.00083365536,0.0011866998,0.19702557,0.0,0.0,0.0,0.0,0
1454240000,0.9804216,-0.00083133014,0.0011342133,0.19692802,0.0,0.0,0.0,0.0,0
1454252000,0.9804402,-0.00082400284,0.0010668057,0.19683585,0.0,0.0,0.0,0.0,0
1454260000,0.980452,-0.00081288355,0.0010138502,0.19677722,0.0,0.0,0.0,0.0,0
1454276000,0.9804745,-0.00077338977,0.0009061154,0.19666609,0.0,0.0,0.0,0.0,0
1454284000,0.98048496,-0.0007528529,0.000858284,0.19661397,0.0,0.0,0.0,0.0,0
1454300000,0.9805046,-0.00072041294,0.0007800268,0.19651656,0.0,0.0,0.0,0.0,0
1454308000,0.9805138,-0.0007068374,0.00075305614,0.19647059,0.0,0.0,0.0,0.0,0
1454324000,0.98053145,-0.00068075914,0.00072088407,0.19638282,0.0,0.0,0.0,0.0,0
1454332000,0.98053986,-0.00066595135,0.0007093005,0.19634077,0.0,0.0,0.0,0.0,0
1454344000,0.9805521,-0.00063735497,0.0006937064,0.19627991,0.0,0.0,0.0,0.0,0
1454360000,0.9805677,-0.00059303635,0.0006695763,0.19620222,0.0,0.0,0.0,0.0,0
1454372000,0.9805788,-0.00055446144,0.00064658764,0.19614705,0.0,0.0,0.0,0.0,0
1454384000,0.98058933,-0.0005136661,0.0006189641,0.19609442,0.0,0.0,0.0,0.0,0
1454396000,0.9805995,-0.00047386502,0.00058232807,0.19604374,0.0,0.0,0.0,0.0,0
1454408000,0.98060906,-0.0004434772,0.00054314785,0.195996,0.0,0.0,0.0,0.0,0
1454420000,0.9806179,-0.00042471837,0.0005076512,0.19595219,0.0,0.0,0.0,0.0,0
1454432000,0.98062587,-0.0004001848,0.0004737332,0.19591233,0.0,0.0,0.0,0.0,0
1454444000,0.980633,-0.00036698097,0.00044740914,0.19587648,0.0,0.0,0.0,0.0,0
1454456000,0.9806396,-0.00033338598,0.0004269293,0.19584401,0.0,0.0,0.0,0.0,0
1454468000,0.9806455,-0.00029746027,0.00041932627,0.19581446,0.0,0.0,0.0,0.0,0
1454476000,0.98064905,-0.00027301192,0.0004183523,0.1957965,0.0,0.0,0.0,0.0,0
1454488000,0.9806538,-0.00023944465,0.00042015247,0.19577281,0.0,0.0,0.0,0.0,0
1454504000,0.98065877,-0.00020838174,0.00043049644,0.1957478,0.0,0.0,0.0,0.0,0
1454516000,0.9806616,-0.00019050908,0.00044524093,0.19573389,0.0,0.0,0.0,0.0,0
1454528000,0.98066354,-0.00017578126,0.00046276857,0.19572404,0.0,0.0,0.0,0.0,0
1454536000,0.98066455,-0.00016937406,0.00046950282,0.19571891,0.0,0.0,0.0,0.0,0
1454552000,0.98066616,-0.00016199621,0.0004650673,0.19571097,0.0,0.0,0.0,0.0,0
1454564000,0.98066694,-0.00015521812,0.0004514854,0.19570689,0.0,0.0,0.0,0.0,0
1454576000,0.98066753,-0.00013749712,0.00043206578,0.19570416,0.0,0.0,0.0,0.0,0
1454588000,0.98066777,-0.000108296976,0.00041167418,0.19570293,0.0,0.0,0.0,0.0,0
1454600000,0.9806676,-7.402139e-05,0.00039359907,0.19570386,0.0,0.0,0.0,0.0,0
1454612000,0.98066705,-4.2006206e-05,0.00037582184,0.1957066,0.0,0.0,0.0,0.0,0
1454624000,0.9806663,-2.7643415e-05,0.00036296868,0.19571051,0.0,0.0,0.0,0.0,0
1454636000,0.9806654,-3.9159226e-05,0.00036096227,0.19571517,0.0,0.0,0.0,0.0,0
1454644000,0.9806647,-6.4243664e-05,0.00037026475,0.1957187,0.0,0.0,0.0,0.0,0
1454660000,0.98066294,-0.00014756652,0.0004073343,0.19572717,0.0,0.0,0.0,0.0,0
1454672000,0.98066115,-0.00022548302,0.0004484064,0.19573592,0.0,0.0,0.0,0.0,0
1454680000,0.9806597,-0.0002778552,0.0004810792,0.19574307,0.0,0.0,0.0,0.0,0
1454696000,0.98065627,-0.00036379698,0.000546113,0.19576001,0.0,0.0,0.0,0.0,0
1454708000,0.9806533,-0.0004062811,0.00058679597,0.19577481,0.0,0.0,0.0,0.0,0
1454720000,0.98064995,-0.00043387891,0.0006197753,0.19579116,0.0,0.0,0.0,0.0,0
1454732000,0.98064643,-0.00045028704,0.00063586544,0.19580881,0.0,0.0,0.0,0.0,0
1454744000,0.9806426,-0.00045603313,0.00063838175,0.19582795,0.0,0.0,0.0,0.0,0
1454756000,0.98063856,-0.0004590001,0.0006368702,0.19584814,0.0,0.0,0.0,0.0,0
1454768000,0.98063445,-0.0004590201,0.00063695834,0.1958687,0.0,0.0,0.0,0.0,0
1454776000,0.98063177,-0.00045620932,0.0006416743,0.1958821,0.0,0.0,0.0,0.0,0
1454792000,0.98062676,-0.0004393556,0.00066762755,0.19590716,0.0,0.0,0.0,0.0,0
1454800000,0.9806243,-0.0004253185,0.0006910879,0.19591926,0.0,0.0,0.0,0.0,0
1454816000,0.9806193,-0.0003917044,0.00074838696,0.19594434,0.0,0.0,0.0,0.0,0
1454828000,0.98061556,-0.00037528024,0.0007905288,0.19596303,0.0,0.0,0.0,0.0,0
1454840000,0.98061186,-0.00036529297,0.000835533,0.19598137,0.0,0.0,0.0,0.0,0
1454852000,0.98060817,-0.00036082743,0.00088223896,0.19599941,0.0,0.0,0.0,0.0,0
1454864000,0.9806046,-0.00037492986,0.0009180944,0.19601719,0.0,0.0,0.0,0.0,0
1454876000,0.98060095,-0.0004065099,0.00093331217,0.19603539,0.0,0.0,0.0,0.0,0
1454888000,0.98059714,-0.0004448945,0.0009363798,0.19605435,0.0,0.0,0.0,0.0,0
1454900000,0.9805931,-0.00048534607,0.0009381257,0.19607452,0.0,0.0,0.0,0.0,0
1454912000,0.98058885,-0.00052200083,0.0009421786,0.19609545,0.0,0.0,0.0,0.0,0
1454924000,0.9805846,-0.0005484434,0.0009435453,0.1961165,0.0,0.0,0.0,0.0,0
1454936000,0.9805805,-0.0005639855,0.0009385904,0.19613726,0.0,0.0,0.0,0.0,0
1454948000,0.98057634,-0.0005769569,0.0009379441,0.19615793,0.0,0.0,0.0,0.0,0
1454960000,0.98057204,-0.00059390836,0.0009374328,0.19617936,0.0,0.0,0.0,0.0,0
1454972000,0.98056775,-0.0006101796,0.0009386796,0.19620088,0.0,0.0,0.0,0.0,0
1454984000,0.9805636,-0.000624222,0.0009365479,0.19622156,0.0,0.0,0.0,0.0,0
1454996000,0.9805595,-0.00062309246,0.0009307877,0.1962417,0.0,0.0,0.0,0.0,0
1455008000,0.98055565,-0.00061449705,0.0009196312,0.19626133,0.0,0.0,0.0,0.0,0
1455020000,0.9805518,-0.0006035136,0.00089953217,0.19628079,0.0,0.0,0.0,0.0,0
1455032000,0.9805479,-0.00058976753,0.00087365834,0.19630042,0.0,0.0,0.0,0.0,0
1455044000,0.98054403,-0.0005687291,0.0008458773,0.1963198,0.0,0.0,0.0,0.0,0
1455056000,0.98054016,-0.0005404068,0.0008276978,0.19633937,0.0,0.0,0.0,0.0,0
1455064000,0.9805375,-0.0005216254,0.000822345,0.19635278,0.0,0.0,0.0,0.0,0
1455080000,0.98053217,-0.00049276266,0.00080951845,0.1963793,0.0,0.0,0.0,0.0,0
1455092000,0.9805284,-0.00047101712,0.0007958666,0.19639832,0.0,0.0,0.0,0.0,0
1455104000,0.98052484,-0.0004454189,0.00079250097,0.19641623,0.0,0.0,0.0,0.0,0
1455112000,0.9805226,-0.0004232858,0.0007920383,0.19642757,0.0,0.0,0.0,0.0,0
1455128000,0.9805183,-0.00037359886,0.0007796693,0.196449,0.0,0.0,0.0,0.0,0
1455140000,0.98051524,-0.00033516783,0.00076619966,0.19646442,0.0,0.0,0.0,0.0,0
1455152000,0.98051226,-0.0002978699,0.00074788905,0.1964793,0.0,0.0,0.0,0.0,0
1455160000,0.9805103,-0.000267309,0.0007358659,0.19648936,0.0,0.0,0.0,0.0,0
1455176000,0.98050594,-0.00019934168,0.0007222892,0.19651107,0.0,0.0,0.0,0.0,0
1455184000,0.9805037,-0.00017128546,0.00071478856,0.19652258,0.0,0.0,0.0,0.0,0
1455200000,0.9804987,-0.00013769542,0.000689482,0.19654772,0.0,0.0,0.0,0.0,0
1455212000,0.9804945,-0.00012241387,0.00065903,0.19656868,0.0,0.0,0.0,0.0,0
1455224000,0.98048997,-0.00011490865,0.0006283534,0.19659117,0.0,0.0,0.0,0.0,0
1455236000,0.9804853,-0.00012236024,0.0005938585,0.19661456,0.0,0.0,0.0,0.0,0
1455248000,0.98048055,-0.00014629446,0.0005532618,0.19663846,0.0,0.0,0.0,0.0,0
1455260000,0.9804757,-0.00018423575,0.00050307513,0.19666253,0.0,0.0,0.0,0.0,0
1455268000,0.98047256,-0.00021073704,0.00046366715,0.19667833,0.0,0.0,0.0,0.0,0
1455280000,0.98046803,-0.00024240339,0.00040066597,0.19670114,0.0,0.0,0.0,0.0,0
1455292000,0.9804638,-0.00026382538,0.00034423827,0.19672224,0.0,0.0,0.0,0.0,0
1455308000,0.9804588,-0.00028571006,0.00028189155,0.19674738,0.0,0.0,0.0,0.0,0
1455320000,0.98045534,-0.00029794202,0.00025261543,0.19676448,0.0,0.0,0.0,0.0,0
1455332000,0.98045206,-0.00031117053,0.00023740513,0.19678074,0.0,0.0,0.0,0.0,0
1455344000,0.9804489,-0.00033142406,0.0002416064,0.19679657,0.0,0.0,0.0,0.0,0
1455356000,0.9804456,-0.00035537305,0.00026036342,0.19681276,0.0,0.0,0.0,0.0,0
1455368000,0.98044217,-0.00037370087,0.0002836435,0.19683,0.0,0.0,0.0,0.0,0
1455380000,0.98043853,-0.0003795171,0.0003118864,0.19684793,0.0,0.0,0.0,0.0,0
1455388000,0.9804361,-0.00037329714,0.00032974174,0.19686006,0.0,0.0,0.0,0.0,0
1455404000,0.98043126,-0.0003469436,0.0003518561,0.19688421,0.0,0.0,0.0,0.0,0
1455412000,0.9804288,-0.00033504493,0.000354942,0.19689645,0.0,0.0,0.0,0.0,0
1455424000,0.9804252,-0.00032498146,0.0003542804,0.19691469,0.0,0.0,0.0,0.0,0
1455436000,0.9804214,-0.0003336289,0.00035228173,0.19693315,0.0,0.0,0.0,0.0,0
1455452000,0.9804163,-0.00037761006,0.00035359254,0.19695877,0.0,0.0,0.0,0.0,0
1455460000,0.9804137,-0.00041513928,0.00035448113,0.19697157,0.0,0.0,0.0,0.0,0
1455472000,0.98041004,-0.00048412237,0.0003530418,0.19698973,0.0,0.0,0.0,0.0,0
1455488000,0.9804058,-0.00058765087,0.00032815387,0.19701038,0.0,0.0,0.0,0.0,0
1455496000,0.98040396,-0.0006384829,0.00031305192,0.19701946,0.0,0.0,0.0,0.0,0
1455512000,0.98040044,-0.0007254473,0.00028582645,0.19703667,0.0,0.0,0.0,0.0,0
1455520000,0.98039883,-0.0007595619,0.00027585795,0.19704473,0.0,0.0,0.0,0.0,0
1455532000,0.9803965,-0.0007980701,0.00026426223,0.19705589,0.0,0.0,0.0,0.0,0
1455544000,0.98039466,-0.0008229524,0.0002488336,0.19706528,0.0,0.0,0.0,0.0,0
1455560000,0.98039263,-0.0008483595,0.00022330471,0.19707529,0.0,0.0,0.0,0.0,0
1455572000,0.9803914,-0.0008745785,0.00020622685,0.19708139,0.0,0.0,0.0,0.0,0
1455584000,0.98039037,-0.0009074178,0.00018315963,0.19708608,0.0,0.0,0.0,0.0,0
1455592000,0.9803899,-0.00093287707,0.00016368848,0.19708857,0.0,0.0,0.0,0.0,0
1455608000,0.9803887,-0.0009884484,0.0001248934,0.19709422,0.0,0.0,0.0,0.0,0
1455620000,0.98038757,-0.0010191017,0.00010415582,0.19709972,0.0,0.0,0.0,0.0,0
1455632000,0.9803863,-0.0010280019,8.801888e-05,0.19710588,0.0,0.0,0.0,0.0,0
1455644000,0.980385,-0.0010213078,6.803652e-05,0.19711253,0.0,0.0,0.0,0.0,0
1455652000,0.980384,-0.0010110476,5.0933984e-05,0.19711736,0.0,0.0,0.0,0.0,0
1455664000,0.9803824,-0.0009982584,2.0369025e-05,0.19712543,0.0,0.0,0.0,0.0,0
1455680000,0.9803799,-0.0009876264,-3.125293e-05,0.19713809,0.0,0.0,0.0,0.0,0
1455692000,0.98037755,-0.0009659812,-7.2196315e-05,0.1971496,0.0,0.0,0.0,0.0,0
1455700000,0.9803759,-0.00093655684,-0.00010076011,0.19715825,0.0,0.0,0.0,0.0,0
1455712000,0.9803732,-0.00087435095,-0.00014420335,0.19717184,0.0,0.0,0.0,0.0,0
1455724000,0.9803704,-0.0008060056,-0.00018688981,0.19718593,0.0,0.0,0.0,0.0,0
1455736000,0.9803674,-0.0007337037,-0.00023498923,0.19720083,0.0,0.0,0.0,0.0,0
1455752000,0.98036325,-0.00063363096,-0.0003041028,0.19722189,0.0,0.0,0.0,0.0,0
1455764000,0.9803601,-0.00056270306,-0.0003632013,0.19723779,0.0,0.0,0.0,0.0,0
1455772000,0.980358,-0.0005193883,-0.00040413174,0.19724818,0.0,0.0,0.0,0.0,0
1455788000,0.980354,-0.00043354408,-0.0004814414,0.19726798,0.0,0.0,0.0,0.0,0
1455796000,0.98035216,-0.0003863027,-0.00051520934,0.19727716,0.0,0.0,0.0,0.0,0
1455812000,0.98034894,-0.0002898641,-0.0005690564,0.19729331,0.0,0.0,0.0,0.0,0
1455824000,0.98034674,-0.00022895944,-0.0005914311,0.19730435,0.0,0.0,0.0,0.0,0
1455836000,0.98034465,-0.00018634746,-0.0005955464,0.19731477,0.0,0.0,0.0,0.0,0
1455844000,0.98034334,-0.00016493825,-0.0005885557,0.19732124,0.0,0.0,0.0,0.0,0
1455856000,0.98034155,-0.0001462437,-0.0005741216,0.19733022,0.0,0.0,0.0,0.0,0
1455872000,0.98033947,-0.00014072047,-0.0005532086,0.19734073,0.0,0.0,0.0,0.0,0
1455880000,0.9803386,-0.00014195289,-0.0005423721,0.19734514,0.0,0.0,0.0,0.0,0
1455896000,0.9803374,-0.00014865294,-0.0005214004,0.19735117,0.0,0.0,0.0,0.0,0
1455904000,0.980337,-0.00015108008,-0.0005128234,0.19735284,0.0,0.0,0.0,0.0,0
1455916000,0.9803369,-0.00015058403,-0.0005006887,0.1973536,0.0,0.0,0.0,0.0,0
1455932000,0.9803371,-0.00015381872,-0.00047388335,0.1973526,0.0,0.0,0.0,0.0,0
1455944000,0.98033756,-0.00016296416,-0.000446967,0.19735031,0.0,0.0,0.0,0.0,0
1455956000,0.9803383,-0.00017935866,-0.00041892857,0.19734679,0.0,0.0,0.0,0.0,0
1455968000,0.98033905,-0.00020252063,-0.00039356717,0.1973429,0.0,0.0,0.0,0.0,0
1455980000,0.9803397,-0.00022681057,-0.00037718174,0.19733974,0.0,0.0,0.0,0.0,0
1455992000,0.98034006,-0.0002420738,-0.00036572362,0.19733804,0.0,0.0,0.0,0.0,0
1456000000,0.98034006,-0.00024394407,-0.00036027448,0.19733807,0.0,0.0,0.0,0.0,0
1456016000,0.9803396,-0.00022198925,-0.00035507744,0.19734025,0.0,0.0,0.0,0.0,0
1456024000,0.9803394,-0.00020561472,-0.00035766477,0.19734123,0.0,0.0,0.0,0.0,0
1456040000,0.98033917,-0.00017262281,-0.00036407498,0.19734257,0.0,0.0,0.0,0.0,0
1456048000,0.980339,-0.00015826833,-0.0003665225,0.19734336,0.0,0.0,0.0,0.0,0
1456064000,0.98033863,-0.00013276395,-0.00038069268,0.19734527,0.0,0.0,0.0,0.0,0
1456076000,0.9803383,-0.00012064127,-0.000401668,0.19734675,0.0,0.0,0.0,0.0,0
1456088000,0.9803379,-0.00012215441,-0.00043260146,0.19734861,0.0,0.0,0.0,0.0,0
1456100000,0.9803373,-0.0001301239,-0.0004757613,0.19735135,0.0,0.0,0.0,0.0,0
1456112000,0.9803366,-0.00013967764,-0.0005282868,0.19735497,0.0,0.0,0.0,0.0,0
1456124000,0.9803356,-0.00015270192,-0.00058491237,0.19735965,0.0,0.0,0.0,0.0,0
1456136000,0.98033434,-0.00015839147,-0.00064446614,0.19736572,0.0,0.0,0.0,0.0,0
1456144000,0.9803333,-0.00015770309,-0.00068703125,0.19737065,0.0,0.0,0.0,0.0,0
1456160000,0.98033094,-0.00014577,-0.00076676806,0.1973822,0.0,0.0,0.0,0.0,0
1456172000,0.98032874,-0.00013868378,-0.0008160497,0.19739291,0.0,0.0,0.0,0.0,0
1456184000,0.9803261,-0.00014550047,-0.0008514543,0.19740574,0.0,0.0,0.0,0.0,0
1456196000,0.98032326,-0.0001584488,-0.00087391137,0.19741984,0.0,0.0,0.0,0.0,0
1456208000,0.98032045,-0.00017593552,-0.00088832236,0.19743367,0.0,0.0,0.0,0.0,0
1456220000,0.9803178,-0.00019562263,-0.00089883397,0.19744715,0.0,0.0,0.0,0.0,0
1456232000,0.980315,-0.00021457982,-0.00090504606,0.19746058,0.0,0.0,0.0,0.0,0
1456244000,0.98031235,-0.00023512183,-0.0008926344,0.1974739,0.0,0.0,0.0,0.0,0
1456256000,0.9803098,-0.00025667058,-0.0008548773,0.19748686,0.0,0.0,0.0,0.0,0
1456268000,0.9803073,-0.0002806655,-0.000801848,0.19749926,0.0,0.0,0.0,0.0,0
1456276000,0.9803058,-0.0003031996,-0.00076479383,0.19750696,0.0,0.0,0.0,0.0,0
1456292000,0.9803028,-0.00035877837,-0.00069379614,0.19752178,0.0,0.0,0.0,0.0,0
1456304000,0.9803005,-0.00039464943,-0.0006488145,0.19753349,0.0,0.0,0.0,0.0,0
1456312000,0.9802989,-0.00041544347,-0.0006222702,0.19754156,0.0,0.0,0.0,0.0,0
1456328000,0.9802954,-0.00044590523,-0.00057177054,0.19755872,0.0,0.0,0.0,0.0,0
1456340000,0.9802926,-0.0004568144,-0.00053722865,0.19757271,0.0,0.0,0.0,0.0,0
1456352000,0.98028964,-0.00045700898,-0.0005065491,0.19758755,0.0,0.0,0.0,0.0,0
1456364000,0.98028666,-0.00044726153,-0.00047683602,0.19760257,0.0,0.0,0.0,0.0,0
1456376000,0.98028386,-0.0004346856,-0.00046380394,0.19761641,0.0,0.0,0.0,0.0,0
1456388000,0.9802813,-0.00042323212,-0.00046921094,0.19762921,0.0,0.0,0.0,0.0,0
1456396000,0.9802797,-0.00041716223,-0.000478183,0.19763726,0.0,0.0,0.0,0.0,0
1456408000,0.9802773,-0.00041783735,-0.0004945429,0.19764899,0.0,0.0,0.0,0.0,0
1456424000,0.9802744,-0.00043339137,-0.0005140832,0.19766325,0.0,0.0,0.0,0.0,0
1456436000,0.9802725,-0.00044667002,-0.00053029263,0.19767271,0.0,0.0,0.0,0.0,0
1456448000,0.9802708,-0.0004509059,-0.00054970785,0.19768085,0.0,0.0,0.0,0.0,0
1456460000,0.98026943,-0.00044194103,-0.00056738756,0.19768777,0.0,0.0,0.0,0.0,0
1456472000,0.9802682,-0.00042675837,-0.00057593826,0.19769388,0.0,0.0,0.0,0.0,0
1456484000,0.98026717,-0.00041011922,-0.0005784926,0.19769892,0.0,0.0,0.0,0.0,0
1456496000,0.9802663,-0.0003993321,-0.00056712114,0.19770351,0.0,0.0,0.0,0.0,0
1456508000,0.9802654,-0.00039642674,-0.0005486099,0.19770801,0.0,0.0,0.0,0.0,0
1456516000,0.9802648,-0.00039833417,-0.0005350861,0.19771102,0.0,0.0,0.0,0.0,0
1456532000,0.98026353,-0.00040580326,-0.0005141674,0.19771725,0.0,0.0,0.0,0.0,0
1456544000,0.9802626,-0.00041413333,-0.00050393905,0.19772194,0.0,0.0,0.0,0.0,0
1456556000,0.9802617,-0.0004303456,-0.0005010063,0.1977264,0.0,0.0,0.0,0.0,0
1456564000,0.980261,-0.0004432471,-0.0005026371,0.19772954,0.0,0.0,0.0,0.0,0
1456580000,0.9802595,-0.00046046852,-0.00051685807,0.19773704,0.0,0.0,0.0,0.0,0
1456592000,0.9802582,-0.00046583495,-0.0005344437,0.19774336,0.0,0.0,0.0,0.0,0
1456604000,0.9802569,-0.00046092074,-0.0005537999,0.1977499,0.0,0.0,0.0,0.0,0
1456616000,0.9802555,-0.00043861955,-0.0005798515,0.19775687,0.0,0.0,0.0,0.0,0
1456628000,0.9802539,-0.00039990764,-0.0006153127,0.19776489,0.0,0.0,0.0,0.0,0
1456636000,0.9802526,-0.000364335,-0.0006426145,0.19777091,0.0,0.0,0.0,0.0,0
1456648000,0.9802507,-0.0002982793,-0.00068444625,0.19778045,0.0,0.0,0.0,0.0,0
1456660000,0.9802488,-0.00022822195,-0.00073103874,0.1977899,0.0,0.0,0.0,0.0,0
1456672000,0.9802467,-0.00016372254,-0.00078372663,0.19779986,0.0,0.0,0.0,0.0,0
1456688000,0.980244,-9.9668614e-05,-0.0008516908,0.19781329,0.0,0.0,0.0,0.0,0
1456700000,0.98024195,-5.4734042e-05,-0.00089374377,0.19782312,0.0,0.0,0.0,0.0,0
1456708000,0.9802405,-2.0022495e-05,-0.00091729185,0.19783019,0.0,0.0,0.0,0.0,0
1456724000,0.9802375,6.465869e-05,-0.00095692644,0.19784492,0.0,0.0,0.0,0.0,0
1456736000,0.98023534,0.00013161976,-0.00097396504,0.19785556,0.0,0.0,0.0,0.0,0
1456748000,0.98023343,0.0001921411,-0.0009747521,0.19786507,0.0,0.0,0.0,0.0,0
1456756000,0.98023236,0.00021965918,-0.00096740155,0.1978703,0.0,0.0,0.0,0.0,0
1456772000,0.98023105,0.0002442024,-0.0009372667,0.19787674,0.0,0.0,0.0,0.0,0
1456780000,0.9802309,0.00024240649,-0.0009142618,0.19787766,0.0,0.0,0.0,0.0,0
1456796000,0.9802313,0.00021756945,-0.000859585,0.19787607,0.0,0.0,0.0,0.0,0
1456808000,0.980232,0.00018177052,-0.0008149688,0.19787286,0.0,0.0,0.0,0.0,0
1456820000,0.9802329,0.00014113076,-0.0007749964,0.19786853,0.0,0.0,0.0,0.0,0
1456828000,0.9802336,0.000116197574,-0.00075330073,0.19786507,0.0,0.0,0.0,0.0,0
1456844000,0.9802349,7.613404e-05,-0.0007136602,0.19785881,0.0,0.0,0.0,0.0,0
1456856000,0.9802354,5.3989734e-05,-0.00068571256,0.1978566,0.0,0.0,0.0,0.0,0
1456868000,0.98023534,3.4823996e-05,-0.00065309665,0.19785698,0.0,0.0,0.0,0.0,0
1456880000,0.9802349,1.6435162e-05,-0.0006211836,0.197859,0.0,0.0,0.0,0.0,0
1456892000,0.9802345,2.3707714e-06,-0.0005764144,0.19786136,0.0,0.0,0.0,0.0,0
1456904000,0.980234,-3.6480174e-06,-0.0005148212,0.19786386,0.0,0.0,0.0,0.0,0
1456916000,0.98023355,-3.6720044e-06,-0.00045219378,0.19786635,0.0,0.0,0.0,0.0,0
1456928000,0.98023295,-5.765654e-06,-0.00039475432,0.19786951,0.0,0.0,0.0,0.0,0
1456940000,0.9802321,-1.387449e-05,-0.0003491228,0.1978736,0.0,0.0,0.0,0.0,0
1456952000,0.98023134,-3.742191e-05,-0.0003188073,0.1978775,0.0,0.0,0.0,0.0,0
1456964000,0.98023057,-7.265663e-05,-0.00030861064,0.19788131,0.0,0.0,0.0,0.0,0
1456976000,0.98023,-0.00011534016,-0.00032012488,0.19788423,0.0,0.0,0.0,0.0,0
1456984000,0.98022985,-0.00014208027,-0.00033101303,0.19788495,0.0,0.0,0.0,0.0,0
1457000000,0.9802299,-0.00018727688,-0.0003391837,0.1978845,0.0,0.0,0.0,0.0,0
1457012000,0.98023,-0.00021740363,-0.00033356706,0.19788426,0.0,0.0,0.0,0.0,0
1457024000,0.9802299,-0.0002460977,-0.00032484194,0.1978845,0.0,0.0,0.0,0.0,0
1457036000,0.9802297,-0.00028063077,-0.00030668016,0.19788568,0.0,0.0,0.0,0.0,0
1457048000,0.9802292,-0.0003212829,-0.0002940874,0.19788799,0.0,0.0,0.0,0.0,0
1457056000,0.9802288,-0.00034782875,-0.00028958026,0.1978898,0.0,0.0,0.0,0.0,0
1457068000,0.9802282,-0.0003805706,-0.00028739686,0.19789283,0.0,0.0,0.0,0.0,0
1457080000,0.98022753,-0.00040167448,-0.00028273216,0.1978962,0.0,0.0,0.0,0.0,0
1457096000,0.98022646,-0.00041445892,-0.00027364257,0.19790143,0.0,0.0,0.0,0.0,0
1457108000,0.9802258,-0.00041760376,-0.00028215317,0.19790448,0.0,0.0,0.0,0.0,0
1457120000,0.98022527,-0.0004184513,-0.00030490552,0.19790715,0.0,0.0,0.0,0.0,0
1457132000,0.9802247,-0.00041695609,-0.00033696613,0.19790995,0.0,0.0,0.0,0.0,0
1457140000,0.98022425,-0.00041427938,-0.00036296752,0.19791211,0.0,0.0,0.0,0.0,0
1457156000,0.98022306,-0.0004030414,-0.00042433795,0.19791785,0.0,0.0,0.0,0.0,0
1457164000,0.98022234,-0.00039172938,-0.00045890434,0.19792157,0.0,0.0,0.0,0.0,0
1457180000,0.9802208,-0.00035837738,-0.000522836,0.19792914,0.0,0.0,0.0,0.0,0
1457188000,0.98022014,-0.00033607823,-0.00054968434,0.19793235,0.0,0.0,0.0,0.0,0
1457204000,0.980219,-0.00028042757,-0.0005901528,0.19793771,0.0,0.0,0.0,0.0,0
1457212000,0.9802185,-0.00024627076,-0.0006064905,0.19794014,0.0,0.0,0.0,0.0,0
1457228000,0.98021775,-0.00016403786,-0.00063014677,0.19794405,0.0,0.0,0.0,0.0,0
1457240000,0.9802174,-9.7707365e-05,-0.00064307527,0.19794592,0.0,0.0,0.0,0.0,0
1457252000,0.98021716,-3.2990065e-05,-0.0006605572,0.19794694,0.0,0.0,0.0,0.0,0
1457264000,0.980217,3.2420983e-05,-0.00067522726,0.19794787,0.0,0.0,0.0,0.0,0
1457276000,0.98021674,9.179086e-05,-0.0006813001,0.19794904,0.0,0.0,0.0,0.0,0
1457288000,0.98021656,0.00014350045,-0.0006876896,0.19794987,0.0,0.0,0.0,0.0,0
1457296000,0.9802165,0.00017506084,-0.00069170276,0.19795008,0.0,0.0,0.0,0.0,0
1457312000,0.9802165,0.00022299823,-0.00069426623,0.19795002,0.0,0.0,0.0,0.0,0
1457320000,0.98021656,0.00024215497,-0.00068878726,0.19794978,0.0,0.0,0.0,0.0,0
1457332000,0.9802166,0.00027454545,-0.00067403645,0.19794932,0.0,0.0,0.0,0.0,0
1457348000,0.98021704,0.00031906785,-0.0006599691,0.19794735,0.0,0.0,0.0,0.0,0
1457360000,0.9802175,0.00035317315,-0.00066042866,0.19794498,0.0,0.0,0.0,0.0,0
1457372000,0.98021764,0.000383934,-0.00066507224,0.1979442,0.0,0.0,0.0,0.0,0
1457384000,0.98021734,0.0004160234,-0.00066917227,0.19794567,0.0,0.0,0.0,0.0,0
1457396000,0.98021686,0.00044977982,-0.00066839944,0.19794784,0.0,0.0,0.0,0.0,0
1457408000,0.9802165,0.00048560338,-0.0006671167,0.19794945,0.0,0.0,0.0,0.0,0
1457420000,0.98021626,0.00051170297,-0.0006672309,0.19795054,0.0,0.0,0.0,0.0,0
1457432000,0.9802162,0.00052573107,-0.0006676328,0.19795105,0.0,0.0,0.0,0.0,0
1457440000,0.9802162,0.0005344357,-0.00066522777,0.197951,0.0,0.0,0.0,0.0,0
1457456000,0.98021615,0.0005587478,-0.0006606434,0.1979513,0.0,0.0,0.0,0.0,0
1457468000,0.98021585,0.00058631855,-0.00066773716,0.19795255,0.0,0.0,0.0,0.0,0
1457476000,0.98021567,0.0006061613,-0.0006821246,0.19795322,0.0,0.0,0.0,0.0,0
1457492000,0.98021567,0.0006509966,-0.0007305554,0.19795302,0.0,0.0,0.0,0.0,0
1457504000,0.9802157,0.0006762038,-0.000771501,0.19795258,0.0,0.0,0.0,0.0,0
1457516000,0.98021567,0.00068707706,-0.00081393257,0.19795269,0.0,0.0,0.0,0.0,0
1457528000,0.9802154,0.00069013325,-0.00085999194,0.19795379,0.0,0.0,0.0,0.0,0
1457536000,0.98021513,0.0006886772,-0.0008914939,0.19795491,0.0,0.0,0.0,0.0,0
1457548000,0.9802148,0.00068125525,-0.0009397291,0.19795655,0.0,0.0,0.0,0.0,0
1457564000,0.9802142,0.00065798056,-0.0010028816,0.19795926,0.0,0.0,0.0,0.0,0
1457576000,0.9802135,0.00063773204,-0.0010458567,0.19796234,0.0,0.0,0.0,0.0,0
1457588000,0.98021257,0.0006249512,-0.0010852282,0.19796687,0.0,0.0,0.0,0.0,0
1457600000,0.9802114,0.0006254105,-0.0011215875,0.19797255,0.0,0.0,0.0,0.0,0
1457608000,0.9802104,0.0006318423,-0.0011468948,0.19797693,0.0,0.0,0.0,0.0,0
1457624000,0.9802084,0.0006463559,-0.0012142565,0.19798659,0.0,0.0,0.0,0.0,0
1457636000,0.9802067,0.0006394995,-0.0012789381,0.19799459,0.0,0.0,0.0,0.0,0
1457648000,0.980205,0.0006159749,-0.0013540903,0.19800277,0.0,0.0,0.0,0.0,0
1457656000,0.98020387,0.0005960764,-0.0014088097,0.19800794,0.0,0.0,0.0,0.0,0
1457672000,0.9802016,0.0005629117,-0.0015142292,0.19801836,0.0,0.0,0.0,0.0,0
1457680000,0.9802004,0.00055034814,-0.0015694487,0.19802397,0.0,0.0,0.0,0.0,0
1457696000,0.9801977,0.0005247494,-0.0016855529,0.19803636,0.0,0.0,0.0,0.0,0
1457708000,0.9801957,0.0005062889,-0.0017671091,0.19804586,0.0,0.0,0.0,0.0,0
1457720000,0.9801937,0.00048916944,-0.0018427705,0.19805515,0.0,0.0,0.0,0.0,0
1457728000,0.9801923,0.00048626095,-0.001893246,0.19806135,0.0,0.0,0.0,0.0,0
1457744000,0.9801893,0.00049619173,-0.0019936184,0.19807528,0.0,0.0,0.0,0.0,0
1457752000,0.98018754,0.000507131,-0.002040187,0.1980834,0.0,0.0,0.0,0.0,0
1457768000,0.9801836,0.0005448587,-0.0021259477,0.198102,0.0,0.0,0.0,0.0,0
1457780000,0.9801807,0.0005823095,-0.0021802501,0.19811568,0.0,0.0,0.0,0.0,0
1457788000,0.980179,0.00060966617,-0.0022098776,0.19812344,0.0,0.0,0.0,0.0,0
1457800000,0.980177,0.0006504443,-0.0022431768,0.19813319,0.0,0.0,0.0,0.0,0
1457816000,0.98017496,0.0007035295,-0.0022638259,0.19814266,0.0,0.0,0.0,0.0,0
1457828000,0.9801739,0.0007553088,-0.0022555129,0.19814785,0.0,0.0,0.0,0.0,0
1457836000,0.98017335,0.00079931744,-0.002233511,0.19815066,0.0,0.0,0.0,0.0,0
1457848000,0.9801727,0.0008684781,-0.0021787372,0.19815409,0.0,0.0,0.0,0.0,0
1457864000,0.9801721,0.0009603697,-0.002072495,0.19815797,0.0,0.0,0.0,0.0,0
1457872000,0.9801718,0.0010134634,-0.0020059294,0.19815975,0.0,0.0,0.0,0.0,0
1457888000,0.9801713,0.0011209834,-0.0018514906,0.19816305,0.0,0.0,0.0,0.0,0
1457900000,0.98017126,0.0011869201,-0.0017301111,0.19816409,0.0,0.0,0.0,0.0,0
1457912000,0.9801714,0.0012406628,-0.0016129356,0.19816415,0.0,0.0,0.0,0.0,0
1457924000,0.9801718,0.0012839714,-0.0015137725,0.19816251,0.0,0.0,0.0,0.0,0
1457936000,0.9801727,0.0013141882,-0.0014334231,0.19815855,0.0,0.0,0.0,0.0,0
1457948000,0.980174,0.0013265037,-0.001363025,0.19815251,0.0,0.0,0.0,0.0,0
1457960000,0.9801756,0.0013276141,-0.0013013685,0.1981449,0.0,0.0,0.0,0.0,0
1457972000,0.9801772,0.0013366023,-0.0012527651,0.19813718,0.0,0.0,0.0,0.0,0
1457984000,0.98017865,0.0013531971,-0.001212735,0.19813019,0.0,0.0,0.0,0.0,0
1457992000,0.98017967,0.0013682507,-0.0011861027,0.19812538,0.0,0.0,0.0,0.0,0
1458004000,0.9801813,0.0013946604,-0.0011480738,0.19811733,0.0,0.0,0.0,0.0,0
1458020000,0.9801837,0.0014219063,-0.0011144644,0.19810519,0.0,0.0,0.0,0.0,0
1458032000,0.9801857,0.0014376679,-0.0010943252,0.19809566,0.0,0.0,0.0,0.0,0
1458044000,0.9801877,0.0014482937,-0.0010733427,0.19808556,0.0,0.0,0.0,0.0,0
1458056000,0.98018974,0.0014523829,-0.0010496612,0.1980756,0.0,0.0,0.0,0.0,0
1458064000,0.98019105,0.0014491867,-0.0010372343,0.1980693,0.0,0.0,0.0,0.0,0
1458080000,0.98019344,0.0014292547,-0.0010244753,0.19805758,0.0,0.0,0.0,0.0,0
1458092000,0.9801952,0.0014031606,-0.0010303095,0.19804902,0.0,0.0,0.0,0.0,0
1458104000,0.98019683,0.0013618435,-0.0010519332,0.19804113,0.0,0.0,0.0,0.0,0
1458116000,0.9801983,0.0013115377,-0.0010848786,0.19803408,0.0,0.0,0.0,0.0,0
1458128000,0.9801996,0.0012514277,-0.0011220241,0.198028,0.0,0.0,0.0,0.0,0
1458140000,0.98020065,0.0011861813,-0.0011507134,0.19802283,0.0,0.0,0.0,0.0,0
1458152000,0.9802013,0.0011198208,-0.0011667042,0.19801982,0.0,0.0,0.0,0.0,0
1458160000,0.9802015,0.0010791443,-0.0011700433,0.19801915,0.0,0.0,0.0,0.0,0
1458176000,0.98020136,0.0010099474,-0.001167854,0.19802025,0.0,0.0,0.0,0.0,0
1458188000,0.980201,0.00097082165,-0.0011572776,0.19802237,0.0,0.0,0.0,0.0,0
1458196000,0.9802007,0.0009489553,-0.0011449896,0.19802405,0.0,0.0,0.0,0.0,0
1458208000,0.9802002,0.0009266255,-0.0011199763,0.1980269,0.0,0.0,0.0,0.0,0
1458224000,0.98019946,0.00091825915,-0.001070764,0.19803074,0.0,0.0,0.0,0.0,0
