timestamp,ref_timestamp,ref_lat,ref_lon,x,y,z,delta_xy[0],delta_xy[1],delta_z,vx,vy,vz,z_deriv,delta_vxy[0],delta_vxy[1],delta_vz,ax,ay,az,yaw,ref_alt,dist_bottom,dist_bottom_rate,eph,epv,evh,evv,vxy_max,vz_max,hagl_min,hagl_max,xy_valid,z_valid,v_xy_valid,v_z_valid,xy_reset_counter,z_reset_counter,vxy_reset_counter,vz_reset_counter,xy_global,z_global,dist_bottom_valid
1449028000,1688000,47.3977508,8.5456074,0.08383885,-0.1776981,-0.048964042,-0.022968095,-0.0035443609,0.0,-0.024261154,0.0007738269,-0.022560213,0.018562188,-0.059729103,-0.009160716,0.12626225,0.0034522817,-0.02857745,0.0022761521,0.40589544,0.0,0.10327615,0.022560213,0.42377824,0.23523124,0.17458023,0.1043735,inf,inf,inf,inf,1,1,1,1,2,0,2,2,1,1,1
1449124000,1688000,47.3977508,8.5456074,0.08500265,-0.177502,-0.047765754,-0.022968095,-0.0035443609,0.0,-0.02208242,-0.0017482501,-0.023938341,0.016441025,-0.059729103,-0.009160716,0.12626225,-0.025577886,0.07484361,-0.018509103,0.4057667,0.0,0.1028978,0.023938341,0.41077402,0.23348808,0.16981529,0.103568584,inf,inf,inf,inf,1,1,1,1,2,0,2,2,1,1,1
1449228000,1688000,47.3977508,8.5456074,0.08695323,-0.17707062,-0.046328407,-0.022968095,-0.0035443609,0.0,-0.020391442,-0.00034574067,-0.020261295,0.019385189,-0.059729103,-0.009160716,0.12626225,-0.04953645,0.029894926,-0.039096918,0.4059759,0.0,0.103065014,0.020261295,0.42348525,0.2353376,0.17451896,0.10439737,inf,inf,inf,inf,1,1,1,1,2,0,2,2,1,1,1
1449324000,1688000,47.3977508,8.5456074,0.088223465,-0.17660892,-0.044433884,-0.022968095,-0.0035443609,0.0,-0.018952603,-0.0019050203,-0.018960929,0.020440115,-0.059729103,-0.009160716,0.12626225,-0.12274411,-0.027489193,0.011404044,0.40612146,0.0,0.1028145,0.018960929,0.41052124,0.23359355,0.16977121,0.103592694,inf,inf,inf,inf,1,1,1,1,2,0,2,2,1,1,1
1449428000,1688000,47.3977508,8.5456074,0.090236545,-0.17624497,-0.042159606,-0.022968095,-0.0035443609,0.0,-0.016636671,-0.0038421324,-0.015278711,0.023871595,-0.059729103,-0.009160716,0.12626225,0.028230008,0.059269633,-0.08404999,0.40625367,0.0,0.10282251,0.015278711,0.42322713,0.23382317,0.17447267,0.103995934,inf,inf,inf,inf,1,1,1,1,2,0,2,2,1,1,1
1449524000,1688000,47.3977508,8.5456074,0.091391705,-0.17620791,-0.040316924,-0.022968095,-0.0035443609,0.0,-0.015432355,-0.0032025343,-0.015899377,0.02255755,-0.059729103,-0.009160716,0.12626225,0.016121738,0.009836809,-0.060030255,0.406281,0.0,0.10230239,0.015899377,0.41029882,0.23370183,0.16973333,0.10361886,inf,inf,inf,inf,1,1,1,1,2,0,2,2,1,1,1
1449628000,1688000,47.3977508,8.5456074,0.09275693,-0.17630588,-0.038263448,-0.022968095,-0.0035443609,0.0,-0.012923031,-0.003332074,-0.014600543,0.023282094,-0.059729103,-0.009160716,0.12626225,-0.0416712,0.014981092,0.032709908,0.4065309,0.0,0.10063079,0.014600543,0.4230006,0.23394096,0.1744271,0.10402672,inf,inf,inf,inf,1,1,1,1,2,0,2,2,1,1,1
1449724000,1688000,47.3977508,8.5456074,0.09358731,-0.17640577,-0.03629438,-0.022968095,-0.0035443609,0.0,-0.0123248035,-0.0019761284,-0.01444216,0.022928169,-0.059729103,-0.009160716,0.12626225,-0.014744137,0.071058996,-0.052980144,0.40657106,0.0,0.101005174,0.01444216,0.41010308,0.2338119,0.1697044,0.103646204,inf,inf,inf,inf,1,1,1,1,2,0,2,2,1,1,1
1449828000,1688000,47.3977508,8.5456074,0.094708905,-0.17650504,-0.0339664,-0.022968095,-0.0035443609,0.0,-0.014463994,-0.0011736739,-0.014524807,0.02257936,-0.059729103,-0.009160716,0.12626225,-0.06938744,0.10612384,-0.029559245,0.4065959,0.0,0.10228609,0.014524807,0.4228026,0.23405209,0.17440677,0.104054816,inf,inf,inf,inf,1,1,1,1,2,0,2,2,1,1,1
1449924000,1688000,47.3977508,8.5456074,0.09518571,-0.17646547,-0.03157434,-0.022968095,-0.0035443609,0.0,-0.013269264,-0.0008104486,-0.014781328,0.02238456,-0.059729103,-0.009160716,0.12626225,-0.059343275,0.031000951,-0.006151385,0.4064892,0.0,0.10214044,0.014781328,0.40993208,0.23393275,0.16968992,0.10367865,inf,inf,inf,inf,1,1,1,1,2,0,2,2,1,1,1
1450028000,1688000,47.3977508,8.5456074,0.09623257,-0.17637002,-0.029329916,-0.022968095,-0.0035443609,0.0,-0.01058417,-0.0012591018,-0.015153002,0.02168322,-0.059729103,-0.009160716,0.12626225,0.05598011,-0.06091647,-0.04964694,0.4063461,0.0,0.10122516,0.015153002,0.42263052,0.23417348,0.17440024,0.10408768,inf,inf,inf,inf,1,1,1,1,2,0,2,2,1,1,1
1450124000,1688000,47.3977508,8.5456074,0.097112045,-0.17619857,-0.027880007,-0.022968095,-0.0035443609,0.0,-0.008212998,0.00020650252,-0.01550329,0.020537961,-0.059729103,-0.009160716,0.12626225,0.055240724,0.008975157,-0.06087031,0.4061408,0.0,0.1,0.01550329,0.40978345,0.23404627,0.16967884,0.103708014,inf,inf,inf,inf,1,1,1,1,2,0,2,2,1,1,1
1450228000,1688000,47.3977508,8.5456074,0.099120125,-0.17583668,-0.027304161,-0.022968095,-0.0035443609,0.0,-0.006842938,-0.00044949577,-0.017367546,0.017049398,-0.059729103,-0.009160716,0.12626225,0.0059651136,0.0313187,-0.019194556,0.40612468,0.0,0.1,0.017367546,0.42248178,0.2342965,0.17439593,0.10412143,inf,inf,inf,inf,1,1,1,1,2,0,2,2,1,1,1
1450332000,1688000,47.3977508,8.5456074,0.10075279,-0.17593822,-0.026193244,-0.022968095,-0.0035443609,0.0,-0.0050439034,-0.0013924651,-0.014942816,0.01856571,-0.059729103,-0.009160716,0.12626225,0.023281883,0.010780067,0.06542261,0.40625334,0.0,0.10052981,0.014942816,0.41061074,0.23321405,0.17004609,0.1035214,inf,inf,inf,inf,1,1,1,1,2,0,2,2,1,1,1
1450428000,1688000,47.3977508,8.5456074,0.10249763,-0.17666405,-0.025249977,-0.022968095,-0.0035443609,0.0,-0.004336676,-0.0015125998,-0.014475096,0.018109752,-0.059729103,-0.009160716,0.12626225,-0.03474521,-0.0752411,0.021331942,0.40622938,0.0,0.1,0.014475096,0.4223541,0.23442046,0.17439573,0.10415543,inf,inf,inf,inf,1,1,1,1,2,0,2,2,1,1,1
1450524000,1688000,47.3977508,8.5456074,0.103586726,-0.17721714,-0.024711765,-0.022968095,-0.0035443609,0.0,-0.0043753833,-0.0016024043,-0.011667518,0.019508757,-0.059729103,-0.009160716,0.12626225,-0.030112011,0.04884449,0.015798954,0.4063176,0.0,0.1,0.011667518,0.40954462,0.2343032,0.16967867,0.10377981,inf,inf,inf,inf,1,1,1,1,2,0,2,2,1,1,1
1450628000,1688000,47.3977508,8.5456074,0.10456609,-0.17721944,-0.023736104,-0.022968095,-0.0035443609,0.0,-0.0027309307,0.00043332265,-0.015037137,0.015198938,-0.059729103,-0.009160716,0.12626225,0.0061315876,-0.008943161,0.048656944,0.40640602,0.0,0.1,0.015037137,0.42224443,0.2345542,0.17438097,0.10419367,inf,inf,inf,inf,1,1,1,1,2,0,2,2,1,1,1
1450724000,1688000,47.3977508,8.5456074,0.10531212,-0.17708534,-0.023275243,-0.022968095,-0.0035443609,0.0,-0.0020826105,0.0003367721,-0.016612785,0.012612347,-0.059729103,-0.009160716,0.12626225,0.031010013,-0.011281228,-0.08171051,0.4065165,0.0,0.1,0.016612785,0.4094496,0.23443693,0.16966848,0.10381776,inf,inf,inf,inf,1,1,1,1,2,0,2,2,1,1,1
1450828000,1688000,47.3977508,8.5456074,0.10671146,-0.17682287,-0.02310012,-0.022968095,-0.0035443609,0.0,0.00035847444,-0.0012438631,-0.018628756,0.00947008,-0.059729103,-0.009160716,0.12626225,0.015720237,0.041363742,-0.13796611,0.40639436,0.0,0.1,0.018628756,0.42215058,0.23467939,0.17438664,0.10422798,inf,inf,inf,inf,1,1,1,1,2,0,2,2,1,1,1
1450924000,1688000,47.3977508,8.5456074,0.10762805,-0.17657447,-0.026216669,-0.022968095,-0.0035443609,0.0,0.0007965101,5.9910708e-05,-0.12846982,-0.10055737,-0.059729103,-0.009160716,0.12626225,-0.055830095,-0.047750726,-1.8335412,0.40625244,0.0,0.10601306,0.12846982,0.4093682,0.23296572,0.16968204,0.103436,inf,inf,inf,inf,1,1,1,1,2,0,2,2,1,1,1
1451028000,1688000,47.3977508,8.5456074,0.10875912,-0.17620905,-0.04566817,-0.022968095,-0.0035443609,0.0,0.008589855,-0.0010494612,-0.28172538,-0.25433266,-0.059729103,-0.009160716,0.12626225,0.12287619,0.08093712,-1.1859945,0.40633178,0.0,0.12546456,0.28172538,0.42207178,0.23482242,0.17446439,0.10426986,inf,inf,inf,inf,1,1,1,1,2,0,2,2,1,1,1
1451124000,1688000,47.3977508,8.5456074,0.110151336,-0.17599644,-0.07611044,-0.022968095,-0.0035443609,0.0,0.012837714,-0.0015784462,-0.39270136,-0.36610287,-0.059729103,-0.009160716,0.12626225,0.10838925,0.016657948,-1.2904834,0.40619177,0.0,0.15590683,0.39270136,0.4092878,0.23309703,0.17031233,0.10347271,inf,inf,inf,inf,1,1,1,1,2,0,2,2,1,1,1
1451228000,1688000,47.3977508,8.5456074,0.112177946,-0.17581934,-0.12238525,-0.022968095,-0.0035443609,0.0,0.015095557,-0.0025897743,-0.5322057,-0.50648874,-0.059729103,-0.009160716,0.12626225,-0.026569298,0.056519944,-1.1929804,0.40602565,0.0,0.20218164,0.5322057,0.42204013,0.23495656,0.17559208,0.10430746,inf,inf,inf,inf,1,1,1,1,2,0,2,2,1,1,1
1451324000,1688000,47.3977508,8.5456074,0.113733284,-0.17579931,-0.1771595,-0.022968095,-0.0035443609,0.0,0.011690864,-0.0027933547,-0.653347,-0.6280481,-0.059729103,-0.009160716,0.12626225,0.021433536,-0.009014427,-1.3338736,0.40582478,0.0,0.2569559,0.653347,0.409259,0.23323674,0.17123272,0.103512876,inf,inf,inf,inf,1,1,1,1,2,0,2,2,1,1,1
1451428000,1688000,47.3977508,8.5456074,0.11511261,-0.17596689,-0.2501074,-0.022968095,-0.0035443609,0.0,0.008522419,-0.002375206,-0.7875611,-0.7628945,-0.059729103,-0.009160716,0.12626225,-0.017806115,-0.07647292,-1.3276031,0.40585884,0.0,0.32990378,0.7875611,0.42206293,0.23509882,0.17652301,0.10434833,inf,inf,inf,inf,1,1,1,1,2,0,2,2,1,1,1
1451524000,1688000,47.3977508,8.5456074,0.115915105,-0.17608325,-0.3298125,-0.022968095,-0.0035443609,0.0,0.007381437,-0.0017936941,-0.9087103,-0.8847131,-0.059729103,-0.009160716,0.12626225,-0.053827897,0.013210291,-1.270635,0.4057325,0.0,0.4096089,0.9087103,0.4344463,0.2346879,0.18147609,0.104540944,inf,inf,inf,inf,1,1,1,1,2,0,2,2,1,1,1
1451628000,1688000,47.3977508,8.5456074,0.116816714,-0.17615907,-0.42332795,-0.022968095,-0.0035443609,0.0,0.006683956,-0.0038833811,-0.9043604,-0.8798345,-0.059729103,-0.009160716,0.12626225,0.036512204,-0.01811912,0.9594084,0.40566224,0.0,0.50312436,0.9043604,0.42076492,0.233582,0.17657182,0.10390573,inf,inf,inf,inf,1,1,1,1,2,0,2,2,1,1,1
1451732000,1688000,47.3977508,8.5456074,0.11859154,-0.17617816,-0.50844824,-0.022968095,-0.0035443609,0.0,0.008470588,-0.0045824503,-0.8125698,-0.78714496,-0.059729103,-0.009160716,0.12626225,-0.011140469,-0.033215553,0.43689084,0.40580964,0.0,0.5882446,0.8125698,0.43415752,0.2354404,0.18183705,0.10472262,inf,inf,inf,inf,1,1,1,1,2,0,2,2,1,1,1
1451828000,1688000,47.3977508,8.5456074,0.11995242,-0.17640136,-0.5831665,-0.022968095,-0.0035443609,0.0,0.0059983497,-0.004924936,-0.7833605,-0.75860554,-0.059729103,-0.009160716,0.12626225,-0.020168895,0.08285314,0.28862336,0.40589496,0.0,0.66296285,0.7833605,0.4196381,0.23367953,0.17580868,0.103889674,inf,inf,inf,inf,1,1,1,1,2,0,2,2,1,1,1
1451924000,1688000,47.3977508,8.5456074,0.12156332,-0.1766265,-0.6545055,-0.022968095,-0.0035443609,0.0,0.0075291414,-0.0035055943,-0.74214166,-0.7178804,-0.059729103,-0.009160716,0.12626225,-0.030014673,-0.00024115432,0.4260158,0.40592098,0.0,0.73430187,0.74214166,0.43188336,0.2348772,0.17994031,0.10450541,inf,inf,inf,inf,1,1,1,1,2,0,2,2,1,1,1
1452028000,1688000,47.3977508,8.5456074,0.123163804,-0.17672464,-0.7276074,-0.022968095,-0.0035443609,0.0,0.00820872,-0.0044627036,-0.7045285,-0.68086654,-0.059729103,-0.009160716,0.12626225,-0.015690813,-0.025159432,0.29443574,0.40575644,0.0,0.8074038,0.7045285,0.41859493,0.2353641,0.17460208,0.10428737,inf,inf,inf,inf,1,1,1,1,2,0,2,2,1,1,1
1452132000,1688000,47.3977508,8.5456074,0.12484556,-0.17671713,-0.79736596,-0.022968095,-0.0035443609,0.0,0.006808099,-0.0051343003,-0.6679097,-0.64513063,-0.059729103,-0.009160716,0.12626225,0.007711947,-0.0023696274,0.37333927,0.40573543,0.0,0.87716234,0.6679097,0.43178582,0.23558564,0.17916456,0.10467324,inf,inf,inf,inf,1,1,1,1,2,0,2,2,1,1,1
1452228000,1688000,47.3977508,8.5456074,0.12620422,-0.17684159,-0.858265,-0.022968095,-0.0035443609,0.0,0.0034783564,-0.0044019087,-0.6371482,-0.6148942,-0.059729103,-0.009160716,0.12626225,-0.00029095824,-0.053554732,0.25833768,0.40589106,0.0,0.93806136,0.6371482,0.4176279,0.23381633,0.17359601,0.10384128,inf,inf,inf,inf,1,1,1,1,2,0,2,2,1,1,1
1452324000,1688000,47.3977508,8.5456074,0.12823223,-0.17711839,-0.91599476,-0.022968095,-0.0035443609,0.0,0.003270672,-0.004106667,-0.60744864,-0.5853244,-0.059729103,-0.009160716,0.12626225,-0.058805607,-0.0251554,0.35088602,0.40579557,0.0,0.99579114,0.60744864,0.42970335,0.23501785,0.17782119,0.10446132,inf,inf,inf,inf,1,1,1,1,2,0,2,2,1,1,1
1452428000,1688000,47.3977508,8.5456074,0.12992555,-0.17745632,-0.975383,-0.022968095,-0.0035443609,0.0,0.0024889847,-0.0027100628,-0.5788447,-0.5567889,-0.059729103,-0.009160716,0.12626225,-0.04901057,0.032282323,0.23196171,0.40569764,0.0,1.0551794,0.5788447,0.4167327,0.23388372,0.17274128,0.10382204,inf,inf,inf,inf,1,1,1,1,2,0,2,2,1,1,1
1452524000,1688000,47.3977508,8.5456074,0.13118477,-0.17768723,-1.0275918,-0.022968095,-0.0035443609,0.0,0.00047333864,-0.0005294227,-0.5548824,-0.5328009,-0.059729103,-0.009160716,0.12626225,-0.03627236,-0.061171796,0.16546342,0.40570587,0.0,1.1073883,0.5548824,0.42873868,0.23507003,0.17697112,0.10443666,inf,inf,inf,inf,1,1,1,1,2,0,2,2,1,1,1
1452628000,1688000,47.3977508,8.5456074,0.13217662,-0.17796227,-1.0817919,-0.022968095,-0.0035443609,0.0,-0.00066836254,-5.8105434e-05,-0.5296162,-0.50768876,-0.059729103,-0.009160716,0.12626225,-0.018720048,0.036529727,0.1558624,0.40584347,0.0,1.1615883,0.5296162,0.4159061,0.23392084,0.17201576,0.10379322,inf,inf,inf,inf,1,1,1,1,2,0,2,2,1,1,1
1452724000,1688000,47.3977508,8.5456074,0.13346627,-0.17860603,-1.128859,-0.022968095,-0.0035443609,0.0,-0.0014216708,-0.00031706863,-0.50661254,-0.4840813,-0.059729103,-0.009160716,0.12626225,0.025359606,0.0076288166,0.23201293,0.40591428,0.0,1.2086555,0.50661254,0.42785195,0.23511058,0.17625953,0.104411155,inf,inf,inf,inf,1,1,1,1,2,0,2,2,1,1,1
1452828000,1688000,47.3977508,8.5456074,0.13456118,-0.17923816,-1.177465,-0.022968095,-0.0035443609,0.0,-0.000327509,-0.00093118654,-0.48849064,-0.46528143,-0.059729103,-0.009160716,0.12626225,0.056030598,0.0788087,0.15178601,0.4058657,0.0,1.2572614,0.48849064,0.4151451,0.23397264,0.17141059,0.10377532,inf,inf,inf,inf,1,1,1,1,2,0,2,2,1,1,1
1452924000,1688000,47.3977508,8.5456074,0.13571936,-0.17983389,-1.2215433,-0.022968095,-0.0035443609,0.0,7.9756646e-05,-0.0006716109,-0.46963987,-0.44671887,-0.059729103,-0.009160716,0.12626225,-0.0047016437,0.09025251,0.19270647,0.4059928,0.0,1.3013397,0.46963987,0.42703873,0.23516558,0.17565031,0.104396164,inf,inf,inf,inf,1,1,1,1,2,0,2,2,1,1,1
1453028000,1688000,47.3977508,8.5456074,0.13648656,-0.18022573,-1.2676531,-0.022968095,-0.0035443609,0.0,-0.00059025956,0.0007091139,-0.4480835,-0.42599943,-0.059729103,-0.009160716,0.12626225,0.02556871,0.0769976,0.21729244,0.40610847,0.0,1.3474495,0.4480835,0.41444618,0.23402119,0.17090799,0.10375973,inf,inf,inf,inf,1,1,1,1,2,0,2,2,1,1,1
1453124000,1688000,47.3977508,8.5456074,0.1367042,-0.18054795,-1.3095022,-0.022968095,-0.0035443609,0.0,-0.0042723212,0.0006511801,-0.4320681,-0.41172993,-0.059729103,-0.009160716,0.12626225,-0.02144643,0.059876062,0.2098577,0.4061258,0.0,1.3892987,0.4320681,0.42629555,0.23521757,0.17515083,0.104383565,inf,inf,inf,inf,1,1,1,1,2,0,2,2,1,1,1
1453228000,1688000,47.3977508,8.5456074,0.13655876,-0.18074691,-1.3531712,-0.022968095,-0.0035443609,0.0,-0.0047608903,0.003144955,-0.4109961,-0.39252362,-0.059729103,-0.009160716,0.12626225,-0.03458775,-0.047300354,0.22689904,0.4060443,0.0,1.4329677,0.4109961,0.41380754,0.23409258,0.17046003,0.10375768,inf,inf,inf,inf,1,1,1,1,2,0,2,2,1,1,1
1453324000,1688000,47.3977508,8.5456074,0.13630979,-0.18079683,-1.3908755,-0.022968095,-0.0035443609,0.0,-0.007544127,0.0040141554,-0.392488,-0.37496173,-0.059729103,-0.009160716,0.12626225,-0.02168754,0.018172016,0.08470285,0.40593988,0.0,1.4706719,0.392488,0.42561775,0.23528351,0.17471659,0.10438033,inf,inf,inf,inf,1,1,1,1,2,0,2,2,1,1,1
1453428000,1688000,47.3977508,8.5456074,0.13566357,-0.18074213,-1.429798,-0.022968095,-0.0035443609,0.0,-0.009609294,0.004808039,-0.38134122,-0.36431256,-0.059729103,-0.009160716,0.12626225,0.044379547,0.03415141,0.06347335,0.40593112,0.0,1.5095944,0.38134122,0.41322446,0.23416029,0.17007849,0.10375702,inf,inf,inf,inf,1,1,1,1,2,0,2,2,1,1,0
1453524000,1688000,47.3977508,8.5456074,0.1353051,-0.18070634,-1.4645193,-0.022968095,-0.0035443609,0.0,-0.009599817,0.0053317337,-0.3644915,-0.34794614,-0.059729103,-0.009160716,0.12626225,-0.007396076,-0.025420995,0.10907463,0.40591663,0.0,1.5443157,0.3644915,0.4250002,0.23537225,0.17433542,0.104390085,inf,inf,inf,inf,1,1,1,1,2,0,2,2,1,1,0
1453628000,1688000,47.3977508,8.5456074,0.13485624,-0.18059623,-1.5002726,-0.022968095,-0.0035443609,0.0,-0.009898551,0.005782775,-0.34897166,-0.33279622,-0.059729103,-0.009160716,0.12626225,-0.10172148,0.054536108,0.109929584,0.4058088,0.0,1.5800691,0.34897166,0.4126917,0.23426665,0.16979024,0.10377574,inf,inf,inf,inf,1,1,1,1,2,0,2,2,1,1,0
1453724000,1688000,47.3977508,8.5456074,0.13460672,-0.1806016,-1.5329373,-0.022968095,-0.0035443609,0.0,-0.010040542,0.006218656,-0.33818564,-0.32311594,-0.059729103,-0.009160716,0.12626225,0.05278607,0.0032076659,0.1849085,0.40578935,0.0,1.6127337,0.33818564,0.4244397,0.23387426,0.17404456,0.10399059,inf,inf,inf,inf,1,1,1,1,2,0,2,2,1,1,0
1453828000,1688000,47.3977508,8.5456074,0.13413894,-0.18049577,-1.5669763,-0.022968095,-0.0035443609,0.0,-0.010168439,0.0055841426,-0.32388622,-0.30994284,-0.059729103,-0.009160716,0.12626225,0.02277408,0.043305814,0.12073106,0.40595222,0.0,1.6467727,0.32388622,0.41220868,0.23438257,0.16953862,0.10380005,inf,inf,inf,inf,1,1,1,1,2,0,2,2,1,1,0
1453924000,1688000,47.3977508,8.5456074,0.13377301,-0.18049808,-1.5965525,-0.022968095,-0.0035443609,0.0,-0.007922453,0.0071116383,-0.3139996,-0.30034885,-0.059729103,-0.009160716,0.12626225,0.09573611,0.009009756,0.09041372,0.418215,0.0,1.6763489,0.3139996,0.42391402,0.23399022,0.17198147,0.10401595,inf,inf,inf,inf,1,1,1,1,2,0,2,2,1,1,0
1454028000,1688000,47.3977508,8.5456074,0.13361971,-0.18031898,-1.6271858,-0.022968095,-0.0035443609,0.0,-0.0055979867,0.0067369314,-0.29910964,-0.28550112,-0.059729103,-0.009160716,0.12626225,-0.006474183,-0.03917078,0.18187146,0.4164261,0.0,1.7069823,0.29910964,0.4118257,0.23450796,0.16428374,0.1038316,inf,inf,inf,inf,1,1,1,1,2,0,2,2,1,1,0
1454124000,1688000,47.3977508,8.5456074,0.13359939,-0.18053949,-1.6537862,-0.022968095,-0.0035443609,0.0,-0.0067694397,0.0055769263,-0.28956756,-0.2756401,-0.059729103,-0.009160716,0.12626225,-0.012249452,0.039077308,0.05046464,0.41352078,0.0,1.7335826,0.28956756,0.4231801,0.2341152,0.16554101,0.10405085,inf,inf,inf,inf,1,1,1,1,2,0,2,2,1,1,0
1454228000,1688000,47.3977508,8.5456074,0.13306561,-0.180868,-1.6824343,-0.022968095,-0.0035443609,0.0,-0.009671585,0.004997551,-0.2806197,-0.26701298,-0.059729103,-0.009160716,0.12626225,0.039745193,-0.04531137,0.10354164,0.4105522,0.0,1.7622308,0.2806197,0.41117936,0.23302694,0.15920524,0.10344977,inf,inf,inf,inf,1,1,1,1,2,0,2,2,1,1,0
1454324000,1688000,47.3977508,8.5456074,0.13223442,-0.18174562,-1.7075261,-0.022968095,-0.0035443609,0.0,-0.009898388,0.0030507632,-0.27249384,-0.2587779,-0.059729103,-0.009160716,0.12626225,-0.01789857,-0.07496234,0.088410445,0.40818295,0.0,1.7873225,0.27249384,0.42218485,0.23424093,0.16118008,0.104093,inf,inf,inf,inf,1,1,1,1,2,0,2,2,1,1,0
1454428000,1688000,47.3977508,8.5456074,0.13143133,-0.18269826,-1.7336197,-0.022968095,-0.0035443609,0.0,-0.008838321,0.0024740861,-0.26099792,-0.2470267,-0.059729103,-0.009160716,0.12626225,-0.055867262,0.02113675,0.16178189,0.40600783,0.0,1.8134161,0.26099792,0.410296,0.23315893,0.15604651,0.10349798,inf,inf,inf,inf,1,1,1,1,2,0,2,2,1,1,0
1454524000,1688000,47.3977508,8.5456074,0.1312247,-0.18383114,-1.7574482,-0.022968095,-0.0035443609,0.0,-0.008937218,0.0024366095,-0.25717852,-0.24355623,-0.059729103,-0.009160716,0.12626225,-0.025627013,-0.024863977,0.024744308,0.40442523,0.0,1.8372446,0.25717852,0.4209933,0.23436673,0.1587187,0.10414139,inf,inf,inf,inf,1,1,1,1,2,0,2,2,1,1,0
1454628000,1688000,47.3977508,8.5456074,0.13065659,-0.18465918,-1.783235,-0.022968095,-0.0035443609,0.0,-0.007989091,0.0059208833,-0.24477533,-0.23216166,-0.059729103,-0.009160716,0.12626225,0.022148479,-0.020988692,0.04328228,0.40355262,0.0,1.8630314,0.24477533,0.4092355,0.23328303,0.15461284,0.10354838,inf,inf,inf,inf,1,1,1,1,2,0,2,2,1,1,0
1454724000,1688000,47.3977508,8.5456074,0.12981494,-0.18542889,-1.8065045,-0.022968095,-0.0035443609,0.0,-0.008274992,0.005672473,-0.23639666,-0.22509438,-0.059729103,-0.009160716,0.12626225,0.053213324,-0.022762632,0.04393514,0.4029662,0.0,1.8863009,0.23639666,0.41967532,0.23450232,0.1579472,0.104199335,inf,inf,inf,inf,1,1,1,1,2,0,2,2,1,1,0
1454828000,1688000,47.3977508,8.5456074,0.12910402,-0.18606539,-1.8300995,-0.022968095,-0.0035443609,0.0,-0.0063348976,0.0074473806,-0.22720128,-0.21637249,-0.059729103,-0.009160716,0.12626225,0.022372572,0.016565317,0.07982086,0.40285632,0.0,1.9098959,0.22720128,0.4080627,0.2334164,0.15468198,0.10360728,inf,inf,inf,inf,1,1,1,1,2,0,2,2,1,1,0
1454924000,1688000,47.3977508,8.5456074,0.1287231,-0.18688351,-1.8509057,-0.022968095,-0.0035443609,0.0,-0.0077545037,0.008851248,-0.22002634,-0.20949017,-0.059729103,-0.009160716,0.12626225,-0.010353818,-0.010568624,0.06269104,0.4028047,0.0,1.9307021,0.22002634,0.41830292,0.23462997,0.15859535,0.104257576,inf,inf,inf,inf,1,1,1,1,2,0,2,2,1,1,0
1455028000,1688000,47.3977508,8.5456074,0.12812681,-0.18756644,-1.8729273,-0.022968095,-0.0035443609,0.0,-0.007664748,0.0066540074,-0.21285602,-0.20280527,-0.059729103,-0.009160716,0.12626225,0.009158625,-0.0029502157,0.1626173,0.40290833,0.0,1.9527237,0.21285602,0.4068443,0.23355108,0.15599693,0.10367013,inf,inf,inf,inf,1,1,1,1,2,0,2,2,1,1,0
1455124000,1688000,47.3977508,8.5456074,0.12754641,-0.18861853,-1.8928162,-0.022968095,-0.0035443609,0.0,-0.006897558,0.006231032,-0.2059057,-0.19652817,-0.059729103,-0.009160716,0.12626225,-0.02839595,0.032495808,0.12202001,0.4030613,0.0,1.9726126,0.2059057,0.41694754,0.23477641,0.16043067,0.10432703,inf,inf,inf,inf,1,1,1,1,2,0,2,2,1,1,0
1455228000,1688000,47.3977508,8.5456074,0.1267548,-0.18925989,-1.913427,-0.022968095,-0.0035443609,0.0,-0.00913617,0.008226529,-0.19752802,-0.18865685,-0.059729103,-0.009160716,0.12626225,0.0119408425,0.00027286293,0.09694881,0.40297157,0.0,1.9932234,0.19752802,0.4056457,0.23368655,0.15830451,0.10373543,inf,inf,inf,inf,1,1,1,1,2,0,2,2,1,1,0
1455324000,1688000,47.3977508,8.5456074,0.12606496,-0.18968634,-1.9314744,-0.022968095,-0.0035443609,0.0,-0.007512025,0.008485727,-0.19351478,-0.1847076,-0.059729103,-0.009160716,0.12626225,0.021232583,-0.050349984,0.046987083,0.40328658,0.0,2.0112708,0.19351478,0.41567647,0.23491524,0.16317302,0.104394704,inf,inf,inf,inf,1,1,1,1,2,0,2,2,1,1,0
1455428000,1688000,47.3977508,8.5456074,0.125324,-0.18975556,-1.9501342,-0.022968095,-0.0035443609,0.0,-0.0087315105,0.011365781,-0.18725717,-0.17823869,-0.059729103,-0.009160716,0.12626225,-0.04564384,0.017252065,0.117831856,0.40327087,0.0,2.0299306,0.18725717,0.40452808,0.23383209,0.16133086,0.10380642,inf,inf,inf,inf,1,1,1,1,2,0,2,2,1,1,0
1455524000,1688000,47.3977508,8.5456074,0.1247148,-0.18962543,-1.9661204,-0.022968095,-0.0035443609,0.0,-0.008713181,0.013035286,-0.18188666,-0.17198506,-0.059729103,-0.009160716,0.12626225,-0.094190754,-0.02855651,0.049733553,0.4035151,0.0,2.0459168,0.18188666,0.41455013,0.23506397,0.16656123,0.10446749,inf,inf,inf,inf,1,1,1,1,2,0,2,2,1,1,0
1455628000,1688000,47.3977508,8.5456074,0.123832,-0.18945561,-1.9828445,-0.022968095,-0.0035443609,0.0,-0.010060504,0.011415608,-0.1772494,-0.16643453,-0.059729103,-0.009160716,0.12626225,-0.052864894,0.013012338,0.09451899,0.4036813,0.0,2.062641,0.1772494,0.40354502,0.23396997,0.1648355,0.103874154,inf,inf,inf,inf,1,1,1,1,2,0,2,2,1,1,0
1455724000,1688000,47.3977508,8.5456074,0.12278518,-0.19011676,-1.998708,-0.022968095,-0.0035443609,0.0,-0.011173244,0.008438787,-0.17438312,-0.16361655,-0.059729103,-0.009160716,0.12626225,-0.018190097,-0.0043637226,-0.009048729,0.40385282,0.0,2.0785043,0.17438312,0.4136186,0.23359549,0.1703501,0.10411458,inf,inf,inf,inf,1,1,1,1,2,0,2,2,1,1,0
1455828000,1688000,47.3977508,8.5456074,0.12168071,-0.19070478,-2.0156267,-0.022968095,-0.0035443609,0.0,-0.008983761,0.008186438,-0.16784436,-0.15737781,-0.059729103,-0.009160716,0.12626225,0.066159844,-0.017779721,0.061796043,0.4042336,0.0,2.095423,0.16784436,0.40273994,0.23412658,0.16859409,0.10394927,inf,inf,inf,inf,1,1,1,1,2,0,2,2,1,1,0
1455924000,1688000,47.3977508,8.5456074,0.12085504,-0.19137137,-2.0306652,-0.022968095,-0.0035443609,0.0,-0.007687312,0.009316874,-0.1645958,-0.15422752,-0.059729103,-0.009160716,0.12626225,-0.0011090741,0.027751459,0.051778737,0.40454152,0.0,2.1104615,0.1645958,0.41291958,0.23374347,0.17431487,0.10418581,inf,inf,inf,inf,1,1,1,1,2,0,2,2,1,1,0
1456028000,1688000,47.3977508,8.5456074,0.12005365,-0.19183286,-2.0458586,-0.022968095,-0.0035443609,0.0,-0.008347358,0.008507281,-0.15955733,-0.14857915,-0.059729103,-0.009160716,0.12626225,-0.06892334,0.10947739,0.06606895,0.40432572,0.0,2.125655,0.15955733,0.40214404,0.23427537,0.17238836,0.104019575,inf,inf,inf,inf,1,1,1,1,2,0,2,2,1,1,0
1456124000,1688000,47.3977508,8.5456074,0.11936287,-0.19236779,-2.059193,-0.022968095,-0.0035443609,0.0,-0.009484888,0.009466524,-0.15298603,-0.14141439,-0.059729103,-0.009160716,0.12626225,0.028441884,0.04450949,0.100466415,0.40413067,0.0,2.1389892,0.15298603,0.41247594,0.23390125,0.1782615,0.10425973,inf,inf,inf,inf,1,1,1,1,2,0,2,2,1,1,0
1456228000,1688000,47.3977508,8.5456074,0.11869885,-0.19257122,-2.0725412,-0.022968095,-0.0035443609,0.0,-0.007606203,0.011766282,-0.1507092,-0.13803217,-0.059729103,-0.009160716,0.12626225,0.007124246,0.0062866444,0.0274647,0.40412492,0.0,2.1523376,0.1507092,0.401775,0.23443335,0.17607251,0.10409167,inf,inf,inf,inf,1,1,1,1,2,0,2,2,1,1,0
1456324000,1688000,47.3977508,8.5456074,0.11843105,-0.19294804,-2.08532,-0.022968095,-0.0035443609,0.0,-0.0075947125,0.012231499,-0.14984572,-0.13677873,-0.059729103,-0.009160716,0.12626225,-0.038795393,0.06617278,-0.012030824,0.40411168,0.0,2.1651163,0.14984572,0.41229588,0.23405053,0.18202622,0.10432737,inf,inf,inf,inf,1,1,1,1,2,0,2,2,1,1,0
1456428000,1688000,47.3977508,8.5456074,0.1179718,-0.192863,-2.0988557,-0.022968095,-0.0035443609,0.0,-0.0070525883,0.011363361,-0.14299163,-0.12965015,-0.059729103,-0.009160716,0.12626225,0.0410368,0.048687037,0.054228116,0.40435854,0.0,2.178652,0.14299163,0.42436895,0.23430508,0.18861397,0.10473888,inf,inf,inf,inf,1,1,1,1,2,0,2,2,1,1,0
1456524000,1688000,47.3977508,8.5456074,0.11748047,-0.19277029,-2.111875,-0.022968095,-0.0035443609,0.0,-0.006807009,0.011595235,-0.14216217,-0.12958115,-0.059729103,-0.009160716,0.12626225,0.026890563,0.020241605,0.03269128,0.40437979,0.0,2.1916714,0.14216217,0.41132352,0.23417997,0.18471812,0.10434687,inf,inf,inf,inf,1,1,1,1,2,0,2,2,1,1,0
1456628000,1688000,47.3977508,8.5456074,0.11682435,-0.19323179,-2.1259785,-0.022968095,-0.0035443609,0.0,-0.00880812,0.010121359,-0.13574754,-0.12403743,-0.059729103,-0.009160716,0.12626225,0.0019403523,0.03412539,0.1664087,0.40431106,0.0,2.2057748,0.13574754,0.4235613,0.23442467,0.1912945,0.1047536,inf,inf,inf,inf,1,1,1,1,2,0,2,2,1,1,0
1456724000,1688000,47.3977508,8.5456074,0.1163124,-0.1936883,-2.1378076,-0.022968095,-0.0035443609,0.0,-0.0060745664,0.009905142,-0.13087583,-0.11950377,-0.059729103,-0.009160716,0.12626225,0.038104072,0.039708275,-0.031106172,0.40442383,0.0,2.217604,0.13087583,0.41061434,0.23429953,0.18709077,0.104361415,inf,inf,inf,inf,1,1,1,1,2,0,2,2,1,1,0
1456828000,1688000,47.3977508,8.5456074,0.116133235,-0.19446498,-2.151869,-0.022968095,-0.0035443609,0.0,-0.005117758,0.012671934,-0.12744373,-0.117751315,-0.059729103,-0.009160716,0.12626225,0.048353888,0.0014026826,0.031841915,0.4046888,0.0,2.2316654,0.12744373,0.42303497,0.23455223,0.19363475,0.104771435,inf,inf,inf,inf,1,1,1,1,2,0,2,2,1,1,0
1456924000,1688000,47.3977508,8.5456074,0.11616222,-0.19491647,-2.163387,-0.022968095,-0.0035443609,0.0,-0.0062941085,0.014574371,-0.12072845,-0.11155881,-0.059729103,-0.009160716,0.12626225,-0.04189921,0.056373324,0.05932245,0.40470922,0.0,2.2431834,0.12072845,0.41014597,0.2344266,0.18910325,0.10437863,inf,inf,inf,inf,1,1,1,1,2,0,2,2,1,1,0
1457028000,1688000,47.3977508,8.5456074,0.1165163,-0.19581,-2.175866,-0.022968095,-0.0035443609,0.0,-0.00537493,0.015108774,-0.11859987,-0.1103968,-0.059729103,-0.009160716,0.12626225,0.024810722,0.008044111,0.04038587,0.4047333,0.0,2.2556622,0.11859987,0.42275774,0.2346697,0.19561186,0.104784146,inf,inf,inf,inf,1,1,1,1,2,0,2,2,1,1,0
1457124000,1688000,47.3977508,8.5456074,0.11660169,-0.19627471,-2.1878252,-0.022968095,-0.0035443609,0.0,-0.006902481,0.014263281,-0.11215688,-0.105548866,-0.059729103,-0.009160716,0.12626225,0.04677814,-0.016828418,0.04760548,0.40465513,0.0,2.2676215,0.11215688,0.40989122,0.23454404,0.19072957,0.1043912,inf,inf,inf,inf,1,1,1,1,2,0,2,2,1,1,0
1457228000,1688000,47.3977508,8.5456074,0.1166406,-0.19710301,-2.2004669,-0.022968095,-0.0035443609,0.0,-0.006598558,0.013198201,-0.107450046,-0.10263747,-0.059729103,-0.009160716,0.12626225,0.11057535,-0.025174484,0.009379349,0.40473905,0.0,2.2802632,0.107450046,0.42269424,0.23480387,0.19718754,0.10480402,inf,inf,inf,inf,1,1,1,1,2,0,2,2,1,1,0
1457324000,1688000,47.3977508,8.5456074,0.11677636,-0.19786054,-2.212018,-0.022968095,-0.0035443609,0.0,-0.0074393996,0.012041378,-0.103691034,-0.10055758,-0.059729103,-0.009160716,0.12626225,0.022253595,0.02516943,0.08830148,0.40481335,0.0,2.2918143,0.103691034,0.4098187,0.23466884,0.1919924,0.10440663,inf,inf,inf,inf,1,1,1,1,2,0,2,2,1,1,0
1457428000,1688000,47.3977508,8.5456074,0.11741653,-0.19951169,-2.2248883,-0.022968095,-0.0035443609,0.0,-0.008052556,0.013775107,-0.095932886,-0.09537316,-0.059729103,-0.009160716,0.12626225,0.0064460468,0.062192712,0.11623371,0.404751,0.0,2.3046846,0.095932886,0.4228061,0.23492797,0.19836035,0.10481898,inf,inf,inf,inf,1,1,1,1,2,0,2,2,1,1,0
1457524000,1688000,47.3977508,8.5456074,0.1175491,-0.20046435,-2.2359712,-0.022968095,-0.0035443609,0.0,-0.0098298825,0.013745174,-0.09281677,-0.09418068,-0.059729103,-0.009160716,0.12626225,0.015549259,0.020674337,-0.018738208,0.40473047,0.0,2.3157675,0.09281677,0.4098967,0.23480172,0.1928878,0.10442542,inf,inf,inf,inf,1,1,1,1,2,0,2,2,1,1,0
1457628000,1688000,47.3977508,8.5456074,0.11728625,-0.20147787,-2.2482946,-0.022968095,-0.0035443609,0.0,-0.013869343,0.015278596,-0.085611574,-0.0894978,-0.059729103,-0.009160716,0.12626225,-0.008554194,0.0006321479,0.16429181,0.40455228,0.0,2.328091,0.085611574,0.42305604,0.23505972,0.19913341,0.104837105,inf,inf,inf,inf,1,1,1,1,2,0,2,2,1,1,0
1457724000,1688000,47.3977508,8.5456074,0.11663806,-0.20195499,-2.2588158,-0.022968095,-0.0035443609,0.0,-0.0149119375,0.014121785,-0.07933071,-0.08520208,-0.059729103,-0.009160716,0.12626225,0.037617724,0.01867512,0.022072343,0.40439656,0.0,2.338612,0.07933071,0.41009313,0.2349242,0.19341815,0.1044395,inf,inf,inf,inf,1,1,1,1,2,0,2,2,1,1,0
1457828000,1688000,47.3977508,8.5456074,0.11624657,-0.20274833,-2.2695396,-0.022968095,-0.0035443609,0.0,-0.009829013,0.012649175,-0.07558508,-0.08385607,-0.059729103,-0.009160716,0.12626225,-0.005140624,0.097863145,0.0686068,0.4045546,0.0,2.349336,0.07558508,0.42235476,0.23453753,0.19907792,0.10465511,inf,inf,inf,inf,1,1,1,1,2,0,2,2,1,1,0
1457924000,1688000,47.3977508,8.5456074,0.11622797,-0.20321395,-2.280067,-0.022968095,-0.0035443609,0.0,-0.0076347883,0.013232343,-0.07157782,-0.08214802,-0.059729103,-0.009160716,0.12626225,-0.02215219,0.04411744,0.04598405,0.40471375,0.0,2.3598633,0.07157782,0.40937743,0.23441352,0.1931516,0.10426189,inf,inf,inf,inf,1,1,1,1,2,0,2,2,1,1,0
1458028000,1688000,47.3977508,8.5456074,0.1171412,-0.2041618,-2.2914088,-0.022968095,-0.0035443609,0.0,-0.009085605,0.014266676,-0.065519474,-0.07873749,-0.059729103,-0.009160716,0.12626225,-0.022428654,-0.03817028,0.0044461335,0.40466496,0.0,2.371205,0.065519474,0.42276603,0.23470078,0.19919708,0.10468729,inf,inf,inf,inf,1,1,1,1,2,0,2,2,1,1,0
1458124000,1688000,47.3977508,8.5456074,0.11791038,-0.20435701,-2.3009834,-0.022968095,-0.0035443609,0.0,-0.0096664615,0.016622633,-0.061891593,-0.076850675,-0.059729103,-0.009160716,0.12626225,0.09041911,0.074449316,0.080559395,0.4044149,0.0,2.3807797,0.061891593,0.4098157,0.23301409,0.19316715,0.10389386,inf,inf,inf,inf,1,1,1,1,2,0,2,2,1,1,0
1458228000,1688000,47.3977508,8.5456074,0.120045625,-0.20451987,-2.3109689,-0.022968095,-0.0035443609,0.0,-0.0075610606,0.016526276,-0.056931607,-0.07353924,-0.059729103,-0.009160716,0.12626225,0.022194419,-0.039419718,0.16160494,0.4043863,0.0,2.3907652,0.056931607,0.42333025,0.23491265,0.19908178,0.104742385,inf,inf,inf,inf,1,1,1,1,2,0,2,2,1,1,0
1458324000,1688000,47.3977508,8.5456074,0.12133844,-0.20441523,-2.3198698,-0.022968095,-0.0035443609,0.0,-0.009702381,0.017231168,-0.053233184,-0.07132922,-0.059729103,-0.009160716,0.12626225,-0.036456376,0.031745613,0.020903533,0.40435174,0.0,2.399666,0.053233184,0.4102866,0.23321714,0.19289528,0.1039445,inf,inf,inf,inf,1,1,1,1,2,0,2,2,1,1,0
1458428000,1688000,47.3977508,8.5456074,0.122371934,-0.20444763,-2.3280287,-0.022968095,-0.0035443609,0.0,-0.010407175,0.016497642,-0.047665022,-0.066275775,-0.059729103,-0.009160716,0.12626225,0.04980948,-0.04259385,-0.022201797,0.4044904,0.0,2.407825,0.047665022,0.42390472,0.23510683,0.19870484,0.10478773,inf,inf,inf,inf,1,1,1,1,2,0,2,2,1,1,0
1458524000,1688000,47.3977508,8.5456074,0.122852154,-0.20427313,-2.3356688,-0.022968095,-0.0035443609,0.0,-0.012673426,0.016482418,-0.047158558,-0.06649817,-0.059729103,-0.009160716,0.12626225,-0.072168216,-0.011446314,0.01416169,0.4046006,0.0,2.415465,0.047158558,0.41076842,0.23340346,0.1923935,0.103986144,inf,inf,inf,inf,1,1,1,1,2,0,2,2,1,1,0
1458628000,1688000,47.3977508,8.5456074,0.12308027,-0.2040463,-2.344097,-0.022968095,-0.0035443609,0.0,-0.012633498,0.017749373,-0.04272957,-0.06322374,-0.059729103,-0.009160716,0.12626225,-0.025837878,-0.017951312,0.123654485,0.4043989,0.0,2.4238932,0.04272957,0.4244678,0.23368996,0.19810124,0.10440746,inf,inf,inf,inf,1,1,1,1,2,0,2,2,1,1,0
1458724000,1688000,47.3977508,8.5456074,0.123410486,-0.20361513,-2.3527749,-0.022968095,-0.0035443609,0.0,-0.012136235,0.017198067,-0.03937047,-0.062147565,-0.059729103,-0.009160716,0.12626225,0.043638688,0.06677589,0.030866822,0.40448278,0.0,2.4325712,0.03937047,0.41124275,0.23359029,0.19171849,0.104026936,inf,inf,inf,inf,1,1,1,1,2,0,2,2,1,1,0
1458828000,1688000,47.3977508,8.5456074,0.124791004,-0.20321941,-2.362604,-0.022968095,-0.0035443609,0.0,-0.01126879,0.018035274,-0.035296008,-0.061085433,-0.059729103,-0.009160716,0.12626225,-0.015431352,-0.08825612,0.09440071,0.40439856,0.0,2.4424002,0.035296008,0.42500305,0.23387301,0.19730677,0.10444605,inf,inf,inf,inf,1,1,1,1,2,0,2,2,1,1,0
1458924000,1688000,47.3977508,8.5456074,0.12586951,-0.20275189,-2.3708453,-0.022968095,-0.0035443609,0.0,-0.01025315,0.016926717,-0.029671209,-0.05759236,-0.059729103,-0.009160716,0.12626225,0.0027007335,0.022766221,0.09877327,0.40420926,0.0,2.4506416,0.029671209,0.41169626,0.23377855,0.1908576,0.10406734,inf,inf,inf,inf,1,1,1,1,2,0,2,2,1,1,0
1459028000,1688000,47.3977508,8.5456074,0.12758207,-0.20255987,-2.380039,-0.022968095,-0.0035443609,0.0,-0.01321018,0.016919103,-0.027022948,-0.05763306,-0.059729103,-0.009160716,0.12626225,0.02486338,0.027879344,0.0154850995,0.40440184,0.0,2.4598353,0.027022948,0.42549652,0.23405722,0.19634154,0.104484275,inf,inf,inf,inf,1,1,1,1,2,0,2,2,1,1,0
1459124000,1688000,47.3977508,8.5456074,0.12843718,-0.2018455,-2.388117,-0.022968095,-0.0035443609,0.0,-0.016849639,0.017496902,-0.022613244,-0.05533402,-0.059729103,-0.009160716,0.12626225,-0.019307582,0.04661266,0.12505984,0.40444803,0.0,2.4679134,0.022613244,0.41211662,0.23395053,0.18986219,0.10409971,inf,inf,inf,inf,1,1,1,1,2,0,2,2,1,1,0
1459228000,1688000,47.3977508,8.5456074,0.129173,-0.2005103,-2.3969197,-0.022968095,-0.0035443609,0.0,-0.018520454,0.017096713,-0.015771689,-0.05124334,-0.059729103,-0.009160716,0.12626225,0.061704222,-0.0668837,0.022918915,0.4044578,0.0,2.476716,0.015771689,0.42593843,0.23422566,0.19525774,0.10451497,inf,inf,inf,inf,1,1,1,1,2,0,2,2,1,1,0
1459324000,1688000,47.3977508,8.5456074,0.12938498,-0.19921556,-2.405482,-0.022968095,-0.0035443609,0.0,-0.019678595,0.017647045,-0.011827739,-0.05044792,-0.059729103,-0.009160716,0.12626225,-0.018516248,-0.016798751,0.04104245,0.40436417,0.0,2.4852784,0.011827739,0.41249543,0.23412448,0.18877088,0.10413275,inf,inf,inf,inf,1,1,1,1,2,0,2,2,1,1,0
1459428000,1688000,47.3977508,8.5456074,0.13008347,-0.1977366,-2.4138772,-0.022968095,-0.0035443609,0.0,-0.01668417,0.017896853,-0.0074707945,-0.04867083,-0.059729103,-0.009160716,0.12626225,0.08765269,-0.003242866,0.0035353003,0.40445068,0.0,2.4936736,0.0074707945,0.42632172,0.23439585,0.19405751,0.10454623,inf,inf,inf,inf,1,1,1,1,2,0,2,2,1,1,0
1459524000,1688000,47.3977508,8.5456074,0.13042365,-0.19636557,-2.421056,-0.022968095,-0.0035443609,0.0,-0.017135665,0.016688358,-0.003632577,-0.046810366,-0.059729103,-0.009160716,0.12626225,0.006979018,0.008285403,-0.022927297,0.40432635,0.0,2.5008523,0.003632577,0.41282606,0.23429209,0.18760103,0.1041629,inf,inf,inf,inf,1,1,1,1,2,0,2,2,1,1,0
1459628000,1688000,47.3977508,8.5456074,0.13084082,-0.19533074,-2.4289343,-0.022968095,-0.0035443609,0.0,-0.017381938,0.014492168,-0.00026656964,-0.045877438,-0.059729103,-0.009160716,0.12626225,-0.12405821,0.011492163,-0.020195728,0.40414363,0.0,2.5087306,0.00026656964,0.42664224,0.23456904,0.19280165,0.10457896,inf,inf,inf,inf,1,1,1,1,2,0,2,2,1,1,0
1459724000,1688000,47.3977508,8.5456074,0.13083269,-0.19446805,-2.4351583,-0.022968095,-0.0035443609,0.0,-0.018341634,0.013932649,0.0028583545,-0.043920103,-0.059729103,-0.009160716,0.12626225,0.035037883,0.035576694,0.040406357,0.40411863,0.0,2.5149546,-0.0028583545,0.41310513,0.23446216,0.18638086,0.10419414,inf,inf,inf,inf,1,1,1,1,2,0,2,2,1,1,0
1459828000,1688000,47.3977508,8.5456074,0.13103645,-0.19391096,-2.4413533,-0.022968095,-0.0035443609,0.0,-0.017067729,0.012918658,0.005371736,-0.0423356,-0.059729103,-0.009160716,0.12626225,-0.07444129,-0.06473229,0.100987025,0.40430915,0.0,2.5211496,-0.005371736,0.42689866,0.23472703,0.19151482,0.10460501,inf,inf,inf,inf,1,1,1,1,2,0,2,2,1,1,0
1459924000,1688000,47.3977508,8.5456074,0.13087747,-0.19314188,-2.4461312,-0.022968095,-0.0035443609,0.0,-0.018541716,0.012620654,0.008595525,-0.039317682,-0.059729103,-0.009160716,0.12626225,-0.057671197,0.035499875,0.031185335,0.4042789,0.0,2.5259275,-0.008595525,0.4133309,0.2346177,0.1851508,0.104219235,inf,inf,inf,inf,1,1,1,1,2,0,2,2,1,1,0
1460028000,1688000,47.3977508,8.5456074,0.1307582,-0.19188163,-2.4510055,-0.022968095,-0.0035443609,0.0,-0.019774012,0.01411949,0.012046585,-0.03603945,-0.059729103,-0.009160716,0.12626225,0.012604221,0.004943388,0.007724389,0.40433657,0.0,2.5308018,-0.012046585,0.42709154,0.2348883,0.1902049,0.10463286,inf,inf,inf,inf,1,1,1,1,2,0,2,2,1,1,0
1460124000,1688000,47.3977508,8.5456074,0.1301904,-0.19093865,-2.455606,-0.022968095,-0.0035443609,0.0,-0.019809717,0.012853337,0.012196169,-0.03630906,-0.059729103,-0.009160716,0.12626225,-0.04983774,-0.04845326,0.070777714,0.40437624,0.0,2.5354023,-0.012196169,0.4135034,0.23477627,0.18391615,0.10424601,inf,inf,inf,inf,1,1,1,1,2,0,2,2,1,1,0
1460228000,1688000,47.3977508,8.5456074,0.12983805,-0.19080003,-2.4605403,-0.022968095,-0.0035443609,0.0,-0.02045609,0.010574776,0.013781524,-0.03530307,-0.059729103,-0.009160716,0.12626225,-0.09696913,0.058325183,-0.020940786,0.404291,0.0,2.5403366,-0.013781524,0.42722195,0.23504412,0.18891172,0.10465874,inf,inf,inf,inf,1,1,1,1,2,0,2,2,1,1,0
1460324000,1688000,47.3977508,8.5456074,0.12933744,-0.19037817,-2.465371,-0.022968095,-0.0035443609,0.0,-0.021961858,0.011794278,0.016444573,-0.03352903,-0.059729103,-0.009160716,0.12626225,-0.05470877,-0.012292276,0.07764156,0.40431592,0.0,2.5451672,-0.016444573,0.41362354,0.23332553,0.18269423,0.103851125,inf,inf,inf,inf,1,1,1,1,2,0,2,2,1,1,0
1460428000,1688000,47.3977508,8.5456074,0.1292255,-0.18987279,-2.4714508,-0.022968095,-0.0035443609,0.0,-0.023331491,0.010780015,0.016417312,-0.035417344,-0.059729103,-0.009160716,0.12626225,0.0004567555,0.030152544,0.0025164334,0.40460104,0.0,2.5512471,-0.016417312,0.4272931,0.23520344,0.18763645,0.10468672,inf,inf,inf,inf,1,1,1,1,2,0,2,2,1,1,0
1460524000,1688000,47.3977508,8.5456074,0.12869456,-0.18938445,-2.476572,-0.022968095,-0.0035443609,0.0,-0.023463856,0.010517983,0.020909436,-0.032194883,-0.059729103,-0.009160716,0.12626225,0.005360656,0.010571436,0.08666701,0.40465957,0.0,2.5563684,-0.020909436,0.41369364,0.2334708,0.18149959,0.103873625,inf,inf,inf,inf,1,1,1,1,2,0,2,2,1,1,0
1460628000,1688000,47.3977508,8.5456074,0.12833011,-0.18940502,-2.4818087,-0.022968095,-0.0035443609,0.0,-0.024092576,0.00972998,0.023140736,-0.03123265,-0.059729103,-0.009160716,0.12626225,0.07207202,0.06803079,0.08447281,0.4042992,0.0,2.561605,-0.023140736,0.42730838,0.2353493,0.18638507,0.104709245,inf,inf,inf,inf,1,1,1,1,2,0,2,2,1,1,0
1460724000,1688000,47.3977508,8.5456074,0.12777969,-0.18910949,-2.4857366,-0.022968095,-0.0035443609,0.0,-0.024217367,0.009940571,0.026610773,-0.02815338,-0.059729103,-0.009160716,0.12626225,0.0010327712,0.10776351,0.06475951,0.40449277,0.0,2.565533,-0.026610773,0.41371623,0.2336205,0.1803288,0.10389854,inf,inf,inf,inf,1,1,1,1,2,0,2,2,1,1,0
1460828000,1688000,47.3977508,8.5456074,0.12796178,-0.18867096,-2.4897008,-0.022968095,-0.0035443609,0.0,-0.022366317,0.009767221,0.026775977,-0.028237142,-0.059729103,-0.009160716,0.12626225,-0.11629368,-0.010078239,0.10177027,0.40484577,0.0,2.569497,-0.026775977,0.42727113,0.23549943,0.18516582,0.1047341,inf,inf,inf,inf,1,1,1,1,2,0,2,2,1,1,0
1460924000,1688000,47.3977508,8.5456074,0.1279435,-0.18814288,-2.4934986,-0.022968095,-0.0035443609,0.0,-0.024424601,0.009894099,0.02921665,-0.02636204,-0.059729103,-0.009160716,0.12626225,-0.07084533,-0.0443438,0.008194706,0.40485737,0.0,2.5732949,-0.02921665,0.41369373,0.23376596,0.17921431,0.10392221,inf,inf,inf,inf,1,1,1,1,2,0,2,2,1,1,0
1461028000,1688000,47.3977508,8.5456074,0.12886548,-0.18752123,-2.497709,-0.022968095,-0.0035443609,0.0,-0.024626378,0.0097119175,0.029990671,-0.026314449,-0.059729103,-0.009160716,0.12626225,0.024377137,0.0063992175,0.019139608,0.4047658,0.0,2.5775054,-0.029990671,0.42718637,0.23402698,0.18401577,0.10433178,inf,inf,inf,inf,1,1,1,1,2,0,2,2,1,1,0
1461124000,1688000,47.3977508,8.5456074,0.12928414,-0.18664701,-2.5008361,-0.022968095,-0.0035443609,0.0,-0.02549897,0.00966093,0.03144721,-0.024851028,-0.059729103,-0.009160716,0.12626225,0.023932545,-0.046040323,0.009378417,0.40476906,0.0,2.5806324,-0.03144721,0.41363016,0.2339162,0.17816211,0.10394857,inf,inf,inf,inf,1,1,1,1,2,0,2,2,1,1,0
1461228000,1688000,47.3977508,8.5456074,0.130616,-0.18527013,-2.5037856,-0.022968095,-0.0035443609,0.0,-0.024151146,0.008327217,0.031963162,-0.024117503,-0.059729103,-0.009160716,0.12626225,0.024444142,-0.061782606,-0.053860243,0.40474322,0.0,2.583582,-0.031963162,0.4270589,0.23416626,0.18292958,0.104353584,inf,inf,inf,inf,1,1,1,1,2,0,2,2,1,1,0
1461324000,1688000,47.3977508,8.5456074,0.13170739,-0.18424185,-2.5066917,-0.022968095,-0.0035443609,0.0,-0.02473449,0.007032891,0.030936833,-0.02509768,-0.059729103,-0.009160716,0.12626225,0.01184488,-0.071127556,-0.026715918,0.40471563,0.0,2.586488,-0.030936833,0.4135299,0.23405418,0.17716604,0.10397008,inf,inf,inf,inf,1,1,1,1,2,0,2,2,1,1,0
1461428000,1688000,47.3977508,8.5456074,0.13427466,-0.18353891,-2.51012,-0.022968095,-0.0035443609,0.0,-0.02610582,0.007406474,0.033100117,-0.023089048,-0.059729103,-0.009160716,0.12626225,-0.03373566,0.046050012,0.04402082,0.40458617,0.0,2.5899162,-0.033100117,0.42689413,0.23431097,0.18191844,0.10437854,inf,inf,inf,inf,1,1,1,1,2,0,2,2,1,1,0
1461524000,1688000,47.3977508,8.5456074,0.13561714,-0.18288247,-2.512662,-0.022968095,-0.0035443609,0.0,-0.027100962,0.007947689,0.03648806,-0.019676603,-0.059729103,-0.009160716,0.12626225,-0.03567207,0.034704957,0.096537165,0.40460265,0.0,2.5924582,-0.03648806,0.41339672,0.23419724,0.17626631,0.1039946,inf,inf,inf,inf,1,1,1,1,2,0,2,2,1,1,0
1461628000,1688000,47.3977508,8.5456074,0.137172,-0.18236023,-2.5150428,-0.022968095,-0.0035443609,0.0,-0.027376862,0.006429802,0.03470001,-0.021111611,-0.059729103,-0.009160716,0.12626225,-0.013593765,0.003426729,-0.056557354,0.40455297,0.0,2.594839,-0.03470001,0.42669734,0.23445225,0.18097407,0.10440263,inf,inf,inf,inf,1,1,1,1,2,0,2,2,1,1,0
1461732000,1688000,47.3977508,8.5456074,0.13736531,-0.1819945,-2.5170767,-0.022968095,-0.0035443609,0.0,-0.028388118,0.0037785633,0.03314988,-0.021893831,-0.059729103,-0.009160716,0.12626225,-0.023516148,0.0026025486,0.04881527,0.40457866,0.0,2.596873,-0.03314988,0.44061443,0.23469687,0.18576346,0.10478738,inf,inf,inf,inf,1,1,1,1,2,0,2,2,1,1,0
1461828000,1688000,47.3977508,8.5456074,0.13723475,-0.181537,-2.5189662,-0.022968095,-0.0035443609,0.0,-0.032751277,0.0034608855,0.03653791,-0.018004252,-0.059729103,-0.009160716,0.12626225,-0.06125396,-0.023620589,0.0750767,0.40450105,0.0,2.5987625,-0.03653791,0.42507136,0.23455848,0.17930472,0.10437222,inf,inf,inf,inf,1,1,1,1,2,0,2,2,1,1,0
1461924000,1688000,47.3977508,8.5456074,0.1382816,-0.18087533,-2.521466,-0.022968095,-0.0035443609,0.0,-0.033003114,0.0032217826,0.035755258,-0.018997757,-0.059729103,-0.009160716,0.12626225,-0.0081926985,0.047160402,0.023708677,0.40438893,0.0,2.6012623,-0.035755258,0.4377386,0.23577791,0.1837016,0.10499058,inf,inf,inf,inf,1,1,1,1,2,0,2,2,1,1,0
1462028000,1688000,47.3977508,8.5456074,0.13870028,-0.18025802,-2.5238822,-0.022968095,-0.0035443609,0.0,-0.034429736,0.0029151663,0.03753611,-0.017172629,-0.059729103,-0.009160716,0.12626225,-0.03818808,0.114112176,0.05460344,0.40430224,0.0,2.6036785,-0.03753611,0.42356917,0.23465218,0.17784157,0.10433976,inf,inf,inf,inf,1,1,1,1,2,0,2,2,1,1,0
1462124000,1688000,47.3977508,8.5456074,0.1398778,-0.17973188,-2.5259724,-0.022968095,-0.0035443609,0.0,-0.03360544,0.0023990301,0.038004138,-0.016753934,-0.059729103,-0.009160716,0.12626225,-0.0065414784,0.04734075,-0.054507513,0.40437672,0.0,2.6057687,-0.038004138,0.43609476,0.23587994,0.18221538,0.104962975,inf,inf,inf,inf,1,1,1,1,2,0,2,2,1,1,0
1462228000,1688000,47.3977508,8.5456074,0.14069833,-0.17905635,-2.528874,-0.022968095,-0.0035443609,0.0,-0.035200987,0.0052358024,0.037624117,-0.01764503,-0.059729103,-0.009160716,0.12626225,-0.14384767,0.06395347,0.11265277,0.40434968,0.0,2.6086702,-0.037624117,0.4221798,0.23475122,0.17655893,0.10431328,inf,inf,inf,inf,1,1,1,1,2,0,2,2,1,1,0
1462324000,1688000,47.3977508,8.5456074,0.1426504,-0.178117,-2.5315797,-0.022968095,-0.0035443609,0.0,-0.03366282,0.00576446,0.03909294,-0.016798649,-0.059729103,-0.009160716,0.12626225,0.07349369,-0.048986457,0.026742926,0.40449327,0.0,2.611376,-0.03909294,0.43457836,0.23434447,0.18092772,0.104504585,inf,inf,inf,inf,1,1,1,1,2,0,2,2,1,1,0
1462428000,1688000,47.3977508,8.5456074,0.14421532,-0.17703766,-2.534801,-0.022968095,-0.0035443609,0.0,-0.03267595,0.0049115606,0.039841924,-0.01702516,-0.059729103,-0.009160716,0.12626225,0.0029587243,-0.027093396,0.016403383,0.40451628,0.0,2.6145973,-0.039841924,0.42089406,0.23484822,0.17546214,0.10428957,inf,inf,inf,inf,1,1,1,1,2,0,2,2,1,1,0
1462524000,1688000,47.3977508,8.5456074,0.14690922,-0.17587359,-2.5388734,-0.022968095,-0.0035443609,0.0,-0.033552147,0.005414464,0.041410517,-0.017322715,-0.059729103,-0.009160716,0.12626225,-0.021048194,-0.033830952,0.09776558,0.40462264,0.0,2.6186697,-0.041410517,0.43317956,0.2344567,0.17980984,0.104489274,inf,inf,inf,inf,1,1,1,1,2,0,2,2,1,1,0
1462628000,1688000,47.3977508,8.5456074,0.14875536,-0.1746936,-2.541673,-0.022968095,-0.0035443609,0.0,-0.03504228,0.0053630373,0.044039026,-0.015311079,-0.059729103,-0.009160716,0.12626225,0.0072251926,0.008814065,-0.038610768,0.40469876,0.0,2.6214693,-0.044039026,0.4197046,0.23496814,0.17452076,0.10427935,inf,inf,inf,inf,1,1,1,1,2,0,2,2,1,1,0
1462724000,1688000,47.3977508,8.5456074,0.15118726,-0.1735945,-2.5435534,-0.022968095,-0.0035443609,0.0,-0.035971243,0.0040602786,0.04536652,-0.01379133,-0.059729103,-0.009160716,0.12626225,0.012725423,-0.07203764,0.08380226,0.4045098,0.0,2.6233497,-0.04536652,0.43188953,0.23456514,0.17885076,0.10447555,inf,inf,inf,inf,1,1,1,1,2,0,2,2,1,1,0
1462828000,1688000,47.3977508,8.5456074,0.15304539,-0.17282636,-2.546231,-0.022968095,-0.0035443609,0.0,-0.036487978,0.00021383977,0.04362661,-0.016178407,-0.059729103,-0.009160716,0.12626225,-0.0133874705,-0.026204972,-0.03337301,0.40456593,0.0,2.6260273,-0.04362661,0.41860497,0.23346862,0.17371559,0.10384591,inf,inf,inf,inf,1,1,1,1,2,0,2,2,1,1,0
1462924000,1688000,47.3977508,8.5456074,0.15614836,-0.17236203,-2.5498924,-0.022968095,-0.0035443609,0.0,-0.034764446,-0.0026427847,0.04536485,-0.016011268,-0.059729103,-0.009160716,0.12626225,0.050128274,-0.037975773,0.021075828,0.4045958,0.0,2.6296887,-0.04536485,0.4307009,0.23467042,0.17804898,0.10446383,inf,inf,inf,inf,1,1,1,1,2,0,2,2,1,1,0
1463028000,1688000,47.3977508,8.5456074,0.15821734,-0.17174569,-2.5537677,-0.022968095,-0.0035443609,0.0,-0.037279677,-0.0010664635,0.050439924,-0.012790872,-0.059729103,-0.009160716,0.12626225,-0.015311713,0.0035386793,0.026455147,0.4046089,0.0,2.633564,-0.050439924,0.4175896,0.23516358,0.17305268,0.10424957,inf,inf,inf,inf,1,1,1,1,2,0,2,2,1,1,0
1463124000,1688000,47.3977508,8.5456074,0.16084087,-0.17010447,-2.557103,-0.022968095,-0.0035443609,0.0,-0.03775826,0.00030141405,0.04900858,-0.01556835,-0.059729103,-0.009160716,0.12626225,-0.07777572,-0.043154094,0.033764165,0.40466344,0.0,2.6368992,-0.04900858,0.42960787,0.23474889,0.17738526,0.10444439,inf,inf,inf,inf,1,1,1,1,2,0,2,2,1,1,0
1463228000,1688000,47.3977508,8.5456074,0.16271147,-0.16845997,-2.560012,-0.022968095,-0.0035443609,0.0,-0.039188147,-0.00050798676,0.05294314,-0.012379804,-0.059729103,-0.009160716,0.12626225,-0.0811317,-0.08822077,0.0903001,0.40454337,0.0,2.6398084,-0.05294314,0.4166545,0.23524304,0.17248957,0.10423258,inf,inf,inf,inf,1,1,1,1,2,0,2,2,1,1,0
1463324000,1688000,47.3977508,8.5456074,0.16554308,-0.16685823,-2.5626771,-0.022968095,-0.0035443609,0.0,-0.041638535,-0.002453111,0.054898072,-0.011420221,-0.059729103,-0.009160716,0.12626225,-0.07337537,-0.025537493,-0.0044815238,0.40424997,0.0,2.6424735,-0.054898072,0.42860478,0.23482834,0.17684384,0.10442946,inf,inf,inf,inf,1,1,1,1,2,0,2,2,1,1,0
1463428000,1688000,47.3977508,8.5456074,0.16729744,-0.16553065,-2.5645845,-0.022968095,-0.0035443609,0.0,-0.04410648,-0.0036276404,0.05581711,-0.01055797,-0.059729103,-0.009160716,0.12626225,-0.06435113,-0.009472712,0.010639428,0.40436888,0.0,2.6443808,-0.05581711,0.41579485,0.23371145,0.17204003,0.103798285,inf,inf,inf,inf,1,1,1,1,2,0,2,2,1,1,0
1463524000,1688000,47.3977508,8.5456074,0.16988757,-0.16413195,-2.565883,-0.022968095,-0.0035443609,0.0,-0.04423041,-0.004321679,0.05513815,-0.010874597,-0.059729103,-0.009160716,0.12626225,-0.09409772,0.00040283063,-0.046630386,0.40439042,0.0,2.6456792,-0.05513815,0.4276864,0.23491761,0.17640376,0.104422785,inf,inf,inf,inf,1,1,1,1,2,0,2,2,1,1,0
1463628000,1688000,47.3977508,8.5456074,0.17134383,-0.16314617,-2.5664637,-0.022968095,-0.0035443609,0.0,-0.045769557,-0.0051192497,0.055555735,-0.009319805,-0.059729103,-0.009160716,0.12626225,-0.083642766,-0.008887879,0.019586643,0.40443957,0.0,2.64626,-0.055555735,0.41500598,0.23379144,0.1717074,0.10378972,inf,inf,inf,inf,1,1,1,1,2,0,2,2,1,1,0
1463724000,1688000,47.3977508,8.5456074,0.17314799,-0.16263017,-2.5673413,-0.022968095,-0.0035443609,0.0,-0.04662413,-0.0056210365,0.054550145,-0.009672955,-0.059729103,-0.009160716,0.12626225,-0.07498071,0.0034511948,0.050374303,0.40428945,0.0,2.6471376,-0.054550145,0.42684862,0.23499955,0.17608604,0.10441643,inf,inf,inf,inf,1,1,1,1,2,0,2,2,1,1,0
1463828000,1688000,47.3977508,8.5456074,0.17362173,-0.16227406,-2.5685952,-0.022968095,-0.0035443609,0.0,-0.04878682,-0.007736806,0.056293033,-0.0076682237,-0.059729103,-0.009160716,0.12626225,-0.07179986,-0.086858734,0.08211284,0.40453535,0.0,2.6483915,-0.056293033,0.41428563,0.23388176,0.17147441,0.103789106,inf,inf,inf,inf,1,1,1,1,2,0,2,2,1,1,0
1463932000,1688000,47.3977508,8.5456074,0.17428401,-0.16214761,-2.5704937,-0.022968095,-0.0035443609,0.0,-0.051222913,-0.009200672,0.055588763,-0.008924726,-0.059729103,-0.009160716,0.12626225,-0.016484693,-0.056779742,0.022529623,0.40438348,0.0,2.65029,-0.055588763,0.42709413,0.235735,0.1762339,0.10461198,inf,inf,inf,inf,1,1,1,1,2,0,2,2,1,1,0
1464028000,1688000,47.3977508,8.5456074,0.17394762,-0.16223027,-2.571294,-0.022968095,-0.0035443609,0.0,-0.05371022,-0.010628743,0.05571872,-0.008175392,-0.059729103,-0.009160716,0.12626225,-0.025422914,-0.034724258,0.030945985,0.40434656,0.0,2.6510904,-0.05571872,0.41363117,0.23397346,0.1713062,0.10379207,inf,inf,inf,inf,1,1,1,1,2,0,2,2,1,1,0
1464124000,1688000,47.3977508,8.5456074,0.17466508,-0.16202085,-2.572128,-0.022968095,-0.0035443609,0.0,-0.054369863,-0.00898809,0.056743633,-0.0067343423,-0.059729103,-0.009160716,0.12626225,-0.060703415,0.022779789,0.08329562,0.4044887,0.0,2.6519244,-0.056743633,0.42540014,0.23518561,0.17571558,0.1044229,inf,inf,inf,inf,1,1,1,1,2,0,2,2,1,1,0
1464228000,1688000,47.3977508,8.5456074,0.17434472,-0.16163859,-2.5731673,-0.022968095,-0.0035443609,0.0,-0.055079248,-0.008708867,0.055913307,-0.007344163,-0.059729103,-0.009160716,0.12626225,-0.1000564,-0.061243158,-0.0022454185,0.4044942,0.0,2.6529636,-0.055913307,0.4130386,0.23407523,0.17121625,0.10380222,inf,inf,inf,inf,1,1,1,1,2,0,2,2,1,1,0
1464324000,1688000,47.3977508,8.5456074,0.17528826,-0.16075334,-2.5754645,-0.022968095,-0.0035443609,0.0,-0.053813964,-0.010305569,0.05641414,-0.007865069,-0.059729103,-0.009160716,0.12626225,-0.0070281452,-0.0058589857,0.09394436,0.4045565,0.0,2.6552608,-0.05641414,0.42478153,0.23528075,0.17563374,0.10443095,inf,inf,inf,inf,1,1,1,1,2,0,2,2,1,1,0
1464428000,1688000,47.3977508,8.5456074,0.17542782,-0.15998054,-2.577461,-0.022968095,-0.0035443609,0.0,-0.05311353,-0.009553459,0.058977902,-0.0060258927,-0.059729103,-0.009160716,0.12626225,-0.054653347,0.016900804,0.066807486,0.4047076,0.0,2.6572573,-0.058977902,0.4125051,0.23416983,0.17118764,0.10381158,inf,inf,inf,inf,1,1,1,1,2,0,2,2,1,1,0
1464524000,1688000,47.3977508,8.5456074,0.17664813,-0.1585676,-2.5790179,-0.022968095,-0.0035443609,0.0,-0.05261964,-0.00757676,0.05982554,-0.0056627076,-0.059729103,-0.009160716,0.12626225,0.009175535,0.00585175,0.020406207,0.40458086,0.0,2.6588142,-0.05982554,0.42422837,0.23538648,0.17560932,0.104445994,inf,inf,inf,inf,1,1,1,1,2,0,2,2,1,1,0
1464628000,1688000,47.3977508,8.5456074,0.17676611,-0.15704197,-2.5799115,-0.022968095,-0.0035443609,0.0,-0.05338888,-0.006841343,0.05806845,-0.0070429556,-0.059729103,-0.009160716,0.12626225,-0.066022746,-0.032956988,-0.019280238,0.404596,0.0,2.6597078,-0.05806845,0.412028,0.23427439,0.17118669,0.10382716,inf,inf,inf,inf,1,1,1,1,2,0,2,2,1,1,0
1464724000,1688000,47.3977508,8.5456074,0.17757079,-0.15503149,-2.580353,-0.022968095,-0.0035443609,0.0,-0.053023964,-0.00812566,0.060716636,-0.003785839,-0.059729103,-0.009160716,0.12626225,-0.009481613,-0.046992615,0.01471769,0.40455538,0.0,2.6601493,-0.060716636,0.42373663,0.23386912,0.17563297,0.104035415,inf,inf,inf,inf,1,1,1,1,2,0,2,2,1,1,0
1464828000,1688000,47.3977508,8.5456074,0.17751186,-0.15339476,-2.5804539,-0.022968095,-0.0035443609,0.0,-0.05178323,-0.00851219,0.057215445,-0.006336845,-0.059729103,-0.009160716,0.12626225,-0.01419118,0.0026049528,0.037962567,0.40449846,0.0,2.6602502,-0.057215445,0.41160327,0.23438086,0.17124753,0.1038453,inf,inf,inf,inf,1,1,1,1,2,0,2,2,1,1,0
1464924000,1688000,47.3977508,8.5456074,0.17819488,-0.15174282,-2.5821247,-0.022968095,-0.0035443609,0.0,-0.053939164,-0.010718474,0.05730439,-0.0068140053,-0.059729103,-0.009160716,0.12626225,-0.03184882,-0.13319989,0.045418736,0.40455315,0.0,2.661921,-0.05730439,0.423303,0.23398426,0.17570882,0.10405825,inf,inf,inf,inf,1,1,1,1,2,0,2,2,1,1,0
1465028000,1688000,47.3977508,8.5456074,0.17787397,-0.15060222,-2.5842006,-0.022968095,-0.0035443609,0.0,-0.05546488,-0.011457652,0.059561267,-0.005624692,-0.059729103,-0.009160716,0.12626225,0.0032666575,0.03947127,-0.03507826,0.40438133,0.0,2.663997,-0.059561267,0.41122845,0.23448816,0.17135556,0.10386506,inf,inf,inf,inf,1,1,1,1,2,0,2,2,1,1,0
1465124000,1688000,47.3977508,8.5456074,0.17894089,-0.14937727,-2.5856621,-0.022968095,-0.0035443609,0.0,-0.05348725,-0.010156527,0.063165516,-0.0025651942,-0.059729103,-0.009160716,0.12626225,-0.005130896,0.028473068,0.036480833,0.40433806,0.0,2.6654584,-0.063165516,0.4229245,0.23409186,0.17581938,0.10407901,inf,inf,inf,inf,1,1,1,1,2,0,2,2,1,1,0
1465228000,1688000,47.3977508,8.5456074,0.1790017,-0.14838268,-2.5860796,-0.022968095,-0.0035443609,0.0,-0.05398801,-0.00958529,0.06299346,-0.0023990022,-0.059729103,-0.009160716,0.12626225,-0.05046088,-0.09905725,-0.0086482605,0.40422112,0.0,2.665876,-0.06299346,0.41090155,0.23460552,0.17146327,0.10389045,inf,inf,inf,inf,1,1,1,1,2,0,2,2,1,1,0
1465324000,1688000,47.3977508,8.5456074,0.17974314,-0.14744976,-2.5855823,-0.022968095,-0.0035443609,0.0,-0.054331586,-0.009391866,0.060857907,-0.003277706,-0.059729103,-0.009160716,0.12626225,-0.07238086,0.07268402,0.04096515,0.4042964,0.0,2.6653786,-0.060857907,0.42259663,0.23420903,0.17593639,0.10410487,inf,inf,inf,inf,1,1,1,1,2,0,2,2,1,1,0
1465428000,1688000,47.3977508,8.5456074,0.17922725,-0.14671639,-2.5853512,-0.022968095,-0.0035443609,0.0,-0.05650403,-0.008775107,0.059065424,-0.0039549335,-0.059729103,-0.009160716,0.12626225,0.06929955,0.011370789,-0.038990747,0.40451163,0.0,2.6651475,-0.059065424,0.41061783,0.23311512,0.17159985,0.10349589,inf,inf,inf,inf,1,1,1,1,2,0,2,2,1,1,0
1465524000,1688000,47.3977508,8.5456074,0.17960152,-0.14601596,-2.5844069,-0.022968095,-0.0035443609,0.0,-0.05419259,-0.010991685,0.059593543,-0.0017059322,-0.059729103,-0.009160716,0.12626225,-0.018270263,0.028400894,0.020671634,0.40434253,0.0,2.6642032,-0.059593543,0.42231646,0.23432742,0.17611712,0.10413213,inf,inf,inf,inf,1,1,1,1,2,0,2,2,1,1,0
1465628000,1688000,47.3977508,8.5456074,0.17883179,-0.14565954,-2.583026,-0.022968095,-0.0035443609,0.0,-0.055141147,-0.010883909,0.058570538,-0.0007049935,-0.059729103,-0.009160716,0.12626225,-0.06077517,0.06683989,-0.044113953,0.4045913,0.0,2.6628222,-0.058570538,0.4103754,0.23324005,0.17178334,0.10352645,inf,inf,inf,inf,1,1,1,1,2,0,2,2,1,1,0
1465724000,1688000,47.3977508,8.5456074,0.17851613,-0.14514649,-2.5820096,-0.022968095,-0.0035443609,0.0,-0.056247395,-0.009623915,0.05400388,-0.003649091,-0.059729103,-0.009160716,0.12626225,-0.08382652,-0.07000702,0.044553537,0.4046213,0.0,2.6618059,-0.05400388,0.4220811,0.23444594,0.17630216,0.10415987,inf,inf,inf,inf,1,1,1,1,2,0,2,2,1,1,0
1465828000,1688000,47.3977508,8.5456074,0.17728606,-0.14504363,-2.5816574,-0.022968095,-0.0035443609,0.0,-0.05645097,-0.012872571,0.05186216,-0.004641649,-0.059729103,-0.009160716,0.12626225,-0.004898451,-0.011738909,0.022581777,0.40474245,0.0,2.6614537,-0.05186216,0.41017166,0.23335704,0.1719705,0.103553854,inf,inf,inf,inf,1,1,1,1,2,0,2,2,1,1,0
1465924000,1688000,47.3977508,8.5456074,0.17731951,-0.14497155,-2.5818589,-0.022968095,-0.0035443609,0.0,-0.054185167,-0.0124419695,0.054030187,-0.0020596199,-0.059729103,-0.009160716,0.12626225,-0.014168129,-0.03326299,0.103648745,0.40472472,0.0,2.6616552,-0.054030187,0.42188746,0.23457406,0.17651758,0.104192205,inf,inf,inf,inf,1,1,1,1,2,0,2,2,1,1,0
1466028000,1688000,47.3977508,8.5456074,0.1764526,-0.14504741,-2.5819392,-0.022968095,-0.0035443609,0.0,-0.054554984,-0.0117022665,0.052580282,-0.0030488272,-0.059729103,-0.009160716,0.12626225,-0.0090797255,-0.031031266,-0.10121799,0.40457752,0.0,2.6617355,-0.052580282,0.410004,0.23348293,0.1721725,0.10358537,inf,inf,inf,inf,1,1,1,1,2,0,2,2,1,1,0
1466124000,1688000,47.3977508,8.5456074,0.17658527,-0.14471298,-2.5820963,-0.022968095,-0.0035443609,0.0,-0.051500347,-0.010408802,0.05022562,-0.0048677986,-0.059729103,-0.009160716,0.12626225,0.08177598,0.029722856,0.07449276,0.40440673,0.0,2.6618927,-0.05022562,0.42173147,0.23469359,0.17670508,0.10422084,inf,inf,inf,inf,1,1,1,1,2,0,2,2,1,1,0
