timestamp,roll_body,pitch_body,yaw_body,yaw_sp_move_rate,q_d[0],q_d[1],q_d[2],q_d[3],thrust_body[0],thrust_body[1],thrust_body[2],q_d_valid,roll_reset_integral,pitch_reset_integral,yaw_reset_integral,fw_control_yaw,apply_flaps
1450044000,0.016933642,-0.15366414,0.4063488,0.0,0.9763754,0.023755433,-0.073471636,0.20181346,0.0,0.0,-0.12144824,1,0,0,0,0,0
1450136000,-0.0051478962,-0.022565613,0.4058691,0.0,0.97941965,-0.00024703407,-0.011569736,0.20150259,0.0,0.0,-0.12003215,1,0,0,0,0,0
1450228000,-0.0015644048,-0.00625717,0.4058691,0.0,0.9794747,-0.0001355994,-0.0032220264,0.20154111,0.0,0.0,-0.14671473,1,0,0,0,0,0
1450340000,0.0020776554,-0.000766644,0.4058691,0.0,0.9794787,0.0010947664,-0.0001660858,0.20154482,0.0,0.0,-0.23135862,1,0,0,0,0,0
1450436000,0.0015481592,-0.00012834802,0.4058691,0.0,0.979479,0.00077112886,9.31544e-05,0.20154452,0.0,0.0,-0.3054706,1,0,0,0,0,0
1450548000,0.00042871188,0.0012892447,0.4058691,0.0,0.9794792,8.003706e-05,0.00067459646,0.20154434,0.0,0.0,-0.39142525,1,0,0,0,0,0
1450640000,0.0011796177,0.0017310289,0.4058691,0.0,0.97947896,0.0004032657,0.000966626,0.20154396,0.0,0.0,-0.45858708,1,0,0,0,0,0
1450732000,0.0013864919,0.0019352701,0.4058691,0.0,0.9794788,0.0004839983,0.0010874982,0.20154375,0.0,0.0,-0.52790976,1,0,0,0,0,0
1450844000,0.0025915594,0.0025674521,0.4058691,0.0,0.97947806,0.0010104604,0.0015185388,0.20154259,0.0,0.0,-0.60991716,1,0,0,0,0,0
1450940000,0.0014645087,0.003380569,0.4058691,0.0,0.97947794,0.0003765596,0.0018031789,0.20154299,0.0,0.0,-0.61486703,1,0,0,0,0,0
1451032000,0.003908113,0.0074745542,0.4058691,0.0,0.97947216,0.001160719,0.004054397,0.20153557,0.0,0.0,-0.6041003,1,0,0,0,0,0
1451144000,0.0040916507,0.008600231,0.4058691,0.0,0.97947,0.0011371635,0.004624174,0.20153365,0.0,0.0,-0.61282593,1,0,0,0,0,0
1451236000,0.0042788517,0.008421113,0.4058691,0.0,0.97947025,0.0012468931,0.0045553166,0.20153348,0.0,0.0,-0.6089735,1,0,0,0,0,0
1451332000,0.004018995,0.0069879866,0.4058691,0.0,0.9794728,0.0012640555,0.0038272808,0.20153601,0.0,0.0,-0.6179351,1,0,0,0,0,0
1451444000,0.0035550485,0.0065239253,0.4058691,0.0,0.97947377,0.0010836096,0.0035532627,0.20153746,0.0,0.0,-0.6196524,1,0,0,0,0,0
1451536000,0.0035883922,0.007972814,0.4058691,0.0,0.97947145,0.0009539278,0.004266194,0.2015356,0.0,0.0,-0.55965,1,0,0,0,0,0
1451648000,0.005518183,0.00787692,0.4058691,0.0,0.9794702,0.0019086789,0.0044136904,0.20153156,0.0,0.0,-0.54412764,1,0,0,0,0,0
1451740000,0.0060704835,0.00819397,0.4058691,0.0,0.9794692,0.0021472082,0.0046246126,0.20152973,0.0,0.0,-0.5646511,1,0,0,0,0,0
1451836000,0.0052620866,0.007821433,0.4058691,0.0,0.9794706,0.0017888511,0.0043607103,0.20153221,0.0,0.0,-0.55951345,1,0,0,0,0,0
1451948000,0.005371804,0.0097505525,0.4058691,0.0,0.9794668,0.0016481733,0.0053165187,0.20152862,0.0,0.0,-0.5619383,1,0,0,0,0,0
1452040000,0.0067097037,0.009188108,0.4058691,0.0,0.9794666,0.0023600687,0.0051758834,0.20152618,0.0,0.0,-0.559945,1,0,0,0,0,0
1452132000,0.006551379,0.009450563,0.4058691,0.0,0.9794663,0.0022560824,0.005288462,0.20152605,0.0,0.0,-0.5598919,1,0,0,0,0,0
1452244000,0.0058044405,0.009347288,0.4058691,0.0,0.9794673,0.0019006898,0.0051626214,0.20152824,0.0,0.0,-0.5602246,1,0,0,0,0,0
1452340000,0.0061191935,0.009856516,0.4058691,0.0,0.9794659,0.002003516,0.0054437215,0.2015264,0.0,0.0,-0.56112254,1,0,0,0,0,0
1452436000,0.0054569463,0.009843955,0.4058691,0.0,0.97946656,0.0016804574,0.005370839,0.20152818,0.0,0.0,-0.56278574,1,0,0,0,0,0
1452548000,0.0050733015,0.009899753,0.4058691,0.0,0.97946674,0.0014869506,0.005359507,0.20152912,0.0,0.0,-0.56267536,1,0,0,0,0,0
1452640000,0.0052004945,0.009966973,0.4058691,0.0,0.9794665,0.0015424669,0.005405244,0.20152867,0.0,0.0,-0.5620878,1,0,0,0,0,0
1452732000,0.005469781,0.010507959,0.4058691,0.0,0.9794651,0.0016198263,0.005697314,0.20152692,0.0,0.0,-0.5634763,1,0,0,0,0,0
1452844000,0.0062566013,0.0114185205,0.4058691,0.0,0.97946227,0.0019133921,0.0062225247,0.20152277,0.0,0.0,-0.5618335,1,0,0,0,0,0
1452940000,0.0058422475,0.011973669,0.4058691,0.0,0.9794612,0.0016545238,0.006452645,0.20152292,0.0,0.0,-0.56302816,1,0,0,0,0,0
1453032000,0.0060056485,0.011733928,0.4058691,0.0,0.9794616,0.0017587069,0.0063517024,0.20152292,0.0,0.0,-0.5631738,1,0,0,0,0,0
1453144000,0.0057243034,0.009848009,0.4058691,0.0,0.9794663,0.0018109824,0.005399764,0.20152749,0.0,0.0,-0.56110054,1,0,0,0,0,0
1453236000,0.00434149,0.010371134,0.4058691,0.0,0.9794662,0.0010810542,0.005516616,0.20153035,0.0,0.0,-0.56196386,1,0,0,0,0,0
1453332000,0.004071107,0.009516247,0.4058691,0.0,0.9794682,0.0010347904,0.0050707054,0.20153236,0.0,0.0,-0.56433004,1,0,0,0,0,0
1453444000,0.0039246287,0.0097449245,0.4058691,0.0,0.97946775,0.00094001007,0.0051679374,0.20153241,0.0,0.0,-0.56139094,1,0,0,0,0,0
1453536000,0.0035982954,0.009378677,0.4058691,0.0,0.9794687,0.0008171022,0.00495569,0.20153372,0.0,0.0,-0.56235564,1,0,0,0,0,0
1453648000,0.0033895283,0.008898441,0.4058691,0.0,0.9794698,0.0007632575,0.004699466,0.2015349,0.0,0.0,-0.56327987,1,0,0,0,0,0
1453740000,0.0032317345,0.009785145,0.4058691,0.0,0.979468,0.000596623,0.0051178127,0.2015341,0.0,0.0,-0.5621533,1,0,0,0,0,0
1453836000,0.0035355173,0.009206365,0.4058691,0.0,0.9794691,0.00080372224,0.004864977,0.20153414,0.0,0.0,-0.5630056,1,0,0,0,0,0
1453948000,0.0031515413,0.011904071,0.4058691,0.0,0.9794627,0.00034381525,0.0061474363,0.20153153,0.0,0.0,-0.56218255,1,0,0,0,0,0
1454040000,0.0039548036,0.01077287,0.4058691,0.0,0.9794654,0.0008511958,0.0056743943,0.20153078,0.0,0.0,-0.5643055,1,0,0,0,0,0
1454132000,0.0038487613,0.009661974,0.4058691,0.0,0.979468,0.0009112144,0.005119669,0.20153268,0.0,0.0,-0.5639047,1,0,0,0,0,0
1454244000,0.0040590796,0.009361424,0.4058691,0.0,0.9794685,0.001044503,0.0049936725,0.20153262,0.0,0.0,-0.5637122,1,0,0,0,0,0
1454340000,0.004914093,0.007860138,0.4058691,0.0,0.9794708,0.001614526,0.0043446,0.20153292,0.0,0.0,-0.56398976,1,0,0,0,0,0
1454432000,0.0050690724,0.008968539,0.4058691,0.0,0.97946864,0.0015787244,0.0049030366,0.20153074,0.0,0.0,-0.5650836,1,0,0,0,0,0
1454544000,0.005256623,0.008431684,0.40467396,0.0,0.97958976,0.0017274601,0.004657989,0.20094584,0.0,0.0,-0.561961,1,0,0,0,0,0
1454636000,0.0039626155,0.009526124,0.40467396,0.0,0.9795885,0.0009836897,0.005064024,0.20094728,0.0,0.0,-0.56358534,1,0,0,0,0,0
1454732000,0.0044529103,0.009041408,0.40467396,0.0,0.9795892,0.0012725387,0.0048758755,0.20094676,0.0,0.0,-0.5641601,1,0,0,0,0,0
1454844000,0.004054251,0.010047154,0.40467396,0.0,0.9795873,0.0009762175,0.0053284266,0.20094624,0.0,0.0,-0.56468195,1,0,0,0,0,0
1454936000,0.0035650723,0.008739407,0.40467396,0.0,0.9795903,0.0008680262,0.004638753,0.20094933,0.0,0.0,-0.564163,1,0,0,0,0,0
1455028000,0.0052588214,0.008290457,0.40467396,0.0,0.97959,0.0017427282,0.004589037,0.20094611,0.0,0.0,-0.56390095,1,0,0,0,0,0
1455140000,0.0049116984,0.008277479,0.40467396,0.0,0.97959036,0.001574013,0.0045478046,0.20094691,0.0,0.0,-0.563916,1,0,0,0,0,0
1455236000,0.0039801397,0.0077982326,0.40467396,0.0,0.9795918,0.0011658957,0.0042194747,0.20094965,0.0,0.0,-0.5653449,1,0,0,0,0,0
1455348000,0.005291884,0.008278955,0.40467396,0.0,0.97959,0.0017600779,0.004586726,0.20094605,0.0,0.0,-0.5651032,1,0,0,0,0,0
1455440000,0.0025032402,0.008379272,0.40467396,0.0,0.9795913,0.00038413273,0.0043556727,0.20095211,0.0,0.0,-0.5644151,1,0,0,0,0,0
1455532000,0.002147017,0.007932197,0.40467396,0.0,0.9795922,0.00025457854,0.0041009053,0.20095332,0.0,0.0,-0.56489515,1,0,0,0,0,0
1455644000,0.0044121984,0.0063888165,0.40467396,0.0,0.9795937,0.0015191378,0.0035725608,0.20095076,0.0,0.0,-0.5650516,1,0,0,0,0,0
1455740000,0.004506845,0.0060347226,0.40467396,0.0,0.97959405,0.0016010758,0.003408637,0.2009511,0.0,0.0,-0.5641714,1,0,0,0,0,0
1455832000,0.004540596,0.0070532514,0.40467396,0.0,0.9795926,0.001515263,0.0039108987,0.20094958,0.0,0.0,-0.5645975,1,0,0,0,0,0
1455944000,0.0051381006,0.0070567196,0.40467396,0.0,0.9795921,0.0018075698,0.003972632,0.2009484,0.0,0.0,-0.56371194,1,0,0,0,0,0
1456036000,0.004004897,0.005578439,0.40467396,0.0,0.97959495,0.0014010713,0.003134718,0.20095253,0.0,0.0,-0.5641454,1,0,0,0,0,0
1456132000,0.0037290563,0.006289985,0.40467396,0.0,0.97959423,0.001194468,0.003455515,0.20095211,0.0,0.0,-0.56631535,1,0,0,0,0,0
1456244000,0.003582034,0.007258324,0.40467396,0.0,0.9795929,0.0010251565,0.003915031,0.20095119,0.0,0.0,-0.565929,1,0,0,0,0,0
1456336000,0.0034294124,0.0068954867,0.40467396,0.0,0.9795936,0.0009868613,0.00372198,0.20095189,0.0,0.0,-0.56422377,1,0,0,0,0,0
1456448000,0.0040962384,0.0070372554,0.40467396,0.0,0.979593,0.0012992254,0.0038584175,0.20095047,0.0,0.0,-0.5665954,1,0,0,0,0,0
1456540000,0.0037819284,0.0067778667,0.40467396,0.0,0.9795936,0.001171341,0.003699789,0.2009514,0.0,0.0,-0.5632439,1,0,0,0,0,0
1456636000,0.0038293144,0.005920584,0.40467396,0.0,0.97959465,0.0012806919,0.0032846574,0.20095238,0.0,0.0,-0.5645434,1,0,0,0,0,0
1456732000,0.00470849,0.007205411,0.40467396,0.0,0.97959226,0.0015822074,0.0040022954,0.20094901,0.0,0.0,-0.565254,1,0,0,0,0,0
1456844000,0.0041813403,0.008023951,0.40467396,0.0,0.9795913,0.0012417622,0.0043502464,0.20094891,0.0,0.0,-0.56399214,1,0,0,0,0,0
1456936000,0.0026623004,0.006957662,0.40467396,0.0,0.97959375,0.000604885,0.0036753565,0.20095327,0.0,0.0,-0.56547433,1,0,0,0,0,0
1457048000,0.0034129324,0.0072512575,0.40467396,0.0,0.979593,0.00094304106,0.0038945794,0.20095152,0.0,0.0,-0.56391054,1,0,0,0,0,0
1457140000,0.004751492,0.0066873617,0.40467396,0.0,0.979593,0.0016553244,0.0037528782,0.20094973,0.0,0.0,-0.56445307,1,0,0,0,0,0
1457236000,0.0046456126,0.0069165155,0.40467396,0.0,0.97959274,0.0015804392,0.0038544782,0.20094956,0.0,0.0,-0.5644912,1,0,0,0,0,0
1457348000,0.0052921274,0.0063554733,0.40467396,0.0,0.979593,0.0019534745,0.0036446406,0.20094924,0.0,0.0,-0.56397367,1,0,0,0,0,0
1457440000,0.0049152263,0.0056462237,0.40467396,0.0,0.9795942,0.0018401371,0.0032593845,0.20095098,0.0,0.0,-0.56474423,1,0,0,0,0,0
1457532000,0.0046014357,0.004978564,0.40467396,0.0,0.9795951,0.0017535313,0.0029008396,0.20095241,0.0,0.0,-0.5629014,1,0,0,0,0,0
1457644000,0.003399693,0.0034792728,0.40467396,0.0,0.97959733,0.0013155703,0.002045743,0.2009557,0.0,0.0,-0.5645565,1,0,0,0,0,0
1457740000,0.0045622746,0.0034434362,0.40467396,0.0,0.97959644,0.0018886017,0.0021450033,0.20095451,0.0,0.0,-0.56521493,1,0,0,0,0,0
1457844000,0.0063064354,0.006452945,0.40467396,0.0,0.9795917,0.0024404847,0.0037942936,0.2009472,0.0,0.0,-0.5640206,1,0,0,0,0,0
1457940000,0.006255134,0.005645884,0.40467396,0.0,0.97959274,0.0024964535,0.0033938454,0.20094876,0.0,0.0,-0.56356186,1,0,0,0,0,0
1458032000,0.005616147,0.005043131,0.40467396,0.0,0.9795941,0.002244046,0.0030344178,0.20095082,0.0,0.0,-0.56392103,1,0,0,0,0,0
1458144000,0.0049389456,0.006302415,0.40467396,0.0,0.97959334,0.0017858192,0.0035831674,0.20094997,0.0,0.0,-0.5638661,1,0,0,0,0,0
1458236000,0.006330792,0.007226866,0.40467396,0.0,0.97959065,0.002374648,0.004175802,0.20094568,0.0,0.0,-0.5637549,1,0,0,0,0,0
1458332000,0.005178841,0.006523345,0.40467396,0.0,0.97959286,0.001881119,0.0037154811,0.20094918,0.0,0.0,-0.5636407,1,0,0,0,0,0
1458444000,0.006605064,0.006026915,0.40467396,0.0,0.97959185,0.002629561,0.003615631,0.20094746,0.0,0.0,-0.5649925,1,0,0,0,0,0
1458536000,0.0047732294,0.0052740457,0.40467396,0.0,0.9795947,0.0018079848,0.003062826,0.20095177,0.0,0.0,-0.56353176,1,0,0,0,0,0
1458648000,0.0053137103,0.007230539,0.40467396,0.0,0.9795917,0.0018761167,0.0040754117,0.20094775,0.0,0.0,-0.5640448,1,0,0,0,0,0
1458740000,0.005465892,0.0070299353,0.40467396,0.0,0.97959185,0.0019708122,0.0039924476,0.20094779,0.0,0.0,-0.5633297,1,0,0,0,0,0
1458836000,0.005636552,0.0073446613,0.40467396,0.0,0.97959125,0.0020227758,0.0041637453,0.20094691,0.0,0.0,-0.5628644,1,0,0,0,0,0
1458948000,0.00606504,0.007819023,0.40467396,0.0,0.97959,0.0021849815,0.004439135,0.20094512,0.0,0.0,-0.5636677,1,0,0,0,0,0
1459040000,0.00486551,0.007316664,0.40467396,0.0,0.97959197,0.001647936,0.004072563,0.20094855,0.0,0.0,-0.5621702,1,0,0,0,0,0
1459132000,0.0037736637,0.006019872,0.40467396,0.0,0.9795946,0.0012434579,0.003327697,0.20095238,0.0,0.0,-0.5624043,1,0,0,0,0,0
1459244000,0.004895129,0.006295377,0.40467396,0.0,0.9795934,0.001765065,0.0035753178,0.20095004,0.0,0.0,-0.56292516,1,0,0,0,0,0
1459340000,0.0038400393,0.0064708684,0.40467396,0.0,0.97959393,0.0012306516,0.0035552618,0.2009517,0.0,0.0,-0.5625413,1,0,0,0,0,0
1459432000,0.0040678587,0.008585837,0.40467396,0.0,0.97959036,0.0011297197,0.004614052,0.20094836,0.0,0.0,-0.5626134,1,0,0,0,0,0
1459544000,0.0043898774,0.0075831725,0.40467396,0.0,0.9795919,0.0013881936,0.004155308,0.20094915,0.0,0.0,-0.5625135,1,0,0,0,0,0
1459636000,0.0046649254,0.007804864,0.40467396,0.0,0.9795913,0.0015006347,0.0042915265,0.20094821,0.0,0.0,-0.56215173,1,0,0,0,0,0
1459732000,0.0043379795,0.007360069,0.40467396,0.0,0.97959226,0.0013851922,0.0040408187,0.20094953,0.0,0.0,-0.5622768,1,0,0,0,0,0
1459844000,0.0052101263,0.007776407,0.40467396,0.0,0.97959095,0.0017705307,0.004332367,0.20094708,0.0,0.0,-0.5622639,1,0,0,0,0,0
1459936000,0.0042484836,0.007036517,0.40467396,0.0,0.97959286,0.0013738688,0.003873353,0.20095016,0.0,0.0,-0.5628678,1,0,0,0,0,0
1460028000,0.0028461812,0.006938893,0.40467396,0.0,0.9795937,0.00069683505,0.0036846392,0.20095293,0.0,0.0,-0.56405485,1,0,0,0,0,0
1460140000,0.0040521407,0.0062916195,0.40467396,0.0,0.97959405,0.0013525494,0.0034887777,0.20095153,0.0,0.0,-0.5632689,1,0,0,0,0,0
1460236000,0.0041845525,0.0064894394,0.40467396,0.0,0.9795937,0.0013975268,0.003598973,0.20095105,0.0,0.0,-0.56322026,1,0,0,0,0,0
1460348000,0.0033397502,0.005834997,0.40467396,0.0,0.97959507,0.0010495046,0.0031935473,0.20095329,0.0,0.0,-0.563369,1,0,0,0,0,0
1460440000,0.0026787713,0.005539251,0.40467396,0.0,0.9795957,0.0007554759,0.002982279,0.2009546,0.0,0.0,-0.56154126,1,0,0,0,0,0
1460532000,0.0037437913,0.0056196563,0.40467396,0.0,0.97959507,0.0012690409,0.0031286709,0.2009529,0.0,0.0,-0.56297636,1,0,0,0,0,0
1460644000,0.0033112224,0.005095079,0.40467396,0.0,0.97959596,0.0011098799,0.0028282718,0.20095414,0.0,0.0,-0.5627386,1,0,0,0,0,0
1460740000,0.0030059374,0.0055900146,0.40467396,0.0,0.9795955,0.0009106204,0.0030400155,0.20095408,0.0,0.0,-0.56386435,1,0,0,0,0,0
1460832000,0.0035250809,0.005723794,0.40467396,0.0,0.97959507,0.0011514531,0.0031577018,0.20095311,0.0,0.0,-0.5630946,1,0,0,0,0,0
1460944000,0.0027466672,0.004664655,0.40467396,0.0,0.9795966,0.0008766113,0.0025607261,0.20095532,0.0,0.0,-0.56337434,1,0,0,0,0,0
1461036000,0.0024470254,0.004935987,0.40467396,0.0,0.9795965,0.0007025835,0.0026635164,0.20095545,0.0,0.0,-0.56300294,1,0,0,0,0,0
1461132000,0.002640442,0.0051657804,0.40467396,0.0,0.9795962,0.00077422877,0.0027955032,0.20095502,0.0,0.0,-0.56355584,1,0,0,0,0,0
1461244000,0.0030678154,0.006296316,0.40467396,0.0,0.9795946,0.00086995773,0.003392177,0.20095325,0.0,0.0,-0.5631779,1,0,0,0,0,0
1461336000,0.0033772818,0.006287742,0.40467396,0.0,0.97959447,0.0010223951,0.0034190712,0.20095271,0.0,0.0,-0.56237495,1,0,0,0,0,0
1461448000,0.00253708,0.0057162144,0.40467396,0.0,0.97959554,0.00066829426,0.003054718,0.20095466,0.0,0.0,-0.5637547,1,0,0,0,0,0
1461540000,0.0025518485,0.005873039,0.40467396,0.0,0.97959536,0.00065977004,0.0031330143,0.2009545,0.0,0.0,-0.56466144,1,0,0,0,0,0
1461636000,0.0031697573,0.006956064,0.40467396,0.0,0.9795936,0.0008535963,0.0037255615,0.20095229,0.0,0.0,-0.56352615,1,0,0,0,0,0
1461728000,0.00407968,0.0057994686,0.40467396,0.0,0.9795947,0.0014154906,0.0032504913,0.20095214,0.0,0.0,-0.56263566,1,0,0,0,0,0
1461840000,0.003216071,0.003524122,0.40467396,0.0,0.97959745,0.0012211263,0.0020492603,0.20095587,0.0,0.0,-0.56444454,1,0,0,0,0,0
1461932000,0.0027082737,0.004797467,0.40467396,0.0,0.97959656,0.00084446097,0.002621919,0.20095521,0.0,0.0,-0.56364053,1,0,0,0,0,0
1462044000,0.0022623802,0.004566907,0.40467396,0.0,0.979597,0.00064923003,0.0024641892,0.200956,0.0,0.0,-0.56498235,1,0,0,0,0,0
1462140000,0.0032136387,0.0053287954,0.40467396,0.0,0.9795958,0.0010385994,0.00293294,0.200954,0.0,0.0,-0.5641647,1,0,0,0,0,0
1462232000,0.0008828097,0.0051572714,0.40467396,0.0,0.9795965,-8.5801315e-05,0.0026147314,0.20095736,0.0,0.0,-0.56358653,1,0,0,0,0,0
1462344000,0.0018890015,0.0067295535,0.40467396,0.0,0.9795943,0.00024904596,0.003485931,0.20095485,0.0,0.0,-0.5643091,1,0,0,0,0,0
1462436000,0.0031729704,0.0076191793,0.40467396,0.0,0.97959244,0.0007885391,0.004050675,0.20095155,0.0,0.0,-0.56276655,1,0,0,0,0,0
1462532000,0.0016565043,0.007886298,0.40467396,0.0,0.9795923,1.8939563e-05,0.0040291385,0.20095435,0.0,0.0,-0.56269544,1,0,0,0,0,0
1462644000,0.0015016021,0.007707329,0.40467396,0.0,0.9795926,-3.8948176e-05,0.0039259177,0.20095481,0.0,0.0,-0.56329805,1,0,0,0,0,0
1462736000,0.0025754492,0.008114373,0.40467396,0.0,0.9795918,0.00044611766,0.004233182,0.20095223,0.0,0.0,-0.56409925,1,0,0,0,0,0
1462828000,0.003813528,0.0075603416,0.40467396,0.0,0.9795923,0.0011081939,0.004086217,0.20095032,0.0,0.0,-0.5621971,1,0,0,0,0,0
1462940000,0.0050877575,0.008756637,0.40467396,0.0,0.9795893,0.0016120982,0.004800182,0.20094569,0.0,0.0,-0.56203234,1,0,0,0,0,0
1463036000,0.003241031,0.009411093,0.40467396,0.0,0.979589,0.00064182014,0.0049351826,0.20094924,0.0,0.0,-0.5633677,1,0,0,0,0,0
1463128000,0.0027657917,0.010261948,0.40467396,0.0,0.9795872,0.000323555,0.0053041754,0.20094939,0.0,0.0,-0.5611724,1,0,0,0,0,0
1463240000,0.0035896902,0.009652113,0.40467396,0.0,0.9795884,0.00078837306,0.0050882627,0.20094804,0.0,0.0,-0.56270236,1,0,0,0,0,0
1463332000,0.0030160034,0.009220555,0.40467396,0.0,0.9795895,0.0005507483,0.0048192483,0.20095001,0.0,0.0,-0.5626023,1,0,0,0,0,0
1463444000,0.002570986,0.009750361,0.40467396,0.0,0.97958845,0.00027954567,0.00503403,0.20095049,0.0,0.0,-0.5627069,1,0,0,0,0,0
1463540000,0.00314028,0.010959626,0.40467396,0.0,0.97958547,0.00043687294,0.0056835175,0.20094751,0.0,0.0,-0.5623089,1,0,0,0,0,0
1463632000,0.0031786254,0.010039302,0.40467396,0.0,0.9795876,0.0005481303,0.0052366043,0.2009486,0.0,0.0,-0.5629985,1,0,0,0,0,0
1463744000,0.0025518718,0.01011842,0.40467396,0.0,0.9795876,0.00023320041,0.0052123833,0.20095013,0.0,0.0,-0.5628716,1,0,0,0,0,0
1463840000,0.0043083015,0.009773394,0.40467396,0.0,0.97958773,0.001128158,0.005219868,0.20094602,0.0,0.0,-0.5636855,1,0,0,0,0,0
1463932000,0.0037469452,0.008883016,0.40467396,0.0,0.97958994,0.0009426763,0.004727365,0.20094869,0.0,0.0,-0.562486,1,0,0,0,0,0
1464044000,0.004022431,0.008813052,0.40467396,0.0,0.97958994,0.0010846385,0.004720777,0.20094813,0.0,0.0,-0.5628039,1,0,0,0,0,0
1464140000,0.0020917107,0.008113237,0.40467396,0.0,0.97959185,0.0002092989,0.004184021,0.20095327,0.0,0.0,-0.56297934,1,0,0,0,0,0
1464236000,0.0028324896,0.008595794,0.40467396,0.0,0.97959083,0.0005236412,0.0044948054,0.20095114,0.0,0.0,-0.56282526,1,0,0,0,0,0
1464348000,0.0037041665,0.009493509,0.40467396,0.0,0.9795887,0.00086037983,0.005022082,0.20094796,0.0,0.0,-0.56246316,1,0,0,0,0,0
1464440000,0.0030017577,0.009552171,0.40467396,0.0,0.9795888,0.00051044946,0.0049802405,0.20094964,0.0,0.0,-0.5630158,1,0,0,0,0,0
1464532000,0.0014311647,0.010564401,0.40467396,0.0,0.9795864,-0.00036052713,0.005318217,0.20095263,0.0,0.0,-0.5629504,1,0,0,0,0,0
1464644000,0.0013541937,0.0105622485,0.40467396,0.0,0.9795864,-0.00039801063,0.005309429,0.20095283,0.0,0.0,-0.5621729,1,0,0,0,0,0
1464740000,0.0018592277,0.011226847,0.40467396,0.0,0.9795848,-0.0002174277,0.005685687,0.20095082,0.0,0.0,-0.56377447,1,0,0,0,0,0
1464832000,0.0016376341,0.0117361285,0.40467396,0.0,0.9795834,-0.00037713515,0.0059128646,0.20095097,0.0,0.0,-0.5622093,1,0,0,0,0,0
1464944000,0.0016899836,0.009974148,0.40467396,0.0,0.9795879,-0.00017445038,0.0050551197,0.2009525,0.0,0.0,-0.5623735,1,0,0,0,0,0
1465036000,0.0006180798,0.010600892,0.40467396,0.0,0.9795861,-0.0007624371,0.005254394,0.20095475,0.0,0.0,-0.5621742,1,0,0,0,0,0
1465132000,0.0007626203,0.012109252,0.40467396,0.0,0.9795821,-0.00084320066,0.006007699,0.20095325,0.0,0.0,-0.563924,1,0,0,0,0,0
1465244000,0.00029490088,0.011486633,0.40467396,0.0,0.9795836,-0.0010097257,0.00565575,0.20095506,0.0,0.0,-0.5637042,1,0,0,0,0,0
1465336000,-0.00091877725,0.011246625,0.40467396,0.0,0.9795835,-0.00158006,0.0054162485,0.20095855,0.0,0.0,-0.563741,1,0,0,0,0,0
1465448000,-0.00046493785,0.011793168,0.40467396,0.0,0.9795823,-0.0014126883,0.0057295416,0.20095703,0.0,0.0,-0.5625636,1,0,0,0,0,0
1465540000,-0.00035052924,0.012172361,0.40467396,0.0,0.9795813,-0.0013947521,0.0059267622,0.2009565,0.0,0.0,-0.5642206,1,0,0,0,0,0
1465636000,3.4181937e-07,0.01184997,0.40467396,0.0,0.9795824,-0.0011905057,0.005804113,0.20095567,0.0,0.0,-0.5648838,1,0,0,0,0,0
1465748000,-0.0006197221,0.010957783,0.40467396,0.0,0.9795845,-0.0014045632,0.0053048246,0.20095783,0.0,0.0,-0.5630236,1,0,0,0,0,0
1465840000,0.00073822483,0.011085495,0.40467396,0.0,0.9795849,-0.0007522833,0.0055038207,0.20095408,0.0,0.0,-0.5623728,1,0,0,0,0,0
1465932000,0.00018740469,0.011897644,0.40467396,0.0,0.9795824,-0.0011036742,0.005846259,0.20095511,0.0,0.0,-0.5641544,1,0,0,0,0,0
1466044000,-0.00046101908,0.012217527,0.40467396,0.0,0.97958106,-0.0014534073,0.005937783,0.20095682,0.0,0.0,-0.56296676,1,0,0,0,0,0
1466140000,-0.00020533174,0.014213474,0.40467396,0.0,0.97957474,-0.0015287206,0.006941066,0.20095484,0.0,0.0,-0.5621008,1,0,0,0,0,0
1466232000,-0.00046971548,0.01300388,0.40467396,0.0,0.9795786,-0.0015366769,0.0063220565,0.20095643,0.0,0.0,-0.5620281,1,0,0,0,0,0
1466344000,-0.0007600887,0.012853229,0.40467396,0.0,0.97957885,-0.0016637617,0.0062190928,0.20095742,0.0,0.0,-0.5642221,1,0,0,0,0,0
1466436000,-0.00019034569,0.012754518,0.40467396,0.0,0.9795796,-0.0013747892,0.0062279915,0.2009557,0.0,0.0,-0.5635745,1,0,0,0,0,0
1466532000,-0.0006932778,0.0120215975,0.40467396,0.0,0.9795815,-0.0015474787,0.00581848,0.2009576,0.0,0.0,-0.5634828,1,0,0,0,0,0
1466644000,0.0022538512,0.012046504,0.40467396,0.0,0.9795826,-0.00010650408,0.0061267973,0.20094876,0.0,0.0,-0.56383353,1,0,0,0,0,0
1466736000,0.0018086202,0.012372234,0.40467396,0.0,0.9795816,-0.00035730377,0.0062416024,0.20094979,0.0,0.0,-0.5636424,1,0,0,0,0,0
1466848000,0.0017466303,0.01159671,0.40467396,0.0,0.9795838,-0.000309741,0.0058555305,0.20095077,0.0,0.0,-0.5634405,1,0,0,0,0,0
1466940000,0.001277955,0.010674556,0.40467396,0.0,0.9795862,-0.00044663638,0.0053567756,0.20095295,0.0,0.0,-0.5627,1,0,0,0,0,0
1467036000,0.0023345177,0.011685249,0.40467396,0.0,0.97958356,-3.0694897e-05,0.0059579634,0.20094894,0.0,0.0,-0.56308717,1,0,0,0,0,0
1467148000,0.0026948936,0.011979719,0.40467396,0.0,0.9795828,0.00011622538,0.0061383997,0.20094751,0.0,0.0,-0.5629451,1,0,0,0,0,0
1467240000,0.0029598912,0.012736904,0.40467396,0.0,0.9795806,0.00016993533,0.006535887,0.20094568,0.0,0.0,-0.56357455,1,0,0,0,0,0
1467332000,0.0035488717,0.013190335,0.40467396,0.0,0.9795791,0.00041285018,0.0068171476,0.20094304,0.0,0.0,-0.5627812,1,0,0,0,0,0
1467444000,0.0038281854,0.0139024155,0.40467396,0.0,0.9795769,0.00047810277,0.007193977,0.20094092,0.0,0.0,-0.5635585,1,0,0,0,0,0
1467540000,0.0035742729,0.013960304,0.40467396,0.0,0.9795767,0.00034792264,0.00719682,0.20094176,0.0,0.0,-0.56442803,1,0,0,0,0,0
1467632000,0.0019679246,0.013690979,0.40467396,0.0,0.97957754,-0.00041178617,0.006903515,0.20094778,0.0,0.0,-0.5633759,1,0,0,0,0,0
1467744000,0.0031101564,0.012591981,0.40467396,0.0,0.979581,0.00025809588,0.0064800023,0.20094538,0.0,0.0,-0.5649943,1,0,0,0,0,0
1467836000,0.0016792348,0.0138345305,0.40467396,0.0,0.979577,-0.0005676071,0.0069448184,0.2009486,0.0,0.0,-0.564463,1,0,0,0,0,0
1467932000,0.0029301902,0.013562052,0.40467396,0.0,0.979578,7.2475625e-05,0.00693705,0.2009446,0.0,0.0,-0.5641273,1,0,0,0,0,0
1468044000,0.0035674723,0.012969555,0.40467396,0.0,0.9795798,0.00044414523,0.0067108814,0.20094332,0.0,0.0,-0.5634588,1,0,0,0,0,0
1468140000,0.003071649,0.013358087,0.40467396,0.0,0.97957873,0.00016225541,0.0068513625,0.20094444,0.0,0.0,-0.5637081,1,0,0,0,0,0
1468232000,0.003583909,0.014121389,0.40467396,0.0,0.9795762,0.00033645597,0.007276686,0.20094146,0.0,0.0,-0.5634287,1,0,0,0,0,0
1468344000,0.0038786463,0.014843709,0.40467396,0.0,0.9795737,0.00040823358,0.007660079,0.20093918,0.0,0.0,-0.5640284,1,0,0,0,0,0
1468436000,0.003798807,0.014908611,0.40467396,0.0,0.9795735,0.0003626076,0.0076838452,0.20093939,0.0,0.0,-0.5630111,1,0,0,0,0,0
1468532000,0.0046334034,0.013569094,0.40467396,0.0,0.9795776,0.0009059829,0.007111622,0.20093863,0.0,0.0,-0.564706,1,0,0,0,0,0
1468644000,0.004526323,0.012687794,0.40467396,0.0,0.9795803,0.0009420931,0.006669215,0.20094058,0.0,0.0,-0.5641397,1,0,0,0,0,0
1468736000,0.0059030876,0.012852095,0.40467396,0.0,0.979579,0.0015999085,0.006888009,0.20093557,0.0,0.0,-0.5633257,1,0,0,0,0,0
1468828000,0.004811978,0.012744899,0.40467396,0.0,0.97958,0.0010762659,0.0067258845,0.2009395,0.0,0.0,-0.56418407,1,0,0,0,0,0
1468940000,-0.008172387,-0.29551506,3.200118,0.0,-0.028338168,0.14727446,0.00026749124,0.9886896,0.0,0.0,-0.34696975,1,0,0,0,0,0
1469036000,0.021619115,-0.18528742,3.2001257,0.0,-0.03013471,0.09215126,0.013465321,0.99519783,0.0,0.0,-0.5014839,1,0,0,0,0,0
1469148000,0.117340684,-0.1056453,3.200244,0.0,-0.03232474,0.050967667,0.060075175,0.9963676,0.0,0.0,-0.43914413,1,0,0,0,0,0
1469240000,0.071222566,-0.035032123,3.2004292,0.0,-0.03001421,0.016449397,0.036097758,0.99876195,0.0,0.0,-0.5646285,1,0,0,0,0,0
1469332000,0.013105139,-0.0014534394,3.2005746,0.0,-0.029490836,0.0005331758,0.0065711006,0.9995433,0.0,0.0,-0.5891331,1,0,0,0,0,0
1469444000,-0.023241276,-0.037831556,3.200627,0.0,-0.029285954,0.019248024,-0.011055047,0.9993246,0.0,0.0,-0.5674115,1,0,0,0,0,0
1469540000,-0.013230972,-0.074029244,3.2006276,0.0,-0.029247604,0.037184346,-0.0055158813,0.9988651,0.0,0.0,-0.5709089,1,0,0,0,0,0
1469632000,0.005760188,-0.093750626,3.200645,0.0,-0.029624213,0.046752594,0.004259007,0.9984581,0.0,0.0,-0.5710918,1,0,0,0,0,0
1469744000,0.015893046,-0.094938956,3.20069,0.0,-0.029887084,0.047194935,0.009335909,0.9983948,0.0,0.0,-0.5744345,1,0,0,0,0,0
1469836000,0.017471628,-0.09387621,3.2007463,0.0,-0.029948516,0.04664051,0.01010978,0.99841154,0.0,0.0,-0.5841914,1,0,0,0,0,0
1469932000,0.019021552,-0.097141035,3.2008014,0.0,-0.03002534,0.048246767,0.010932314,0.9983242,0.0,0.0,-0.5823932,1,0,0,0,0,0
1470044000,0.019652309,-0.09849256,3.2008755,0.0,-0.030083219,0.048911523,0.01126863,0.99828637,0.0,0.0,-0.5781062,1,0,0,0,0,0
1470136000,0.016654452,-0.09927533,3.200937,0.0,-0.030043254,0.049346976,0.009785199,0.9982818,0.0,0.0,-0.5787859,1,0,0,0,0,0
1470228000,0.014917946,-0.09807224,3.2009928,0.0,-0.030024646,0.04877226,0.008902191,0.99831885,0.0,0.0,-0.5783852,1,0,0,0,0,0
1470340000,0.013021773,-0.10071675,3.2010489,0.0,-0.030013002,0.050120495,0.007995886,0.99826014,0.0,0.0,-0.5770792,1,0,0,0,0,0
1470436000,0.011188056,-0.101897016,3.2010844,0.0,-0.029987173,0.050736982,0.0070988727,0.99823654,0.0,0.0,-0.5770206,1,0,0,0,0,0
1470528000,0.010208444,-0.103059776,3.2011194,0.0,-0.029981887,0.051331904,0.0066279457,0.99820954,0.0,0.0,-0.57731736,1,0,0,0,0,0
1470640000,0.008883282,-0.106038176,3.2011554,0.0,-0.029970128,0.05283816,0.006011412,0.99813515,0.0,0.0,-0.5764712,1,0,0,0,0,0
1470732000,0.0077316836,-0.106894754,3.2011805,0.0,-0.029953165,0.05328283,0.005449999,0.99811524,0.0,0.0,-0.57552105,1,0,0,0,0,0
1470844000,0.0057734475,-0.11025591,3.201203,0.0,-0.029914407,0.054989442,0.0045230733,0.9980285,0.0,0.0,-0.5776939,1,0,0,0,0,0
1470940000,0.005145018,-0.115068436,3.2012184,0.0,-0.029906878,0.057400174,0.004281161,0.99789405,0.0,0.0,-0.575851,1,0,0,0,0,0
1471032000,0.005928298,-0.1175153,3.2012346,0.0,-0.029938946,0.058609247,0.0047086473,0.99782085,0.0,0.0,-0.5749557,1,0,0,0,0,0
1471144000,0.0038478514,-0.11966315,3.2012527,0.0,-0.02988717,0.05971189,0.0037030717,0.99776125,0.0,0.0,-0.5757915,1,0,0,0,0,0
1471236000,0.0045803376,-0.122851424,3.2012675,0.0,-0.029917173,0.061291408,0.0041161855,0.99766296,0.0,0.0,-0.5768355,1,0,0,0,0,0
1471332000,0.0056828028,-0.12738198,3.201281,0.0,-0.029959923,0.06353472,0.0047336062,0.9975186,0.0,0.0,-0.5746786,1,0,0,0,0,0
1471444000,0.006332106,-0.13212653,3.2013028,0.0,-0.029994274,0.06589116,0.005128319,0.99736273,0.0,0.0,-0.5770176,1,0,0,0,0,0
1471536000,0.0054566013,-0.13504986,3.2013156,0.0,-0.029972909,0.06736202,0.004735422,0.99726707,0.0,0.0,-0.5763357,1,0,0,0,0,0
1471648000,0.0046338206,-0.13867281,3.2013223,0.0,-0.029949011,0.069180764,0.0043790583,0.9971449,0.0,0.0,-0.5776827,1,0,0,0,0,0
1471740000,0.004123237,-0.14108145,3.201328,0.0,-0.029934162,0.07038924,0.0041603968,0.99706167,0.0,0.0,-0.5782367,1,0,0,0,0,0
1471836000,0.004129958,-0.1482107,3.2013311,0.0,-0.029935589,0.07394286,0.0042695026,0.99680394,0.0,0.0,-0.5774695,1,0,0,0,0,0
1471928000,0.0020400975,-0.1521145,3.2013276,0.0,-0.02985414,0.07591963,0.0032857538,0.9966615,0.0,0.0,-0.57874185,1,0,0,0,0,0
1472040000,0.0031846075,-0.15878879,3.2013214,0.0,-0.02989205,0.07922815,0.0039547957,0.99640036,0.0,0.0,-0.578628,1,0,0,0,0,0
1472132000,0.0036691455,-0.16298865,3.2013109,0.0,-0.029904814,0.08131313,0.004257958,0.9962308,0.0,0.0,-0.5792562,1,0,0,0,0,0
1472244000,0.0021141167,-0.16850184,3.2012987,0.0,-0.029831624,0.08408229,0.0035646355,0.9960058,0.0,0.0,-0.5801053,1,0,0,0,0,0
1472340000,0.0022165405,-0.17292826,3.2012887,0.0,-0.02982775,0.086284965,0.0036808222,0.99581707,0.0,0.0,-0.5808792,1,0,0,0,0,0
1472432000,0.0035601053,-0.17838953,3.2012796,0.0,-0.029878892,0.08898382,0.0044301418,0.995575,0.0,0.0,-0.5807701,1,0,0,0,0,0
1472544000,0.0035217344,-0.18617871,3.201267,0.0,-0.029867148,0.092861146,0.00452556,0.9952207,0.0,0.0,-0.5808327,1,0,0,0,0,0
1472640000,0.0032059085,-0.19199674,3.2012587,0.0,-0.029844778,0.09576062,0.004453958,0.9949469,0.0,0.0,-0.58259845,1,0,0,0,0,0
1472732000,0.0023713447,-0.19598089,3.2012508,0.0,-0.029797496,0.09775492,0.0040973127,0.9947559,0.0,0.0,-0.58478016,1,0,0,0,0,0
1472844000,0.0036351627,-0.20441063,3.201242,0.0,-0.029849935,0.10192801,0.0048497696,0.9943321,0.0,0.0,-0.58383226,1,0,0,0,0,0
1472940000,0.0021924197,-0.21077618,3.2012358,0.0,-0.029766956,0.105113775,0.004226199,0.9940056,0.0,0.0,-0.58410007,1,0,0,0,0,0
1473032000,0.0024318262,-0.21817741,3.2012289,0.0,-0.029768761,0.108787954,0.0044540344,0.9936092,0.0,0.0,-0.5844198,1,0,0,0,0,0
1473144000,0.0028590797,-0.22451098,3.2012184,0.0,-0.029780863,0.11192764,0.0047590453,0.9932586,0.0,0.0,-0.5888561,1,0,0,0,0,0
1473236000,0.0026147875,-0.2296579,3.2012093,0.0,-0.029757341,0.11448706,0.0047130394,0.9929678,0.0,0.0,-0.5898571,1,0,0,0,0,0
1473332000,0.0035566578,-0.23791336,3.201199,0.0,-0.029799104,0.118570805,0.0053013805,0.9924842,0.0,0.0,-0.5889724,1,0,0,0,0,0
1473444000,0.0028846262,-0.24793927,3.2011867,0.0,-0.029742189,0.123554684,0.005114528,0.99187875,0.0,0.0,-0.59106886,1,0,0,0,0,0
1473540000,0.0021529866,-0.25603965,3.2011738,0.0,-0.029679762,0.1275819,0.0048700185,0.9913719,0.0,0.0,-0.59138626,1,0,0,0,0,0
1473636000,0.002246027,-0.26468524,3.2011619,0.0,-0.02966789,0.13186486,0.005042391,0.9908108,0.0,0.0,-0.59294933,1,0,0,0,0,0
1473728000,0.0022208698,-0.27112737,3.2011445,0.0,-0.029648347,0.13505611,0.005123341,0.990381,0.0,0.0,-0.59509987,1,0,0,0,0,0
1473840000,0.001977579,-0.28203222,3.20113,0.0,-0.029607683,0.14045773,0.0051618777,0.9896304,0.0,0.0,-0.5971162,1,0,0,0,0,0
1473932000,0.0029261138,-0.28936183,3.2011232,0.0,-0.029660767,0.14406958,0.0057379515,0.98910636,0.0,0.0,-0.5974722,1,0,0,0,0,0
1474044000,0.003147911,-0.29948062,3.2011118,0.0,-0.029656874,0.14906877,0.0059945635,0.98836386,0.0,0.0,-0.60053885,1,0,0,0,0,0
1474140000,0.0024549544,-0.3097046,3.2010977,0.0,-0.0295814,0.15412971,0.00580043,0.9875907,0.0,0.0,-0.6027912,1,0,0,0,0,0
1474232000,0.0018210495,-0.3182329,3.2010806,0.0,-0.029508082,0.158349,0.0056107347,0.9869262,0.0,0.0,-0.60367703,1,0,0,0,0,0
1474344000,0.0024215674,-0.32985315,3.2010503,0.0,-0.029519765,0.16407172,0.006073977,0.9859879,0.0,0.0,-0.60675585,1,0,0,0,0,0
1474436000,0.0017770467,-0.33845523,3.2010298,0.0,-0.029439295,0.1683206,0.0058799367,0.98527503,0.0,0.0,-0.6086822,1,0,0,0,0,0
1474532000,0.002733565,-0.34997568,3.201014,0.0,-0.029490488,0.17397916,0.006517066,0.98428607,0.0,0.0,-0.6106691,1,0,0,0,0,0
1474644000,0.0030492453,-0.36189345,3.2009995,0.0,-0.029488398,0.17983678,0.0068437317,0.9832306,0.0,0.0,-0.6147811,1,0,0,0,0,0
1474736000,0.004693163,-0.37144223,3.2009928,0.0,-0.02961809,0.18450484,0.007788664,0.9823544,0.0,0.0,-0.61591417,1,0,0,0,0,0
1474848000,0.0031217088,-0.38491663,3.2009854,0.0,-0.0294422,0.19114235,0.007210618,0.9810942,0.0,0.0,-0.61815524,1,0,0,0,0,0
1474940000,0.0025251252,-0.39395,3.2009747,0.0,-0.02935957,0.19558054,0.0070473873,0.98022276,0.0,0.0,-0.621688,1,0,0,0,0,0
1475036000,0.0037699104,-0.40866554,3.2009666,0.0,-0.029447375,0.20276931,0.0078679295,0.9787521,0.0,0.0,-0.624347,1,0,0,0,0,0
1475128000,0.0045613027,-0.41834617,3.2009623,0.0,-0.029506817,0.2074928,0.008393119,0.9777554,0.0,0.0,-0.62645304,1,0,0,0,0,0
1475240000,0.0047127493,-0.43168953,3.200959,0.0,-0.029494492,0.21400939,0.008657049,0.97634786,0.0,0.0,-0.6318425,1,0,0,0,0,0
1475332000,0.0051069777,-0.4408514,3.2009556,0.0,-0.029517043,0.21847408,0.008979341,0.9753549,0.0,0.0,-0.63282156,1,0,0,0,0,0
1475444000,0.0053693396,-0.45643845,3.200954,0.0,-0.029513832,0.22606522,0.009327942,0.9736203,0.0,0.0,-0.6381861,1,0,0,0,0,0
1475540000,0.005185734,-0.47241598,3.200953,0.0,-0.029458204,0.23383893,0.009464396,0.9717829,0.0,0.0,-0.64213014,1,0,0,0,0,0
1475632000,0.006824625,-0.48429307,3.2009523,0.0,-0.029627394,0.23958178,0.010427046,0.97036797,0.0,0.0,-0.6452334,1,0,0,0,0,0
1475744000,0.007120668,-0.49716526,3.2009482,0.0,-0.029636718,0.2458181,0.0107498905,0.96880317,0.0,0.0,-0.65156686,1,0,0,0,0,0
1475836000,0.0045401906,-0.50705785,3.2009416,0.0,-0.029290706,0.25064534,0.009638442,0.96758777,0.0,0.0,-0.6552273,1,0,0,0,0,0
1475932000,0.005817246,-0.5242884,3.2009254,0.0,-0.029401962,0.25895366,0.01049495,0.9653851,0.0,0.0,-0.66206074,1,0,0,0,0,0
1476044000,0.006306852,-0.54209006,3.2009082,0.0,-0.029414594,0.26752928,0.010976278,0.96303815,0.0,0.0,-0.6667921,1,0,0,0,0,0
1476136000,0.007533697,-0.52043515,3.200893,0.0,-0.029616283,0.25706798,0.0112659605,0.9658737,0.0,0.0,-0.659702,1,0,0,0,0,0
1476248000,0.008021222,-0.48051083,3.2008822,0.0,-0.029742751,0.23772879,0.010946599,0.9708144,0.0,0.0,-0.66345817,1,0,0,0,0,0
1476340000,0.008401665,-0.46023285,3.2008765,0.0,-0.02981381,0.22786745,0.010848288,0.9731751,0.0,0.0,-0.6665882,1,0,0,0,0,0
1476436000,0.0075360676,-0.46659613,3.2008734,0.0,-0.029703693,0.23097566,0.010515765,0.9724492,0.0,0.0,-0.66465575,1,0,0,0,0,0
1476548000,0.007032475,-0.47919756,3.200864,0.0,-0.029618803,0.237106,0.010446145,0.97097594,0.0,0.0,-0.66092783,1,0,0,0,0,0
1476640000,0.007787209,-0.4830118,3.200859,0.0,-0.02969959,0.23894626,0.0108650755,0.9705177,0.0,0.0,-0.6605966,1,0,0,0,0,0
1476732000,0.0075472468,-0.4793518,3.2008533,0.0,-0.029674366,0.2371733,0.010696939,0.9709551,0.0,0.0,-0.66131413,1,0,0,0,0,0
1476844000,0.008523073,-0.47387764,3.200853,0.0,-0.029797776,0.23450015,0.011094607,0.97159594,0.0,0.0,-0.66282296,1,0,0,0,0,0
1476940000,0.00874104,-0.4733038,3.2008545,0.0,-0.029824805,0.23421814,0.011192694,0.97166204,0.0,0.0,-0.6643654,1,0,0,0,0,0
1477032000,0.007989655,-0.47640464,3.2008545,0.0,-0.029732024,0.23573563,0.010870838,0.9713015,0.0,0.0,-0.6646829,1,0,0,0,0,0
1477144000,0.007761053,-0.4783588,3.200851,0.0,-0.029700179,0.23668803,0.010786624,0.9710718,0.0,0.0,-0.6640345,1,0,0,0,0,0
1477240000,0.008352859,-0.47957122,3.2008412,0.0,-0.02976367,0.23726797,0.011089654,0.97092485,0.0,0.0,-0.66447943,1,0,0,0,0,0
1477332000,0.009217224,-0.48149714,3.200831,0.0,-0.029858753,0.23819003,0.011534693,0.97069097,0.0,0.0,-0.6635772,1,0,0,0,0,0
1477444000,0.009209408,-0.48098558,3.2008111,0.0,-0.02984888,0.23794197,0.011521472,0.97075224,0.0,0.0,-0.6650535,1,0,0,0,0,0
1477540000,0.009586442,-0.4810481,3.200798,0.0,-0.029887293,0.23796675,0.011703776,0.97074276,0.0,0.0,-0.6655192,1,0,0,0,0,0
1477632000,0.0096385,-0.48207605,3.2007823,0.0,-0.029884625,0.238465,0.011741352,0.97062016,0.0,0.0,-0.66542935,1,0,0,0,0,0
1477744000,0.008988697,-0.48063928,3.2007704,0.0,-0.029803298,0.23777735,0.0114047015,0.9707954,0.0,0.0,-0.6656483,1,0,0,0,0,0
1477836000,0.009740195,-0.4822156,3.2007618,0.0,-0.02988664,0.23853132,0.011790183,0.9706032,0.0,0.0,-0.6667832,1,0,0,0,0,0
1477932000,0.009880352,-0.4823968,3.200756,0.0,-0.029900374,0.2386172,0.011860014,0.9705808,0.0,0.0,-0.667143,1,0,0,0,0,0
1478044000,0.009943293,-0.4849662,3.2007413,0.0,-0.02989781,0.23986314,0.01192415,0.97027296,0.0,0.0,-0.6651231,1,0,0,0,0,0
1478132000,0.011544989,-0.48476395,3.2007315,0.0,-0.0300853,0.23974101,0.01269725,0.97028756,0.0,0.0,-0.6660351,1,0,0,0,0,0
1478244000,0.011932582,-0.48424944,3.2007122,0.0,-0.030122729,0.23948571,0.012875962,0.97034705,0.0,0.0,-0.66714215,1,0,0,0,0,0
1478336000,0.009475646,-0.484963,3.2006974,0.0,-0.02982045,0.23986882,0.011691971,0.9702768,0.0,0.0,-0.6678622,1,0,0,0,0,0
1478432000,0.009527128,-0.4857292,3.2006724,0.0,-0.029813526,0.2402399,0.011724488,0.9701848,0.0,0.0,-0.6679478,1,0,0,0,0,0
1478544000,0.009527335,-0.48566088,3.2006364,0.0,-0.029796172,0.24020702,0.011719326,0.9701935,0.0,0.0,-0.669024,1,0,0,0,0,0
1478640000,0.009726404,-0.4861774,3.2005985,0.0,-0.029801074,0.24045482,0.011818433,0.9701308,0.0,0.0,-0.6695858,1,0,0,0,0,0
1478732000,0.011559753,-0.4870072,3.2005646,0.0,-0.03000444,0.24083014,0.012714946,0.97002006,0.0,0.0,-0.6697505,1,0,0,0,0,0
1478844000,0.010332327,-0.48734656,3.2005181,0.0,-0.02983373,0.24101338,0.01211867,0.96998745,0.0,0.0,-0.66885716,1,0,0,0,0,0
1478936000,0.010261178,-0.48765698,3.200484,0.0,-0.029808288,0.24116522,0.012084297,0.969951,0.0,0.0,-0.66930586,1,0,0,0,0,0
1479032000,0.009983735,-0.48859257,3.2004478,0.0,-0.029756201,0.2416233,0.011958165,0.9698401,0.0,0.0,-0.6699798,1,0,0,0,0,0
1479144000,0.010404474,-0.48728326,3.200406,0.0,-0.02978814,0.2409823,0.012139294,0.96999633,0.0,0.0,-0.6708341,1,0,0,0,0,0
1479236000,0.009775844,-0.48945463,3.2003577,0.0,-0.02968636,0.24204497,0.0118582435,0.9697383,0.0,0.0,-0.6703819,1,0,0,0,0,0
1479332000,0.010070038,-0.48835182,3.2003152,0.0,-0.02970261,0.24150608,0.01198072,0.9698706,0.0,0.0,-0.6707646,1,0,0,0,0,0
1479444000,0.010410644,-0.4892479,3.200257,0.0,-0.02971461,0.24193591,0.01215105,0.969761,0.0,0.0,-0.6713171,1,0,0,0,0,0
1479536000,0.0102144545,-0.4892883,3.2002118,0.0,-0.029668873,0.2419587,0.012050994,0.969758,0.0,0.0,-0.67096514,1,0,0,0,0,0
1479632000,0.0105345575,-0.4900385,3.2001607,0.0,-0.029682111,0.242318,0.012210207,0.9696659,0.0,0.0,-0.67180055,1,0,0,0,0,0
1479744000,0.010347667,-0.4906853,3.2001047,0.0,-0.029631628,0.24263471,0.012121581,0.96958935,0.0,0.0,-0.6728301,1,0,0,0,0,0
1479836000,0.010313832,-0.49294287,3.200047,0.0,-0.029597167,0.24372996,0.0121287545,0.9693155,0.0,0.0,-0.67016083,1,0,0,0,0,0
1479928000,0.009859037,-0.49346542,3.199998,0.0,-0.029517327,0.24399024,0.011909431,0.9692552,0.0,0.0,-0.6729428,1,0,0,0,0,0
1480040000,0.008366687,-0.49351272,3.1999242,0.0,-0.029299483,0.24403554,0.011177851,0.96925914,0.0,0.0,-0.6724116,1,0,0,0,0,0
1480136000,0.009382037,-0.4935441,3.1998744,0.0,-0.029399175,0.24403612,0.011664264,0.9692502,0.0,0.0,-0.67126375,1,0,0,0,0,0
1480248000,0.0089919595,-0.49520788,3.1997998,0.0,-0.02931312,0.24484855,0.011488672,0.96905005,0.0,0.0,-0.6727208,1,0,0,0,0,0
1480344000,0.010497169,-0.4929199,3.1997452,0.0,-0.029473247,0.24371794,0.0121805165,0.96932167,0.0,0.0,-0.6741053,1,0,0,0,0,0
1480436000,0.011140951,-0.49311575,3.1996868,0.0,-0.029523214,0.24380372,0.012488039,0.96929467,0.0,0.0,-0.6740085,1,0,0,0,0,0
1480528000,0.0111500835,-0.49343953,3.1996403,0.0,-0.029501526,0.24396084,0.012491135,0.96925575,0.0,0.0,-0.6746372,1,0,0,0,0,0
1480640000,0.010344159,-0.4962641,3.1995752,0.0,-0.029368727,0.24534181,0.012130521,0.96891576,0.0,0.0,-0.6735225,1,0,0,0,0,0
1480736000,0.010924285,-0.49693573,3.1995306,0.0,-0.029417677,0.24565893,0.012415078,0.96883035,0.0,0.0,-0.67425495,1,0,0,0,0,0
1480828000,0.0090680355,-0.49791348,3.1994646,0.0,-0.029156335,0.24616016,0.011520926,0.96872205,0.0,0.0,-0.6743412,1,0,0,0,0,0
1480940000,0.009456722,-0.4978155,3.1993966,0.0,-0.029171385,0.24610744,0.0116995135,0.9687328,0.0,0.0,-0.6739532,1,0,0,0,0,0
1481032000,0.008409924,-0.49764803,3.199325,0.0,-0.029008182,0.24604197,0.0111814225,0.96876043,0.0,0.0,-0.67439264,1,0,0,0,0,0
1481144000,0.01052652,-0.49833792,3.1992571,0.0,-0.029234948,0.24634573,0.012207484,0.96866405,0.0,0.0,-0.6744188,1,0,0,0,0,0
1481240000,0.0102413865,-0.4988087,3.1992078,0.0,-0.029175416,0.2465782,0.012069578,0.9686085,0.0,0.0,-0.6762945,1,0,0,0,0,0
1481332000,0.010529515,-0.49823123,3.1991613,0.0,-0.029188996,0.24629456,0.012195709,0.96867865,0.0,0.0,-0.67534256,1,0,0,0,0,0
1481444000,0.01107109,-0.49760303,3.1990936,0.0,-0.029223438,0.24598278,0.012441355,0.9687537,0.0,0.0,-0.6768187,1,0,0,0,0,0
1481536000,0.011043442,-0.49763644,3.1990416,0.0,-0.029194834,0.2459997,0.012422012,0.9687505,0.0,0.0,-0.67568636,1,0,0,0,0,0
1481632000,0.010021419,-0.499228,3.1989825,0.0,-0.02903871,0.24678582,0.011940837,0.9685613,0.0,0.0,-0.6764785,1,0,0,0,0,0
1481744000,0.010345516,-0.49918857,3.1989152,0.0,-0.029046183,0.24676241,0.012088972,0.9685652,0.0,0.0,-0.6767415,1,0,0,0,0,0
1481832000,0.010843165,-0.49996066,3.1988494,0.0,-0.029075006,0.24712953,0.012332046,0.96846765,0.0,0.0,-0.6760744,1,0,0,0,0,0
1481944000,0.011634231,-0.50126106,3.1987786,0.0,-0.029137524,0.24774817,0.01272343,0.96830267,0.0,0.0,-0.6752111,1,0,0,0,0,0
1482036000,0.010644191,-0.4995817,3.1987064,0.0,-0.028981512,0.24694976,0.012213029,0.9685178,0.0,0.0,-0.6772112,1,0,0,0,0,0
1482132000,0.010562968,-0.49842367,3.1986637,0.0,-0.028951934,0.24639036,0.012153172,0.9686619,0.0,0.0,-0.6768585,1,0,0,0,0,0
1482244000,0.010909238,-0.5007999,3.1986127,0.0,-0.028967787,0.24753642,0.01234581,0.9683668,0.0,0.0,-0.6759133,1,0,0,0,0,0
1482336000,0.011709004,-0.5031723,3.1985483,0.0,-0.02903394,0.24867381,0.012756068,0.968068,0.0,0.0,-0.6766974,1,0,0,0,0,0
1482448000,0.011241062,-0.5051753,3.1984792,0.0,-0.028940637,0.24965057,0.012547152,0.9678221,0.0,0.0,-0.6775474,1,0,0,0,0,0
1482540000,0.010522681,-0.5060582,3.1984084,0.0,-0.028815804,0.2500886,0.012202237,0.9677172,0.0,0.0,-0.6768435,1,0,0,0,0,0
1482636000,0.010345007,-0.5061663,3.1983511,0.0,-0.028765786,0.25014383,0.012110529,0.9677055,0.0,0.0,-0.678286,1,0,0,0,0,0
1482728000,0.010638987,-0.5064562,3.1982706,0.0,-0.028763283,0.25028035,0.012246476,0.96766853,0.0,0.0,-0.67795813,1,0,0,0,0,0
1482840000,0.011142655,-0.5054253,3.1981905,0.0,-0.028788423,0.24977472,0.012466741,0.96779567,0.0,0.0,-0.6788729,1,0,0,0,0,0
1482932000,0.0094549805,-0.5077397,3.1981084,0.0,-0.028535057,0.2509193,0.011670113,0.96751696,0.0,0.0,-0.6792043,1,0,0,0,0,0
1483044000,0.0097762905,-0.5077157,3.1980157,0.0,-0.028530527,0.25090364,0.011813599,0.9675194,0.0,0.0,-0.6803509,1,0,0,0,0,0
1483140000,0.008717878,-0.5068407,3.1979287,0.0,-0.028356893,0.25049582,0.011279212,0.9676366,0.0,0.0,-0.68041176,1,0,0,0,0,0
1483232000,0.009517795,-0.50808156,3.1978493,0.0,-0.028417144,0.25108528,0.011672433,0.9674773,0.0,0.0,-0.6805822,1,0,0,0,0,0
1483344000,0.009933141,-0.51174396,3.1977527,0.0,-0.028418405,0.2528513,0.011908688,0.9670144,0.0,0.0,-0.6790914,1,0,0,0,0,0
1483436000,0.011551122,-0.5115903,3.1976862,0.0,-0.028590906,0.25275433,0.012680608,0.96702486,0.0,0.0,-0.68022066,1,0,0,0,0,0
1483532000,0.012125421,-0.51036304,3.197622,0.0,-0.02863322,0.25215304,0.012934493,0.9671772,0.0,0.0,-0.679379,1,0,0,0,0,0
1483644000,0.010894321,-0.5098356,3.1975543,0.0,-0.02844573,0.25191596,0.01232383,0.9672525,0.0,0.0,-0.6816484,1,0,0,0,0,0
1483736000,0.010785613,-0.51018906,3.19748,0.0,-0.028395735,0.2520889,0.0122664245,0.9672096,0.0,0.0,-0.68121684,1,0,0,0,0,0
1483828000,0.010299411,-0.51064545,3.1974146,0.0,-0.028302392,0.2523169,0.012028924,0.9671559,0.0,0.0,-0.68040097,1,0,0,0,0,0
1483940000,0.010737599,-0.5129511,3.1973138,0.0,-0.028306762,0.2534262,0.012257601,0.9668628,0.0,0.0,-0.6803645,1,0,0,0,0,0
1484036000,0.011578607,-0.5136697,3.1972494,0.0,-0.028381675,0.2537621,0.012665156,0.9667672,0.0,0.0,-0.68092704,1,0,0,0,0,0
1484148000,0.011288701,-0.51261085,3.1971529,0.0,-0.028299054,0.25325483,0.012499299,0.9669049,0.0,0.0,-0.6816326,1,0,0,0,0,0
1484240000,0.010603514,-0.51209927,3.1970763,0.0,-0.028175782,0.25301766,0.012151835,0.966975,0.0,0.0,-0.6816426,1,0,0,0,0,0
1484332000,0.0106350845,-0.512773,3.1969798,0.0,-0.02813246,0.2533436,0.012163455,0.9668907,0.0,0.0,-0.6813252,1,0,0,0,0,0
1484444000,0.0102564385,-0.5130722,3.1968791,0.0,-0.028035546,0.25349417,0.011971459,0.9668565,0.0,0.0,-0.681485,1,0,0,0,0,0
1484540000,0.009629846,-0.51222354,3.19679,0.0,-0.027914016,0.25309312,0.011646434,0.966969,0.0,0.0,-0.68305063,1,0,0,0,0,0
1484632000,0.009473973,-0.5124695,3.1967075,0.0,-0.027854104,0.2532147,0.011563763,0.96693987,0.0,0.0,-0.68242615,1,0,0,0,0,0
1484744000,0.009233448,-0.5139813,3.1965997,0.0,-0.027769651,0.25394952,0.01145305,0.9667509,0.0,0.0,-0.68290085,1,0,0,0,0,0
1484840000,0.009947914,-0.51531893,3.1965213,0.0,-0.027820999,0.25458664,0.01180536,0.96657765,0.0,0.0,-0.6820623,1,0,0,0,0,0
1484932000,0.010870169,-0.5165322,3.1964357,0.0,-0.027895967,0.25516066,0.012255424,0.96641845,0.0,0.0,-0.6830345,1,0,0,0,0,0
1485044000,0.010060615,-0.51479185,3.196357,0.0,-0.027756505,0.2543313,0.011832279,0.9666464,0.0,0.0,-0.6836595,1,0,0,0,0,0
1485140000,0.010533789,-0.51522267,3.196292,0.0,-0.027784815,0.25453335,0.012058105,0.9665896,0.0,0.0,-0.68319404,1,0,0,0,0,0
1485232000,0.011690978,-0.5146583,3.196234,0.0,-0.027904453,0.25424477,0.012602961,0.96665514,0.0,0.0,-0.6823417,1,0,0,0,0,0
1485344000,0.01159794,-0.5156749,3.1961498,0.0,-0.027851261,0.25473797,0.012559948,0.96652734,0.0,0.0,-0.6846222,1,0,0,0,0,0
1485436000,0.0100291185,-0.5163544,3.1960866,0.0,-0.027620189,0.25508848,0.011802257,0.96645105,0.0,0.0,-0.6833592,1,0,0,0,0,0
1485532000,0.009564609,-0.51570934,3.196011,0.0,-0.027525168,0.25478363,0.011560064,0.9665371,0.0,0.0,-0.6839525,1,0,0,0,0,0
1485644000,0.008118696,-0.5162218,3.1959233,0.0,-0.02729779,0.2550516,0.010856583,0.96648103,0.0,0.0,-0.68334204,1,0,0,0,0,0
1485736000,0.0077837184,-0.5173913,3.1958258,0.0,-0.027206099,0.2556218,0.010697018,0.9663348,0.0,0.0,-0.68391764,1,0,0,0,0,0
1485848000,0.0088372715,-0.51782846,3.1957314,0.0,-0.02729455,0.25581923,0.011199466,0.9662743,0.0,0.0,-0.68417835,1,0,0,0,0,0
1485940000,0.009639552,-0.517165,3.1956525,0.0,-0.02735979,0.25548813,0.011568723,0.96635574,0.0,0.0,-0.68363386,1,0,0,0,0,0
1486036000,0.008086622,-0.517226,3.1955855,0.0,-0.02712894,0.25553912,0.010810584,0.9663576,0.0,0.0,-0.68396336,1,0,0,0,0,0
1486148000,0.008307889,-0.5164342,3.195467,0.0,-0.027101098,0.25515413,0.010892468,0.96645916,0.0,0.0,-0.6845754,1,0,0,0,0,0
1486240000,0.0089786975,-0.5164424,3.1953802,0.0,-0.027144728,0.25514948,0.011205651,0.9664556,0.0,0.0,-0.6853334,1,0,0,0,0,0
1486332000,0.007971753,-0.5184462,3.1952822,0.0,-0.026965888,0.25613186,0.010731541,0.9662061,0.0,0.0,-0.6843777,1,0,0,0,0,0
1486444000,0.007734767,-0.5188425,3.1951737,0.0,-0.026882509,0.2563271,0.010608094,0.966158,0.0,0.0,-0.6843644,1,0,0,0,0,0
1486540000,0.0063839937,-0.5171208,3.1950731,0.0,-0.026664019,0.25551382,0.00992112,0.96638674,0.0,0.0,-0.6854695,1,0,0,0,0,0
1486632000,0.007395599,-0.51603574,3.1949794,0.0,-0.026749741,0.25497645,0.01038446,0.96652144,0.0,0.0,-0.686133,1,0,0,0,0,0
1486744000,0.0066741635,-0.51737815,3.1948595,0.0,-0.026597409,0.2556354,0.010037239,0.9663552,0.0,0.0,-0.6852187,1,0,0,0,0,0
1486836000,0.0064226724,-0.518715,3.1947713,0.0,-0.026520161,0.25628507,0.009921077,0.96618646,0.0,0.0,-0.68472064,1,0,0,0,0,0
1486932000,0.0064584273,-0.5181056,3.1946821,0.0,-0.026482789,0.25599065,0.009919358,0.9662655,0.0,0.0,-0.6862307,1,0,0,0,0,0
1487044000,0.0076542017,-0.51901484,3.194611,0.0,-0.026600106,0.25641444,0.010499183,0.9661438,0.0,0.0,-0.6852853,1,0,0,0,0,0
1487136000,0.009123978,-0.5205929,3.1945546,0.0,-0.026759343,0.2571574,0.011221208,0.9659338,0.0,0.0,-0.68577194,1,0,0,0,0,0
1487248000,0.00814648,-0.52169466,3.1944683,0.0,-0.02659039,0.257703,0.0107515035,0.9657984,0.0,0.0,-0.68596053,1,0,0,0,0,0
1487340000,0.008671502,-0.52368027,3.1943893,0.0,-0.026617313,0.2586552,0.011019068,0.9655401,0.0,0.0,-0.6855656,1,0,0,0,0,0
1487436000,0.008090391,-0.5222687,3.1943038,0.0,-0.02650289,0.25798187,0.01071023,0.9657268,0.0,0.0,-0.6871121,1,0,0,0,0,0
1487528000,0.006987183,-0.5219357,3.1942303,0.0,-0.026325691,0.257836,0.010163973,0.9657765,0.0,0.0,-0.6873152,1,0,0,0,0,0
1487640000,0.007584247,-0.5224059,3.1941383,0.0,-0.02635749,0.2580557,0.010446163,0.9657139,0.0,0.0,-0.68718183,1,0,0,0,0,0
1487732000,0.0070304833,-0.5240747,3.1940668,0.0,-0.026248675,0.25886902,0.010189928,0.96550196,0.0,0.0,-0.6878874,1,0,0,0,0,0
1487844000,0.006626871,-0.52333957,3.1939619,0.0,-0.026147103,0.25851995,0.009972525,0.9656005,0.0,0.0,-0.688153,1,0,0,0,0,0
1487940000,0.007355337,-0.5241011,3.1938803,0.0,-0.026200673,0.25887847,0.010322941,0.96549934,0.0,0.0,-0.6889654,1,0,0,0,0,0
1488032000,0.0077237324,-0.52386516,3.1937728,0.0,-0.026196806,0.2587603,0.010484011,0.9655294,0.0,0.0,-0.68811363,1,0,0,0,0,0
1488144000,0.008124994,-0.52423,3.1936753,0.0,-0.026201127,0.25893173,0.010669506,0.9654813,0.0,0.0,-0.6885796,1,0,0,0,0,0
1488236000,0.0078083985,-0.52321845,3.1935947,0.0,-0.026122732,0.25844792,0.010494049,0.9656149,0.0,0.0,-0.6901434,1,0,0,0,0,0
1488348000,0.006803403,-0.52530086,3.193503,0.0,-0.025944965,0.25946674,0.010022144,0.96535146,0.0,0.0,-0.6894042,1,0,0,0,0,0
1488444000,0.0067430753,-0.5255698,3.1934228,0.0,-0.025898004,0.25959778,0.009985882,0.96531785,0.0,0.0,-0.69003564,1,0,0,0,0,0
1488536000,0.007892143,-0.52473485,3.1933458,0.0,-0.026011191,0.2591802,0.010520487,0.9654213,0.0,0.0,-0.6896391,1,0,0,0,0,0
1488628000,0.0068463716,-0.5253258,3.1932564,0.0,-0.025831504,0.25947946,0.010011203,0.9653512,0.0,0.0,-0.69018006,1,0,0,0,0,0
1488740000,0.0065231747,-0.5259944,3.1931605,0.0,-0.025742123,0.25980684,0.009850808,0.9652672,0.0,0.0,-0.68890166,1,0,0,0,0,0
1488836000,0.0069497344,-0.5232569,3.1930687,0.0,-0.025757777,0.2584803,0.01001197,0.9656212,0.0,0.0,-0.6908605,1,0,0,0,0,0
1488928000,0.0062170923,-0.52298504,3.1929893,0.0,-0.025625251,0.25835884,0.009644717,0.9656609,0.0,0.0,-0.6910094,1,0,0,0,0,0
1489040000,0.0056208647,-0.52537453,3.1928763,0.0,-0.025488965,0.25952056,0.009370953,0.9653557,0.0,0.0,-0.69061655,1,0,0,0,0,0
1489132000,0.005144761,-0.52670777,3.1927958,0.0,-0.025385508,0.26017052,0.009146727,0.9651856,0.0,0.0,-0.69049525,1,0,0,0,0,0
1489244000,0.006239088,-0.5243219,3.192699,0.0,-0.025485469,0.25900543,0.009633781,0.96549153,0.0,0.0,-0.68974686,1,0,0,0,0,0
1489340000,0.0061798845,-0.52447164,3.192626,0.0,-0.025442313,0.2590788,0.009597538,0.96547335,0.0,0.0,-0.69016033,1,0,0,0,0,0
1489436000,0.005927612,-0.52546084,3.192553,0.0,-0.025372561,0.25955984,0.009478093,0.9653472,0.0,0.0,-0.69203556,1,0,0,0,0,0
1489548000,0.005245863,-0.52867705,3.1924667,0.0,-0.02523584,0.261121,0.009176221,0.9649325,0.0,0.0,-0.6898445,1,0,0,0,0,0
1489640000,0.005689554,-0.52750814,3.1923792,0.0,-0.02525382,0.26055178,0.00936497,0.96508414,0.0,0.0,-0.68996763,1,0,0,0,0,0
1489732000,0.0060223024,-0.52614707,3.1923106,0.0,-0.025266549,0.25989103,0.009500463,0.96526057,0.0,0.0,-0.69086456,1,0,0,0,0,0
1489844000,0.0059571536,-0.5244988,3.1922326,0.0,-0.025223508,0.25909662,0.009439377,0.9654758,0.0,0.0,-0.6917575,1,0,0,0,0,0
1489940000,0.0051335664,-0.52507144,3.1921835,0.0,-0.025091933,0.25938368,0.009042243,0.965406,0.0,0.0,-0.69203043,1,0,0,0,0,0
1490032000,0.0051233643,-0.5263859,3.1921227,0.0,-0.025058573,0.2600185,0.009045027,0.96523607,0.0,0.0,-0.6913902,1,0,0,0,0,0
1490144000,0.003931409,-0.52623236,3.1920712,0.0,-0.02487911,0.25995952,0.00846124,0.9652619,0.0,0.0,-0.6919143,1,0,0,0,0,0
1490236000,0.004421899,-0.5260828,3.1920288,0.0,-0.02492271,0.2598814,0.00869067,0.96527976,0.0,0.0,-0.6915416,1,0,0,0,0,0
1490332000,0.0049628676,-0.52618676,3.192002,0.0,-0.024979897,0.2599249,0.008949524,0.96526426,0.0,0.0,-0.69149214,1,0,0,0,0,0
1490444000,0.004868471,-0.52424943,3.1919584,0.0,-0.024950627,0.25899112,0.008875352,0.96551657,0.0,0.0,-0.6922811,1,0,0,0,0,0
1490536000,0.005040165,-0.52467597,3.1919348,0.0,-0.024960596,0.25919503,0.008960229,0.96546084,0.0,0.0,-0.69076896,1,0,0,0,0,0
1490648000,0.0036592185,-0.5243317,3.1918929,0.0,-0.024762183,0.25904617,0.008284061,0.9655119,0.0,0.0,-0.69276,1,0,0,0,0,0
1490740000,0.004348727,-0.525911,3.1918404,0.0,-0.024822675,0.25980017,0.008628845,0.9653048,0.0,0.0,-0.6921805,1,0,0,0,0,0
1490836000,0.0031065345,-0.52682835,3.191766,0.0,-0.0246231,0.2602586,0.008030556,0.9651915,0.0,0.0,-0.69163096,1,0,0,0,0,0
1490948000,0.0023795238,-0.52635074,3.191691,0.0,-0.024493532,0.2600373,0.0076642297,0.96525747,0.0,0.0,-0.690841,1,0,0,0,0,0
1491040000,0.0014572759,-0.525926,3.1916213,0.0,-0.02434125,0.25984386,0.007204984,0.96531695,0.0,0.0,-0.6924279,1,0,0,0,0,0
1491132000,0.00067356863,-0.52596986,3.1915662,0.0,-0.024212714,0.2598747,0.0068200924,0.9653147,0.0,0.0,-0.69187135,1,0,0,0,0,0
1491244000,0.001502154,-0.52501583,3.1915095,0.0,-0.024295732,0.25940436,0.0072012395,0.96543634,0.0,0.0,-0.69123125,1,0,0,0,0,0
1491340000,0.0003628555,-0.523901,3.1914842,0.0,-0.024139266,0.25888002,0.0066345963,0.96558505,0.0,0.0,-0.6915077,1,0,0,0,0,0
1491432000,0.00025589523,-0.5232042,3.1914535,0.0,-0.024112778,0.25854504,0.0065706004,0.96567583,0.0,0.0,-0.6939086,1,0,0,0,0,0
1491544000,1.2392071e-05,-0.524385,3.191434,0.0,-0.024068056,0.2591181,0.006464708,0.9655241,0.0,0.0,-0.69286555,1,0,0,0,0,0
1491636000,-0.00025385048,-0.52568215,3.1914134,0.0,-0.024019388,0.25974753,0.0063491426,0.9653569,0.0,0.0,-0.6917662,1,0,0,0,0,0
1491732000,-0.0005476659,-0.5277326,3.1914072,0.0,-0.023971323,0.26074067,0.0062312456,0.9650911,0.0,0.0,-0.6914456,1,0,0,0,0,0
1491844000,-0.00079853204,-0.52636576,3.191384,0.0,-0.023932151,0.2600841,0.006090679,0.9652701,0.0,0.0,-0.69132346,1,0,0,0,0,0
1491936000,-0.00032811594,-0.52653754,3.191392,0.0,-0.02399655,0.26016134,0.0063208104,0.96524626,0.0,0.0,-0.6913885,1,0,0,0,0,0
1492048000,-0.0013015588,-0.52470124,3.191413,0.0,-0.023886567,0.25928658,0.0058314935,0.96548736,0.0,0.0,-0.69258076,1,0,0,0,0,0
1492140000,-0.0005757029,-0.5244622,3.1914773,0.0,-0.024012549,0.25916228,0.0061873533,0.96551543,0.0,0.0,-0.6925752,1,0,0,0,0,0
1492236000,-0.0015593648,-0.52563727,3.1915526,0.0,-0.023917202,0.2597411,0.0057365363,0.96536505,0.0,0.0,-0.6928238,1,0,0,0,0,0
1492328000,-0.001838055,-0.52820325,3.1916227,0.0,-0.023905346,0.26098257,0.0056424118,0.96503097,0.0,0.0,-0.69139904,1,0,0,0,0,0
1492440000,-0.0022753612,-0.5310305,3.1917076,0.0,-0.023878412,0.26235142,0.0054770834,0.9646614,0.0,0.0,-0.69148356,1,0,0,0,0,0
1492532000,-0.0037944147,-0.5292581,3.1917381,0.0,-0.023701308,0.26151446,0.004726518,0.9648969,0.0,0.0,-0.6935742,1,0,0,0,0,0
1492644000,-0.004575788,-0.5281904,3.1917837,0.0,-0.02362578,0.26100844,0.0043422496,0.9650376,0.0,0.0,-0.6930936,1,0,0,0,0,0
1492740000,-0.004450999,-0.4792922,3.1918018,0.0,-0.02385643,0.23733775,0.0037969346,0.9711268,0.0,0.0,-0.6730009,1,0,0,0,0,0
1492832000,-0.0048449216,-0.42174476,3.1918533,0.0,-0.024064096,0.20930587,0.002891484,0.97754985,0.0,0.0,-0.6734645,1,0,0,0,0,0
1492944000,-0.005328234,-0.3817623,3.1919074,0.0,-0.024192477,0.18972918,0.0021575412,0.98153603,0.0,0.0,-0.67533845,1,0,0,0,0,0
1493036000,-0.00497089,-0.3831732,3.1919818,0.0,-0.02425778,0.19041714,0.002357751,0.98140067,0.0,0.0,-0.66132045,1,0,0,0,0,0
1493132000,-0.005805014,-0.37684855,3.1920485,0.0,-0.024235195,0.18732281,0.0018747348,0.9819976,0.0,0.0,-0.6519405,1,0,0,0,0,0
1493244000,-0.0066753877,-0.36409792,3.1921513,0.0,-0.024254717,0.18106918,0.0012947012,0.9831704,0.0,0.0,-0.64771134,1,0,0,0,0,0
1493336000,-0.0056955316,-0.3484076,3.1922257,0.0,-0.024437161,0.17333879,0.0015837132,0.98455775,0.0,0.0,-0.64432585,1,0,0,0,0,0
1493448000,-0.00601246,-0.32680482,3.1923394,0.0,-0.02454371,0.16269837,0.0011619582,0.9863699,0.0,0.0,-0.6406131,1,0,0,0,0,0
1493540000,-0.005987104,-0.3159437,3.1924353,0.0,-0.024631174,0.15733925,0.0010434025,0.98723686,0.0,0.0,-0.63873094,1,0,0,0,0,0
1493636000,-0.0057091587,-0.2981326,3.192541,0.0,-0.024764976,0.14853795,0.0009608567,0.98859614,0.0,0.0,-0.6323262,1,0,0,0,0,0
1493748000,-0.0068230582,-0.28589487,3.1926787,0.0,-0.024793744,0.14250001,0.0002628442,0.9894842,0.0,0.0,-0.62889916,1,0,0,0,0,0
1493840000,-0.00817371,-0.2768902,3.1928196,0.0,-0.024801597,0.13806048,-0.00051208504,0.99011314,0.0,0.0,-0.6246807,1,0,0,0,0,0
1493932000,-0.008446804,-0.2659083,3.192964,0.0,-0.024896318,0.1326254,-0.00078017043,0.9908532,0.0,0.0,-0.6245731,1,0,0,0,0,0
1494044000,-0.008484376,-0.2537676,3.1931279,0.0,-0.025020765,0.12660888,-0.00094633945,0.99163663,0.0,0.0,-0.61941373,1,0,0,0,0,0
1494140000,-0.009936645,-0.23790944,3.1932335,0.0,-0.025045376,0.11876071,-0.0018677034,0.99260527,0.0,0.0,-0.6145851,1,0,0,0,0,0
1494232000,-0.008640876,-0.22828433,3.193362,0.0,-0.025221217,0.113966346,-0.0013431091,0.9931635,0.0,0.0,-0.6141034,1,0,0,0,0,0
1494344000,-0.007936579,-0.21579997,3.1935148,0.0,-0.025379803,0.10775601,-0.0011484401,0.99385273,0.0,0.0,-0.6111022,1,0,0,0,0,0
1494436000,-0.008948838,-0.2092821,3.1936715,0.0,-0.025426595,0.1045296,-0.0017289359,0.99419516,0.0,0.0,-0.6084558,1,0,0,0,0,0
1494532000,-0.008414118,-0.19412316,3.193833,0.0,-0.02558654,0.09698469,-0.0016548347,0.9949556,0.0,0.0,-0.60744274,1,0,0,0,0,0
1494644000,-0.00864383,-0.18294412,3.194059,0.0,-0.025725564,0.09142515,-0.0019063969,0.9954778,0.0,0.0,-0.60279036,1,0,0,0,0,0
1494736000,-0.0095343385,-0.17392929,3.1942525,0.0,-0.02581318,0.086949006,-0.0024608928,0.99587524,0.0,0.0,-0.60166776,1,0,0,0,0,0
1494828000,-0.009033794,-0.16857803,3.1944597,0.0,-0.025956191,0.08427793,-0.0022741372,0.99610156,0.0,0.0,-0.6003226,1,0,0,0,0,0
1494940000,-0.010376657,-0.15842244,3.194698,0.0,-0.0260556,0.079236776,-0.003069414,0.99651057,0.0,0.0,-0.60031104,1,0,0,0,0,0
1495036000,-0.010858294,-0.14570376,3.194897,0.0,-0.026182875,0.07290482,-0.0034731133,0.99698913,0.0,0.0,-0.59811187,1,0,0,0,0,0
1495148000,-0.012557637,-0.13496128,3.1951454,0.0,-0.026288474,0.06757166,-0.0044569783,0.997358,0.0,0.0,-0.59859306,1,0,0,0,0,0
1495240000,-0.01315191,-0.1232226,3.1953785,0.0,-0.026433356,0.06172522,-0.0049054315,0.99773103,0.0,0.0,-0.60041827,1,0,0,0,0,0
1495332000,-0.01590749,-0.112664,3.1956313,0.0,-0.026524667,0.05649442,-0.006417133,0.9980299,0.0,0.0,-0.6030249,1,0,0,0,0,0
1495444000,-0.020028545,-0.08978696,3.195978,0.0,-0.026711274,0.045131568,-0.0087801665,0.9985853,0.0,0.0,-0.60720074,1,0,0,0,0,0
1495540000,-0.02424136,-0.05382091,3.1962986,0.0,-0.027011648,0.027226534,-0.011375616,0.9991995,0.0,0.0,-0.61201483,1,0,0,0,0,0
1495632000,-0.028560784,0.010065284,3.1966748,0.0,-0.027606286,-0.00463697,-0.014412885,0.9995042,0.0,0.0,-0.5919529,1,0,0,0,0,0
1495744000,-0.6044224,0.09459199,3.1971316,0.05051204,-0.040544074,-0.03686356,-0.29843774,0.95285475,0.0,0.0,-0.31292236,1,0,0,0,0,0
1495836000,-0.28822795,0.049178515,3.1976137,0.05051204,-0.03123782,-0.02030135,-0.14419739,0.98884743,0.0,0.0,-0.56519675,1,0,0,0,0,0
1495932000,-0.15643203,0.02250225,3.1986651,0.05051204,-0.029322084,-0.00898265,-0.07841957,0.99644864,0.0,0.0,-0.6077153,1,0,0,0,0,0
1496044000,-0.10005132,0.0071506896,3.2014554,0.05051204,-0.030067958,-0.002072787,-0.050088946,0.9982899,0.0,0.0,-0.5893574,1,0,0,0,0,0
1496136000,-0.104677364,0.009410834,3.2045324,0.05051204,-0.03166728,-0.0030505806,-0.05243616,0.9981174,0.0,0.0,-0.5868151,1,0,0,0,0,0
1496228000,-0.11437525,0.013853415,3.2078269,0.05051204,-0.033451807,-0.0050190715,-0.05735271,0.9977808,0.0,0.0,-0.5867749,1,0,0,0,0,0
1496340000,-0.118804015,0.018009584,3.2117386,0.05051204,-0.035536762,-0.006901591,-0.05964336,0.9975631,0.0,0.0,-0.5833346,1,0,0,0,0,0
1496436000,-0.11870127,0.024053557,3.214886,0.05051204,-0.037284173,-0.009824171,-0.059711542,0.99747074,0.0,0.0,-0.5828039,1,0,0,0,0,0
1496528000,-0.118417256,0.022908848,3.218391,0.05051204,-0.03899721,-0.0091541475,-0.0595655,0.9974204,0.0,0.0,-0.58122474,1,0,0,0,0,0
1496640000,-0.11791216,0.02285209,3.2225618,0.05051204,-0.041073255,-0.009011975,-0.059331447,0.9973523,0.0,0.0,-0.58034354,1,0,0,0,0,0
