timestamp,timestamp_sample,control[0],control[1],control[2],control[3],control[4],control[5],control[6],control[7]
3151276000,3151276000,-0.008852992,-0.020538839,-0.23557404,-0.0,0.0,0.0,0.0,-1.0
3151376000,3151376000,-0.011473562,-0.019460538,-0.2355744,-0.0,0.0,0.0,0.0,-1.0
3151476000,3151476000,-0.0108804535,-0.016169352,-0.23533456,-0.0,0.0,0.0,0.0,-1.0
3151576000,3151576000,-0.007743699,-0.020118995,-0.23452525,-0.0,0.0,0.0,0.0,-1.0
3151676000,3151676000,-0.010125124,-0.019980805,-0.23494653,-0.0,0.0,0.0,0.0,-1.0
3151776000,3151776000,-0.009912479,-0.018521164,-0.23508357,-0.0,0.0,0.0,0.0,-1.0
3151872000,3151872000,-0.00888005,-0.018365506,-0.2353587,-0.0,0.0,0.0,0.0,-1.0
3151976000,3151976000,-0.009370834,-0.02191677,-0.23431914,-0.0,0.0,0.0,0.0,-1.0
3152076000,3152076000,-0.011636652,-0.02159322,-0.23600875,-0.0,0.0,0.0,0.0,-1.0
3152172000,3152172000,-0.010228339,-0.019323617,-0.23563337,-0.0,0.0,0.0,0.0,-1.0
3152276000,3152276000,-0.0079283705,-0.019596294,-0.23480515,-0.0,0.0,0.0,0.0,-1.0
3152376000,3152376000,-0.0347856,-0.012930169,-0.00047658655,0.12002657,0.0,0.0,0.0,-1.0
3152472000,3152472000,-0.016078392,-0.0035927284,0.00015690163,0.14444192,0.0,0.0,0.0,-1.0
3152572000,3152572000,-0.014427271,-0.009173189,-6.359437e-05,0.21142194,0.0,0.0,0.0,-1.0
3152676000,3152676000,-0.01589995,-0.012826877,0.0004927763,0.29123336,0.0,0.0,0.0,-1.0
3152776000,3152776000,-0.01966874,-0.015920624,0.0006116901,0.35779345,0.0,0.0,0.0,-1.0
3152876000,3152876000,-0.019245831,-0.020363238,-0.0010045171,0.44094512,0.0,0.0,0.0,-1.0
3152976000,3152976000,-0.019822026,-0.021815225,0.001036418,0.5110299,0.0,0.0,0.0,-1.0
3153072000,3153072000,-0.015235651,-0.021400632,0.00025236732,0.5866236,0.0,0.0,0.0,-1.0
3153176000,3153176000,0.00408431,0.0015282864,-4.929485e-05,0.618475,0.0,0.0,0.0,-1.0
3153272000,3153272000,0.0037004296,0.0022560693,0.00031876535,0.60596746,0.0,0.0,0.0,-1.0
3153376000,3153376000,0.0035122866,-0.00040879752,0.00042833027,0.6125555,0.0,0.0,0.0,-1.0
3153472000,3153472000,0.0008523171,-0.0008191955,0.00026642013,0.6114921,0.0,0.0,0.0,-1.0
3153576000,3153576000,-0.0007770576,-0.00029512402,0.00022598615,0.61772,0.0,0.0,0.0,-1.0
3153676000,3153676000,0.0006840434,-0.001451985,0.0004959523,0.6212007,0.0,0.0,0.0,-1.0
3153776000,3153776000,0.0010675488,-0.0024905726,-0.0009848843,0.62007844,0.0,0.0,0.0,-1.0
3153872000,3153872000,-0.00047763158,-0.0006896041,-5.604612e-05,0.6196167,0.0,0.0,0.0,-1.0
3153976000,3153976000,-0.0018552385,0.00016448111,0.0005892152,0.6199147,0.0,0.0,0.0,-1.0
3154076000,3154076000,0.0017309918,-0.0013007579,0.00024934235,0.6278611,0.0,0.0,0.0,-1.0
3154176000,3154176000,-0.0016665173,-2.3932662e-05,-0.001206564,0.6293918,0.0,0.0,0.0,-1.0
3154276000,3154276000,-0.00029009464,0.0014021371,6.6873195e-05,0.6274241,0.0,0.0,0.0,-1.0
3154372000,3154372000,0.0004030394,6.394973e-05,-0.00055561226,0.6275959,0.0,0.0,0.0,-1.0
3154476000,3154476000,-0.0015041464,-0.0016718225,-0.00082798774,0.6290193,0.0,0.0,0.0,-1.0
3154576000,3154576000,0.003205361,-0.00055127265,-0.00047283166,0.6377904,0.0,0.0,0.0,-1.0
3154672000,3154672000,-0.0019266385,-0.00017009629,7.597391e-05,0.6365483,0.0,0.0,0.0,-1.0
3154772000,3154772000,-0.0011594315,0.00087003224,-0.001152294,0.6348274,0.0,0.0,0.0,-1.0
3154872000,3154872000,0.0011551818,-0.0019642757,-0.00037452774,0.638742,0.0,0.0,0.0,1.0
3154976000,3154976000,-0.00031416712,-0.0014250671,-0.000104534214,0.6152784,0.0,0.0,0.0,1.0
3155072000,3155072000,-0.0005493396,0.0013647716,0.0015018756,0.534102,0.0,0.0,0.0,1.0
3155176000,3155176000,-0.0027396046,0.0011954579,0.0009334333,0.56759316,0.0,0.0,0.0,1.0
3155272000,3155272000,0.0014295705,-0.0033540342,0.0005066676,0.5657745,0.0,0.0,0.0,1.0
3155376000,3155376000,0.0021043115,0.0012536728,-0.00018470295,0.5772873,0.0,0.0,0.0,1.0
3155476000,3155476000,0.0025117209,-0.0007100702,0.0007309887,0.5687893,0.0,0.0,0.0,1.0
3155572000,3155572000,-0.00084063626,-0.0022894787,-0.0003807916,0.56496817,0.0,0.0,0.0,1.0
3155672000,3155672000,0.00037570577,0.00016921584,-0.00017583155,0.5722087,0.0,0.0,0.0,1.0
3155776000,3155776000,3.3404795e-05,0.00018395146,-0.00031866314,0.5734999,0.0,0.0,0.0,1.0
3155872000,3155872000,0.0003027218,0.0024020039,0.00025322332,0.57025963,0.0,0.0,0.0,1.0
3155976000,3155976000,0.0035656386,0.00053916994,-0.0009250098,0.5726905,0.0,0.0,0.0,1.0
3156076000,3156076000,0.0011156724,-0.00042152294,-0.00023252863,0.570645,0.0,0.0,0.0,1.0
3156172000,3156172000,-0.0029947043,0.0009527606,9.138317e-05,0.578766,0.0,0.0,0.0,1.0
3156276000,3156276000,0.00037588069,-0.0022317949,-0.000428612,0.57914245,0.0,0.0,0.0,1.0
3156372000,3156372000,0.0013050106,-0.0013769241,0.0019527395,0.5755261,0.0,0.0,0.0,1.0
3156472000,3156472000,0.00028890988,-9.4584655e-05,0.0010313826,0.5713565,0.0,0.0,0.0,1.0
3156576000,3156576000,1.6249833e-05,-0.0021182832,0.001146194,0.57437104,0.0,0.0,0.0,1.0
3156676000,3156676000,0.0010461948,0.00091877434,0.0010536514,0.580389,0.0,0.0,0.0,1.0
3156776000,3156776000,-0.0011621831,0.0020479267,0.0006506125,0.57807785,0.0,0.0,0.0,1.0
3156872000,3156872000,-0.0011147901,0.0025255568,0.00067337253,0.57960075,0.0,0.0,0.0,1.0
3156972000,3156972000,0.00038238987,-0.00022183631,-0.0007229499,0.5736828,0.0,0.0,0.0,1.0
3157072000,3157072000,-0.0016852114,0.002033595,0.00027856382,0.5820402,0.0,0.0,0.0,1.0
3157176000,3157176000,-0.0008639625,-0.0006188206,-0.0007194877,0.582838,0.0,0.0,0.0,1.0
3157276000,3157276000,0.0021705416,0.0012138654,0.0003264494,0.5796063,0.0,0.0,0.0,1.0
3157372000,3157372000,-0.00077053776,0.0012062292,-0.0004800352,0.5839668,0.0,0.0,0.0,1.0
3157472000,3157472000,-0.002120656,-0.00049041025,8.2266815e-05,0.5770303,0.0,0.0,0.0,1.0
3157572000,3157572000,0.000931524,-0.00055526,0.0007874942,0.5820823,0.0,0.0,0.0,1.0
3157676000,3157676000,0.0013935426,0.0014635939,-0.000102734775,0.585923,0.0,0.0,0.0,1.0
3157776000,3157776000,0.0024660525,0.0014365993,-0.00018134038,0.58214927,0.0,0.0,0.0,1.0
3157876000,3157876000,-0.0017589474,-0.0011789445,-0.0012377196,0.5820467,0.0,0.0,0.0,1.0
3157972000,3157972000,0.00013499499,0.00093953096,-0.0010046901,0.5778018,0.0,0.0,0.0,1.0
3158076000,3158076000,0.0013524955,-0.00066339015,-0.00092414906,0.58494043,0.0,0.0,0.0,1.0
3158172000,3158172000,-0.0019486863,-0.0014191146,0.00026391985,0.5847928,0.0,0.0,0.0,1.0
3158272000,3158272000,0.00020744058,0.00013939057,0.0007249632,0.5822461,0.0,0.0,0.0,1.0
3158376000,3158376000,-0.0011100635,6.499576e-05,-0.0009061473,0.58053696,0.0,0.0,0.0,1.0
3158476000,3158476000,-0.000236817,0.0022697637,-0.00072589924,0.57939225,0.0,0.0,0.0,1.0
3158576000,3158576000,0.0014924661,-0.00013223731,-0.0003678544,0.58662313,0.0,0.0,0.0,1.0
3158672000,3158672000,0.0014828674,0.0009772847,-2.1210582e-05,0.58276254,0.0,0.0,0.0,1.0
3158776000,3158776000,-8.7726796e-05,-0.00056679273,-0.0008503176,0.5836513,0.0,0.0,0.0,1.0
3158872000,3158872000,-0.00035701643,0.00023488018,-0.00034215188,0.57937074,0.0,0.0,0.0,1.0
3158976000,3158976000,-0.0021285391,0.0011205291,0.00022121586,0.5795877,0.0,0.0,0.0,1.0
3159076000,3159076000,0.0029762594,0.00015864546,-0.00038190873,0.5860575,0.0,0.0,0.0,1.0
3159172000,3159172000,-0.00011690538,0.0016052843,0.00085924,0.5841025,0.0,0.0,0.0,1.0
3159276000,3159276000,-0.0007288004,0.00064648426,-0.0009085325,0.58255726,0.0,0.0,0.0,1.0
3159376000,3159376000,-0.00039162458,-0.0019238709,0.0009630193,0.5799909,0.0,0.0,0.0,1.0
3159476000,3159476000,-0.0016989606,0.00082628394,-0.00015646264,0.58793527,0.0,0.0,0.0,1.0
3159576000,3159576000,-0.003085829,0.0022090094,-0.00014900349,0.5862262,0.0,0.0,0.0,1.0
3159676000,3159676000,-0.0013017565,0.00093254645,-0.00073766935,0.58741516,0.0,0.0,0.0,1.0
3159772000,3159772000,-0.0008282907,0.00041622587,0.00054055854,0.60902286,0.0,0.0,0.0,1.0
3159876000,3159876000,-0.00033606964,0.0010276368,0.00016372613,0.6393225,0.0,0.0,0.0,1.0
3159972000,3159972000,-0.0011133616,0.0044373577,0.00081935787,0.68035865,0.0,0.0,0.0,1.0
3160072000,3160072000,-0.00064031995,0.00039867556,0.0004925867,0.69828886,0.0,0.0,0.0,1.0
3160176000,3160176000,-0.0032624018,0.003049449,-0.000406415,0.6980998,0.0,0.0,0.0,1.0
3160272000,3160272000,-0.00050076534,0.00016164649,-0.0007829669,0.6554761,0.0,0.0,0.0,1.0
3160372000,3160372000,-0.0025290342,-0.001682255,-0.0005212743,0.660889,0.0,0.0,0.0,1.0
3160476000,3160476000,0.002936912,0.001719315,-0.0004072533,0.6062116,0.0,0.0,0.0,1.0
3160576000,3160576000,0.00057651626,0.0019508016,0.0010314087,0.598828,0.0,0.0,0.0,1.0
3160672000,3160672000,-0.003167884,-0.005010682,0.00045066487,0.6105587,0.0,0.0,0.0,1.0
3160776000,3160776000,-0.00042638017,-0.0012466947,0.00048099266,0.6078224,0.0,0.0,0.0,1.0
3160876000,3160876000,0.0015662427,-0.0009021887,0.00014116391,0.60769254,0.0,0.0,0.0,1.0
3160976000,3160976000,-0.0029725868,0.0022742127,-0.00021640254,0.6070214,0.0,0.0,0.0,1.0
3161076000,3161076000,-3.4597717e-05,0.0005973077,-0.000232096,0.6064756,0.0,0.0,0.0,1.0
3161172000,3161172000,-0.00056206866,-0.0015664353,-0.0009223727,0.6062003,0.0,0.0,0.0,1.0
3161272000,3161272000,-0.00019131922,-0.000183105,-0.0007195556,0.60620433,0.0,0.0,0.0,1.0
3161376000,3161376000,-0.002725603,0.0012228389,-8.989292e-05,0.60624236,0.0,0.0,0.0,1.0
3161476000,3161476000,0.0011539945,0.0007152589,-1.5034887e-05,0.60781157,0.0,0.0,0.0,1.0
3161572000,3161572000,0.0013611323,0.00028629226,-0.00041356706,0.60474485,0.0,0.0,0.0,1.0
3161676000,3161676000,0.0011882726,-0.0015586696,-0.00018527679,0.606655,0.0,0.0,0.0,1.0
3161776000,3161776000,9.9329234e-05,-0.0030419345,0.0011014158,0.6050472,0.0,0.0,0.0,1.0
3161872000,3161872000,0.0013937014,0.0019790235,0.0004489387,0.60528886,0.0,0.0,0.0,1.0
3161972000,3161972000,0.0005484314,-0.00336389,0.00025175975,0.6095727,0.0,0.0,0.0,1.0
3162072000,3162072000,-0.0026777538,0.004394238,4.511916e-05,0.59564763,0.0,0.0,0.0,1.0
3162176000,3162176000,0.0021758091,0.00020295163,-0.0011356503,0.5958595,0.0,0.0,0.0,1.0
3162276000,3162276000,-0.0006867593,0.0026760104,0.0005591589,0.61179274,0.0,0.0,0.0,1.0
3162376000,3162376000,-0.0018063986,0.0010763586,0.00016050258,0.61011124,0.0,0.0,0.0,1.0
3162476000,3162476000,-0.0015019964,0.0008208741,-0.00053094426,0.6041395,0.0,0.0,0.0,1.0
3162576000,3162576000,-0.0022078706,-0.0012455677,0.00059298676,0.5977771,0.0,0.0,0.0,1.0
3162676000,3162676000,0.00031701094,0.0005617946,0.0014194179,0.5981709,0.0,0.0,0.0,1.0
3162776000,3162776000,0.0008842305,0.0021635508,-0.00027422575,0.609348,0.0,0.0,0.0,1.0
3162876000,3162876000,0.001049593,0.00092986703,0.00089739455,0.60421073,0.0,0.0,0.0,1.0
3162972000,3162972000,0.0014260608,-0.00047704985,-0.00015346025,0.6043632,0.0,0.0,0.0,1.0
3163076000,3163076000,0.00018474509,0.0017711155,4.2545376e-05,0.5965835,0.0,0.0,0.0,1.0
3163176000,3163176000,0.0016436937,0.0015504868,-0.0003341029,0.5970819,0.0,0.0,0.0,1.0
3163276000,3163276000,0.0015083338,0.0025761223,-0.0010874629,0.61054856,0.0,0.0,0.0,1.0
3163376000,3163376000,0.0030904303,-0.0004091303,-0.0013402621,0.59101397,0.0,0.0,0.0,1.0
3163472000,3163472000,-0.00046310772,-0.00077332184,-0.0007061736,0.5591017,0.0,0.0,0.0,1.0
3163572000,3163572000,-0.0033389877,-0.0030882696,-0.0006583116,0.56565344,0.0,0.0,0.0,1.0
3163672000,3163672000,0.00059064466,0.00042142058,-0.00032779833,0.57586914,0.0,0.0,0.0,1.0
3163772000,3163772000,0.002177405,0.0013375486,-0.0008303241,0.5701106,0.0,0.0,0.0,1.0
3163872000,3163872000,0.0016844837,0.0003669099,-0.0009433761,0.5692194,0.0,0.0,0.0,1.0
3163976000,3163976000,-0.00055524125,0.0028899026,0.00019766255,0.56430656,0.0,0.0,0.0,1.0
3164072000,3164072000,0.002123248,0.0008558546,-0.0011088324,0.56553644,0.0,0.0,0.0,1.0
3164172000,3164172000,-0.0002981795,4.2756918e-05,-0.00057721103,0.57248515,0.0,0.0,0.0,1.0
3164272000,3164272000,0.0053928746,0.0038770365,0.0007343575,0.58964115,0.0,0.0,0.0,1.0
3164376000,3164376000,-0.00054566603,-0.0008278478,0.00058917515,0.568235,0.0,0.0,0.0,1.0
3164476000,3164476000,-0.0019805206,0.0008488478,-0.0008897116,0.5711925,0.0,0.0,0.0,1.0
3164580000,3164580000,-0.0019151226,-0.0008539304,0.0006205312,0.5682628,0.0,0.0,0.0,1.0
3164676000,3164676000,0.000550759,0.0042524366,0.0001507701,0.5634594,0.0,0.0,0.0,1.0
3164780000,3164780000,0.00086443,0.00041619345,-0.00035589756,0.563355,0.0,0.0,0.0,1.0
3164876000,3164876000,4.5237626e-05,0.0016653992,-0.0009817145,0.56167793,0.0,0.0,0.0,1.0
3164976000,3164976000,0.0043267356,9.244688e-05,-0.00012400432,0.57726014,0.0,0.0,0.0,1.0
3165080000,3165080000,-0.0014930575,-0.0047138887,0.0004497116,0.56913686,0.0,0.0,0.0,1.0
3165180000,3165180000,0.0010598531,0.0029237482,-0.0008407576,0.5623367,0.0,0.0,0.0,1.0
3165280000,3165280000,-2.145402e-05,0.0022882402,0.00023655032,0.5627551,0.0,0.0,0.0,1.0
3165376000,3165376000,-0.0013090421,-0.0009883797,-0.00010468958,0.56811374,0.0,0.0,0.0,1.0
3165476000,3165476000,0.0011819694,-0.0003193038,-0.00060563517,0.5649343,0.0,0.0,0.0,1.0
3165580000,3165580000,0.0004724373,-0.0007830978,-0.00012286275,0.5634719,0.0,0.0,0.0,1.0
3165680000,3165680000,-0.0027542964,0.0001447292,3.0208594e-07,0.5660302,0.0,0.0,0.0,1.0
3165776000,3165776000,0.0003091933,0.0037661162,-9.784362e-06,0.5633331,0.0,0.0,0.0,1.0
3165876000,3165876000,0.00057259307,0.001215375,-0.0011352663,0.56869245,0.0,0.0,0.0,1.0
3165980000,3165980000,0.0026290228,-0.00021775143,0.0013575329,0.5687458,0.0,0.0,0.0,1.0
3166076000,3166076000,0.000580856,-0.00053977215,-0.0007040551,0.5664927,0.0,0.0,0.0,1.0
3166180000,3166180000,0.00070118986,0.0009748261,-0.00027504866,0.5670862,0.0,0.0,0.0,1.0
3166280000,3166280000,0.00017040159,-0.00064724206,0.00087562273,0.56788343,0.0,0.0,0.0,1.0
3166376000,3166376000,0.00017342946,0.0030240165,0.0006925223,0.5649134,0.0,0.0,0.0,1.0
3166480000,3166480000,0.0013579107,0.0010911121,-0.00044469425,0.568423,0.0,0.0,0.0,1.0
3166576000,3166576000,0.0012739741,0.0002559825,0.00084894535,0.5680089,0.0,0.0,0.0,1.0
3166676000,3166676000,0.00032555914,-0.00014591438,-0.0003532956,0.568705,0.0,0.0,0.0,1.0
3166776000,3166776000,0.0016183023,0.0012932587,0.0009856455,0.5667304,0.0,0.0,0.0,1.0
3166880000,3166880000,-0.0015145954,0.00071210973,4.071949e-05,0.5656256,0.0,0.0,0.0,1.0
3166980000,3166980000,0.001721689,0.0006380809,-1.2871682e-06,0.56910866,0.0,0.0,0.0,1.0
3167076000,3167076000,-0.001954306,-0.000115335744,-0.00040921874,0.56638575,0.0,0.0,0.0,1.0
3167180000,3167180000,0.0017770411,0.0025310488,0.00019210717,0.56659156,0.0,0.0,0.0,1.0
3167280000,3167280000,-0.00042749383,0.00041802006,0.00068355905,0.5648298,0.0,0.0,0.0,1.0
3167376000,3167376000,0.00042170731,0.00014318852,-0.00023607568,0.5680696,0.0,0.0,0.0,1.0
3167480000,3167480000,0.001028367,-0.0007700024,0.00031696705,0.56600696,0.0,0.0,0.0,1.0
3167580000,3167580000,-0.00034678294,0.0010413968,4.3847904e-05,0.56581503,0.0,0.0,0.0,1.0
3167676000,3167676000,0.0003189435,-0.004345306,-0.00027194084,0.56548464,0.0,0.0,0.0,1.0
3167776000,3167776000,0.0013754545,-0.0008987365,-0.00065055315,0.5646687,0.0,0.0,0.0,1.0
3167876000,3167876000,0.00010140115,-0.001412647,0.00034877268,0.5669968,0.0,0.0,0.0,1.0
3167980000,3167980000,0.0002026404,-0.0008359527,8.6324486e-05,0.5655608,0.0,0.0,0.0,1.0
3168080000,3168080000,-0.000943662,0.0014550115,0.0009152286,0.5646589,0.0,0.0,0.0,1.0
3168180000,3168180000,0.0008917581,0.00010537595,5.116607e-06,0.56487757,0.0,0.0,0.0,1.0
3168280000,3168280000,1.0215415e-05,-0.0020748572,-0.0001741169,0.5650278,0.0,0.0,0.0,1.0
3168380000,3168380000,0.0018996858,-0.00019456533,-8.9906796e-05,0.56686944,0.0,0.0,0.0,1.0
3168476000,3168476000,0.0014866156,0.0014180385,0.00012997749,0.56577843,0.0,0.0,0.0,1.0
3168576000,3168576000,-0.003257963,-0.004663939,-0.0003232166,0.5671725,0.0,0.0,0.0,1.0
3168680000,3168680000,-0.0020281887,-0.0027073752,-0.001021543,0.5648334,0.0,0.0,0.0,1.0
3168776000,3168776000,-0.0009459486,-0.0010344004,-0.0003388735,0.56599206,0.0,0.0,0.0,1.0
3168880000,3168880000,6.0794548e-05,0.0015222629,-0.0006605421,0.5657694,0.0,0.0,0.0,1.0
3168980000,3168980000,-0.000694268,0.0005864013,-1.5743324e-05,0.56397253,0.0,0.0,0.0,1.0
3169080000,3169080000,-0.0007302341,0.0008263801,-0.00013652249,0.5633279,0.0,0.0,0.0,1.0
3169176000,3169176000,-0.0025026477,0.0016270514,-2.4955416e-05,0.5647182,0.0,0.0,0.0,1.0
3169280000,3169280000,0.0022638065,0.0011131783,-1.3068609e-05,0.56473565,0.0,0.0,0.0,1.0
3169376000,3169376000,0.0003273152,0.0013093606,0.00015185105,0.5637666,0.0,0.0,0.0,1.0
3169480000,3169480000,-0.00023834535,-0.0012172627,-0.00015563861,0.56302565,0.0,0.0,0.0,1.0
3169580000,3169580000,-0.0009797656,0.0018768932,-0.000618526,0.5640443,0.0,0.0,0.0,1.0
3169676000,3169676000,0.0020692993,-0.0008642773,0.00028217817,0.565796,0.0,0.0,0.0,1.0
3169776000,3169776000,0.0015340708,0.00094815454,0.00053943926,0.5651242,0.0,0.0,0.0,1.0
3169880000,3169880000,-0.0014249751,-0.00104078,0.00041063598,0.56358826,0.0,0.0,0.0,1.0
3169976000,3169976000,0.00016038885,0.0015029444,-8.224645e-05,0.56262225,0.0,0.0,0.0,1.0
3170076000,3170076000,0.0016429833,0.0004633285,2.6943673e-05,0.5633953,0.0,0.0,0.0,1.0
3170180000,3170180000,-0.0006999676,-0.00077908265,5.436192e-05,0.5628627,0.0,0.0,0.0,1.0
3170276000,3170276000,-0.0003089679,-0.0024377112,-0.00041844335,0.56595284,0.0,0.0,0.0,1.0
3170380000,3170380000,-0.0012116584,0.0011404501,-0.00025633525,0.56635994,0.0,0.0,0.0,1.0
3170476000,3170476000,-0.0010321704,0.0016982318,0.0003093545,0.56520027,0.0,0.0,0.0,1.0
3170576000,3170576000,0.0021843628,-0.0008078645,-0.00037333483,0.56286734,0.0,0.0,0.0,1.0
3170680000,3170680000,0.00047961506,0.00021256594,-0.0010096496,0.5646942,0.0,0.0,0.0,1.0
3170780000,3170780000,0.0003247792,0.0001931117,0.0003185173,0.5643169,0.0,0.0,0.0,1.0
3170880000,3170880000,0.001231496,0.0023089165,-0.00038640838,0.5636037,0.0,0.0,0.0,1.0
3170980000,3170980000,0.0005361619,-0.0019949598,-0.00081214885,0.5631027,0.0,0.0,0.0,1.0
3171080000,3171080000,0.0019718027,-0.0015505996,0.0004421824,0.5632209,0.0,0.0,0.0,1.0
3171180000,3171180000,-0.0009700309,0.0013611706,-0.00027484773,0.5643782,0.0,0.0,0.0,1.0
3171280000,3171280000,-0.0011708777,0.0014129807,-0.0002838812,0.56368643,0.0,0.0,0.0,1.0
3171380000,3171380000,0.0018533076,0.0013427129,0.00035981784,0.56511015,0.0,0.0,0.0,1.0
3171476000,3171476000,0.0019408973,-0.0013492543,-0.0001727584,0.56381196,0.0,0.0,0.0,1.0
3171580000,3171580000,0.0010743869,-0.0026708548,-0.0005673023,0.5624184,0.0,0.0,0.0,1.0
3171680000,3171680000,0.0013131743,0.0030137615,0.0008202088,0.5659596,0.0,0.0,0.0,1.0
3171780000,3171780000,0.0021172229,-0.00031327596,-0.00013577686,0.56696814,0.0,0.0,0.0,1.0
3171880000,3171880000,0.00036936312,-0.00461841,0.00057262677,0.56618345,0.0,0.0,0.0,1.0
3171980000,3171980000,-0.004976771,0.017027598,-0.024534876,0.5537895,0.0,0.0,0.0,1.0
3172080000,3172080000,-0.0027830994,0.02107776,-0.044137236,0.5246689,0.0,0.0,0.0,1.0
3172180000,3172180000,-0.007920702,0.03256374,-0.052146018,0.48776662,0.0,0.0,0.0,1.0
3172280000,3172280000,-0.010057743,0.018982027,-0.04295396,0.46727055,0.0,0.0,0.0,1.0
3172380000,3172380000,-0.013677144,0.00845805,-0.038371842,0.46932167,0.0,0.0,0.0,1.0
3172480000,3172480000,0.030213406,-0.050245658,-0.035686318,0.51369876,0.0,0.0,0.0,1.0
3172576000,3172576000,0.04348238,-0.04311633,-0.04177776,0.5528291,0.0,0.0,0.0,1.0
3172676000,3172676000,0.036179602,-0.019415556,-0.05010626,0.59995747,0.0,0.0,0.0,1.0
3172776000,3172776000,-0.016601613,0.03269531,-0.043369606,0.6198228,0.0,0.0,0.0,1.0
3172880000,3172880000,-0.009913007,0.023315674,-0.038641043,0.61827695,0.0,0.0,0.0,1.0
3172980000,3172980000,-0.0009949323,0.013764918,-0.042082623,0.6343571,0.0,0.0,0.0,1.0
3173080000,3173080000,0.009821865,0.00841112,-0.04059469,0.63719875,0.0,0.0,0.0,1.0
3173180000,3173180000,-0.0017863312,0.010951511,-0.047820747,0.64392287,0.0,0.0,0.0,1.0
3173280000,3173280000,-0.028600227,0.018386897,-0.047860913,0.6547067,0.0,0.0,0.0,1.0
3173380000,3173380000,-0.017191619,0.013120411,-0.044941142,0.66063744,0.0,0.0,0.0,1.0
3173480000,3173480000,-0.023126451,0.011036849,-0.05334773,0.66626596,0.0,0.0,0.0,1.0
3173580000,3173580000,-0.008504523,0.0115546975,-0.045560874,0.66854113,0.0,0.0,0.0,1.0
3173676000,3173676000,-0.03557851,0.0046780417,-0.044819437,0.67503273,0.0,0.0,0.0,1.0
3173776000,3173776000,-0.028797239,0.0033775503,-0.050877802,0.6782665,0.0,0.0,0.0,1.0
3173880000,3173880000,-0.024852807,-0.0012053042,-0.040061645,0.6766506,0.0,0.0,0.0,1.0
3173980000,3173980000,-0.012725695,0.0007483037,-0.032897882,0.6738115,0.0,0.0,0.0,1.0
3174076000,3174076000,-0.020529378,-0.0075030345,-0.039843798,0.6720199,0.0,0.0,0.0,1.0
3174180000,3174180000,-0.050779488,-0.017652798,-0.037083603,0.6741037,0.0,0.0,0.0,1.0
3174280000,3174280000,-0.046235055,-0.02643835,-0.043362714,0.66943014,0.0,0.0,0.0,1.0
3174380000,3174380000,-0.032408055,-0.023487784,-0.038919874,0.6679903,0.0,0.0,0.0,1.0
3174480000,3174480000,-0.026010415,-0.022345211,-0.034896098,0.6667233,0.0,0.0,0.0,1.0
3174576000,3174576000,-0.032392003,-0.03530539,-0.033626396,0.66405916,0.0,0.0,0.0,1.0
3174680000,3174680000,-0.033753403,-0.037396554,-0.03558877,0.66458774,0.0,0.0,0.0,1.0
3174780000,3174780000,-0.025661433,-0.034362353,-0.029531946,0.6656966,0.0,0.0,0.0,1.0
3174880000,3174880000,-0.021829417,-0.03550986,-0.034202326,0.66523933,0.0,0.0,0.0,1.0
3174976000,3174976000,-0.020052562,-0.037429024,-0.033252098,0.66495335,0.0,0.0,0.0,1.0
3175080000,3175080000,-0.021431344,-0.050675012,-0.0293135,0.6630367,0.0,0.0,0.0,1.0
3175176000,3175176000,-0.014267199,-0.04380335,-0.026687384,0.6637222,0.0,0.0,0.0,1.0
3175276000,3175276000,-0.010492518,-0.04780055,-0.03156942,0.6629146,0.0,0.0,0.0,1.0
3175380000,3175380000,-0.009549858,-0.035857785,-0.017888531,0.6639211,0.0,0.0,0.0,1.0
3175476000,3175476000,-0.015646579,-0.043638445,0.004782278,0.6647898,0.0,0.0,0.0,1.0
3175580000,3175580000,-0.014017874,-0.051415812,0.0068463963,0.66549987,0.0,0.0,0.0,1.0
3175680000,3175680000,-0.004538495,-0.057272587,0.0048699044,0.6656288,0.0,0.0,0.0,1.0
3175780000,3175780000,-0.003658126,-0.041848417,0.002978677,0.66608644,0.0,0.0,0.0,1.0
3175880000,3175880000,-0.00040689576,-0.044879492,0.0024439488,0.6673667,0.0,0.0,0.0,1.0
3175980000,3175980000,0.00016757939,-0.053799532,0.0022465065,0.6646242,0.0,0.0,0.0,1.0
3176080000,3176080000,0.00053224526,-0.054193072,0.00114231,0.6674918,0.0,0.0,0.0,1.0
3176176000,3176176000,0.0005070958,-0.04237976,0.00083809346,0.66810906,0.0,0.0,0.0,1.0
3176280000,3176280000,0.0039285356,-0.048732676,0.00023589283,0.6684071,0.0,0.0,0.0,1.0
3176376000,3176376000,0.0037500346,-0.041838095,0.00024215132,0.66862184,0.0,0.0,0.0,1.0
3176480000,3176480000,0.0030148784,-0.05851303,0.00017273985,0.668721,0.0,0.0,0.0,1.0
3176580000,3176580000,0.009588685,-0.049657546,0.00032746978,0.6680815,0.0,0.0,0.0,1.0
3176676000,3176676000,0.0010347036,-0.04840139,-0.00080772396,0.6679137,0.0,0.0,0.0,1.0
3176780000,3176780000,0.0048792074,-0.04096436,-0.0013772007,0.66725546,0.0,0.0,0.0,1.0
3176880000,3176880000,0.0031224624,-0.04727169,0.00040335767,0.6679777,0.0,0.0,0.0,1.0
3176980000,3176980000,0.005612824,-0.05144935,-0.00040732604,0.66747713,0.0,0.0,0.0,1.0
3177080000,3177080000,0.0019746989,-0.051767237,-0.0001974944,0.6684996,0.0,0.0,0.0,1.0
3177180000,3177180000,0.0067209844,-0.04275581,-0.0009912113,0.66813254,0.0,0.0,0.0,1.0
3177280000,3177280000,0.0058501116,-0.046033394,-0.0002344083,0.6679834,0.0,0.0,0.0,1.0
3177380000,3177380000,0.0060323426,-0.043024305,-0.00032685325,0.66673857,0.0,0.0,0.0,1.0
3177480000,3177480000,0.001443379,-0.05689434,-0.0014461568,0.6680764,0.0,0.0,0.0,1.0
3177580000,3177580000,0.0063497475,-0.05029615,-0.0012309654,0.6695092,0.0,0.0,0.0,1.0
3177680000,3177680000,0.0024935782,-0.04834469,-0.00025656074,0.66791683,0.0,0.0,0.0,1.0
3177780000,3177780000,0.0054371497,-0.038996533,-0.0013078232,0.66789466,0.0,0.0,0.0,1.0
3177880000,3177880000,0.0048758294,-0.05911214,0.00011539925,0.6669667,0.0,0.0,0.0,1.0
3177976000,3177976000,0.0057141627,-0.054765694,-0.0004864866,0.6686343,0.0,0.0,0.0,1.0
3178080000,3178080000,0.00732114,-0.049459204,-0.0008954657,0.6677998,0.0,0.0,0.0,1.0
3178176000,3178176000,0.0060776304,-0.04676558,-0.0008741142,0.6695559,0.0,0.0,0.0,1.0
3178280000,3178280000,0.0010194134,-0.04665757,-0.0020564897,0.66941756,0.0,0.0,0.0,1.0
3178380000,3178380000,0.007826457,-0.052289072,-0.0010309755,0.6689396,0.0,0.0,0.0,1.0
3178480000,3178480000,-0.0013789791,-0.056931775,-0.0010262374,0.66864765,0.0,0.0,0.0,1.0
3178580000,3178580000,0.0062681977,-0.0481272,-0.0006431779,0.67030036,0.0,0.0,0.0,1.0
3178680000,3178680000,0.00070745824,-0.048127122,2.5925227e-05,0.6696477,0.0,0.0,0.0,1.0
3178780000,3178780000,0.0049656834,-0.04187803,-0.0019434227,0.6694469,0.0,0.0,0.0,1.0
3178876000,3178876000,0.0029165945,-0.057012063,-0.0006021159,0.6705633,0.0,0.0,0.0,1.0
3178976000,3178976000,0.006208216,-0.04781808,-0.0005078716,0.66996986,0.0,0.0,0.0,1.0
3179076000,3179076000,0.00094985333,-0.051451944,-0.0011303299,0.67077273,0.0,0.0,0.0,1.0
3179176000,3179176000,0.0070175035,-0.04164131,-0.00044733007,0.67174995,0.0,0.0,0.0,1.0
3179280000,3179280000,0.0010749472,-0.051792435,0.000245722,0.67115724,0.0,0.0,0.0,1.0
3179376000,3179376000,0.005439749,-0.05235679,-0.0020309,0.668458,0.0,0.0,0.0,1.0
3179476000,3179476000,-0.0011515683,-0.04984731,-0.00017400552,0.6701647,0.0,0.0,0.0,1.0
3179576000,3179576000,0.005438206,-0.045311026,-0.0012362029,0.6704911,0.0,0.0,0.0,1.0
3179680000,3179680000,0.0026914703,-0.047240954,-0.00017036055,0.6706031,0.0,0.0,0.0,1.0
3179776000,3179776000,0.005240811,-0.056936394,-0.00020223414,0.670633,0.0,0.0,0.0,1.0
3179880000,3179880000,-0.00255656,-0.060936265,-0.0006424738,0.67068195,0.0,0.0,0.0,1.0
3179976000,3179976000,0.0035571859,-0.051956255,-0.000772411,0.66998726,0.0,0.0,0.0,1.0
3180080000,3180080000,8.0406666e-05,-0.04495898,-0.0010118713,0.6707659,0.0,0.0,0.0,1.0
3180176000,3180176000,0.002734405,-0.0433493,-0.0010071325,0.67076916,0.0,0.0,0.0,1.0
3180280000,3180280000,0.0024997124,-0.059009083,9.853416e-05,0.6719787,0.0,0.0,0.0,1.0
3180380000,3180380000,0.0028670325,-0.049910955,-0.0013617995,0.6713018,0.0,0.0,0.0,1.0
3180476000,3180476000,0.0043825638,-0.046340946,-0.0003325725,0.67193514,0.0,0.0,0.0,1.0
3180576000,3180576000,-0.00097426935,-0.050840184,0.00055303844,0.6724358,0.0,0.0,0.0,1.0
3180676000,3180676000,0.00068122125,-0.05675315,-0.00072525325,0.67335594,0.0,0.0,0.0,1.0
3180776000,3180776000,0.0011739668,-0.062269416,-0.0013909859,0.6721654,0.0,0.0,0.0,1.0
3180876000,3180876000,0.0057473565,-0.045826424,-0.002061779,0.67362833,0.0,0.0,0.0,1.0
3180976000,3180976000,0.0012934284,-0.04245628,-0.00085461594,0.6733095,0.0,0.0,0.0,1.0
3181076000,3181076000,0.0031473471,-0.04452558,-0.00081269024,0.67506826,0.0,0.0,0.0,1.0
3181180000,3181180000,-0.00082628685,-0.057045136,-0.0009164319,0.67478293,0.0,0.0,0.0,1.0
3181276000,3181276000,0.002497852,-0.051564056,-0.0001399538,0.67536205,0.0,0.0,0.0,1.0
3181380000,3181380000,0.0015155936,-0.053795505,-0.0011816401,0.6757327,0.0,0.0,0.0,1.0
3181480000,3181480000,0.0021033804,-0.04482236,-0.0016302143,0.6761566,0.0,0.0,0.0,1.0
3181576000,3181576000,0.0017195411,-0.05027125,-0.0016418934,0.67740494,0.0,0.0,0.0,1.0
3181680000,3181680000,0.0028201153,-0.057947956,-0.00059534144,0.6781225,0.0,0.0,0.0,1.0
3181780000,3181780000,0.00061088614,-0.061777577,0.00011734525,0.67816293,0.0,0.0,0.0,1.0
3181880000,3181880000,0.0041030943,-0.051288854,-0.0009627868,0.67746073,0.0,0.0,0.0,1.0
3181980000,3181980000,0.0034237537,-0.049856387,-0.001569276,0.6787598,0.0,0.0,0.0,1.0
3182076000,3182076000,0.0018026319,-0.05895041,-0.0005059908,0.6784195,0.0,0.0,0.0,1.0
3182180000,3182180000,-0.0006013757,-0.061628338,-0.00038882194,0.6793536,0.0,0.0,0.0,1.0
3182276000,3182276000,0.002126405,-0.050036713,-0.0013569774,0.67957306,0.0,0.0,0.0,1.0
3182380000,3182380000,0.0020758908,-0.053907752,0.00010728033,0.68095875,0.0,0.0,0.0,1.0
3182480000,3182480000,0.0030074946,-0.049281813,-0.000620972,0.67965174,0.0,0.0,0.0,1.0
3182580000,3182580000,0.0016528246,-0.060324565,-0.0006577089,0.67993355,0.0,0.0,0.0,1.0
3182680000,3182680000,0.0019022799,-0.05926704,-0.0010159726,0.68060887,0.0,0.0,0.0,1.0
3182776000,3182776000,0.001107615,-0.05435619,-0.0013018006,0.6801005,0.0,0.0,0.0,1.0
3182880000,3182880000,0.0025697392,-0.047343794,-0.00046465313,0.67860436,0.0,0.0,0.0,1.0
3182976000,3182976000,0.0024157672,-0.048170604,-0.00037315,0.680211,0.0,0.0,0.0,1.0
3183076000,3183076000,0.003292337,-0.059635412,1.7186278e-05,0.68081504,0.0,0.0,0.0,1.0
3183180000,3183180000,-0.0012283125,-0.06256138,-0.00067771634,0.6801921,0.0,0.0,0.0,1.0
3183280000,3183280000,0.004794682,-0.05214946,-0.0003604862,0.67989993,0.0,0.0,0.0,1.0
3183380000,3183380000,0.000147986,-0.04941417,0.0004804934,0.67978144,0.0,0.0,0.0,1.0
3183476000,3183476000,0.002458046,-0.060640078,-0.00079461426,0.67924577,0.0,0.0,0.0,1.0
3183580000,3183580000,0.0004421319,-0.061649393,-0.0010711048,0.67827123,0.0,0.0,0.0,1.0
3183676000,3183676000,0.0049817357,-0.052267633,-0.0005761053,0.67854345,0.0,0.0,0.0,1.0
3183776000,3183776000,0.0016239401,-0.045713045,0.00035380688,0.6807567,0.0,0.0,0.0,1.0
3183876000,3183876000,0.0031227611,-0.049373284,-0.00039111817,0.68157893,0.0,0.0,0.0,1.0
3183976000,3183976000,0.002615821,-0.060265865,-0.0015581298,0.6796359,0.0,0.0,0.0,1.0
3184080000,3184080000,0.00095511664,-0.06121943,-0.0003798984,0.6811019,0.0,0.0,0.0,1.0
3184176000,3184176000,0.0024433865,-0.053330947,-0.0013255618,0.6819428,0.0,0.0,0.0,1.0
3184276000,3184276000,-0.000607813,-0.046318807,-0.0011062515,0.6809148,0.0,0.0,0.0,1.0
3184376000,3184376000,0.0027777883,-0.046734657,-0.00088636315,0.6834515,0.0,0.0,0.0,1.0
3184480000,3184480000,0.0041677174,-0.0644669,-0.0013290242,0.68232507,0.0,0.0,0.0,1.0
3184576000,3184576000,-0.0014147144,-0.053015094,-0.0012911151,0.68188965,0.0,0.0,0.0,1.0
3184676000,3184676000,0.0014598641,-0.04893118,-0.0012681875,0.68349975,0.0,0.0,0.0,1.0
3184776000,3184776000,0.0017218327,-0.051273234,-0.00017909042,0.68203384,0.0,0.0,0.0,1.0
3184876000,3184876000,0.0005781936,-0.060868032,-0.00025826314,0.68231934,0.0,0.0,0.0,1.0
3184980000,3184980000,0.0002674047,-0.061369542,-0.0008710837,0.68181837,0.0,0.0,0.0,1.0
3185076000,3185076000,0.0029311962,-0.051590342,8.380262e-05,0.6836596,0.0,0.0,0.0,1.0
3185180000,3185180000,0.0013630094,-0.053937834,-0.0007496935,0.6846781,0.0,0.0,0.0,1.0
3185280000,3185280000,0.0030399677,-0.049466968,-0.00046870386,0.6841867,0.0,0.0,0.0,1.0
3185380000,3185380000,-0.0016398452,-0.061780013,-0.0013414554,0.6809114,0.0,0.0,0.0,1.0
3185476000,3185476000,0.000651157,-0.057148032,-0.0016712657,0.68091244,0.0,0.0,0.0,1.0
3185576000,3185576000,0.0011796533,-0.060150318,-0.0005827026,0.68326336,0.0,0.0,0.0,1.0
3185676000,3185676000,0.0009338303,-0.05656626,-0.00065554894,0.6849414,0.0,0.0,0.0,1.0
3185780000,3185780000,0.00011945795,-0.053439606,-0.0011248859,0.6839549,0.0,0.0,0.0,1.0
3185876000,3185876000,0.0015726212,-0.049069926,-0.0009724797,0.6859366,0.0,0.0,0.0,1.0
3185976000,3185976000,9.357091e-05,-0.058132924,-0.0016167697,0.6882325,0.0,0.0,0.0,1.0
3186080000,3186080000,0.00015783205,-0.06366115,-0.0010230044,0.6908995,0.0,0.0,0.0,1.0
3186180000,3186180000,0.0015140565,-0.057255227,-0.003008013,0.68937784,0.0,0.0,0.0,1.0
3186280000,3186280000,0.0009609174,-0.055609006,-0.00092314853,0.6892656,0.0,0.0,0.0,1.0
3186376000,3186376000,0.0015132244,-0.06299152,-0.0005219554,0.6883267,0.0,0.0,0.0,1.0
3186480000,3186480000,0.0018210079,-0.0622591,-0.0014727209,0.6907137,0.0,0.0,0.0,1.0
3186580000,3186580000,0.0009839977,-0.052018803,-0.0013582382,0.6893976,0.0,0.0,0.0,1.0
3186680000,3186680000,0.0015029932,-0.05643022,-0.0018481589,0.68984556,0.0,0.0,0.0,1.0
3186776000,3186776000,0.0004105639,-0.051306523,0.0006064826,0.6894886,0.0,0.0,0.0,1.0
3186880000,3186880000,0.0020884573,-0.05131093,-0.0011035753,0.6883349,0.0,0.0,0.0,1.0
3186976000,3186976000,0.0014427844,-0.059002705,-0.00065737055,0.6888965,0.0,0.0,0.0,1.0
3187080000,3187080000,0.0024676477,-0.05610812,-0.0015714533,0.6889698,0.0,0.0,0.0,1.0
3187176000,3187176000,0.0005514168,-0.051393107,-0.00012849586,0.6888769,0.0,0.0,0.0,1.0
3187280000,3187280000,-0.0008500733,-0.05053589,-0.001200063,0.6881614,0.0,0.0,0.0,1.0
3187380000,3187380000,0.002592648,-0.048532367,-0.001980426,0.68851507,0.0,0.0,0.0,1.0
3187480000,3187480000,0.0043467022,-0.06397406,-0.0016657348,0.68988025,0.0,0.0,0.0,1.0
3187576000,3187576000,0.0006600745,-0.062384263,-0.0025165896,0.68863636,0.0,0.0,0.0,1.0
3187680000,3187680000,0.0024099934,-0.06621194,-0.0009986944,0.6905934,0.0,0.0,0.0,1.0
3187776000,3187776000,0.0012109159,-0.05687743,-0.00046143838,0.6914727,0.0,0.0,0.0,1.0
3187876000,3187876000,0.0029450231,-0.05733522,-0.00073890167,0.6900275,0.0,0.0,0.0,1.0
3187976000,3187976000,0.0025356568,-0.052511267,0.00010168366,0.6886432,0.0,0.0,0.0,1.0
3188076000,3188076000,0.000978155,-0.064914346,-0.0010835704,0.69020915,0.0,0.0,0.0,1.0
3188176000,3188176000,0.0061113117,-0.0638175,-0.0027667882,0.68999517,0.0,0.0,0.0,1.0
3188276000,3188276000,0.0032913194,-0.053366866,-0.0009963948,0.69017243,0.0,0.0,0.0,1.0
3188380000,3188380000,0.0016439001,-0.056310747,-0.00039318885,0.68934256,0.0,0.0,0.0,1.0
3188480000,3188480000,0.0018070844,-0.05343447,-0.0017266455,0.68993205,0.0,0.0,0.0,1.0
3188580000,3188580000,0.0015959967,-0.06376447,-0.0013206957,0.6916411,0.0,0.0,0.0,1.0
3188676000,3188676000,0.0023952166,-0.057099953,-0.0013532066,0.6913825,0.0,0.0,0.0,1.0
3188780000,3188780000,0.0026543143,-0.05606324,-0.0011520582,0.6913577,0.0,0.0,0.0,1.0
3188876000,3188876000,0.0012951123,-0.047320165,-0.0011543523,0.6895901,0.0,0.0,0.0,1.0
3188980000,3188980000,0.0015639551,-0.045986902,-0.0014698644,0.6920833,0.0,0.0,0.0,1.0
3189080000,3189080000,-0.00038738956,-0.06176956,-0.0012754063,0.69202346,0.0,0.0,0.0,1.0
3189176000,3189176000,0.00321085,-0.058704425,-0.0010689815,0.692318,0.0,0.0,0.0,1.0
3189280000,3189280000,0.003267473,-0.05664592,-0.0014426485,0.6925465,0.0,0.0,0.0,1.0
3189380000,3189380000,-0.00131939,-0.049854346,-0.0012269766,0.69136155,0.0,0.0,0.0,1.0
3189480000,3189480000,0.00077977916,-0.051070318,-0.0011764521,0.69226766,0.0,0.0,0.0,1.0
3189580000,3189580000,-0.0005693333,-0.062699944,-0.0007795746,0.69074476,0.0,0.0,0.0,1.0
3189680000,3189680000,0.0039258352,-0.05309537,-0.000664447,0.6917917,0.0,0.0,0.0,1.0
3189776000,3189776000,0.0009835123,-0.052421067,-0.0011049723,0.69216174,0.0,0.0,0.0,1.0
3189880000,3189880000,0.000103309285,-0.051123936,-0.00071843155,0.69134974,0.0,0.0,0.0,1.0
3189980000,3189980000,0.0007664672,-0.06629516,-0.0015721844,0.69145507,0.0,0.0,0.0,1.0
3190076000,3190076000,0.002168687,-0.0627537,-0.0024031515,0.6925805,0.0,0.0,0.0,1.0
3190180000,3190180000,0.0028353683,-0.05807959,-0.0007863269,0.6922073,0.0,0.0,0.0,1.0
3190276000,3190276000,-1.1261785e-05,-0.05111431,-0.0005344036,0.6902591,0.0,0.0,0.0,1.0
3190380000,3190380000,0.0013104689,-0.047071755,-0.0014013447,0.69063157,0.0,0.0,0.0,1.0
3190480000,3190480000,0.005786657,-0.06461585,-0.0013975452,0.69107574,0.0,0.0,0.0,1.0
3190580000,3190580000,0.0019558636,-0.059814263,-0.0009460985,0.69152325,0.0,0.0,0.0,1.0
3190680000,3190680000,0.0016381731,-0.055984814,-0.000783614,0.691793,0.0,0.0,0.0,1.0
3190776000,3190776000,0.00012327405,-0.052268706,-0.00035616028,0.69280016,0.0,0.0,0.0,1.0
3190880000,3190880000,0.0041039586,-0.048986923,-0.001328155,0.6956279,0.0,0.0,0.0,1.0
3190976000,3190976000,-0.00019939942,-0.061172195,-0.0008588298,0.69730556,0.0,0.0,0.0,1.0
3191080000,3191080000,-0.0003654554,-0.058909755,-0.0016265505,0.6968837,0.0,0.0,0.0,1.0
3191180000,3191180000,0.0019755503,-0.04647221,-0.001318198,0.7075407,0.0,0.0,0.0,1.0
3191280000,3191280000,0.0024358346,-0.05063112,-0.001983785,0.7087403,0.0,0.0,0.0,1.0
3191376000,3191376000,0.0029152366,-0.067606464,-0.0016459287,0.7097538,0.0,0.0,0.0,1.0
3191480000,3191480000,0.001798839,-0.06833431,-0.00050771487,0.7083589,0.0,0.0,0.0,1.0
3191580000,3191580000,-0.00042512198,-0.059397068,-0.0028141951,0.7080191,0.0,0.0,0.0,1.0
3191680000,3191680000,0.001988485,-0.04836977,-0.0014257776,0.7086315,0.0,0.0,0.0,1.0
3191776000,3191776000,0.0021935008,-0.061208848,-0.0014321422,0.7113277,0.0,0.0,0.0,1.0
3191876000,3191876000,0.0035526322,-0.062285874,0.00023226638,0.70961785,0.0,0.0,0.0,1.0
3191980000,3191980000,0.0024117352,-0.06435629,-0.001483855,0.7089866,0.0,0.0,0.0,1.0
3192076000,3192076000,0.0019459868,-0.05833486,-0.001538903,0.7075368,0.0,0.0,0.0,1.0
3192180000,3192180000,-0.0009502778,-0.05229383,-0.0020982714,0.7073034,0.0,0.0,0.0,1.0
3192276000,3192276000,0.002973498,-0.06396199,-0.00088937825,0.709504,0.0,0.0,0.0,1.0
3192380000,3192380000,0.0019687638,-0.06370437,-0.001018586,0.7086194,0.0,0.0,0.0,1.0
3192480000,3192480000,0.0051866127,-0.055610485,-0.00028652768,0.7070848,0.0,0.0,0.0,1.0
3192580000,3192580000,0.004025655,-0.05512834,-0.0015276691,0.70746964,0.0,0.0,0.0,1.0
3192680000,3192680000,-0.00022966601,-0.054302722,-0.0009765395,0.70606697,0.0,0.0,0.0,1.0
3192780000,3192780000,0.0027473252,-0.063124694,-0.0013322402,0.7069325,0.0,0.0,0.0,1.0
3192880000,3192880000,0.0033675204,-0.06315248,-0.0013113561,0.70763546,0.0,0.0,0.0,1.0
3192976000,3192976000,0.00031935482,-0.05512444,-0.0016297746,0.70789355,0.0,0.0,0.0,1.0
3193080000,3193080000,0.0042204494,-0.047820527,-0.0011650574,0.7039469,0.0,0.0,0.0,1.0
3193176000,3193176000,0.00087836385,-0.05075366,-0.0021045841,0.6969234,0.0,0.0,0.0,1.0
3193280000,3193280000,-0.0020535195,-0.04241068,-0.0020960614,0.6920217,0.0,0.0,0.0,1.0
3193380000,3193380000,0.004955014,-0.048200104,-0.0030129785,0.6886443,0.0,0.0,0.0,1.0
3193480000,3193480000,0.005928821,-0.06896211,-0.0014587651,0.68072253,0.0,0.0,0.0,1.0
3193580000,3193580000,0.00650388,-0.0720463,0.0002746936,0.67088896,0.0,0.0,0.0,1.0
3193680000,3193680000,0.0023755021,-0.058852307,0.00020065194,0.6606134,0.0,0.0,0.0,1.0
3193776000,3193776000,-0.0021779398,-0.04764519,-0.000760949,0.6520925,0.0,0.0,0.0,1.0
3193876000,3193876000,5.3460943e-05,-0.05222258,-0.0011812159,0.6484281,0.0,0.0,0.0,1.0
3193980000,3193980000,0.0029995441,-0.049677406,-0.0011460456,0.6408868,0.0,0.0,0.0,1.0
3194080000,3194080000,0.0030392858,-0.049680635,-0.0012031638,0.6389654,0.0,0.0,0.0,1.0
3194176000,3194176000,0.0023689484,-0.040921777,-0.0014286735,0.63163537,0.0,0.0,0.0,1.0
3194276000,3194276000,0.001357136,-0.046231512,2.718158e-05,0.6273206,0.0,0.0,0.0,1.0
3194376000,3194376000,0.0013845345,-0.036262617,-0.000805367,0.6248297,0.0,0.0,0.0,1.0
3194476000,3194476000,0.0029103125,-0.042671695,-0.0014143804,0.6201142,0.0,0.0,0.0,1.0
3194576000,3194576000,0.0047176466,-0.037220076,-0.0019516975,0.6169648,0.0,0.0,0.0,1.0
3194680000,3194680000,0.0024715574,-0.031767048,0.00029534975,0.6123049,0.0,0.0,0.0,1.0
3194780000,3194780000,0.0013324602,-0.02654056,-0.0019186361,0.60768706,0.0,0.0,0.0,1.0
3194876000,3194876000,0.001971338,-0.02827655,-0.0010045619,0.6052422,0.0,0.0,0.0,1.0
3194980000,3194980000,0.000871763,-0.02920257,0.00016341213,0.6023582,0.0,0.0,0.0,1.0
3195080000,3195080000,0.003038751,-0.02387155,-0.0018388813,0.601765,0.0,0.0,0.0,1.0
3195180000,3195180000,0.0037826076,-0.0229356,-0.001134151,0.5972625,0.0,0.0,0.0,1.0
3195276000,3195276000,-4.5361463e-05,-0.025683276,0.0002485598,0.59635353,0.0,0.0,0.0,1.0
3195380000,3195380000,0.0016803374,-0.020794397,0.0006164706,0.5935065,0.0,0.0,0.0,1.0
3195476000,3195476000,0.0039657797,-0.022840217,-0.0011760232,0.5921916,0.0,0.0,0.0,1.0
3195580000,3195580000,0.0019635833,-0.015993034,-0.0005243721,0.58873534,0.0,0.0,0.0,1.0
3195676000,3195676000,0.000989014,-0.016485404,0.00016353134,0.5891467,0.0,0.0,0.0,1.0
3195780000,3195780000,0.0029369702,-0.016213372,-0.00055849267,0.586392,0.0,0.0,0.0,1.0
3195880000,3195880000,0.0003431607,-0.021057945,0.015695225,0.5859584,0.0,0.0,0.0,1.0
3195980000,3195980000,0.0061622313,-0.004049441,0.04627256,0.5802844,0.0,0.0,0.0,1.0
3196076000,3196076000,0.005566582,-0.0020496622,0.052295268,0.578618,0.0,0.0,0.0,1.0
3196180000,3196180000,0.0011061407,-0.010969855,0.04539691,0.5824375,0.0,0.0,0.0,1.0
3196280000,3196280000,0.00715778,-0.020314245,0.049037434,0.5810652,0.0,0.0,0.0,1.0
3196376000,3196376000,-0.0139251,-0.028523495,0.046911113,0.58099586,0.0,0.0,0.0,1.0
3196480000,3196480000,-0.050271247,-0.031202218,0.049056914,0.57704014,0.0,0.0,0.0,1.0
3196576000,3196576000,-0.02707787,-0.012209807,0.046088528,0.5794173,0.0,0.0,0.0,1.0
3196680000,3196680000,-0.001644339,-0.0017914344,0.041895814,0.5856118,0.0,0.0,0.0,1.0
3196780000,3196780000,0.013798863,0.003494028,0.045599632,0.5825413,0.0,0.0,0.0,1.0
3196880000,3196880000,0.007385652,-0.0015677232,0.042438082,0.5810555,0.0,0.0,0.0,1.0
3196980000,3196980000,0.012430301,0.00053941645,0.043181434,0.5807368,0.0,0.0,0.0,1.0
3197080000,3197080000,0.008917515,0.00073925685,0.04735137,0.58044696,0.0,0.0,0.0,1.0
3197176000,3197176000,0.0050548343,-0.0006927671,0.04550989,0.5799918,0.0,0.0,0.0,1.0
3197280000,3197280000,0.0023683165,-0.0056674294,0.039388366,0.57949185,0.0,0.0,0.0,1.0
3197380000,3197380000,0.026053721,-0.010252309,0.04407265,0.58053076,0.0,0.0,0.0,1.0
3197480000,3197480000,-0.005568551,0.0024730358,0.043635838,0.578374,0.0,0.0,0.0,1.0
3197576000,3197576000,-0.0028190378,0.00027555414,0.041777138,0.5771664,0.0,0.0,0.0,1.0
3197680000,3197680000,0.017928634,-0.01162779,0.044469148,0.58092016,0.0,0.0,0.0,1.0
3197780000,3197780000,0.010100087,-0.013511233,0.04107475,0.5806648,0.0,0.0,0.0,1.0
3197876000,3197876000,0.0217053,-0.018556364,0.040119197,0.58161545,0.0,0.0,0.0,1.0
3197980000,3197980000,0.0180559,-0.018751785,0.044488683,0.5846069,0.0,0.0,0.0,1.0
3198080000,3198080000,0.0080819335,-0.011815096,0.039104648,0.58244014,0.0,0.0,0.0,1.0
3198176000,3198176000,-0.0009476831,-0.00052084867,0.044935,0.5848915,0.0,0.0,0.0,1.0
3198280000,3198280000,0.008668579,-0.016255964,0.040529843,0.58582586,0.0,0.0,0.0,1.0
3198380000,3198380000,0.0023677156,-0.0054020938,0.038637917,0.5875917,0.0,0.0,0.0,1.0
3198476000,3198476000,0.009309996,-0.023306731,0.035595868,0.58884907,0.0,0.0,0.0,1.0
3198580000,3198580000,-0.0014379346,0.005813746,0.03873804,0.5873503,0.0,0.0,0.0,1.0
3198680000,3198680000,0.002707691,-0.008693526,0.04139876,0.59280527,0.0,0.0,0.0,1.0
3198780000,3198780000,0.007226064,-0.018565338,0.038376216,0.5954393,0.0,0.0,0.0,1.0
3198876000,3198876000,0.0038419976,-0.0034584273,0.02240809,0.59844726,0.0,0.0,0.0,1.0
3198976000,3198976000,0.010499373,-0.0043450836,-0.0036645494,0.60211116,0.0,0.0,0.0,1.0
3199076000,3199076000,0.0104506705,-0.009157318,-0.007857662,0.60506475,0.0,0.0,0.0,1.0
3199176000,3199176000,0.0067075444,-0.014655767,-0.0066406466,0.60734224,0.0,0.0,0.0,1.0
3199276000,3199276000,0.002184757,-0.04524653,-0.006224718,0.61460954,0.0,0.0,0.0,1.0
3199380000,3199380000,-0.00014862418,-0.042324577,-0.0054402817,0.6203338,0.0,0.0,0.0,1.0
3199480000,3199480000,0.00035252143,-0.043132786,-0.0026885662,0.6246742,0.0,0.0,0.0,1.0
3199580000,3199580000,-0.0019854405,-0.028591063,-0.002524279,0.62533164,0.0,0.0,0.0,1.0
3199680000,3199680000,0.0024847551,-0.002561153,-0.0016594827,0.6244442,0.0,0.0,0.0,1.0
3199780000,3199780000,0.0016700672,-0.03653334,-0.0011781417,0.63492674,0.0,0.0,0.0,1.0
3199876000,3199876000,-0.00081395404,-0.024081185,-0.0004136935,0.6389241,0.0,0.0,0.0,1.0
3199976000,3199976000,5.8016507e-05,-0.015065463,-0.00067295134,0.64167386,0.0,0.0,0.0,1.0
3200080000,3200080000,0.0014844029,0.0013937019,0.0011645481,0.6410648,0.0,0.0,0.0,1.0
3200176000,3200176000,0.002209392,-0.01262877,0.00291147,0.6462653,0.0,0.0,0.0,1.0
3200276000,3200276000,-0.000833147,-0.03770857,0.003319027,0.65485346,0.0,0.0,0.0,1.0
3200380000,3200380000,-0.0044654924,-0.03419362,0.004161436,0.6533993,0.0,0.0,0.0,1.0
3200480000,3200480000,-0.0052202987,-0.031634603,0.0055002496,0.653821,0.0,0.0,0.0,1.0
3200580000,3200580000,-0.0016127325,-0.030746989,0.005424043,0.65266544,0.0,0.0,0.0,1.0
3200680000,3200680000,-0.005403537,-0.040610597,0.008149853,0.65298116,0.0,0.0,0.0,1.0
3200780000,3200780000,-0.008487783,-0.04408843,0.010063552,0.6544431,0.0,0.0,0.0,1.0
3200880000,3200880000,-0.0073451544,-0.046605527,0.0116418805,0.65289193,0.0,0.0,0.0,1.0
3200980000,3200980000,-0.006798909,-0.04429248,0.016994193,0.6538818,0.0,0.0,0.0,1.0
3201076000,3201076000,-0.0051830676,-0.038907945,0.023796726,0.65243995,0.0,0.0,0.0,1.0
3201180000,3201180000,-0.0076028556,-0.04583191,-0.0024016732,0.6531215,0.0,0.0,0.0,1.0
3201276000,3201276000,0.0021035953,-0.03258823,-0.02589375,0.6526085,0.0,0.0,0.0,1.0
3201376000,3201376000,0.01192379,-0.040971927,-0.043022763,0.65500665,0.0,0.0,0.0,1.0
3201480000,3201480000,0.0039564297,-0.026572568,-0.03540061,0.6504137,0.0,0.0,0.0,1.0
3201580000,3201580000,-0.009833542,-0.037436616,-0.038538437,0.6549295,0.0,0.0,0.0,1.0
3201680000,3201680000,-0.014175484,-0.04809078,-0.014312692,0.65592635,0.0,0.0,0.0,1.0
3201780000,3201780000,-0.014026214,-0.03441918,0.0001765918,0.65264535,0.0,0.0,0.0,1.0
3201876000,3201876000,-0.009283818,-0.03978431,0.0015175372,0.6556566,0.0,0.0,0.0,1.0
3201976000,3201976000,0.0046575675,-0.028150866,0.0012937774,0.65318763,0.0,0.0,0.0,1.0
3202076000,3202076000,0.0002969755,-0.036602683,0.0011422841,0.65307015,0.0,0.0,0.0,1.0
3202176000,3202176000,0.0011636021,-0.03315946,0.0010912466,0.65599763,0.0,0.0,0.0,1.0
3202280000,3202280000,-0.0018134789,-0.043684192,0.00087545894,0.65665907,0.0,0.0,0.0,1.0
3202380000,3202380000,0.0020812477,-0.04708208,-0.0006853705,0.65724885,0.0,0.0,0.0,1.0
3202476000,3202476000,0.001577737,-0.03259907,0.0005244168,0.65450126,0.0,0.0,0.0,1.0
3202576000,3202576000,0.001346127,-0.034550663,-0.0002451418,0.6553156,0.0,0.0,0.0,1.0
3202680000,3202680000,-0.0020314858,-0.04829009,-0.0008444495,0.6589306,0.0,0.0,0.0,1.0
3202776000,3202776000,0.0015053904,-0.044016868,-0.0017647352,0.65742564,0.0,0.0,0.0,1.0
3202880000,3202880000,0.0015391425,-0.03506881,-0.0012268752,0.65594923,0.0,0.0,0.0,1.0
3202980000,3202980000,0.0032667096,-0.035780296,-0.0010977475,0.6555238,0.0,0.0,0.0,1.0
3203080000,3203080000,0.00481973,-0.03648889,-0.00072530785,0.65786785,0.0,0.0,0.0,1.0
3203180000,3203180000,0.0015519761,-0.035745196,-0.0008616103,0.659096,0.0,0.0,0.0,1.0
3203276000,3203276000,0.0008261148,-0.039246023,-0.0013052619,0.6578572,0.0,0.0,0.0,1.0
3203380000,3203380000,0.00052262656,-0.037210416,-0.0013121441,0.65851367,0.0,0.0,0.0,1.0
3203476000,3203476000,-0.00024984917,-0.047384538,0.00025860284,0.66039324,0.0,0.0,0.0,1.0
3203580000,3203580000,0.0031240708,-0.03668256,-0.0016549395,0.66010374,0.0,0.0,0.0,1.0
3203680000,3203680000,0.003509141,-0.042820476,-0.0002956068,0.6611444,0.0,0.0,0.0,1.0
3203780000,3203780000,0.0031921908,-0.039743178,-0.0012124785,0.6610592,0.0,0.0,0.0,1.0
3203880000,3203880000,0.002978169,-0.042318776,-0.0016941999,0.6614844,0.0,0.0,0.0,1.0
3203976000,3203976000,0.0047587682,-0.04590914,-0.0019185368,0.6635937,0.0,0.0,0.0,1.0
3204076000,3204076000,0.00048692268,-0.04618468,-0.0011721017,0.6646626,0.0,0.0,0.0,1.0
3204180000,3204180000,0.001884565,-0.040528588,-0.0010745323,0.66174495,0.0,0.0,0.0,1.0
3204280000,3204280000,0.0021807342,-0.03979576,-0.00051259657,0.6634147,0.0,0.0,0.0,1.0
3204380000,3204380000,0.0023465604,-0.04082235,-0.00045098428,0.66355854,0.0,0.0,0.0,1.0
3204480000,3204480000,0.0016367289,-0.04580951,-0.0017569667,0.66389817,0.0,0.0,0.0,1.0
3204576000,3204576000,0.0026380196,-0.04451609,-0.0003102125,0.66416687,0.0,0.0,0.0,1.0
3204680000,3204680000,0.0022960366,-0.037441585,-0.00095786725,0.6628423,0.0,0.0,0.0,1.0
3204776000,3204776000,0.0058175763,-0.04224508,-0.0009486599,0.66447026,0.0,0.0,0.0,1.0
3204880000,3204880000,0.0029592556,-0.043639727,-0.0013326427,0.66607046,0.0,0.0,0.0,1.0
3204976000,3204976000,0.0041150916,-0.051065437,-0.00034988477,0.66411227,0.0,0.0,0.0,1.0
3205080000,3205080000,0.0035865274,-0.037357606,-0.0011860223,0.6616918,0.0,0.0,0.0,1.0
3205180000,3205180000,0.0058768154,-0.0367662,-0.0015357642,0.66573,0.0,0.0,0.0,1.0
3205280000,3205280000,0.0017216292,-0.043157797,-0.0009218023,0.66505796,0.0,0.0,0.0,1.0
3205376000,3205376000,0.00191366,-0.04995279,-0.001642129,0.66585517,0.0,0.0,0.0,1.0
3205480000,3205480000,0.000237701,-0.042745005,-6.812738e-05,0.6642276,0.0,0.0,0.0,1.0
3205580000,3205580000,0.0027559546,-0.040925607,-0.00069172285,0.6661213,0.0,0.0,0.0,1.0
3205680000,3205680000,0.0019325337,-0.041695956,-0.0005010669,0.66710144,0.0,0.0,0.0,1.0
3205780000,3205780000,0.005470694,-0.035243776,-0.0013641468,0.6633807,0.0,0.0,0.0,1.0
3205880000,3205880000,0.004136674,-0.04192685,-0.0010127915,0.6648674,0.0,0.0,0.0,1.0
3205976000,3205976000,0.00032786932,-0.04288023,-0.00096253486,0.6674888,0.0,0.0,0.0,1.0
3206080000,3206080000,0.0009986374,-0.046414606,-0.00016543453,0.6656349,0.0,0.0,0.0,1.0
3206180000,3206180000,0.00010497752,-0.038219787,-0.00018040248,0.66478837,0.0,0.0,0.0,1.0
3206280000,3206280000,0.0024640535,-0.034912616,-0.001365638,0.6637645,0.0,0.0,0.0,1.0
3206376000,3206376000,0.004969069,-0.043402202,-0.00049272884,0.66580474,0.0,0.0,0.0,1.0
3206476000,3206476000,0.002078842,-0.037812762,-0.0007782477,0.6689085,0.0,0.0,0.0,1.0
3206580000,3206580000,0.001062987,-0.048761122,-0.0006041615,0.6697135,0.0,0.0,0.0,1.0
3206676000,3206676000,0.0033961036,-0.041143443,-0.0019930918,0.66652596,0.0,0.0,0.0,1.0
3206780000,3206780000,0.00166736,-0.04624075,-0.00056457554,0.667563,0.0,0.0,0.0,1.0
3206876000,3206876000,0.0044868034,-0.040986016,-0.0015752339,0.6674513,0.0,0.0,0.0,1.0
3206980000,3206980000,0.00015066145,-0.03972788,-0.0012410721,0.66803485,0.0,0.0,0.0,1.0
3207080000,3207080000,0.0025097942,-0.04209513,0.00010310515,0.66745216,0.0,0.0,0.0,1.0
3207180000,3207180000,0.005984693,-0.03818856,0.00016984908,0.66786635,0.0,0.0,0.0,1.0
3207276000,3207276000,0.002157682,-0.043461937,-0.000651855,0.6675533,0.0,0.0,0.0,1.0
3207376000,3207376000,0.0016619207,-0.05325807,-0.00083780143,0.67013174,0.0,0.0,0.0,1.0
3207480000,3207480000,0.0033211233,-0.04373716,-0.0010775039,0.6678133,0.0,0.0,0.0,1.0
3207580000,3207580000,0.0023345994,-0.036821783,-0.0011393835,0.6701315,0.0,0.0,0.0,1.0
3207676000,3207676000,0.0045942534,-0.052734226,-0.0014410124,0.67080706,0.0,0.0,0.0,1.0
3207776000,3207776000,0.0013442567,-0.05181743,-0.0003570576,0.6697149,0.0,0.0,0.0,1.0
3207876000,3207876000,0.002420896,-0.04887883,-0.00093561783,0.6711092,0.0,0.0,0.0,1.0
3207976000,3207976000,0.0009264508,-0.03891477,-0.0016348008,0.6699417,0.0,0.0,0.0,1.0
3208080000,3208080000,0.003977691,-0.04138334,-0.0015996152,0.66905063,0.0,0.0,0.0,1.0
3208180000,3208180000,0.004851367,-0.05027495,-0.0002654831,0.67136955,0.0,0.0,0.0,1.0
3208280000,3208280000,0.0032634037,-0.05173403,-0.0015197588,0.67335004,0.0,0.0,0.0,1.0
3208380000,3208380000,0.0035181965,-0.038736787,-0.0017300402,0.67024094,0.0,0.0,0.0,1.0
3208480000,3208480000,0.0022384252,-0.03808334,-0.0022679437,0.6708572,0.0,0.0,0.0,1.0
3208576000,3208576000,0.00018077577,-0.040145822,-0.00088169734,0.671424,0.0,0.0,0.0,1.0
3208680000,3208680000,0.00076747534,-0.052203562,-0.0013204096,0.6744627,0.0,0.0,0.0,1.0
3208776000,3208776000,0.0023418402,-0.039660048,-0.0010812721,0.67129266,0.0,0.0,0.0,1.0
3208880000,3208880000,0.00082268124,-0.04464338,-0.00062592304,0.67321455,0.0,0.0,0.0,1.0
3208980000,3208980000,0.0001759294,-0.03767305,-0.0008195,0.6711317,0.0,0.0,0.0,1.0
3209080000,3209080000,0.0020960094,-0.041572485,-0.0011508641,0.6697211,0.0,0.0,0.0,1.0
3209180000,3209180000,0.0029865094,-0.049539655,-0.0005579593,0.6735791,0.0,0.0,0.0,1.0
3209276000,3209276000,1.4547026e-05,-0.045703817,-0.0011632857,0.6742953,0.0,0.0,0.0,1.0
3209380000,3209380000,0.00225977,-0.0406598,0.00033388328,0.6727535,0.0,0.0,0.0,1.0
3209480000,3209480000,0.00396586,-0.03985907,-0.0008535909,0.6729255,0.0,0.0,0.0,1.0
3209580000,3209580000,0.0037429505,-0.051595137,-8.6171494e-05,0.67494625,0.0,0.0,0.0,1.0
3209680000,3209680000,0.00018507964,-0.053790294,-0.0018753866,0.67537194,0.0,0.0,0.0,1.0
3209776000,3209776000,0.003687907,-0.045920383,-0.0012079782,0.674655,0.0,0.0,0.0,1.0
3209880000,3209880000,0.007441315,-0.0430464,-0.0015420876,0.67407215,0.0,0.0,0.0,1.0
3209980000,3209980000,0.005399981,-0.042268768,-0.00062474166,0.6736048,0.0,0.0,0.0,1.0
3210080000,3210080000,0.0034582014,-0.051971156,0.0008748062,0.675945,0.0,0.0,0.0,1.0
3210176000,3210176000,0.0018473477,-0.04684413,-0.0019603537,0.67585945,0.0,0.0,0.0,1.0
3210280000,3210280000,0.0011533354,-0.047826122,-0.0009963944,0.675766,0.0,0.0,0.0,1.0
3210376000,3210376000,0.003967662,-0.0407682,-0.00017819041,0.6736691,0.0,0.0,0.0,1.0
3210480000,3210480000,0.004275024,-0.041748498,-0.00060661184,0.6736464,0.0,0.0,0.0,1.0
3210580000,3210580000,0.0036674459,-0.04584674,-0.00072278455,0.6771018,0.0,0.0,0.0,1.0
3210676000,3210676000,0.0005833246,-0.048681706,-0.001608554,0.67804205,0.0,0.0,0.0,1.0
3210780000,3210780000,0.003584032,-0.04452803,-0.000959877,0.6766626,0.0,0.0,0.0,1.0
3210876000,3210876000,0.0032101846,-0.041678462,-0.0013686972,0.6765203,0.0,0.0,0.0,1.0
3210980000,3210980000,0.0019936552,-0.046214093,-0.0010110401,0.67773503,0.0,0.0,0.0,1.0
3211080000,3211080000,0.0024399054,-0.045499753,-0.0014755474,0.6784577,0.0,0.0,0.0,1.0
3211176000,3211176000,0.0021992354,-0.046458684,-0.0004347153,0.6786917,0.0,0.0,0.0,1.0
3211280000,3211280000,0.003437276,-0.040605366,-0.0013593571,0.67642933,0.0,0.0,0.0,1.0
3211380000,3211380000,-0.000570033,-0.047362115,-0.0009551124,0.67719215,0.0,0.0,0.0,1.0
3211480000,3211480000,0.00036420068,-0.046835054,-0.0008583968,0.6803069,0.0,0.0,0.0,1.0
3211576000,3211576000,0.0024098135,-0.05225384,-0.0009357102,0.6803713,0.0,0.0,0.0,1.0
3211676000,3211676000,0.0027017884,-0.04128173,-0.0011066033,0.6793873,0.0,0.0,0.0,1.0
3211780000,3211780000,0.003280071,-0.040752247,-0.0008264962,0.67791563,0.0,0.0,0.0,1.0
3211876000,3211876000,0.0019319342,-0.052598093,-0.00085143064,0.6816906,0.0,0.0,0.0,1.0
3211976000,3211976000,0.002648173,-0.05316755,-0.0006686804,0.6813097,0.0,0.0,0.0,1.0
3212076000,3212076000,0.002601325,-0.04373166,-0.001324034,0.67982364,0.0,0.0,0.0,1.0
3212180000,3212180000,0.0021714396,-0.0434013,-0.00092665467,0.6806659,0.0,0.0,0.0,1.0
3212280000,3212280000,0.0018699858,-0.048768714,-0.001250413,0.6811934,0.0,0.0,0.0,1.0
3212380000,3212380000,0.006169377,-0.041393798,-0.0005063723,0.6817058,0.0,0.0,0.0,1.0
3212476000,3212476000,0.0029852143,-0.049132288,-0.00093572924,0.6827121,0.0,0.0,0.0,1.0
3212580000,3212580000,0.0026120902,-0.046213713,-0.00020798284,0.68187755,0.0,0.0,0.0,1.0
3212680000,3212680000,0.003035153,-0.05077663,-0.0012040056,0.6823163,0.0,0.0,0.0,1.0
3212780000,3212780000,0.0039183106,-0.048726283,-0.0016615666,0.6832249,0.0,0.0,0.0,1.0
3212880000,3212880000,0.0034585248,-0.04303536,-0.00056854286,0.68219936,0.0,0.0,0.0,1.0
3212976000,3212976000,0.0015118183,-0.041782983,-0.00079767086,0.6819964,0.0,0.0,0.0,1.0
3213076000,3213076000,0.003013493,-0.04475008,-0.0018183235,0.68192303,0.0,0.0,0.0,1.0
3213180000,3213180000,0.003089556,-0.053332064,-0.00049210794,0.6845751,0.0,0.0,0.0,1.0
3213280000,3213280000,0.0029356275,-0.048947126,-0.0013339714,0.68286055,0.0,0.0,0.0,1.0
3213380000,3213380000,-0.00027358579,-0.04291173,-0.0016779344,0.68184906,0.0,0.0,0.0,1.0
3213476000,3213476000,0.00413332,-0.038780026,-0.0016900287,0.6805374,0.0,0.0,0.0,1.0
3213576000,3213576000,-0.00019226642,-0.05032739,-0.0006417582,0.6849373,0.0,0.0,0.0,1.0
3213680000,3213680000,0.0010970212,-0.052323088,-0.0018088585,0.68608266,0.0,0.0,0.0,1.0
3213776000,3213776000,0.0018276335,-0.04402161,0.00023869635,0.6845199,0.0,0.0,0.0,1.0
3213880000,3213880000,0.003565231,-0.043565914,-0.0001148,0.68528146,0.0,0.0,0.0,1.0
3213980000,3213980000,0.0018251839,-0.04148773,-0.00096494553,0.6833095,0.0,0.0,0.0,1.0
3214080000,3214080000,0.0022420452,-0.05251193,-0.0012357605,0.6858589,0.0,0.0,0.0,1.0
3214180000,3214180000,0.0024473236,-0.05060578,-0.00035898777,0.6861061,0.0,0.0,0.0,1.0
3214276000,3214276000,2.2153836e-05,-0.04403227,-0.00091250904,0.68574834,0.0,0.0,0.0,1.0
3214380000,3214380000,0.0013869908,-0.04707796,-0.001662601,0.6859687,0.0,0.0,0.0,1.0
3214476000,3214476000,0.0021206015,-0.044531286,-0.0017091006,0.6855746,0.0,0.0,0.0,1.0
3214580000,3214580000,0.0005457166,-0.052658178,-0.00038093753,0.6876229,0.0,0.0,0.0,1.0
3214676000,3214676000,1.3355166e-05,-0.049846422,-0.0009595267,0.68691015,0.0,0.0,0.0,1.0
3214780000,3214780000,0.0028703106,-0.04517155,-0.00047417282,0.68589556,0.0,0.0,0.0,1.0
3214880000,3214880000,0.006672304,-0.043044563,-0.0009885099,0.6848105,0.0,0.0,0.0,1.0
3214976000,3214976000,0.0017254413,-0.05059128,-0.00077126815,0.68764794,0.0,0.0,0.0,1.0
3215080000,3215080000,0.002903609,-0.054102853,-0.00094182836,0.68835187,0.0,0.0,0.0,1.0
3215176000,3215176000,0.0015637695,-0.047098644,0.0007687352,0.6868217,0.0,0.0,0.0,1.0
3215280000,3215280000,0.000651306,-0.051508382,-0.0008624207,0.68757135,0.0,0.0,0.0,1.0
3215376000,3215376000,0.0027951847,-0.04344009,-0.00048680452,0.6862229,0.0,0.0,0.0,1.0
3215480000,3215480000,0.0026297339,-0.053655133,-0.0002331934,0.68880284,0.0,0.0,0.0,1.0
3215580000,3215580000,0.001878002,-0.055991,-0.001213595,0.68800503,0.0,0.0,0.0,1.0
3215676000,3215676000,-0.0002722924,-0.050443318,0.00016864284,0.6870082,0.0,0.0,0.0,1.0
3215780000,3215780000,-0.00053547276,-0.039307665,-0.0012362868,0.68608236,0.0,0.0,0.0,1.0
3215880000,3215880000,0.004785684,-0.042653363,-0.0010937903,0.68581265,0.0,0.0,0.0,1.0
3215980000,3215980000,0.0019357456,-0.051826824,-0.00041880884,0.6881386,0.0,0.0,0.0,1.0
3216076000,3216076000,0.004446733,-0.04444335,-0.0007677925,0.6873079,0.0,0.0,0.0,1.0
3216180000,3216180000,0.0021616274,-0.047781195,-0.0002015995,0.68766844,0.0,0.0,0.0,1.0
3216280000,3216280000,0.0035292883,-0.046610966,-0.00079445075,0.68819207,0.0,0.0,0.0,1.0
3216380000,3216380000,0.0018615555,-0.04681999,-0.0018200869,0.6867323,0.0,0.0,0.0,1.0
3216476000,3216476000,0.0035226643,-0.050775934,-0.00030076847,0.6919874,0.0,0.0,0.0,1.0
3216576000,3216576000,0.0010157467,-0.047676325,-0.0006740699,0.68953764,0.0,0.0,0.0,1.0
3216680000,3216680000,0.003664196,-0.045203865,-0.002026815,0.6916415,0.0,0.0,0.0,1.0
3216780000,3216780000,0.0011005625,-0.042767014,-0.00037006597,0.6897402,0.0,0.0,0.0,1.0
3216876000,3216876000,0.0058295317,-0.05347212,-0.00089791545,0.69357765,0.0,0.0,0.0,1.0
3216980000,3216980000,0.0016196182,-0.053070135,-0.00019740808,0.6913243,0.0,0.0,0.0,1.0
3217076000,3217076000,0.0019241835,-0.04721216,-0.0009768952,0.6929887,0.0,0.0,0.0,1.0
3217180000,3217180000,0.002638667,-0.046902817,-0.0010638542,0.6923863,0.0,0.0,0.0,1.0
3217280000,3217280000,0.0027609856,-0.047545757,-0.00024356775,0.6906812,0.0,0.0,0.0,1.0
3217380000,3217380000,0.001672611,-0.05154827,-0.0019385105,0.6931976,0.0,0.0,0.0,1.0
3217476000,3217476000,0.0033722627,-0.048466995,-0.0007479014,0.693402,0.0,0.0,0.0,1.0
3217576000,3217576000,0.0033431717,-0.049413584,-0.0015846959,0.69506276,0.0,0.0,0.0,1.0
3217680000,3217680000,-0.00016279775,-0.04608669,0.0003233496,0.69170654,0.0,0.0,0.0,1.0
3217780000,3217780000,0.0017570422,-0.047117166,-0.00035339047,0.6921459,0.0,0.0,0.0,1.0
3217880000,3217880000,0.0021965317,-0.052969363,-0.0015093267,0.6935537,0.0,0.0,0.0,1.0
3217976000,3217976000,0.001960921,-0.047290277,-0.0011693556,0.69270283,0.0,0.0,0.0,1.0
3218080000,3218080000,0.0009249188,-0.046219513,0.00034112768,0.69459784,0.0,0.0,0.0,1.0
3218176000,3218176000,0.002096362,-0.049115654,-0.0002549424,0.6925476,0.0,0.0,0.0,1.0
3218280000,3218280000,0.0026339628,-0.057106983,0.0005555458,0.69567376,0.0,0.0,0.0,1.0
3218380000,3218380000,0.001433837,-0.054881398,0.0010178238,0.69365966,0.0,0.0,0.0,1.0
3218480000,3218480000,0.0017703618,-0.047153495,0.0006897632,0.69225657,0.0,0.0,0.0,1.0
3218576000,3218576000,0.00106409,-0.04160468,0.0019196962,0.69110286,0.0,0.0,0.0,1.0
3218676000,3218676000,0.0007665729,-0.044928208,-0.010345354,0.6914264,0.0,0.0,0.0,1.0
3218780000,3218780000,0.0036155297,-0.057214357,-0.007560895,0.69501907,0.0,0.0,0.0,1.0
3218876000,3218876000,0.0026755957,-0.050893717,-0.0008104678,0.6939879,0.0,0.0,0.0,1.0
3218976000,3218976000,0.0005008518,-0.047544353,-0.000926816,0.69331366,0.0,0.0,0.0,1.0
3219080000,3219080000,0.0005861587,-0.045705225,0.00023751566,0.6910373,0.0,0.0,0.0,1.0
3219176000,3219176000,0.0031756465,-0.049054366,-0.00061625545,0.69308615,0.0,0.0,0.0,1.0
