timestamp,noutputs,output[0],output[1],output[2],output[3],output[4],output[5],output[6],output[7],output[8],output[9],output[10],output[11],output[12],output[13],output[14],output[15]
3151276000,6,900.0,900.0,900.0,900.0,900.0,900.0,nan,nan,nan,nan,nan,nan,nan,nan,nan,nan
3151376000,6,1000.0,1000.0,1000.0,1000.0,1500.0,1500.0,nan,nan,nan,nan,nan,nan,nan,nan,nan,nan
3151476000,6,1000.0,1000.0,1000.0,1000.0,1500.0,1500.0,nan,nan,nan,nan,nan,nan,nan,nan,nan,nan
3151576000,6,1000.0,1000.0,1000.0,1000.0,1500.0,1500.0,nan,nan,nan,nan,nan,nan,nan,nan,nan,nan
3151676000,6,1000.0,1000.0,1000.0,1000.0,1500.0,1500.0,nan,nan,nan,nan,nan,nan,nan,nan,nan,nan
3151776000,6,1000.0,1000.0,1000.0,1000.0,1500.0,1500.0,nan,nan,nan,nan,nan,nan,nan,nan,nan,nan
3151872000,6,1000.0,1000.0,1000.0,1000.0,1500.0,1500.0,nan,nan,nan,nan,nan,nan,nan,nan,nan,nan
3151972000,6,1000.0,1000.0,1000.0,1000.0,1500.0,1500.0,nan,nan,nan,nan,nan,nan,nan,nan,nan,nan
3152076000,6,1000.0,1000.0,1000.0,1000.0,1500.0,1500.0,nan,nan,nan,nan,nan,nan,nan,nan,nan,nan
3152172000,6,1000.0,1000.0,1000.0,1000.0,1500.0,1500.0,nan,nan,nan,nan,nan,nan,nan,nan,nan,nan
3152276000,6,1000.0,1000.0,1000.0,1000.0,1500.0,1500.0,nan,nan,nan,nan,nan,nan,nan,nan,nan,nan
3152376000,6,1127.751,1111.4608,1094.0161,1146.8784,1500.0,1500.0,nan,nan,nan,nan,nan,nan,nan,nan,nan,nan
3152472000,6,1149.9866,1139.1743,1133.8164,1154.7904,1500.0,1500.0,nan,nan,nan,nan,nan,nan,nan,nan,nan,nan
3152572000,6,1212.0339,1210.6978,1197.8372,1225.119,1500.0,1500.0,nan,nan,nan,nan,nan,nan,nan,nan,nan,nan
3152676000,6,1290.4171,1292.9196,1273.9097,1307.6871,1500.0,1500.0,nan,nan,nan,nan,nan,nan,nan,nan,nan,nan
3152772000,6,1357.1818,1360.2528,1335.0295,1378.7096,1500.0,1500.0,nan,nan,nan,nan,nan,nan,nan,nan,nan,nan
3152872000,6,1435.2266,1445.6371,1419.6577,1463.259,1500.0,1500.0,nan,nan,nan,nan,nan,nan,nan,nan,nan,nan
3152976000,6,1506.2168,1517.6725,1484.9916,1535.2386,1500.0,1500.0,nan,nan,nan,nan,nan,nan,nan,nan,nan,nan
3153072000,6,1579.2317,1594.461,1563.7505,1609.0513,1500.0,1500.0,nan,nan,nan,nan,nan,nan,nan,nan,nan,nan
3153176000,6,1617.4946,1619.3684,1621.6167,1615.4203,1500.0,1500.0,nan,nan,nan,nan,nan,nan,nan,nan,nan,nan
3153272000,6,1605.9736,1606.524,1609.1519,1602.2203,1500.0,1500.0,nan,nan,nan,nan,nan,nan,nan,nan,nan,nan
3153376000,6,1610.8544,1615.0128,1613.6785,1610.6764,1500.0,1500.0,nan,nan,nan,nan,nan,nan,nan,nan,nan,nan
3153472000,6,1610.6946,1612.76,1611.1311,1611.3827,1500.0,1500.0,nan,nan,nan,nan,nan,nan,nan,nan,nan,nan
3153576000,6,1618.0692,1617.7698,1616.9534,1618.0876,1500.0,1500.0,nan,nan,nan,nan,nan,nan,nan,nan,nan,nan
3153672000,6,1616.6127,1619.9867,1617.0338,1617.0029,1500.0,1500.0,nan,nan,nan,nan,nan,nan,nan,nan,nan,nan
3153776000,6,1617.0348,1621.3835,1619.6,1622.2957,1500.0,1500.0,nan,nan,nan,nan,nan,nan,nan,nan,nan,nan
3153872000,6,1619.3228,1619.8116,1618.9353,1620.397,1500.0,1500.0,nan,nan,nan,nan,nan,nan,nan,nan,nan,nan
3153972000,6,1621.2129,1619.4467,1619.0892,1619.91,1500.0,1500.0,nan,nan,nan,nan,nan,nan,nan,nan,nan,nan
3154076000,6,1626.2745,1629.8877,1627.608,1627.6741,1500.0,1500.0,nan,nan,nan,nan,nan,nan,nan,nan,nan,nan
3154172000,6,1623.8434,1625.9474,1626.0566,1627.7107,1500.0,1500.0,nan,nan,nan,nan,nan,nan,nan,nan,nan,nan
3154276000,6,1628.6105,1626.3558,1628.2207,1626.5095,1500.0,1500.0,nan,nan,nan,nan,nan,nan,nan,nan,nan,nan
3154372000,6,1627.0162,1627.1947,1628.266,1627.9067,1500.0,1500.0,nan,nan,nan,nan,nan,nan,nan,nan,nan,nan
3154476000,6,1627.9486,1628.6284,1627.7257,1631.7745,1500.0,1500.0,nan,nan,nan,nan,nan,nan,nan,nan,nan,nan
3154572000,6,1634.4718,1639.3873,1639.844,1637.4584,1500.0,1500.0,nan,nan,nan,nan,nan,nan,nan,nan,nan,nan
3154672000,6,1637.4406,1635.7902,1635.4155,1637.547,1500.0,1500.0,nan,nan,nan,nan,nan,nan,nan,nan,nan,nan
3154772000,6,1635.1351,1632.4855,1635.75,1635.9388,1500.0,1500.0,nan,nan,nan,nan,nan,nan,nan,nan,nan,nan
3154872000,6,1636.4941,1640.3287,1638.2119,1639.9333,1500.0,1500.0,nan,nan,nan,nan,nan,nan,nan,nan,nan,nan
3154972000,6,1614.2015,1616.5454,1614.4155,1615.9513,1500.0,1500.0,nan,nan,nan,nan,nan,nan,nan,nan,nan,nan
3155072000,6,1536.4886,1534.3667,1533.6455,1531.9072,1500.0,1500.0,nan,nan,nan,nan,nan,nan,nan,nan,nan,nan
3155172000,6,1570.5149,1566.7607,1568.3497,1564.7472,1500.0,1500.0,nan,nan,nan,nan,nan,nan,nan,nan,nan,nan
3155272000,6,1563.0824,1569.361,1563.7233,1566.9314,1500.0,1500.0,nan,nan,nan,nan,nan,nan,nan,nan,nan,nan
3155376000,6,1576.99,1577.2585,1579.3577,1575.5431,1500.0,1500.0,nan,nan,nan,nan,nan,nan,nan,nan,nan,nan
3155476000,6,1567.6024,1571.2666,1568.972,1567.3162,1500.0,1500.0,nan,nan,nan,nan,nan,nan,nan,nan,nan,nan
3155572000,6,1563.4742,1565.7898,1563.2242,1567.3843,1500.0,1500.0,nan,nan,nan,nan,nan,nan,nan,nan,nan,nan
3155672000,6,1572.0077,1572.0994,1572.649,1572.0787,1500.0,1500.0,nan,nan,nan,nan,nan,nan,nan,nan,nan,nan
3155776000,6,1573.3695,1573.0677,1573.8905,1573.6719,1500.0,1500.0,nan,nan,nan,nan,nan,nan,nan,nan,nan,nan
3155876000,6,1571.7445,1568.7543,1572.4242,1568.1155,1500.0,1500.0,nan,nan,nan,nan,nan,nan,nan,nan,nan,nan
3155972000,6,1570.582,1573.3401,1574.8547,1571.985,1500.0,1500.0,nan,nan,nan,nan,nan,nan,nan,nan,nan,nan
3156072000,6,1570.2115,1571.0237,1570.1475,1571.1973,1500.0,1500.0,nan,nan,nan,nan,nan,nan,nan,nan,nan,nan
3156172000,6,1580.9932,1576.7002,1577.8862,1579.4845,1500.0,1500.0,nan,nan,nan,nan,nan,nan,nan,nan,nan,nan
3156272000,6,1572.2533,1578.0425,1574.0889,1578.2865,1500.0,1500.0,nan,nan,nan,nan,nan,nan,nan,nan,nan,nan
3156372000,6,1575.4005,1579.099,1573.7045,1573.9005,1500.0,1500.0,nan,nan,nan,nan,nan,nan,nan,nan,nan,nan
3156472000,6,1571.9358,1572.5979,1570.6433,1570.2488,1500.0,1500.0,nan,nan,nan,nan,nan,nan,nan,nan,nan,nan
3156572000,6,1573.1334,1577.1936,1573.394,1573.7631,1500.0,1500.0,nan,nan,nan,nan,nan,nan,nan,nan,nan,nan
3156676000,6,1581.3269,1581.3113,1580.7506,1578.1675,1500.0,1500.0,nan,nan,nan,nan,nan,nan,nan,nan,nan,nan
3156776000,6,1580.5996,1576.7046,1578.4523,1576.5549,1500.0,1500.0,nan,nan,nan,nan,nan,nan,nan,nan,nan,nan
3156872000,6,1582.4542,1577.936,1580.319,1577.6938,1500.0,1500.0,nan,nan,nan,nan,nan,nan,nan,nan,nan,nan
3156972000,6,1572.7832,1573.3062,1574.2686,1574.3732,1500.0,1500.0,nan,nan,nan,nan,nan,nan,nan,nan,nan,nan
3157072000,6,1584.5261,1580.046,1582.4302,1581.1584,1500.0,1500.0,nan,nan,nan,nan,nan,nan,nan,nan,nan,nan
3157172000,6,1581.9999,1583.3081,1583.171,1582.873,1500.0,1500.0,nan,nan,nan,nan,nan,nan,nan,nan,nan,nan
3157276000,6,1579.6393,1580.1497,1581.29,1577.3463,1500.0,1500.0,nan,nan,nan,nan,nan,nan,nan,nan,nan,nan
3157372000,6,1584.834,1582.2521,1584.8054,1583.9756,1500.0,1500.0,nan,nan,nan,nan,nan,nan,nan,nan,nan,nan
3157472000,6,1577.797,1576.4088,1575.5701,1578.3453,1500.0,1500.0,nan,nan,nan,nan,nan,nan,nan,nan,nan,nan
3157572000,6,1581.8308,1583.7239,1581.5485,1581.226,1500.0,1500.0,nan,nan,nan,nan,nan,nan,nan,nan,nan,nan
3157676000,6,1586.189,1585.4757,1587.7269,1584.3005,1500.0,1500.0,nan,nan,nan,nan,nan,nan,nan,nan,nan,nan
3157772000,6,1581.3964,1582.6542,1584.6177,1579.9288,1500.0,1500.0,nan,nan,nan,nan,nan,nan,nan,nan,nan,nan
3157872000,6,1580.7687,1581.5674,1581.7499,1584.1008,1500.0,1500.0,nan,nan,nan,nan,nan,nan,nan,nan,nan,nan
3157972000,6,1577.6304,1576.1997,1579.302,1578.0753,1500.0,1500.0,nan,nan,nan,nan,nan,nan,nan,nan,nan,nan
3158076000,6,1583.0941,1585.1554,1585.8486,1585.6637,1500.0,1500.0,nan,nan,nan,nan,nan,nan,nan,nan,nan,nan
3158172000,6,1584.9567,1585.0948,1582.622,1586.4977,1500.0,1500.0,nan,nan,nan,nan,nan,nan,nan,nan,nan,nan
3158272000,6,1582.7968,1582.9752,1581.8927,1581.3198,1500.0,1500.0,nan,nan,nan,nan,nan,nan,nan,nan,nan,nan
3158376000,6,1580.4393,1579.0349,1580.7266,1581.9471,1500.0,1500.0,nan,nan,nan,nan,nan,nan,nan,nan,nan,nan
3158472000,6,1582.3152,1576.3046,1581.6632,1577.286,1500.0,1500.0,nan,nan,nan,nan,nan,nan,nan,nan,nan,nan
3158576000,6,1585.5088,1587.0881,1587.5504,1586.3452,1500.0,1500.0,nan,nan,nan,nan,nan,nan,nan,nan,nan,nan
3158672000,6,1582.7028,1582.7849,1584.2043,1581.3582,1500.0,1500.0,nan,nan,nan,nan,nan,nan,nan,nan,nan,nan
3158776000,6,1582.6432,1583.1583,1583.8578,1584.9458,1500.0,1500.0,nan,nan,nan,nan,nan,nan,nan,nan,nan,nan
3158872000,6,1579.4519,1578.6857,1579.6218,1579.7236,1500.0,1500.0,nan,nan,nan,nan,nan,nan,nan,nan,nan,nan
3158976000,6,1581.6038,1577.9622,1579.1564,1579.6285,1500.0,1500.0,nan,nan,nan,nan,nan,nan,nan,nan,nan,nan
3159076000,6,1584.403,1587.0378,1587.9363,1584.8528,1500.0,1500.0,nan,nan,nan,nan,nan,nan,nan,nan,nan,nan
3159172000,6,1585.9531,1583.7687,1584.5221,1582.166,1500.0,1500.0,nan,nan,nan,nan,nan,nan,nan,nan,nan,nan
3159272000,6,1582.2426,1581.6686,1582.7247,1583.5931,1500.0,1500.0,nan,nan,nan,nan,nan,nan,nan,nan,nan,nan
3159376000,6,1579.5615,1582.1204,1577.6996,1580.5823,1500.0,1500.0,nan,nan,nan,nan,nan,nan,nan,nan,nan,nan
3159476000,6,1589.2415,1586.3529,1587.7976,1588.3491,1500.0,1500.0,nan,nan,nan,nan,nan,nan,nan,nan,nan,nan
3159576000,6,1589.2029,1582.9866,1586.3735,1586.3419,1500.0,1500.0,nan,nan,nan,nan,nan,nan,nan,nan,nan,nan
3159672000,6,1587.4991,1586.1049,1588.3561,1587.7006,1500.0,1500.0,nan,nan,nan,nan,nan,nan,nan,nan,nan,nan
3159772000,6,1610.1412,1608.8588,1608.4932,1608.5983,1500.0,1500.0,nan,nan,nan,nan,nan,nan,nan,nan,nan,nan
3159872000,6,1639.353,1639.3676,1639.8295,1638.74,1500.0,1500.0,nan,nan,nan,nan,nan,nan,nan,nan,nan,nan
3159972000,6,1684.6749,1677.4888,1682.3177,1676.9531,1500.0,1500.0,nan,nan,nan,nan,nan,nan,nan,nan,nan,nan
3160072000,6,1699.2649,1698.1824,1697.8766,1697.8315,1500.0,1500.0,nan,nan,nan,nan,nan,nan,nan,nan,nan,nan
3160172000,6,1699.2462,1695.5817,1697.3064,1700.2649,1500.0,1500.0,nan,nan,nan,nan,nan,nan,nan,nan,nan,nan
3160272000,6,1655.2393,1654.3307,1655.9415,1656.3928,1500.0,1500.0,nan,nan,nan,nan,nan,nan,nan,nan,nan,nan
3160372000,6,1660.5533,1660.3044,1658.8456,1663.8527,1500.0,1500.0,nan,nan,nan,nan,nan,nan,nan,nan,nan,nan
3160472000,6,1605.4492,1606.1748,1607.8036,1605.4187,1500.0,1500.0,nan,nan,nan,nan,nan,nan,nan,nan,nan,nan
3160572000,6,1601.2151,1598.547,1599.7616,1595.7883,1500.0,1500.0,nan,nan,nan,nan,nan,nan,nan,nan,nan,nan
3160672000,6,1608.9298,1612.9832,1605.1014,1615.2205,1500.0,1500.0,nan,nan,nan,nan,nan,nan,nan,nan,nan,nan
3160772000,6,1606.1171,1610.4448,1606.4918,1608.236,1500.0,1500.0,nan,nan,nan,nan,nan,nan,nan,nan,nan,nan
3160876000,6,1606.3867,1609.2476,1607.7224,1607.4135,1500.0,1500.0,nan,nan,nan,nan,nan,nan,nan,nan,nan,nan
3160976000,6,1609.9364,1603.7244,1607.3225,1607.1023,1500.0,1500.0,nan,nan,nan,nan,nan,nan,nan,nan,nan,nan
3161072000,6,1605.4286,1607.5736,1606.5311,1606.3691,1500.0,1500.0,nan,nan,nan,nan,nan,nan,nan,nan,nan,nan
3161172000,6,1604.6652,1606.1072,1605.52,1608.5088,1500.0,1500.0,nan,nan,nan,nan,nan,nan,nan,nan,nan,nan
3161272000,6,1605.6189,1605.5195,1606.5308,1607.1481,1500.0,1500.0,nan,nan,nan,nan,nan,nan,nan,nan,nan,nan
3161376000,6,1608.3884,1603.9376,1605.8256,1606.8177,1500.0,1500.0,nan,nan,nan,nan,nan,nan,nan,nan,nan,nan
3161472000,6,1608.8934,1606.9601,1608.0845,1607.3937,1500.0,1500.0,nan,nan,nan,nan,nan,nan,nan,nan,nan,nan
3161572000,6,1603.9565,1604.8031,1605.9381,1604.2817,1500.0,1500.0,nan,nan,nan,nan,nan,nan,nan,nan,nan,nan
3161676000,6,1604.8224,1608.1605,1606.2833,1607.3538,1500.0,1500.0,nan,nan,nan,nan,nan,nan,nan,nan,nan,nan
3161776000,6,1603.69,1608.3489,1602.1025,1606.0476,1500.0,1500.0,nan,nan,nan,nan,nan,nan,nan,nan,nan,nan
3161872000,6,1606.3413,1605.0288,1607.0352,1602.7501,1500.0,1500.0,nan,nan,nan,nan,nan,nan,nan,nan,nan,nan
3161972000,6,1607.1151,1612.4749,1607.2731,1611.4279,1500.0,1500.0,nan,nan,nan,nan,nan,nan,nan,nan,nan,nan
3162072000,6,1600.1158,1591.259,1597.3938,1593.8218,1500.0,1500.0,nan,nan,nan,nan,nan,nan,nan,nan,nan,nan
3162172000,6,1594.6917,1594.8192,1597.868,1596.0591,1500.0,1500.0,nan,nan,nan,nan,nan,nan,nan,nan,nan,nan
3162272000,6,1614.8041,1609.9312,1612.4893,1609.9465,1500.0,1500.0,nan,nan,nan,nan,nan,nan,nan,nan,nan,nan
3162376000,6,1611.89,1608.6158,1609.8546,1610.0845,1500.0,1500.0,nan,nan,nan,nan,nan,nan,nan,nan,nan,nan
3162476000,6,1605.0577,1602.284,1604.3822,1604.8341,1500.0,1500.0,nan,nan,nan,nan,nan,nan,nan,nan,nan,nan
3162576000,6,1598.444,1598.1572,1595.3489,1599.1586,1500.0,1500.0,nan,nan,nan,nan,nan,nan,nan,nan,nan,nan
3162672000,6,1600.198,1597.4504,1599.214,1595.821,1500.0,1500.0,nan,nan,nan,nan,nan,nan,nan,nan,nan,nan
3162776000,6,1610.23,1607.9819,1611.5258,1607.6543,1500.0,1500.0,nan,nan,nan,nan,nan,nan,nan,nan,nan,nan
3162876000,6,1605.035,1604.9706,1604.7014,1602.1359,1500.0,1500.0,nan,nan,nan,nan,nan,nan,nan,nan,nan,nan
3162972000,6,1603.202,1605.2535,1604.8497,1604.1476,1500.0,1500.0,nan,nan,nan,nan,nan,nan,nan,nan,nan,nan
3163076000,6,1597.7769,1595.4652,1597.8949,1595.197,1500.0,1500.0,nan,nan,nan,nan,nan,nan,nan,nan,nan,nan
3163176000,6,1597.1083,1596.4657,1599.2483,1595.5054,1500.0,1500.0,nan,nan,nan,nan,nan,nan,nan,nan,nan,nan
3163272000,6,1612.133,1607.083,1613.8378,1609.1405,1500.0,1500.0,nan,nan,nan,nan,nan,nan,nan,nan,nan,nan
3163376000,6,1588.168,1591.494,1593.2814,1591.1125,1500.0,1500.0,nan,nan,nan,nan,nan,nan,nan,nan,nan,nan
3163472000,6,1558.2439,1558.7129,1558.866,1560.5841,1500.0,1500.0,nan,nan,nan,nan,nan,nan,nan,nan,nan,nan
3163572000,6,1564.62,1565.5248,1562.3195,1570.1497,1500.0,1500.0,nan,nan,nan,nan,nan,nan,nan,nan,nan,nan
3163672000,6,1575.6237,1575.5359,1576.7106,1575.6064,1500.0,1500.0,nan,nan,nan,nan,nan,nan,nan,nan,nan,nan
3163772000,6,1569.3423,1569.4131,1572.7705,1568.9165,1500.0,1500.0,nan,nan,nan,nan,nan,nan,nan,nan,nan,nan
3163872000,6,1567.9224,1568.8511,1571.0353,1569.0688,1500.0,1500.0,nan,nan,nan,nan,nan,nan,nan,nan,nan,nan
3163976000,6,1566.7764,1562.1857,1565.9237,1562.3405,1500.0,1500.0,nan,nan,nan,nan,nan,nan,nan,nan,nan,nan
3164072000,6,1564.2412,1564.8743,1568.042,1564.9883,1500.0,1500.0,nan,nan,nan,nan,nan,nan,nan,nan,nan,nan
3164172000,6,1572.2213,1571.73,1572.8094,1573.1798,1500.0,1500.0,nan,nan,nan,nan,nan,nan,nan,nan,nan,nan
3164272000,6,1590.2731,1590.3055,1594.4922,1583.4938,1500.0,1500.0,nan,nan,nan,nan,nan,nan,nan,nan,nan,nan
3164376000,6,1568.3708,1569.1393,1566.9283,1568.5015,1500.0,1500.0,nan,nan,nan,nan,nan,nan,nan,nan,nan,nan
3164476000,6,1572.0929,1568.7214,1571.4926,1572.4631,1500.0,1500.0,nan,nan,nan,nan,nan,nan,nan,nan,nan,nan
3164580000,6,1569.0825,1568.5385,1566.2355,1569.1948,1500.0,1500.0,nan,nan,nan,nan,nan,nan,nan,nan,nan,nan
3164676000,6,1566.3088,1560.8761,1566.6238,1560.0288,1500.0,1500.0,nan,nan,nan,nan,nan,nan,nan,nan,nan,nan
3164780000,6,1562.9487,1563.133,1564.35,1562.9884,1500.0,1500.0,nan,nan,nan,nan,nan,nan,nan,nan,nan,nan
3164876000,6,1562.0818,1559.541,1563.6293,1561.4596,1500.0,1500.0,nan,nan,nan,nan,nan,nan,nan,nan,nan,nan
3164976000,6,1575.0873,1579.2141,1579.5638,1575.1753,1500.0,1500.0,nan,nan,nan,nan,nan,nan,nan,nan,nan,nan
3165080000,6,1566.8875,1572.1802,1564.7198,1572.76,1500.0,1500.0,nan,nan,nan,nan,nan,nan,nan,nan,nan,nan
3165180000,6,1563.2356,1559.9535,1565.5725,1560.585,1500.0,1500.0,nan,nan,nan,nan,nan,nan,nan,nan,nan,nan
3165280000,6,1564.5648,1561.363,1564.1815,1560.9111,1500.0,1500.0,nan,nan,nan,nan,nan,nan,nan,nan,nan,nan
3165376000,6,1567.9832,1568.0594,1566.8464,1569.5658,1500.0,1500.0,nan,nan,nan,nan,nan,nan,nan,nan,nan,nan
3165476000,6,1563.6595,1565.14,1565.7576,1565.1802,1500.0,1500.0,nan,nan,nan,nan,nan,nan,nan,nan,nan,nan
3165580000,6,1562.5901,1564.1368,1563.2462,1563.9144,1500.0,1500.0,nan,nan,nan,nan,nan,nan,nan,nan,nan,nan
3165680000,6,1567.4972,1564.5637,1564.768,1567.292,1500.0,1500.0,nan,nan,nan,nan,nan,nan,nan,nan,nan,nan
3165776000,6,1565.8354,1560.8135,1566.1569,1560.5266,1500.0,1500.0,nan,nan,nan,nan,nan,nan,nan,nan,nan,nan
3165880000,6,1568.7675,1566.8862,1569.5259,1569.5903,1500.0,1500.0,nan,nan,nan,nan,nan,nan,nan,nan,nan,nan
3165980000,6,1568.3284,1571.5597,1568.8552,1566.2399,1500.0,1500.0,nan,nan,nan,nan,nan,nan,nan,nan,nan,nan
3166076000,6,1565.2844,1566.458,1566.9376,1567.2906,1500.0,1500.0,nan,nan,nan,nan,nan,nan,nan,nan,nan,nan
3166180000,6,1567.2177,1566.4692,1568.3334,1566.3247,1500.0,1500.0,nan,nan,nan,nan,nan,nan,nan,nan,nan,nan
3166276000,6,1566.417,1571.8394,1566.4769,1566.8005,1500.0,1500.0,nan,nan,nan,nan,nan,nan,nan,nan,nan,nan
3166376000,6,1567.4957,1563.5536,1566.6075,1561.9966,1500.0,1500.0,nan,nan,nan,nan,nan,nan,nan,nan,nan,nan
3166480000,6,1568.1814,1567.8794,1570.2075,1567.4235,1500.0,1500.0,nan,nan,nan,nan,nan,nan,nan,nan,nan,nan
3166576000,6,1568.2085,1569.3079,1568.1714,1566.3479,1500.0,1500.0,nan,nan,nan,nan,nan,nan,nan,nan,nan,nan
3166676000,6,1568.1702,1568.6162,1569.0334,1569.0002,1500.0,1500.0,nan,nan,nan,nan,nan,nan,nan,nan,nan,nan
3166776000,6,1567.5974,1567.6033,1567.6923,1564.0286,1500.0,1500.0,nan,nan,nan,nan,nan,nan,nan,nan,nan,nan
3166876000,6,1570.4045,1565.7969,1567.3184,1570.4968,1500.0,1500.0,nan,nan,nan,nan,nan,nan,nan,nan,nan,nan
3166980000,6,1568.7059,1569.509,1570.4138,1567.8059,1500.0,1500.0,nan,nan,nan,nan,nan,nan,nan,nan,nan,nan
3167080000,6,1566.0928,1566.1528,1565.4219,1567.8755,1500.0,1500.0,nan,nan,nan,nan,nan,nan,nan,nan,nan,nan
3167180000,6,1567.648,1565.8743,1569.1145,1563.7294,1500.0,1500.0,nan,nan,nan,nan,nan,nan,nan,nan,nan,nan
3167276000,6,1563.3612,1568.0784,1563.9752,1563.9044,1500.0,1500.0,nan,nan,nan,nan,nan,nan,nan,nan,nan,nan
3167376000,6,1567.7812,1567.9412,1568.5604,1567.9955,1500.0,1500.0,nan,nan,nan,nan,nan,nan,nan,nan,nan,nan
3167476000,6,1565.6226,1567.009,1566.773,1564.6233,1500.0,1500.0,nan,nan,nan,nan,nan,nan,nan,nan,nan,nan
3167576000,6,1566.2529,1565.1085,1566.2482,1565.6506,1500.0,1500.0,nan,nan,nan,nan,nan,nan,nan,nan,nan,nan
3167676000,6,1562.0459,1568.4434,1562.7782,1568.6711,1500.0,1500.0,nan,nan,nan,nan,nan,nan,nan,nan,nan,nan
3167776000,6,1562.8539,1565.3351,1565.2125,1565.2733,1500.0,1500.0,nan,nan,nan,nan,nan,nan,nan,nan,nan,nan
3167876000,6,1566.2146,1568.3947,1565.7812,1567.5967,1500.0,1500.0,nan,nan,nan,nan,nan,nan,nan,nan,nan,nan
3167980000,6,1564.9354,1566.3386,1565.004,1565.9652,1500.0,1500.0,nan,nan,nan,nan,nan,nan,nan,nan,nan,nan
3168080000,6,1566.8556,1564.0778,1564.5198,1563.1823,1500.0,1500.0,nan,nan,nan,nan,nan,nan,nan,nan,nan,nan
3168180000,6,1564.5143,1565.2499,1565.3899,1564.3562,1500.0,1500.0,nan,nan,nan,nan,nan,nan,nan,nan,nan,nan
3168276000,6,1563.7609,1565.5253,1564.7316,1566.0934,1500.0,1500.0,nan,nan,nan,nan,nan,nan,nan,nan,nan,nan
3168380000,6,1565.7219,1567.8582,1567.7417,1566.1559,1500.0,1500.0,nan,nan,nan,nan,nan,nan,nan,nan,nan,nan
3168476000,6,1566.1442,1565.6422,1567.4181,1563.9093,1500.0,1500.0,nan,nan,nan,nan,nan,nan,nan,nan,nan,nan
3168576000,6,1565.2412,1568.5332,1562.508,1572.4076,1500.0,1500.0,nan,nan,nan,nan,nan,nan,nan,nan,nan,nan
3168676000,6,1565.9332,1566.0255,1565.6627,1570.1725,1500.0,1500.0,nan,nan,nan,nan,nan,nan,nan,nan,nan,nan
3168776000,6,1565.47,1565.916,1565.0514,1567.5309,1500.0,1500.0,nan,nan,nan,nan,nan,nan,nan,nan,nan,nan
3168876000,6,1567.6661,1563.6172,1566.8934,1564.9006,1500.0,1500.0,nan,nan,nan,nan,nan,nan,nan,nan,nan,nan
3168980000,6,1564.7191,1563.1982,1564.0553,1563.9176,1500.0,1500.0,nan,nan,nan,nan,nan,nan,nan,nan,nan,nan
3169080000,6,1564.1696,1562.2454,1563.655,1563.2418,1500.0,1500.0,nan,nan,nan,nan,nan,nan,nan,nan,nan,nan
3169176000,6,1567.0894,1562.303,1564.648,1564.8324,1500.0,1500.0,nan,nan,nan,nan,nan,nan,nan,nan,nan,nan
3169280000,6,1564.3914,1565.0569,1566.6543,1562.8401,1500.0,1500.0,nan,nan,nan,nan,nan,nan,nan,nan,nan,nan
3169376000,6,1564.6465,1563.1548,1564.7384,1562.5267,1500.0,1500.0,nan,nan,nan,nan,nan,nan,nan,nan,nan,nan
3169476000,6,1563.6692,1562.0009,1563.2751,1563.1576,1500.0,1500.0,nan,nan,nan,nan,nan,nan,nan,nan,nan,nan
3169580000,6,1565.3834,1561.6133,1565.3595,1563.821,1500.0,1500.0,nan,nan,nan,nan,nan,nan,nan,nan,nan,nan
3169676000,6,1564.3757,1567.7144,1565.994,1565.0999,1500.0,1500.0,nan,nan,nan,nan,nan,nan,nan,nan,nan,nan
3169776000,6,1565.4475,1565.7532,1566.1418,1563.1544,1500.0,1500.0,nan,nan,nan,nan,nan,nan,nan,nan,nan,nan
3169876000,6,1563.4934,1564.554,1560.4626,1565.8431,1500.0,1500.0,nan,nan,nan,nan,nan,nan,nan,nan,nan,nan
3169980000,6,1562.3008,1562.5593,1562.612,1563.0168,1500.0,1500.0,nan,nan,nan,nan,nan,nan,nan,nan,nan,nan
3170076000,6,1562.9297,1563.9086,1564.5162,1562.2268,1500.0,1500.0,nan,nan,nan,nan,nan,nan,nan,nan,nan,nan
3170180000,6,1562.7002,1563.1212,1561.9235,1563.7059,1500.0,1500.0,nan,nan,nan,nan,nan,nan,nan,nan,nan,nan
3170276000,6,1564.0619,1567.1051,1564.3964,1568.248,1500.0,1500.0,nan,nan,nan,nan,nan,nan,nan,nan,nan,nan
3170380000,6,1567.5704,1564.6969,1566.7622,1566.4102,1500.0,1500.0,nan,nan,nan,nan,nan,nan,nan,nan,nan,nan
3170476000,6,1567.1492,1563.7975,1565.6531,1564.2014,1500.0,1500.0,nan,nan,nan,nan,nan,nan,nan,nan,nan,nan
3170576000,6,1560.9282,1564.1473,1563.664,1562.7299,1500.0,1500.0,nan,nan,nan,nan,nan,nan,nan,nan,nan,nan
3170680000,6,1563.8342,1563.7719,1565.8549,1565.3159,1500.0,1500.0,nan,nan,nan,nan,nan,nan,nan,nan,nan,nan
3170776000,6,1565.4392,1564.4729,1564.6573,1562.6982,1500.0,1500.0,nan,nan,nan,nan,nan,nan,nan,nan,nan,nan
3170880000,6,1564.3306,1562.1947,1566.1421,1561.7474,1500.0,1500.0,nan,nan,nan,nan,nan,nan,nan,nan,nan,nan
3170976000,6,1563.4143,1560.878,1565.0236,1562.3258,1500.0,1500.0,nan,nan,nan,nan,nan,nan,nan,nan,nan,nan
3171080000,6,1561.4861,1565.7363,1562.763,1562.8983,1500.0,1500.0,nan,nan,nan,nan,nan,nan,nan,nan,nan,nan
3171176000,6,1565.5771,1563.1324,1565.405,1563.3982,1500.0,1500.0,nan,nan,nan,nan,nan,nan,nan,nan,nan,nan
3171280000,6,1565.0483,1561.8234,1564.3228,1563.5513,1500.0,1500.0,nan,nan,nan,nan,nan,nan,nan,nan,nan,nan
3171376000,6,1564.4482,1565.9956,1565.906,1564.0908,1500.0,1500.0,nan,nan,nan,nan,nan,nan,nan,nan,nan,nan
3171476000,6,1561.7642,1565.5548,1563.9515,1563.9773,1500.0,1500.0,nan,nan,nan,nan,nan,nan,nan,nan,nan,nan
3171576000,6,1560.5519,1563.5104,1560.8828,1564.7285,1500.0,1500.0,nan,nan,nan,nan,nan,nan,nan,nan,nan,nan
3171680000,6,1568.0677,1565.2993,1568.1134,1562.3578,1500.0,1500.0,nan,nan,nan,nan,nan,nan,nan,nan,nan,nan
3171776000,6,1565.0361,1569.2493,1568.5131,1565.0742,1500.0,1500.0,nan,nan,nan,nan,nan,nan,nan,nan,nan,nan
3171876000,6,1566.2496,1571.0037,1567.0635,1569.1754,1500.0,1500.0,nan,nan,nan,nan,nan,nan,nan,nan,nan,nan
3171976000,6,1549.505,1514.9901,1583.004,1567.6588,1500.0,1500.0,nan,nan,nan,nan,nan,nan,nan,nan,nan,nan
3172076000,6,1509.4205,1460.0869,1573.56,1555.6079,1500.0,1500.0,nan,nan,nan,nan,nan,nan,nan,nan,nan,nan
3172176000,6,1479.2817,1400.8824,1551.9089,1518.9934,1500.0,1500.0,nan,nan,nan,nan,nan,nan,nan,nan,nan,nan
3172276000,6,1459.2274,1396.2235,1513.01,1500.6212,1500.0,1500.0,nan,nan,nan,nan,nan,nan,nan,nan,nan,nan
3172376000,6,1459.9451,1409.2633,1496.9373,1511.1411,1500.0,1500.0,nan,nan,nan,nan,nan,nan,nan,nan,nan,nan
3172480000,6,1435.8916,1528.5087,1520.4479,1569.9469,1500.0,1500.0,nan,nan,nan,nan,nan,nan,nan,nan,nan,nan
3172576000,6,1468.828,1563.0796,1575.8544,1603.5542,1500.0,1500.0,nan,nan,nan,nan,nan,nan,nan,nan,nan,nan
3172676000,6,1529.9592,1581.5028,1642.498,1645.8699,1500.0,1500.0,nan,nan,nan,nan,nan,nan,nan,nan,nan,nan
3172776000,6,1617.975,1545.11,1667.9087,1648.2975,1500.0,1500.0,nan,nan,nan,nan,nan,nan,nan,nan,nan,nan
3172876000,6,1609.867,1556.0144,1659.8203,1647.4061,1500.0,1500.0,nan,nan,nan,nan,nan,nan,nan,nan,nan,nan
3172980000,6,1612.3772,1582.0483,1675.8036,1667.1993,1500.0,1500.0,nan,nan,nan,nan,nan,nan,nan,nan,nan,nan
3173076000,6,1609.0583,1590.7842,1680.1791,1668.7733,1500.0,1500.0,nan,nan,nan,nan,nan,nan,nan,nan,nan,nan
3173176000,6,1642.296,1579.8339,1682.5194,1684.6862,1500.0,1500.0,nan,nan,nan,nan,nan,nan,nan,nan,nan,nan
3173280000,6,1645.248,1579.6763,1690.1683,1703.7343,1500.0,1500.0,nan,nan,nan,nan,nan,nan,nan,nan,nan,nan
3173380000,6,1644.0376,1597.9023,1695.7922,1704.8175,1500.0,1500.0,nan,nan,nan,nan,nan,nan,nan,nan,nan,nan
3173480000,6,1644.6993,1593.6576,1703.441,1723.2659,1500.0,1500.0,nan,nan,nan,nan,nan,nan,nan,nan,nan,nan
3173580000,6,1646.0565,1610.5968,1707.3666,1710.1447,1500.0,1500.0,nan,nan,nan,nan,nan,nan,nan,nan,nan,nan
3173676000,6,1661.665,1609.2805,1695.0162,1734.1692,1500.0,1500.0,nan,nan,nan,nan,nan,nan,nan,nan,nan,nan
3173776000,6,1655.9834,1610.7347,1705.3263,1741.0217,1500.0,1500.0,nan,nan,nan,nan,nan,nan,nan,nan,nan,nan
3173880000,6,1657.4504,1625.1296,1694.1461,1729.8762,1500.0,1500.0,nan,nan,nan,nan,nan,nan,nan,nan,nan,nan
3173980000,6,1655.4678,1634.0804,1693.2135,1712.4844,1500.0,1500.0,nan,nan,nan,nan,nan,nan,nan,nan,nan,nan
3174076000,6,1646.3916,1627.3116,1687.0374,1727.339,1500.0,1500.0,nan,nan,nan,nan,nan,nan,nan,nan,nan,nan
3174176000,6,1656.2656,1623.643,1666.5255,1749.9805,1500.0,1500.0,nan,nan,nan,nan,nan,nan,nan,nan,nan,nan
3174280000,6,1640.4537,1621.858,1661.0171,1754.3916,1500.0,1500.0,nan,nan,nan,nan,nan,nan,nan,nan,nan,nan
3174376000,6,1640.2369,1627.256,1665.7655,1738.7029,1500.0,1500.0,nan,nan,nan,nan,nan,nan,nan,nan,nan,nan
3174476000,6,1636.3369,1632.2556,1665.1282,1733.1727,1500.0,1500.0,nan,nan,nan,nan,nan,nan,nan,nan,nan,nan
3174576000,6,1629.4065,1639.3511,1648.7825,1738.6967,1500.0,1500.0,nan,nan,nan,nan,nan,nan,nan,nan,nan,nan
3174680000,6,1627.6289,1638.7214,1648.6598,1743.3407,1500.0,1500.0,nan,nan,nan,nan,nan,nan,nan,nan,nan,nan
3174780000,6,1631.51,1647.7504,1651.2875,1732.2386,1500.0,1500.0,nan,nan,nan,nan,nan,nan,nan,nan,nan,nan
3174880000,6,1624.7688,1645.3323,1655.4915,1735.3649,1500.0,1500.0,nan,nan,nan,nan,nan,nan,nan,nan,nan,nan
3174976000,6,1622.9728,1648.2339,1654.0013,1734.6055,1500.0,1500.0,nan,nan,nan,nan,nan,nan,nan,nan,nan,nan
3175080000,6,1615.387,1658.9391,1639.0211,1738.7996,1500.0,1500.0,nan,nan,nan,nan,nan,nan,nan,nan,nan,nan
3175176000,6,1619.3923,1660.9408,1646.1049,1728.451,1500.0,1500.0,nan,nan,nan,nan,nan,nan,nan,nan,nan,nan
3175276000,6,1610.152,1659.9475,1648.0769,1733.4819,1500.0,1500.0,nan,nan,nan,nan,nan,nan,nan,nan,nan,nan
3175376000,6,1629.1079,1667.6396,1646.2332,1712.7037,1500.0,1500.0,nan,nan,nan,nan,nan,nan,nan,nan,nan,nan
3175476000,6,1645.3438,1692.678,1622.5219,1698.6156,1500.0,1500.0,nan,nan,nan,nan,nan,nan,nan,nan,nan,nan
3175576000,6,1641.6932,1703.5209,1616.2589,1700.5265,1500.0,1500.0,nan,nan,nan,nan,nan,nan,nan,nan,nan,nan
3175676000,6,1636.9268,1703.1228,1624.9681,1697.449,1500.0,1500.0,nan,nan,nan,nan,nan,nan,nan,nan,nan,nan
3175776000,6,1640.2219,1697.9996,1631.3586,1694.7655,1500.0,1500.0,nan,nan,nan,nan,nan,nan,nan,nan,nan,nan
3175880000,6,1637.704,1701.3438,1633.56,1696.8589,1500.0,1500.0,nan,nan,nan,nan,nan,nan,nan,nan,nan,nan
3175976000,6,1628.8623,1705.4126,1625.154,1699.0679,1500.0,1500.0,nan,nan,nan,nan,nan,nan,nan,nan,nan,nan
3176080000,6,1629.782,1707.2181,1628.5609,1704.4061,1500.0,1500.0,nan,nan,nan,nan,nan,nan,nan,nan,nan,nan
3176176000,6,1638.5322,1699.1654,1637.7518,1696.9868,1500.0,1500.0,nan,nan,nan,nan,nan,nan,nan,nan,nan,nan
3176276000,6,1630.9044,1706.3948,1634.657,1701.6721,1500.0,1500.0,nan,nan,nan,nan,nan,nan,nan,nan,nan,nan
3176376000,6,1637.3655,1700.3057,1640.7102,1696.106,1500.0,1500.0,nan,nan,nan,nan,nan,nan,nan,nan,nan,nan
3176476000,6,1626.3363,1711.9662,1628.9829,1707.5988,1500.0,1500.0,nan,nan,nan,nan,nan,nan,nan,nan,nan,nan
3176580000,6,1628.4689,1708.2722,1637.4678,1698.1172,1500.0,1500.0,nan,nan,nan,nan,nan,nan,nan,nan,nan,nan
3176680000,6,1631.5647,1702.5344,1634.3824,1703.1731,1500.0,1500.0,nan,nan,nan,nan,nan,nan,nan,nan,nan,nan
3176776000,6,1634.3927,1698.03,1641.3318,1695.2672,1500.0,1500.0,nan,nan,nan,nan,nan,nan,nan,nan,nan,nan
3176880000,6,1633.3135,1703.354,1635.7897,1699.4536,1500.0,1500.0,nan,nan,nan,nan,nan,nan,nan,nan,nan,nan
3176976000,6,1628.9794,1705.7273,1634.3757,1700.8262,1500.0,1500.0,nan,nan,nan,nan,nan,nan,nan,nan,nan,nan
3177080000,6,1630.7651,1705.8854,1633.0239,1704.3239,1500.0,1500.0,nan,nan,nan,nan,nan,nan,nan,nan,nan,nan
3177180000,6,1633.8115,1700.7037,1641.9877,1696.0272,1500.0,1500.0,nan,nan,nan,nan,nan,nan,nan,nan,nan,nan
3177276000,6,1632.6147,1702.143,1637.3971,1699.7789,1500.0,1500.0,nan,nan,nan,nan,nan,nan,nan,nan,nan,nan
3177376000,6,1624.4834,1708.5302,1629.9302,1704.5333,1500.0,1500.0,nan,nan,nan,nan,nan,nan,nan,nan,nan,nan
3177476000,6,1625.4275,1708.7866,1628.9176,1709.1738,1500.0,1500.0,nan,nan,nan,nan,nan,nan,nan,nan,nan,nan
3177576000,6,1633.0455,1705.0703,1639.7081,1700.2126,1500.0,1500.0,nan,nan,nan,nan,nan,nan,nan,nan,nan,nan
3177676000,6,1630.7596,1705.653,1632.1163,1703.1384,1500.0,1500.0,nan,nan,nan,nan,nan,nan,nan,nan,nan,nan
3177776000,6,1635.618,1697.0164,1644.0211,1694.9231,1500.0,1500.0,nan,nan,nan,nan,nan,nan,nan,nan,nan,nan
3177876000,6,1624.8949,1709.0077,1627.9891,1705.9751,1500.0,1500.0,nan,nan,nan,nan,nan,nan,nan,nan,nan,nan
3177976000,6,1626.7062,1709.7037,1633.112,1705.0153,1500.0,1500.0,nan,nan,nan,nan,nan,nan,nan,nan,nan,nan
3178076000,6,1628.4714,1706.2302,1635.4319,1701.0656,1500.0,1500.0,nan,nan,nan,nan,nan,nan,nan,nan,nan,nan
3178176000,6,1632.8079,1704.7609,1640.1674,1700.4875,1500.0,1500.0,nan,nan,nan,nan,nan,nan,nan,nan,nan,nan
3178276000,6,1633.217,1702.0028,1637.2013,1705.2491,1500.0,1500.0,nan,nan,nan,nan,nan,nan,nan,nan,nan,nan
3178380000,6,1627.2996,1708.7596,1636.6317,1703.0674,1500.0,1500.0,nan,nan,nan,nan,nan,nan,nan,nan,nan,nan
3178476000,6,1632.2653,1704.393,1636.0619,1704.793,1500.0,1500.0,nan,nan,nan,nan,nan,nan,nan,nan,nan,nan
3178580000,6,1632.6719,1706.7935,1639.8667,1701.8695,1500.0,1500.0,nan,nan,nan,nan,nan,nan,nan,nan,nan,nan
3178676000,6,1636.6487,1703.4,1635.7482,1702.7938,1500.0,1500.0,nan,nan,nan,nan,nan,nan,nan,nan,nan,nan
3178780000,6,1635.8875,1699.5757,1643.7819,1698.5426,1500.0,1500.0,nan,nan,nan,nan,nan,nan,nan,nan,nan,nan
3178876000,6,1628.344,1711.7196,1632.1553,1710.0342,1500.0,1500.0,nan,nan,nan,nan,nan,nan,nan,nan,nan,nan
3178976000,6,1632.6932,1706.3499,1639.6215,1701.2148,1500.0,1500.0,nan,nan,nan,nan,nan,nan,nan,nan,nan,nan
3179076000,6,1633.055,1706.495,1635.7263,1707.8146,1500.0,1500.0,nan,nan,nan,nan,nan,nan,nan,nan,nan,nan
3179176000,6,1638.4863,1704.2239,1646.1238,1698.1658,1500.0,1500.0,nan,nan,nan,nan,nan,nan,nan,nan,nan,nan
3179280000,6,1634.19,1708.5583,1634.8789,1707.0017,1500.0,1500.0,nan,nan,nan,nan,nan,nan,nan,nan,nan,nan
3179376000,6,1627.1871,1706.1437,1635.6852,1704.8159,1500.0,1500.0,nan,nan,nan,nan,nan,nan,nan,nan,nan,nan
3179476000,6,1635.3546,1704.6676,1634.48,1706.1565,1500.0,1500.0,nan,nan,nan,nan,nan,nan,nan,nan,nan,nan
3179576000,6,1634.8113,1703.9886,1642.0914,1701.073,1500.0,1500.0,nan,nan,nan,nan,nan,nan,nan,nan,nan,nan
3179680000,6,1635.735,1705.1704,1638.6624,1702.8446,1500.0,1500.0,nan,nan,nan,nan,nan,nan,nan,nan,nan,nan
3179776000,6,1627.6218,1713.2871,1633.1239,1708.4991,1500.0,1500.0,nan,nan,nan,nan,nan,nan,nan,nan,nan,nan
3179876000,6,1632.4711,1709.746,1633.4125,1710.021,1500.0,1500.0,nan,nan,nan,nan,nan,nan,nan,nan,nan,nan
3179976000,6,1630.8953,1707.7156,1635.6019,1705.7362,1500.0,1500.0,nan,nan,nan,nan,nan,nan,nan,nan,nan,nan
3180080000,6,1638.1609,1701.5847,1639.7893,1703.5287,1500.0,1500.0,nan,nan,nan,nan,nan,nan,nan,nan,nan,nan
3180176000,6,1637.9912,1701.7692,1642.242,1701.0743,1500.0,1500.0,nan,nan,nan,nan,nan,nan,nan,nan,nan,nan
3180276000,6,1630.8582,1713.4271,1631.272,1712.3575,1500.0,1500.0,nan,nan,nan,nan,nan,nan,nan,nan,nan,nan
3180376000,6,1632.676,1706.8491,1638.2162,1707.4658,1500.0,1500.0,nan,nan,nan,nan,nan,nan,nan,nan,nan,nan
3180476000,6,1636.7416,1706.5416,1641.5927,1702.8647,1500.0,1500.0,nan,nan,nan,nan,nan,nan,nan,nan,nan,nan
3180576000,6,1637.3923,1708.4556,1635.5804,1708.315,1500.0,1500.0,nan,nan,nan,nan,nan,nan,nan,nan,nan,nan
3180676000,6,1632.3329,1713.0988,1634.1179,1713.8743,1500.0,1500.0,nan,nan,nan,nan,nan,nan,nan,nan,nan,nan
3180776000,6,1626.4882,1715.3871,1629.7804,1717.006,1500.0,1500.0,nan,nan,nan,nan,nan,nan,nan,nan,nan,nan
3180876000,6,1636.7991,1706.8179,1645.6492,1705.2472,1500.0,1500.0,nan,nan,nan,nan,nan,nan,nan,nan,nan,nan
3180976000,6,1641.9935,1703.1168,1644.5831,1703.5444,1500.0,1500.0,nan,nan,nan,nan,nan,nan,nan,nan,nan,nan
3181076000,6,1641.4028,1707.2991,1645.765,1705.8062,1500.0,1500.0,nan,nan,nan,nan,nan,nan,nan,nan,nan,nan
3181180000,6,1634.1539,1713.7942,1634.738,1716.4457,1500.0,1500.0,nan,nan,nan,nan,nan,nan,nan,nan,nan,nan
3181276000,6,1637.5563,1712.9208,1640.2452,1710.726,1500.0,1500.0,nan,nan,nan,nan,nan,nan,nan,nan,nan,nan
3181380000,6,1636.0383,1713.3411,1639.3486,1714.2026,1500.0,1500.0,nan,nan,nan,nan,nan,nan,nan,nan,nan,nan
3181476000,6,1640.0957,1709.5177,1645.9602,1709.0527,1500.0,1500.0,nan,nan,nan,nan,nan,nan,nan,nan,nan,nan
3181576000,6,1639.7494,1712.1621,1643.9662,1713.7422,1500.0,1500.0,nan,nan,nan,nan,nan,nan,nan,nan,nan,nan
3181676000,6,1636.6119,1718.8663,1639.733,1717.2788,1500.0,1500.0,nan,nan,nan,nan,nan,nan,nan,nan,nan,nan
3181780000,6,1634.2668,1722.2662,1634.6924,1721.4263,1500.0,1500.0,nan,nan,nan,nan,nan,nan,nan,nan,nan,nan
3181880000,6,1638.4246,1714.7972,1643.9635,1712.6576,1500.0,1500.0,nan,nan,nan,nan,nan,nan,nan,nan,nan,nan
3181976000,6,1639.9318,1715.5502,1645.4949,1714.0625,1500.0,1500.0,nan,nan,nan,nan,nan,nan,nan,nan,nan,nan
3182076000,6,1635.455,1720.4907,1638.0154,1719.7167,1500.0,1500.0,nan,nan,nan,nan,nan,nan,nan,nan,nan,nan
3182176000,6,1637.3639,1720.7388,1635.3475,1723.9642,1500.0,1500.0,nan,nan,nan,nan,nan,nan,nan,nan,nan,nan
3182276000,6,1642.0999,1714.6508,1646.2837,1715.2579,1500.0,1500.0,nan,nan,nan,nan,nan,nan,nan,nan,nan,nan
3182376000,6,1641.1962,1721.0686,1642.7408,1718.8293,1500.0,1500.0,nan,nan,nan,nan,nan,nan,nan,nan,nan,nan
3182476000,6,1643.5746,1714.6909,1646.2953,1714.0463,1500.0,1500.0,nan,nan,nan,nan,nan,nan,nan,nan,nan,nan
3182580000,6,1635.9556,1722.7505,1638.5997,1722.4285,1500.0,1500.0,nan,nan,nan,nan,nan,nan,nan,nan,nan,nan
3182680000,6,1636.9808,1722.4434,1640.4207,1722.5906,1500.0,1500.0,nan,nan,nan,nan,nan,nan,nan,nan,nan,nan
3182776000,6,1640.1199,1717.7831,1643.2098,1719.2893,1500.0,1500.0,nan,nan,nan,nan,nan,nan,nan,nan,nan,nan
3182880000,6,1643.4987,1712.8898,1646.7559,1711.2732,1500.0,1500.0,nan,nan,nan,nan,nan,nan,nan,nan,nan,nan
3182976000,6,1644.667,1715.0963,1647.6316,1713.4492,1500.0,1500.0,nan,nan,nan,nan,nan,nan,nan,nan,nan,nan
3183076000,6,1637.0287,1724.6318,1640.2642,1721.3356,1500.0,1500.0,nan,nan,nan,nan,nan,nan,nan,nan,nan,nan
3183176000,6,1641.6384,1718.5983,1641.7047,1721.7958,1500.0,1500.0,nan,nan,nan,nan,nan,nan,nan,nan,nan,nan
3183276000,6,1640.6625,1718.8008,1644.7343,1715.4022,1500.0,1500.0,nan,nan,nan,nan,nan,nan,nan,nan,nan,nan
3183376000,6,1644.387,1716.4696,1645.1594,1713.1096,1500.0,1500.0,nan,nan,nan,nan,nan,nan,nan,nan,nan,nan
3183476000,6,1634.5409,1722.5479,1638.1926,1721.7017,1500.0,1500.0,nan,nan,nan,nan,nan,nan,nan,nan,nan,nan
3183580000,6,1633.6398,1721.0118,1635.7173,1722.7161,1500.0,1500.0,nan,nan,nan,nan,nan,nan,nan,nan,nan,nan
3183676000,6,1638.6759,1717.394,1644.4934,1713.6105,1500.0,1500.0,nan,nan,nan,nan,nan,nan,nan,nan,nan,nan
3183776000,6,1647.8989,1714.239,1648.9663,1711.9224,1500.0,1500.0,nan,nan,nan,nan,nan,nan,nan,nan,nan,nan
3183876000,6,1644.8204,1717.647,1648.5131,1715.3353,1500.0,1500.0,nan,nan,nan,nan,nan,nan,nan,nan,nan,nan
3183976000,6,1634.5332,1721.988,1639.5098,1722.5126,1500.0,1500.0,nan,nan,nan,nan,nan,nan,nan,nan,nan,nan
3184080000,6,1637.0493,1724.4839,1638.5771,1724.2974,1500.0,1500.0,nan,nan,nan,nan,nan,nan,nan,nan,nan,nan
3184176000,6,1642.0072,1719.5383,1646.457,1719.7687,1500.0,1500.0,nan,nan,nan,nan,nan,nan,nan,nan,nan,nan
3184276000,6,1647.617,1712.2598,1648.708,1715.0746,1500.0,1500.0,nan,nan,nan,nan,nan,nan,nan,nan,nan,nan
3184376000,6,1648.3507,1716.9875,1652.4595,1716.0082,1500.0,1500.0,nan,nan,nan,nan,nan,nan,nan,nan,nan,nan
3184476000,6,1632.8392,1729.1676,1638.0577,1729.2357,1500.0,1500.0,nan,nan,nan,nan,nan,nan,nan,nan,nan,nan
3184576000,6,1644.115,1717.385,1644.6896,1721.3689,1500.0,1500.0,nan,nan,nan,nan,nan,nan,nan,nan,nan,nan
3184676000,6,1647.2064,1717.5543,1650.594,1718.6443,1500.0,1500.0,nan,nan,nan,nan,nan,nan,nan,nan,nan,nan
3184776000,6,1644.7882,1718.9634,1646.7682,1717.6157,1500.0,1500.0,nan,nan,nan,nan,nan,nan,nan,nan,nan,nan
3184880000,6,1646.8256,1717.879,1649.029,1716.6516,1500.0,1500.0,nan,nan,nan,nan,nan,nan,nan,nan,nan,nan
3184976000,6,1637.001,1725.2361,1638.01,1727.0264,1500.0,1500.0,nan,nan,nan,nan,nan,nan,nan,nan,nan,nan
3185076000,6,1645.7917,1721.6754,1648.5676,1718.6036,1500.0,1500.0,nan,nan,nan,nan,nan,nan,nan,nan,nan,nan
3185180000,6,1645.2893,1722.7434,1647.7872,1722.8925,1500.0,1500.0,nan,nan,nan,nan,nan,nan,nan,nan,nan,nan
3185280000,6,1647.3436,1720.2024,1651.0729,1718.1279,1500.0,1500.0,nan,nan,nan,nan,nan,nan,nan,nan,nan,nan
3185376000,6,1635.9109,1723.2405,1636.9216,1727.5726,1500.0,1500.0,nan,nan,nan,nan,nan,nan,nan,nan,nan,nan
3185476000,6,1638.9011,1719.9735,1642.1042,1722.6709,1500.0,1500.0,nan,nan,nan,nan,nan,nan,nan,nan,nan,nan
3185576000,6,1639.7003,1725.7977,1641.761,1725.7944,1500.0,1500.0,nan,nan,nan,nan,nan,nan,nan,nan,nan,nan
3185676000,6,1643.9788,1724.7468,1645.9072,1725.1328,1500.0,1500.0,nan,nan,nan,nan,nan,nan,nan,nan,nan,nan
3185780000,6,1645.2473,1720.6768,1647.0874,1722.8081,1500.0,1500.0,nan,nan,nan,nan,nan,nan,nan,nan,nan,nan
3185876000,6,1649.7157,1720.4409,1652.7622,1720.8278,1500.0,1500.0,nan,nan,nan,nan,nan,nan,nan,nan,nan,nan
3185976000,6,1645.8427,1727.7683,1648.4099,1730.909,1500.0,1500.0,nan,nan,nan,nan,nan,nan,nan,nan,nan,nan
3186080000,6,1645.0232,1734.97,1646.7454,1736.8596,1500.0,1500.0,nan,nan,nan,nan,nan,nan,nan,nan,nan,nan
3186176000,6,1647.4634,1727.3932,1652.2844,1730.3705,1500.0,1500.0,nan,nan,nan,nan,nan,nan,nan,nan,nan,nan
3186276000,6,1652.1031,1725.5319,1655.637,1725.1692,1500.0,1500.0,nan,nan,nan,nan,nan,nan,nan,nan,nan,nan
3186376000,6,1642.6359,1733.0962,1644.9341,1732.6409,1500.0,1500.0,nan,nan,nan,nan,nan,nan,nan,nan,nan,nan
3186476000,6,1644.9191,1734.0244,1648.591,1735.3206,1500.0,1500.0,nan,nan,nan,nan,nan,nan,nan,nan,nan,nan
3186580000,6,1651.0878,1725.3097,1654.1416,1727.0511,1500.0,1500.0,nan,nan,nan,nan,nan,nan,nan,nan,nan,nan
3186680000,6,1647.7843,1728.6442,1652.1023,1730.8513,1500.0,1500.0,nan,nan,nan,nan,nan,nan,nan,nan,nan,nan
3186776000,6,1653.4702,1726.5776,1652.9486,1724.958,1500.0,1500.0,nan,nan,nan,nan,nan,nan,nan,nan,nan,nan
3186876000,6,1639.6273,1736.0508,1644.7039,1734.4852,1500.0,1500.0,nan,nan,nan,nan,nan,nan,nan,nan,nan,nan
3186976000,6,1645.9575,1730.675,1648.3931,1730.5603,1500.0,1500.0,nan,nan,nan,nan,nan,nan,nan,nan,nan,nan
3187080000,6,1646.8702,1728.2952,1651.7205,1728.9933,1500.0,1500.0,nan,nan,nan,nan,nan,nan,nan,nan,nan,nan
3187176000,6,1652.165,1725.362,1652.908,1725.0726,1500.0,1500.0,nan,nan,nan,nan,nan,nan,nan,nan,nan,nan
3187280000,6,1651.9298,1722.2744,1652.9243,1725.5168,1500.0,1500.0,nan,nan,nan,nan,nan,nan,nan,nan,nan,nan
3187380000,6,1651.3975,1722.1366,1656.9974,1723.5288,1500.0,1500.0,nan,nan,nan,nan,nan,nan,nan,nan,nan,nan
3187476000,6,1641.5137,1736.2076,1646.59,1735.2097,1500.0,1500.0,nan,nan,nan,nan,nan,nan,nan,nan,nan,nan
3187576000,6,1642.2711,1730.5591,1646.777,1734.9382,1500.0,1500.0,nan,nan,nan,nan,nan,nan,nan,nan,nan,nan
3187680000,6,1641.8163,1737.6075,1645.7327,1737.2172,1500.0,1500.0,nan,nan,nan,nan,nan,nan,nan,nan,nan,nan
3187776000,6,1650.3013,1731.8296,1652.2073,1731.5527,1500.0,1500.0,nan,nan,nan,nan,nan,nan,nan,nan,nan,nan
3187876000,6,1647.4609,1731.2897,1651.5098,1729.8496,1500.0,1500.0,nan,nan,nan,nan,nan,nan,nan,nan,nan,nan
3187976000,6,1650.3339,1727.1321,1652.6904,1724.4165,1500.0,1500.0,nan,nan,nan,nan,nan,nan,nan,nan,nan,nan
3188076000,6,1642.9939,1735.5115,1645.6216,1736.7095,1500.0,1500.0,nan,nan,nan,nan,nan,nan,nan,nan,nan,nan
3188176000,6,1639.7245,1735.3816,1650.0143,1734.8604,1500.0,1500.0,nan,nan,nan,nan,nan,nan,nan,nan,nan,nan
3188276000,6,1650.0433,1728.5426,1654.8293,1727.2744,1500.0,1500.0,nan,nan,nan,nan,nan,nan,nan,nan,nan,nan
3188380000,6,1648.4097,1729.5814,1650.6401,1728.7391,1500.0,1500.0,nan,nan,nan,nan,nan,nan,nan,nan,nan,nan
3188476000,6,1651.1444,1725.6621,1653.8704,1729.0514,1500.0,1500.0,nan,nan,nan,nan,nan,nan,nan,nan,nan,nan
3188576000,6,1644.5712,1737.1602,1649.8173,1735.0157,1500.0,1500.0,nan,nan,nan,nan,nan,nan,nan,nan,nan,nan
3188676000,6,1648.7845,1731.5917,1653.229,1731.9249,1500.0,1500.0,nan,nan,nan,nan,nan,nan,nan,nan,nan,nan
3188776000,6,1648.3031,1731.6637,1653.3544,1732.1095,1500.0,1500.0,nan,nan,nan,nan,nan,nan,nan,nan,nan,nan
3188876000,6,1654.6046,1722.5377,1657.6547,1723.5634,1500.0,1500.0,nan,nan,nan,nan,nan,nan,nan,nan,nan,nan
3188976000,6,1657.2024,1723.758,1660.742,1726.6309,1500.0,1500.0,nan,nan,nan,nan,nan,nan,nan,nan,nan,nan
3189080000,6,1647.5616,1734.2338,1649.1299,1737.1685,1500.0,1500.0,nan,nan,nan,nan,nan,nan,nan,nan,nan,nan
3189176000,6,1648.399,1734.3499,1653.2163,1733.3068,1500.0,1500.0,nan,nan,nan,nan,nan,nan,nan,nan,nan,nan
3189280000,6,1649.769,1732.7772,1655.2145,1732.4252,1500.0,1500.0,nan,nan,nan,nan,nan,nan,nan,nan,nan,nan
3189380000,6,1655.8237,1724.7334,1656.3947,1728.4945,1500.0,1500.0,nan,nan,nan,nan,nan,nan,nan,nan,nan,nan
3189480000,6,1654.8689,1727.5896,1657.4421,1729.17,1500.0,1500.0,nan,nan,nan,nan,nan,nan,nan,nan,nan,nan
3189576000,6,1646.53,1733.2316,1647.9211,1735.2963,1500.0,1500.0,nan,nan,nan,nan,nan,nan,nan,nan,nan,nan
3189676000,6,1652.5337,1730.1366,1658.0258,1726.4708,1500.0,1500.0,nan,nan,nan,nan,nan,nan,nan,nan,nan,nan
3189776000,6,1653.7616,1728.6113,1656.4274,1729.8468,1500.0,1500.0,nan,nan,nan,nan,nan,nan,nan,nan,nan,nan
3189880000,6,1654.5986,1726.8326,1655.8007,1728.167,1500.0,1500.0,nan,nan,nan,nan,nan,nan,nan,nan,nan,nan
3189976000,6,1642.6813,1737.0403,1646.1818,1739.917,1500.0,1500.0,nan,nan,nan,nan,nan,nan,nan,nan,nan,nan
3190076000,6,1645.2935,1735.6252,1651.1204,1738.283,1500.0,1500.0,nan,nan,nan,nan,nan,nan,nan,nan,nan,nan
3190176000,6,1648.3174,1734.4917,1651.1099,1734.9103,1500.0,1500.0,nan,nan,nan,nan,nan,nan,nan,nan,nan,nan
3190276000,6,1653.7124,1725.8624,1654.5193,1726.9424,1500.0,1500.0,nan,nan,nan,nan,nan,nan,nan,nan,nan,nan
3190376000,6,1654.9819,1722.9703,1659.7615,1724.8125,1500.0,1500.0,nan,nan,nan,nan,nan,nan,nan,nan,nan,nan
3190476000,6,1642.1995,1737.1001,1649.4095,1735.5939,1500.0,1500.0,nan,nan,nan,nan,nan,nan,nan,nan,nan,nan
3190580000,6,1647.5352,1733.8411,1650.9211,1733.7955,1500.0,1500.0,nan,nan,nan,nan,nan,nan,nan,nan,nan,nan
3190676000,6,1652.3639,1729.4706,1654.7822,1730.5554,1500.0,1500.0,nan,nan,nan,nan,nan,nan,nan,nan,nan,nan
3190776000,6,1655.507,1729.4646,1656.1742,1730.0548,1500.0,1500.0,nan,nan,nan,nan,nan,nan,nan,nan,nan,nan
3190880000,6,1657.9395,1730.9718,1664.0385,1729.562,1500.0,1500.0,nan,nan,nan,nan,nan,nan,nan,nan,nan,nan
3190976000,6,1653.4918,1739.6033,1654.6088,1741.5186,1500.0,1500.0,nan,nan,nan,nan,nan,nan,nan,nan,nan,nan
3191080000,6,1654.1644,1736.7316,1656.2919,1740.3468,1500.0,1500.0,nan,nan,nan,nan,nan,nan,nan,nan,nan,nan
3191176000,6,1671.9901,1741.3268,1676.8228,1740.023,1500.0,1500.0,nan,nan,nan,nan,nan,nan,nan,nan,nan,nan
3191276000,6,1670.5077,1743.6257,1675.3407,1745.487,1500.0,1500.0,nan,nan,nan,nan,nan,nan,nan,nan,nan,nan
3191376000,6,1659.245,1757.357,1664.6526,1757.7606,1500.0,1500.0,nan,nan,nan,nan,nan,nan,nan,nan,nan,nan
3191480000,6,1658.7595,1757.062,1661.3188,1756.2952,1500.0,1500.0,nan,nan,nan,nan,nan,nan,nan,nan,nan,nan
3191576000,6,1663.2085,1748.3616,1666.7128,1753.7935,1500.0,1500.0,nan,nan,nan,nan,nan,nan,nan,nan,nan,nan
3191680000,6,1672.3527,1742.3933,1676.5051,1743.2749,1500.0,1500.0,nan,nan,nan,nan,nan,nan,nan,nan,nan,nan
3191776000,6,1665.8638,1754.2634,1670.2291,1754.9543,1500.0,1500.0,nan,nan,nan,nan,nan,nan,nan,nan,nan,nan
3191876000,6,1663.9929,1755.6528,1667.1572,1751.6685,1500.0,1500.0,nan,nan,nan,nan,nan,nan,nan,nan,nan,nan
3191976000,6,1666.3267,1747.4012,1668.957,1749.3033,1500.0,1500.0,nan,nan,nan,nan,nan,nan,nan,nan,nan,nan
3192076000,6,1664.1461,1748.2109,1668.4296,1749.3607,1500.0,1500.0,nan,nan,nan,nan,nan,nan,nan,nan,nan,nan
3192176000,6,1669.4493,1740.677,1672.0408,1747.0465,1500.0,1500.0,nan,nan,nan,nan,nan,nan,nan,nan,nan,nan
3192276000,6,1662.1223,1755.3157,1666.4297,1754.1483,1500.0,1500.0,nan,nan,nan,nan,nan,nan,nan,nan,nan,nan
3192376000,6,1663.3964,1752.2917,1666.6849,1752.1046,1500.0,1500.0,nan,nan,nan,nan,nan,nan,nan,nan,nan,nan
3192476000,6,1665.2593,1748.3574,1670.0876,1744.6348,1500.0,1500.0,nan,nan,nan,nan,nan,nan,nan,nan,nan,nan
3192576000,6,1665.9701,1745.4542,1672.0819,1746.3723,1500.0,1500.0,nan,nan,nan,nan,nan,nan,nan,nan,nan,nan
3192680000,6,1667.0356,1743.3745,1668.3026,1745.5552,1500.0,1500.0,nan,nan,nan,nan,nan,nan,nan,nan,nan,nan
3192776000,6,1661.4937,1751.0621,1665.4336,1749.7407,1500.0,1500.0,nan,nan,nan,nan,nan,nan,nan,nan,nan,nan
3192880000,6,1660.3081,1752.6478,1665.6516,1751.9342,1500.0,1500.0,nan,nan,nan,nan,nan,nan,nan,nan,nan,nan
3192976000,6,1667.5092,1745.4009,1670.3202,1748.344,1500.0,1500.0,nan,nan,nan,nan,nan,nan,nan,nan,nan,nan
3193076000,6,1668.7927,1738.4474,1674.2302,1737.5017,1500.0,1500.0,nan,nan,nan,nan,nan,nan,nan,nan,nan,nan
3193176000,6,1658.9894,1731.1422,1663.0808,1734.4811,1500.0,1500.0,nan,nan,nan,nan,nan,nan,nan,nan,nan,nan
3193280000,6,1661.4459,1718.8972,1662.6198,1725.1239,1500.0,1500.0,nan,nan,nan,nan,nan,nan,nan,nan,nan,nan
3193376000,6,1646.747,1727.0815,1657.5234,1727.3799,1500.0,1500.0,nan,nan,nan,nan,nan,nan,nan,nan,nan,nan
3193476000,6,1628.5483,1730.7167,1637.5009,1726.1243,1500.0,1500.0,nan,nan,nan,nan,nan,nan,nan,nan,nan,nan
3193580000,6,1616.9329,1725.3301,1622.9562,1718.3368,1500.0,1500.0,nan,nan,nan,nan,nan,nan,nan,nan,nan,nan
3193676000,6,1615.9489,1702.0363,1619.1892,1698.6074,1500.0,1500.0,nan,nan,nan,nan,nan,nan,nan,nan,nan,nan
3193776000,6,1618.8989,1683.9429,1617.9056,1687.6227,1500.0,1500.0,nan,nan,nan,nan,nan,nan,nan,nan,nan,nan
3193876000,6,1610.5707,1684.2003,1612.4316,1686.5098,1500.0,1500.0,nan,nan,nan,nan,nan,nan,nan,nan,nan,nan
3193980000,6,1603.3965,1676.3539,1608.1226,1675.6741,1500.0,1500.0,nan,nan,nan,nan,nan,nan,nan,nan,nan,nan
3194076000,6,1602.2656,1673.5498,1606.8523,1673.194,1500.0,1500.0,nan,nan,nan,nan,nan,nan,nan,nan,nan,nan
3194176000,6,1600.4324,1660.3163,1604.9662,1660.8265,1500.0,1500.0,nan,nan,nan,nan,nan,nan,nan,nan,nan,nan
3194276000,6,1593.9785,1660.7107,1595.2815,1659.3118,1500.0,1500.0,nan,nan,nan,nan,nan,nan,nan,nan,nan,nan
3194376000,6,1597.8859,1650.3518,1600.4904,1650.5908,1500.0,1500.0,nan,nan,nan,nan,nan,nan,nan,nan,nan,nan
3194476000,6,1587.4166,1650.3151,1592.4648,1650.2604,1500.0,1500.0,nan,nan,nan,nan,nan,nan,nan,nan,nan,nan
3194576000,6,1586.8156,1643.6688,1594.4769,1642.8981,1500.0,1500.0,nan,nan,nan,nan,nan,nan,nan,nan,nan,nan
3194676000,6,1588.4915,1636.7319,1590.2662,1633.7301,1500.0,1500.0,nan,nan,nan,nan,nan,nan,nan,nan,nan,nan
3194776000,6,1586.53,1627.8259,1588.8171,1632.7764,1500.0,1500.0,nan,nan,nan,nan,nan,nan,nan,nan,nan,nan
3194876000,6,1583.5023,1625.2087,1586.9929,1625.2648,1500.0,1500.0,nan,nan,nan,nan,nan,nan,nan,nan,nan,nan
3194980000,6,1581.4021,1623.6029,1582.0157,1622.4122,1500.0,1500.0,nan,nan,nan,nan,nan,nan,nan,nan,nan,nan
3195076000,6,1581.8597,1618.7551,1591.6707,1614.7743,1500.0,1500.0,nan,nan,nan,nan,nan,nan,nan,nan,nan,nan
3195180000,6,1578.3029,1614.2201,1583.7864,1612.7407,1500.0,1500.0,nan,nan,nan,nan,nan,nan,nan,nan,nan,nan
3195276000,6,1578.4054,1614.7405,1577.98,1614.2883,1500.0,1500.0,nan,nan,nan,nan,nan,nan,nan,nan,nan,nan
3195380000,6,1578.442,1609.6593,1579.1633,1606.7615,1500.0,1500.0,nan,nan,nan,nan,nan,nan,nan,nan,nan,nan
3195476000,6,1573.1765,1609.1306,1578.9058,1607.5535,1500.0,1500.0,nan,nan,nan,nan,nan,nan,nan,nan,nan,nan
3195576000,6,1576.2937,1600.2098,1580.6377,1597.8003,1500.0,1500.0,nan,nan,nan,nan,nan,nan,nan,nan,nan,nan
3195676000,6,1577.125,1601.4572,1577.8545,1600.1501,1500.0,1500.0,nan,nan,nan,nan,nan,nan,nan,nan,nan,nan
3195776000,6,1573.1985,1599.2345,1575.2698,1597.8652,1500.0,1500.0,nan,nan,nan,nan,nan,nan,nan,nan,nan,nan
3195876000,6,1582.7609,1617.3569,1560.4282,1583.2877,1500.0,1500.0,nan,nan,nan,nan,nan,nan,nan,nan,nan,nan
3195980000,6,1609.781,1632.473,1545.061,1533.8225,1500.0,1500.0,nan,nan,nan,nan,nan,nan,nan,nan,nan,nan
3196076000,6,1614.433,1635.1201,1539.9043,1525.0144,1500.0,1500.0,nan,nan,nan,nan,nan,nan,nan,nan,nan,nan
3196180000,6,1608.8752,1636.1393,1540.4861,1544.2495,1500.0,1500.0,nan,nan,nan,nan,nan,nan,nan,nan,nan,nan
3196276000,6,1603.9758,1647.9657,1535.3807,1536.9384,1500.0,1500.0,nan,nan,nan,nan,nan,nan,nan,nan,nan,nan
3196376000,6,1603.6263,1641.1779,1518.0271,1561.1521,1500.0,1500.0,nan,nan,nan,nan,nan,nan,nan,nan,nan,nan
3196476000,6,1611.155,1626.2721,1522.7808,1564.3284,1500.0,1500.0,nan,nan,nan,nan,nan,nan,nan,nan,nan,nan
3196576000,6,1619.4694,1620.7255,1522.0979,1555.3763,1500.0,1500.0,nan,nan,nan,nan,nan,nan,nan,nan,nan,nan
3196680000,6,1617.2228,1627.9598,1551.4674,1545.7974,1500.0,1500.0,nan,nan,nan,nan,nan,nan,nan,nan,nan,nan
3196780000,6,1613.0739,1632.506,1556.95,1527.6353,1500.0,1500.0,nan,nan,nan,nan,nan,nan,nan,nan,nan,nan
3196876000,6,1612.5775,1631.2626,1549.5159,1530.8661,1500.0,1500.0,nan,nan,nan,nan,nan,nan,nan,nan,nan,nan
3196980000,6,1608.0074,1629.6946,1554.229,1531.0162,1500.0,1500.0,nan,nan,nan,nan,nan,nan,nan,nan,nan,nan
3197076000,6,1606.833,1623.7012,1551.1489,1537.1276,1500.0,1500.0,nan,nan,nan,nan,nan,nan,nan,nan,nan,nan
3197176000,6,1611.8269,1628.4956,1547.1771,1532.4678,1500.0,1500.0,nan,nan,nan,nan,nan,nan,nan,nan,nan,nan
3197276000,6,1607.8389,1624.4989,1545.178,1540.4515,1500.0,1500.0,nan,nan,nan,nan,nan,nan,nan,nan,nan,nan
3197376000,6,1596.2621,1648.8477,1549.6323,1527.381,1500.0,1500.0,nan,nan,nan,nan,nan,nan,nan,nan,nan,nan
3197476000,6,1615.2728,1621.2812,1543.1448,1533.7972,1500.0,1500.0,nan,nan,nan,nan,nan,nan,nan,nan,nan,nan
3197576000,6,1610.73,1617.3522,1543.9924,1536.5908,1500.0,1500.0,nan,nan,nan,nan,nan,nan,nan,nan,nan,nan
3197680000,6,1597.8491,1642.4929,1547.5471,1535.7915,1500.0,1500.0,nan,nan,nan,nan,nan,nan,nan,nan,nan,nan
3197780000,6,1597.5422,1636.2969,1544.6796,1544.1405,1500.0,1500.0,nan,nan,nan,nan,nan,nan,nan,nan,nan,nan
3197876000,6,1588.4452,1645.6084,1548.5431,1543.8652,1500.0,1500.0,nan,nan,nan,nan,nan,nan,nan,nan,nan,nan
3197976000,6,1595.2207,1655.7273,1546.6145,1540.865,1500.0,1500.0,nan,nan,nan,nan,nan,nan,nan,nan,nan,nan
3198076000,6,1600.8352,1637.2151,1546.9899,1544.7202,1500.0,1500.0,nan,nan,nan,nan,nan,nan,nan,nan,nan,nan
3198176000,6,1619.3817,1629.7253,1549.6648,1540.7943,1500.0,1500.0,nan,nan,nan,nan,nan,nan,nan,nan,nan,nan
3198276000,6,1600.6704,1646.0176,1546.1187,1550.4968,1500.0,1500.0,nan,nan,nan,nan,nan,nan,nan,nan,nan,nan
3198380000,6,1612.1687,1631.2224,1555.375,1551.6007,1500.0,1500.0,nan,nan,nan,nan,nan,nan,nan,nan,nan,nan
3198476000,6,1594.9984,1645.5374,1549.739,1565.1216,1500.0,1500.0,nan,nan,nan,nan,nan,nan,nan,nan,nan,nan
3198580000,6,1621.8201,1621.265,1561.1024,1545.2137,1500.0,1500.0,nan,nan,nan,nan,nan,nan,nan,nan,nan,nan
3198676000,6,1611.1726,1639.172,1557.4272,1563.2778,1500.0,1500.0,nan,nan,nan,nan,nan,nan,nan,nan,nan,nan
3198776000,6,1609.3821,1652.3002,1554.6317,1565.4434,1500.0,1500.0,nan,nan,nan,nan,nan,nan,nan,nan,nan,nan
3198876000,6,1611.2476,1625.2041,1580.756,1576.5814,1500.0,1500.0,nan,nan,nan,nan,nan,nan,nan,nan,nan,nan
3198976000,6,1591.033,1606.7202,1607.0444,1603.647,1500.0,1500.0,nan,nan,nan,nan,nan,nan,nan,nan,nan,nan
3199076000,6,1587.3989,1608.8594,1609.7802,1614.2206,1500.0,1500.0,nan,nan,nan,nan,nan,nan,nan,nan,nan,nan
3199176000,6,1588.5741,1614.3876,1605.384,1621.0233,1500.0,1500.0,nan,nan,nan,nan,nan,nan,nan,nan,nan,nan
3199276000,6,1576.7693,1641.4613,1588.4615,1651.7461,1500.0,1500.0,nan,nan,nan,nan,nan,nan,nan,nan,nan,nan
3199380000,6,1586.3159,1644.7478,1594.4956,1655.7758,1500.0,1500.0,nan,nan,nan,nan,nan,nan,nan,nan,nan,nan
3199480000,6,1591.9425,1652.6597,1596.4069,1657.6876,1500.0,1500.0,nan,nan,nan,nan,nan,nan,nan,nan,nan,nan
3199580000,6,1604.1664,1642.0408,1606.063,1649.0564,1500.0,1500.0,nan,nan,nan,nan,nan,nan,nan,nan,nan,nan
3199676000,6,1618.0455,1629.17,1622.1377,1628.4235,1500.0,1500.0,nan,nan,nan,nan,nan,nan,nan,nan,nan,nan
3199776000,6,1607.0753,1660.5781,1608.1294,1663.9242,1500.0,1500.0,nan,nan,nan,nan,nan,nan,nan,nan,nan,nan
3199876000,6,1621.9828,1655.1351,1621.8096,1656.769,1500.0,1500.0,nan,nan,nan,nan,nan,nan,nan,nan,nan,nan
3199976000,6,1630.4773,1651.6826,1631.5647,1652.971,1500.0,1500.0,nan,nan,nan,nan,nan,nan,nan,nan,nan,nan
3200080000,6,1642.2062,1641.9792,1641.8944,1638.1794,1500.0,1500.0,nan,nan,nan,nan,nan,nan,nan,nan,nan,nan
3200176000,6,1638.4691,1659.2012,1636.2018,1651.1892,1500.0,1500.0,nan,nan,nan,nan,nan,nan,nan,nan,nan,nan
3200276000,6,1631.1422,1684.4237,1625.2367,1678.6112,1500.0,1500.0,nan,nan,nan,nan,nan,nan,nan,nan,nan,nan
3200380000,6,1634.6177,1679.5271,1623.8239,1675.6285,1500.0,1500.0,nan,nan,nan,nan,nan,nan,nan,nan,nan,nan
3200476000,6,1638.0044,1679.3381,1625.2312,1672.7103,1500.0,1500.0,nan,nan,nan,nan,nan,nan,nan,nan,nan,nan
3200576000,6,1635.8955,1680.0107,1624.422,1670.3334,1500.0,1500.0,nan,nan,nan,nan,nan,nan,nan,nan,nan,nan
3200680000,6,1633.1791,1687.1703,1615.3512,1676.2241,1500.0,1500.0,nan,nan,nan,nan,nan,nan,nan,nan,nan,nan
3200780000,6,1635.1742,1691.4772,1611.3615,1679.7595,1500.0,1500.0,nan,nan,nan,nan,nan,nan,nan,nan,nan,nan
3200876000,6,1632.8633,1693.7296,1605.2142,1679.7606,1500.0,1500.0,nan,nan,nan,nan,nan,nan,nan,nan,nan,nan
3200976000,6,1642.5098,1684.1414,1617.4971,1657.7667,1500.0,1500.0,nan,nan,nan,nan,nan,nan,nan,nan,nan,nan
3201076000,6,1645.7073,1701.1812,1604.1486,1658.7229,1500.0,1500.0,nan,nan,nan,nan,nan,nan,nan,nan,nan,nan
3201180000,6,1622.6417,1679.3616,1618.785,1691.6975,1500.0,1500.0,nan,nan,nan,nan,nan,nan,nan,nan,nan,nan
3201276000,6,1608.7064,1650.8003,1650.4238,1700.5035,1500.0,1500.0,nan,nan,nan,nan,nan,nan,nan,nan,nan,nan
3201376000,6,1587.2026,1646.8623,1664.8676,1721.0941,1500.0,1500.0,nan,nan,nan,nan,nan,nan,nan,nan,nan,nan
3201480000,6,1602.5719,1635.7627,1660.6763,1702.644,1500.0,1500.0,nan,nan,nan,nan,nan,nan,nan,nan,nan,nan
3201580000,6,1603.8356,1637.9913,1653.0802,1724.811,1500.0,1500.0,nan,nan,nan,nan,nan,nan,nan,nan,nan,nan
3201676000,6,1617.4067,1667.1274,1627.5049,1711.6663,1500.0,1500.0,nan,nan,nan,nan,nan,nan,nan,nan,nan,nan
3201776000,6,1632.0492,1672.9562,1620.8258,1685.5325,1500.0,1500.0,nan,nan,nan,nan,nan,nan,nan,nan,nan,nan
3201876000,6,1633.2853,1680.7068,1621.7644,1686.8699,1500.0,1500.0,nan,nan,nan,nan,nan,nan,nan,nan,nan,nan
3201976000,6,1631.9648,1676.6943,1634.5991,1669.4922,1500.0,1500.0,nan,nan,nan,nan,nan,nan,nan,nan,nan,nan
3202076000,6,1627.9153,1680.2416,1626.461,1677.6628,1500.0,1500.0,nan,nan,nan,nan,nan,nan,nan,nan,nan,nan
3202176000,6,1632.8091,1681.1125,1632.2916,1677.7772,1500.0,1500.0,nan,nan,nan,nan,nan,nan,nan,nan,nan,nan
3202280000,6,1627.338,1687.5256,1624.2013,1687.5713,1500.0,1500.0,nan,nan,nan,nan,nan,nan,nan,nan,nan,nan
3202376000,6,1627.8297,1679.4583,1632.0782,1678.2866,1500.0,1500.0,nan,nan,nan,nan,nan,nan,nan,nan,nan,nan
3202476000,6,1631.07,1678.8583,1631.8306,1676.2463,1500.0,1500.0,nan,nan,nan,nan,nan,nan,nan,nan,nan,nan
3202576000,6,1630.03,1680.1682,1631.739,1679.325,1500.0,1500.0,nan,nan,nan,nan,nan,nan,nan,nan,nan,nan
3202676000,6,1628.7251,1681.4197,1630.6295,1684.4634,1500.0,1500.0,nan,nan,nan,nan,nan,nan,nan,nan,nan,nan
3202776000,6,1624.2047,1687.5312,1628.3973,1689.5692,1500.0,1500.0,nan,nan,nan,nan,nan,nan,nan,nan,nan,nan
3202876000,6,1629.2386,1681.0765,1633.3094,1680.1724,1500.0,1500.0,nan,nan,nan,nan,nan,nan,nan,nan,nan,nan
3202976000,6,1628.5171,1680.6309,1631.9937,1680.9536,1500.0,1500.0,nan,nan,nan,nan,nan,nan,nan,nan,nan,nan
3203080000,6,1629.1235,1685.3317,1635.009,1682.0071,1500.0,1500.0,nan,nan,nan,nan,nan,nan,nan,nan,nan,nan
3203176000,6,1631.0676,1686.1597,1634.7958,1684.361,1500.0,1500.0,nan,nan,nan,nan,nan,nan,nan,nan,nan,nan
3203276000,6,1628.6979,1684.7123,1631.5142,1686.5044,1500.0,1500.0,nan,nan,nan,nan,nan,nan,nan,nan,nan,nan
3203376000,6,1629.4603,1685.0079,1632.4719,1687.1144,1500.0,1500.0,nan,nan,nan,nan,nan,nan,nan,nan,nan,nan
3203476000,6,1627.209,1694.034,1626.5657,1693.7643,1500.0,1500.0,nan,nan,nan,nan,nan,nan,nan,nan,nan,nan
3203580000,6,1631.3511,1685.9349,1636.9794,1686.1495,1500.0,1500.0,nan,nan,nan,nan,nan,nan,nan,nan,nan,nan
3203680000,6,1628.9011,1692.8658,1632.8303,1689.9802,1500.0,1500.0,nan,nan,nan,nan,nan,nan,nan,nan,nan,nan
3203776000,6,1631.894,1689.5237,1635.8037,1689.6084,1500.0,1500.0,nan,nan,nan,nan,nan,nan,nan,nan,nan,nan
3203880000,6,1628.7886,1691.1895,1634.3324,1691.6272,1500.0,1500.0,nan,nan,nan,nan,nan,nan,nan,nan,nan,nan
3203976000,6,1627.3054,1696.4952,1634.9567,1695.6176,1500.0,1500.0,nan,nan,nan,nan,nan,nan,nan,nan,nan,nan
3204076000,6,1630.867,1696.3892,1633.1433,1698.251,1500.0,1500.0,nan,nan,nan,nan,nan,nan,nan,nan,nan,nan
3204176000,6,1630.5941,1691.4921,1635.3787,1689.515,1500.0,1500.0,nan,nan,nan,nan,nan,nan,nan,nan,nan,nan
3204280000,6,1633.8022,1692.1223,1636.7474,1690.9868,1500.0,1500.0,nan,nan,nan,nan,nan,nan,nan,nan,nan,nan
3204380000,6,1633.1852,1693.1357,1636.2003,1691.7129,1500.0,1500.0,nan,nan,nan,nan,nan,nan,nan,nan,nan,nan
3204476000,6,1628.3336,1696.9513,1632.5236,1697.7842,1500.0,1500.0,nan,nan,nan,nan,nan,nan,nan,nan,nan,nan
3204576000,6,1631.145,1696.6411,1634.2335,1694.648,1500.0,1500.0,nan,nan,nan,nan,nan,nan,nan,nan,nan,nan
3204680000,6,1634.4966,1689.4971,1638.2375,1689.138,1500.0,1500.0,nan,nan,nan,nan,nan,nan,nan,nan,nan,nan
3204776000,6,1630.9905,1696.2753,1638.2064,1692.4088,1500.0,1500.0,nan,nan,nan,nan,nan,nan,nan,nan,nan,nan
3204880000,6,1632.7267,1697.0618,1637.6984,1696.7952,1500.0,1500.0,nan,nan,nan,nan,nan,nan,nan,nan,nan,nan
3204976000,6,1625.6973,1701.9097,1630.3098,1698.5323,1500.0,1500.0,nan,nan,nan,nan,nan,nan,nan,nan,nan,nan
3205080000,6,1632.5916,1688.6982,1637.9603,1687.517,1500.0,1500.0,nan,nan,nan,nan,nan,nan,nan,nan,nan,nan
3205176000,6,1636.1011,1693.5077,1644.667,1688.5054,1500.0,1500.0,nan,nan,nan,nan,nan,nan,nan,nan,nan,nan
3205280000,6,1632.9824,1695.5062,1636.0991,1695.644,1500.0,1500.0,nan,nan,nan,nan,nan,nan,nan,nan,nan,nan
3205376000,6,1628.3285,1700.483,1632.7379,1701.8713,1500.0,1500.0,nan,nan,nan,nan,nan,nan,nan,nan,nan,nan
3205480000,6,1633.8324,1694.5026,1634.1722,1694.4033,1500.0,1500.0,nan,nan,nan,nan,nan,nan,nan,nan,nan,nan
3205580000,6,1635.2878,1695.7336,1639.0771,1694.3865,1500.0,1500.0,nan,nan,nan,nan,nan,nan,nan,nan,nan,nan
3205680000,6,1636.2771,1697.0413,1638.9587,1696.1287,1500.0,1500.0,nan,nan,nan,nan,nan,nan,nan,nan,nan,nan
3205776000,6,1633.1304,1691.4109,1640.271,1688.7104,1500.0,1500.0,nan,nan,nan,nan,nan,nan,nan,nan,nan,nan
3205876000,6,1635.1998,1693.4136,1639.1931,1691.6631,1500.0,1500.0,nan,nan,nan,nan,nan,nan,nan,nan,nan,nan
3205976000,6,1636.2688,1697.0095,1638.0669,1698.6099,1500.0,1500.0,nan,nan,nan,nan,nan,nan,nan,nan,nan,nan
3206076000,6,1632.7312,1698.3022,1634.3674,1697.1387,1500.0,1500.0,nan,nan,nan,nan,nan,nan,nan,nan,nan,nan
3206180000,6,1637.5729,1691.6854,1637.9529,1691.9423,1500.0,1500.0,nan,nan,nan,nan,nan,nan,nan,nan,nan,nan
3206280000,6,1636.8118,1688.3064,1641.3433,1688.5964,1500.0,1500.0,nan,nan,nan,nan,nan,nan,nan,nan,nan,nan
3206376000,6,1632.2761,1698.4636,1637.9534,1694.5259,1500.0,1500.0,nan,nan,nan,nan,nan,nan,nan,nan,nan,nan
3206476000,6,1640.5454,1695.8977,1643.7961,1695.3945,1500.0,1500.0,nan,nan,nan,nan,nan,nan,nan,nan,nan,nan
3206576000,6,1636.2922,1695.78,1641.8835,1692.3411,1500.0,1500.0,nan,nan,nan,nan,nan,nan,nan,nan,nan,nan
3206676000,6,1634.2255,1695.308,1640.6409,1695.9296,1500.0,1500.0,nan,nan,nan,nan,nan,nan,nan,nan,nan,nan
3206776000,6,1634.331,1700.1267,1635.0977,1700.6965,1500.0,1500.0,nan,nan,nan,nan,nan,nan,nan,nan,nan,nan
3206876000,6,1635.0416,1697.0803,1641.8981,1695.7854,1500.0,1500.0,nan,nan,nan,nan,nan,nan,nan,nan,nan,nan
3206976000,6,1639.5067,1693.8907,1641.7465,1696.9955,1500.0,1500.0,nan,nan,nan,nan,nan,nan,nan,nan,nan,nan
3207076000,6,1636.9823,1698.17,1640.1775,1695.3276,1500.0,1500.0,nan,nan,nan,nan,nan,nan,nan,nan,nan,nan
3207176000,6,1637.1228,1698.6038,1642.506,1693.2328,1500.0,1500.0,nan,nan,nan,nan,nan,nan,nan,nan,nan,nan
3207276000,6,1635.2533,1698.7026,1638.3888,1697.8685,1500.0,1500.0,nan,nan,nan,nan,nan,nan,nan,nan,nan,nan
3207376000,6,1631.0082,1707.7764,1633.937,1707.8054,1500.0,1500.0,nan,nan,nan,nan,nan,nan,nan,nan,nan,nan
3207480000,6,1634.4166,1699.3079,1639.3563,1698.1725,1500.0,1500.0,nan,nan,nan,nan,nan,nan,nan,nan,nan,nan
