timestamp,q[0],q[1],q[2],q[3],delta_q_reset[0],delta_q_reset[1],delta_q_reset[2],delta_q_reset[3],quat_reset_counter
3151276000,0.97850686,0.00061643403,0.00039884285,0.20623513,0.0,0.0,0.0,0.0,0
3151288000,0.97850686,0.00061627716,0.00039886255,0.20623504,0.0,0.0,0.0,0.0,0
3151296000,0.97850686,0.00061626174,0.00039886546,0.20623511,0.0,0.0,0.0,0.0,0
3151312000,0.97850686,0.00061611633,0.0003988845,0.20623505,0.0,0.0,0.0,0.0,0
3151324000,0.97850686,0.00061618316,0.00039890743,0.20623513,0.0,0.0,0.0,0.0,0
3151336000,0.97850686,0.0006159999,0.0003989189,0.20623505,0.0,0.0,0.0,0.0,0
3151348000,0.97850686,0.00061605975,0.000398932,0.20623513,0.0,0.0,0.0,0.0,0
3151360000,0.97850686,0.00061591715,0.00039896736,0.20623502,0.0,0.0,0.0,0.0,0
3151368000,0.97850686,0.0006158941,0.00039895097,0.2062351,0.0,0.0,0.0,0.0,0
3151384000,0.97850686,0.00061580766,0.00039898697,0.20623502,0.0,0.0,0.0,0.0,0
3151396000,0.97850686,0.00061584933,0.00039899003,0.20623511,0.0,0.0,0.0,0.0,0
3151408000,0.97850686,0.0006156321,0.0003989765,0.20623507,0.0,0.0,0.0,0.0,0
3151420000,0.97850686,0.0006157275,0.00039903828,0.20623514,0.0,0.0,0.0,0.0,0
3151428000,0.97850686,0.0006155279,0.00039901698,0.20623505,0.0,0.0,0.0,0.0,0
3151444000,0.97850686,0.00061541604,0.00039906462,0.20623499,0.0,0.0,0.0,0.0,0
3151456000,0.97850686,0.0006153807,0.00039909495,0.2062351,0.0,0.0,0.0,0.0,0
3151464000,0.97850686,0.00061543885,0.00039914082,0.20623513,0.0,0.0,0.0,0.0,0
3151480000,0.97850686,0.00061526714,0.00039915132,0.2062351,0.0,0.0,0.0,0.0,0
3151492000,0.97850686,0.00061515387,0.00039917286,0.206235,0.0,0.0,0.0,0.0,0
3151504000,0.97850686,0.00061513815,0.00039921878,0.2062351,0.0,0.0,0.0,0.0,0
3151516000,0.97850686,0.0006149831,0.00039922397,0.20623504,0.0,0.0,0.0,0.0,0
3151528000,0.97850686,0.0006149944,0.0003992773,0.20623511,0.0,0.0,0.0,0.0,0
3151540000,0.97850686,0.00061484176,0.00039927592,0.20623504,0.0,0.0,0.0,0.0,0
3151552000,0.97850686,0.00061484554,0.00039933602,0.20623511,0.0,0.0,0.0,0.0,0
3151564000,0.97850686,0.0006147336,0.00039934134,0.20623502,0.0,0.0,0.0,0.0,0
3151576000,0.97850686,0.0006147194,0.00039939236,0.2062351,0.0,0.0,0.0,0.0,0
3151588000,0.97850686,0.00061462424,0.00039940886,0.206235,0.0,0.0,0.0,0.0,0
3151596000,0.97850686,0.0006146037,0.00039942603,0.20623507,0.0,0.0,0.0,0.0,0
3151612000,0.97850686,0.00061448815,0.00039946745,0.20623499,0.0,0.0,0.0,0.0,0
3151624000,0.97850686,0.0006144554,0.00039948116,0.2062351,0.0,0.0,0.0,0.0,0
3151636000,0.97850686,0.00061432784,0.00039952213,0.20623499,0.0,0.0,0.0,0.0,0
3151648000,0.97850686,0.00061433297,0.0003995232,0.20623508,0.0,0.0,0.0,0.0,0
3151660000,0.97850686,0.0006142663,0.00039960022,0.20623495,0.0,0.0,0.0,0.0,0
3151672000,0.97850686,0.00061418774,0.00039955703,0.20623505,0.0,0.0,0.0,0.0,0
3151684000,0.97850686,0.00061415177,0.0003996469,0.2062349,0.0,0.0,0.0,0.0,0
3151696000,0.97850686,0.0006140723,0.000399576,0.20623504,0.0,0.0,0.0,0.0,0
3151708000,0.97850686,0.00061397796,0.00039957502,0.20623496,0.0,0.0,0.0,0.0,0
3151720000,0.97850686,0.00061399967,0.00039959044,0.20623507,0.0,0.0,0.0,0.0,0
3151732000,0.97850686,0.0006138636,0.00039959897,0.20623499,0.0,0.0,0.0,0.0,0
3151744000,0.97850686,0.00061384484,0.0003996336,0.20623508,0.0,0.0,0.0,0.0,0
3151756000,0.97850686,0.0006137126,0.00039964626,0.20623502,0.0,0.0,0.0,0.0,0
3151768000,0.97850686,0.000613743,0.00039969725,0.2062351,0.0,0.0,0.0,0.0,0
3151780000,0.97850686,0.0006135573,0.0003996973,0.20623504,0.0,0.0,0.0,0.0,0
3151792000,0.97850686,0.000613607,0.0003997589,0.20623511,0.0,0.0,0.0,0.0,0
3151804000,0.97850686,0.0006134398,0.00039976544,0.20623505,0.0,0.0,0.0,0.0,0
3151816000,0.97850686,0.00061349367,0.00039983174,0.20623511,0.0,0.0,0.0,0.0,0
3151824000,0.97850686,0.0006133102,0.00039981672,0.20623502,0.0,0.0,0.0,0.0,0
3151836000,0.97850686,0.00061332935,0.00039987676,0.2062351,0.0,0.0,0.0,0.0,0
3151848000,0.97850686,0.0006131849,0.0003998757,0.20623502,0.0,0.0,0.0,0.0,0
3151864000,0.97850686,0.00061321,0.0003999624,0.20623511,0.0,0.0,0.0,0.0,0
3151872000,0.97850686,0.0006130497,0.00039995267,0.20623502,0.0,0.0,0.0,0.0,0
3151888000,0.97850686,0.0006130747,0.0004000238,0.2062351,0.0,0.0,0.0,0.0,0
3151900000,0.97850686,0.0006128963,0.00040000875,0.20623504,0.0,0.0,0.0,0.0,0
3151908000,0.97850686,0.00061293633,0.00040004507,0.20623508,0.0,0.0,0.0,0.0,0
3151924000,0.97850686,0.00061277905,0.0004000733,0.206235,0.0,0.0,0.0,0.0,0
3151932000,0.97850686,0.0006127755,0.0004000846,0.20623507,0.0,0.0,0.0,0.0,0
3151948000,0.97850686,0.00061262684,0.00040011082,0.206235,0.0,0.0,0.0,0.0,0
3151956000,0.97850686,0.0006126559,0.00040012013,0.20623507,0.0,0.0,0.0,0.0,0
3151972000,0.97850686,0.0006124992,0.00040014487,0.20623499,0.0,0.0,0.0,0.0,0
3151984000,0.97850686,0.0006125574,0.00040015337,0.20623507,0.0,0.0,0.0,0.0,0
3151992000,0.97850686,0.0006124688,0.00040020322,0.20623492,0.0,0.0,0.0,0.0,0
3152008000,0.97850686,0.0006124519,0.00040017636,0.20623505,0.0,0.0,0.0,0.0,0
3152020000,0.97850686,0.00061230664,0.00040017095,0.20623499,0.0,0.0,0.0,0.0,0
3152032000,0.97850686,0.00061235443,0.00040020896,0.20623507,0.0,0.0,0.0,0.0,0
3152040000,0.97850686,0.0006121498,0.00040020185,0.20623499,0.0,0.0,0.0,0.0,0
3152056000,0.97850686,0.0006120497,0.0004002253,0.20623495,0.0,0.0,0.0,0.0,0
3152068000,0.97850686,0.000612014,0.0004002493,0.20623504,0.0,0.0,0.0,0.0,0
3152080000,0.97850686,0.00061188766,0.00040027598,0.20623498,0.0,0.0,0.0,0.0,0
3152088000,0.97850686,0.00061188254,0.0004003125,0.20623504,0.0,0.0,0.0,0.0,0
3152104000,0.97850686,0.0006117668,0.00040034257,0.20623499,0.0,0.0,0.0,0.0,0
3152116000,0.97850686,0.0006117712,0.00040038952,0.20623507,0.0,0.0,0.0,0.0,0
3152128000,0.97850686,0.00061163056,0.00040040293,0.20623499,0.0,0.0,0.0,0.0,0
3152140000,0.97850686,0.00061165023,0.00040046673,0.20623507,0.0,0.0,0.0,0.0,0
3152148000,0.97850686,0.00061151583,0.00040045741,0.20623496,0.0,0.0,0.0,0.0,0
3152164000,0.97850686,0.00061151874,0.00040052342,0.20623507,0.0,0.0,0.0,0.0,0
3152176000,0.97850686,0.0006113496,0.00040052345,0.20623499,0.0,0.0,0.0,0.0,0
3152184000,0.97850686,0.00061134924,0.00040054758,0.20623504,0.0,0.0,0.0,0.0,0
3152200000,0.97850686,0.0006111919,0.00040056056,0.20623499,0.0,0.0,0.0,0.0,0
3152212000,0.97850686,0.0006112051,0.00040060288,0.20623505,0.0,0.0,0.0,0.0,0
3152224000,0.97850686,0.0006111234,0.00040065314,0.20623492,0.0,0.0,0.0,0.0,0
3152236000,0.97850686,0.0006110956,0.00040066757,0.20623502,0.0,0.0,0.0,0.0,0
3152248000,0.97850686,0.0006109966,0.00040071513,0.20623492,0.0,0.0,0.0,0.0,0
3152256000,0.97850686,0.0006109484,0.00040070122,0.20623499,0.0,0.0,0.0,0.0,0
3152272000,0.9785069,0.0006108905,0.00040077852,0.20623489,0.0,0.0,0.0,0.0,0
3152284000,0.97850686,0.0006108101,0.00040073885,0.206235,0.0,0.0,0.0,0.0,0
3152292000,0.97850686,0.0006108797,0.00040075736,0.20623505,0.0,0.0,0.0,0.0,0
3152308000,0.97850686,0.00061072165,0.00040078047,0.20623498,0.0,0.0,0.0,0.0,0
3152316000,0.97850686,0.0006107595,0.000400781,0.20623502,0.0,0.0,0.0,0.0,0
3152332000,0.97850686,0.00059528684,0.00037728032,0.20623508,0.0,0.0,0.0,0.0,0
3152344000,0.97850686,0.0005953732,0.00037739644,0.20623511,0.0,0.0,0.0,0.0,0
3152356000,0.97850686,0.0005954527,0.00037750413,0.20623511,0.0,0.0,0.0,0.0,0
3152368000,0.97850686,0.0005955003,0.0003775742,0.20623511,0.0,0.0,0.0,0.0,0
3152380000,0.97850686,0.00059558236,0.00037765308,0.20623513,0.0,0.0,0.0,0.0,0
3152388000,0.97850686,0.0005956547,0.00037770212,0.20623513,0.0,0.0,0.0,0.0,0
3152400000,0.97850686,0.00059573655,0.00037777226,0.20623513,0.0,0.0,0.0,0.0,0
3152412000,0.97850686,0.0005957888,0.00037784167,0.20623513,0.0,0.0,0.0,0.0,0
3152428000,0.97850686,0.0005959176,0.00037791624,0.20623513,0.0,0.0,0.0,0.0,0
3152440000,0.97850686,0.000595992,0.00037797913,0.20623513,0.0,0.0,0.0,0.0,0
3152448000,0.97850686,0.00059603393,0.00037801347,0.20623513,0.0,0.0,0.0,0.0,0
3152460000,0.97850686,0.00059610844,0.0003780708,0.20623513,0.0,0.0,0.0,0.0,0
3152472000,0.97850686,0.00059618993,0.00037814045,0.20623513,0.0,0.0,0.0,0.0,0
3152488000,0.97850686,0.00059630116,0.00037822212,0.20623513,0.0,0.0,0.0,0.0,0
3152496000,0.97850686,0.0005963486,0.0003782518,0.20623513,0.0,0.0,0.0,0.0,0
3152508000,0.97850686,0.00059642515,0.00037830856,0.20623513,0.0,0.0,0.0,0.0,0
3152524000,0.97850686,0.00059653673,0.00037838152,0.20623513,0.0,0.0,0.0,0.0,0
3152536000,0.97850686,0.0005966115,0.00037844316,0.20623513,0.0,0.0,0.0,0.0,0
3152544000,0.97850686,0.00059667556,0.00037848836,0.20623513,0.0,0.0,0.0,0.0,0
3152556000,0.97850686,0.0005967315,0.0003785453,0.20623513,0.0,0.0,0.0,0.0,0
3152568000,0.97850686,0.0005968052,0.00037860055,0.20623513,0.0,0.0,0.0,0.0,0
3152584000,0.97850686,0.0005969164,0.00037867072,0.20623513,0.0,0.0,0.0,0.0,0
3152596000,0.97850686,0.0005970002,0.00037873167,0.20623513,0.0,0.0,0.0,0.0,0
3152604000,0.97850686,0.0005970351,0.00037876365,0.20623513,0.0,0.0,0.0,0.0,0
3152616000,0.97850686,0.00059711054,0.0003788058,0.20623513,0.0,0.0,0.0,0.0,0
3152628000,0.97850686,0.00059718406,0.00037885382,0.20623513,0.0,0.0,0.0,0.0,0
3152644000,0.97850686,0.00059724477,0.0003789194,0.20623513,0.0,0.0,0.0,0.0,0
3152652000,0.97850686,0.0005973279,0.00037896435,0.20623513,0.0,0.0,0.0,0.0,0
3152668000,0.97850686,0.0005973956,0.00037902215,0.20623511,0.0,0.0,0.0,0.0,0
3152676000,0.97850686,0.0005974299,0.00037905498,0.20623511,0.0,0.0,0.0,0.0,0
3152688000,0.97850686,0.0005975186,0.00037910664,0.20623511,0.0,0.0,0.0,0.0,0
3152704000,0.97850686,0.0005975809,0.0003791549,0.20623511,0.0,0.0,0.0,0.0,0
3152716000,0.97850686,0.00059764646,0.00037919983,0.20623511,0.0,0.0,0.0,0.0,0
3152728000,0.97850686,0.0005977143,0.00037924582,0.20623511,0.0,0.0,0.0,0.0,0
3152740000,0.97850686,0.0005977929,0.0003792965,0.20623511,0.0,0.0,0.0,0.0,0
3152748000,0.97850686,0.00059782394,0.00037932012,0.20623511,0.0,0.0,0.0,0.0,0
3152760000,0.97850686,0.0005978461,0.00037935615,0.20623511,0.0,0.0,0.0,0.0,0
3152776000,0.97850686,0.0005978985,0.0003794023,0.20623511,0.0,0.0,0.0,0.0,0
3152788000,0.97850686,0.00059796195,0.00037944125,0.20623511,0.0,0.0,0.0,0.0,0
3152800000,0.97850686,0.00059802446,0.0003794816,0.20623511,0.0,0.0,0.0,0.0,0
3152812000,0.97850686,0.0005980988,0.0003795244,0.20623511,0.0,0.0,0.0,0.0,0
3152820000,0.97850686,0.00059812545,0.0003795514,0.20623511,0.0,0.0,0.0,0.0,0
3152836000,0.97850686,0.00059818564,0.00037958965,0.20623511,0.0,0.0,0.0,0.0,0
3152848000,0.97850686,0.00059825176,0.00037962545,0.20623511,0.0,0.0,0.0,0.0,0
3152860000,0.97850686,0.00059823325,0.0003796432,0.20623511,0.0,0.0,0.0,0.0,0
3152868000,0.97850686,0.00059833156,0.00037967897,0.20623511,0.0,0.0,0.0,0.0,0
3152880000,0.97850686,0.0005983191,0.0003796966,0.20623511,0.0,0.0,0.0,0.0,0
3152896000,0.97850686,0.00059836765,0.00037973496,0.20623511,0.0,0.0,0.0,0.0,0
3152908000,0.97850686,0.00059843244,0.00037976258,0.20623511,0.0,0.0,0.0,0.0,0
3152920000,0.97850686,0.00059849455,0.0003797902,0.20623511,0.0,0.0,0.0,0.0,0
3152932000,0.97850686,0.0005984656,0.00037979812,0.20623511,0.0,0.0,0.0,0.0,0
3152944000,0.97850686,0.0005985421,0.00037982842,0.20623511,0.0,0.0,0.0,0.0,0
3152956000,0.97850686,0.00059851335,0.00037983258,0.20623511,0.0,0.0,0.0,0.0,0
3152964000,0.97850686,0.0005985214,0.0003798386,0.20623511,0.0,0.0,0.0,0.0,0
3152980000,0.97850686,0.00059863727,0.00037987533,0.20623511,0.0,0.0,0.0,0.0,0
3152992000,0.97850686,0.0005985983,0.00037987286,0.20623511,0.0,0.0,0.0,0.0,0
3153004000,0.97850686,0.00059867965,0.00037989777,0.20623511,0.0,0.0,0.0,0.0,0
3153016000,0.97850686,0.0005986291,0.00037989108,0.20623511,0.0,0.0,0.0,0.0,0
3153028000,0.97850686,0.000598676,0.00037990307,0.2062351,0.0,0.0,0.0,0.0,0
3153040000,0.97850686,0.00059871876,0.00037991506,0.2062351,0.0,0.0,0.0,0.0,0
3153052000,0.97850686,0.00059883855,0.00037904986,0.20623508,0.0,0.0,0.0,0.0,0
3153064000,0.97850686,0.00058994064,0.00035256875,0.20623505,0.0,0.0,0.0,0.0,0
3153076000,0.97850704,0.0005437483,0.00026481543,0.20623447,0.0,0.0,0.0,0.0,0
3153088000,0.97850746,0.00042900688,6.8946145e-05,0.20623292,0.0,0.0,0.0,0.0,0
3153100000,0.9785085,0.00023051351,-0.0002748334,0.2062283,0.0,0.0,0.0,0.0,0
3153112000,0.97851026,-7.282921e-05,-0.00079693674,0.20621866,0.0,0.0,0.0,0.0,0
3153124000,0.9785115,-0.0004680752,-0.0014729782,0.20620841,0.0,0.0,0.0,0.0,0
3153136000,0.97851205,-0.00090883154,-0.0022227096,0.20619771,0.0,0.0,0.0,0.0,0
3153148000,0.978512,-0.0013500466,-0.00297444,0.20618601,0.0,0.0,0.0,0.0,0
3153160000,0.97851145,-0.0017531235,-0.0036898188,0.20617405,0.0,0.0,0.0,0.0,0
3153172000,0.9785104,-0.0021016772,-0.0043453616,0.20616308,0.0,0.0,0.0,0.0,0
3153180000,0.97850937,-0.0023093848,-0.004742123,0.2061569,0.0,0.0,0.0,0.0,0
3153196000,0.97850704,-0.0026778202,-0.00544673,0.20614627,0.0,0.0,0.0,0.0,0
3153208000,0.9785049,-0.0029002356,-0.005918595,0.20614028,0.0,0.0,0.0,0.0,0
3153216000,0.97850335,-0.003028636,-0.006205703,0.2061374,0.0,0.0,0.0,0.0,0
3153228000,0.97850096,-0.0032021678,-0.006598188,0.20613399,0.0,0.0,0.0,0.0,0
3153240000,0.9784987,-0.0033585674,-0.006946767,0.20613079,0.0,0.0,0.0,0.0,0
3153256000,0.9784956,-0.003536199,-0.007346706,0.20612864,0.0,0.0,0.0,0.0,0
3153268000,0.97849315,-0.0036468704,-0.007587654,0.20612954,0.0,0.0,0.0,0.0,0
3153280000,0.97849077,-0.0037349502,-0.0077761975,0.20613234,0.0,0.0,0.0,0.0,0
3153292000,0.9784885,-0.0037950403,-0.007914256,0.20613651,0.0,0.0,0.0,0.0,0
3153304000,0.97848666,-0.0038294278,-0.007998471,0.20614143,0.0,0.0,0.0,0.0,0
3153312000,0.9784857,-0.0038418062,-0.008025554,0.2061447,0.0,0.0,0.0,0.0,0
3153324000,0.9784847,-0.003848643,-0.008031528,0.20614931,0.0,0.0,0.0,0.0,0
3153336000,0.9784842,-0.0038431243,-0.008004357,0.20615275,0.0,0.0,0.0,0.0,0
3153348000,0.9784842,-0.0038471306,-0.007948371,0.20615484,0.0,0.0,0.0,0.0,0
3153360000,0.97848445,-0.0038633365,-0.007866347,0.20615657,0.0,0.0,0.0,0.0,0
3153376000,0.97848517,-0.003871114,-0.007728035,0.20615819,0.0,0.0,0.0,0.0,0
3153384000,0.9784857,-0.0038664432,-0.0076503344,0.2061586,0.0,0.0,0.0,0.0,0
3153400000,0.97848684,-0.0038310469,-0.0074784453,0.20616029,0.0,0.0,0.0,0.0,0
3153412000,0.9784878,-0.0037674746,-0.0073396973,0.2061618,0.0,0.0,0.0,0.0,0
3153424000,0.9784887,-0.0036811144,-0.007198648,0.20616408,0.0,0.0,0.0,0.0,0
3153436000,0.97848946,-0.0035740163,-0.0070582274,0.20616707,0.0,0.0,0.0,0.0,0
3153448000,0.97849035,-0.003453416,-0.006913708,0.20616984,0.0,0.0,0.0,0.0,0
3153460000,0.97849125,-0.0033364007,-0.0067585874,0.20617276,0.0,0.0,0.0,0.0,0
3153472000,0.9784925,-0.00322128,-0.0065845065,0.2061743,0.0,0.0,0.0,0.0,0
3153484000,0.97849435,-0.0030931497,-0.006401695,0.20617315,0.0,0.0,0.0,0.0,0
3153492000,0.9784958,-0.003001486,-0.006277381,0.20617144,0.0,0.0,0.0,0.0,0
3153508000,0.978499,-0.002796035,-0.006020129,0.2061667,0.0,0.0,0.0,0.0,0
3153520000,0.97850186,-0.002639216,-0.0058205533,0.20616105,0.0,0.0,0.0,0.0,0
3153528000,0.9785038,-0.0025387919,-0.0056875353,0.20615682,0.0,0.0,0.0,0.0,0
3153544000,0.9785072,-0.0023279162,-0.0054268325,0.20615017,0.0,0.0,0.0,0.0,0
3153552000,0.9785086,-0.0022111477,-0.0053049824,0.20614803,0.0,0.0,0.0,0.0,0
3153568000,0.978511,-0.0019688937,-0.0050814217,0.20614488,0.0,0.0,0.0,0.0,0
3153576000,0.97851187,-0.0018494942,-0.004978182,0.20614417,0.0,0.0,0.0,0.0,0
3153588000,0.97851264,-0.0016768518,-0.004836732,0.20614533,0.0,0.0,0.0,0.0,0
3153604000,0.9785128,-0.0014726431,-0.0046656155,0.2061501,0.0,0.0,0.0,0.0,0
3153616000,0.9785126,-0.0013499113,-0.004552616,0.20615463,0.0,0.0,0.0,0.0,0
3153624000,0.97851235,-0.0012835189,-0.0044838195,0.2061575,0.0,0.0,0.0,0.0,0
3153640000,0.97851235,-0.0011837846,-0.004359746,0.20616077,0.0,0.0,0.0,0.0,0
3153652000,0.9785132,-0.0011384523,-0.004266314,0.2061592,0.0,0.0,0.0,0.0,0
3153664000,0.9785143,-0.0011202126,-0.0041823415,0.20615539,0.0,0.0,0.0,0.0,0
3153676000,0.9785157,-0.0011215016,-0.004109697,0.20615043,0.0,0.0,0.0,0.0,0
3153688000,0.97851694,-0.0011224996,-0.004051228,0.20614581,0.0,0.0,0.0,0.0,0
3153696000,0.9785176,-0.0011179344,-0.004018259,0.20614333,0.0,0.0,0.0,0.0,0
3153712000,0.97851837,-0.0011010891,-0.003964734,0.20614058,0.0,0.0,0.0,0.0,0
3153724000,0.9785186,-0.0010839996,-0.003939567,0.2061401,0.0,0.0,0.0,0.0,0
3153736000,0.9785188,-0.0010752297,-0.0039215973,0.20613955,0.0,0.0,0.0,0.0,0
3153748000,0.9785191,-0.0010866002,-0.0038999084,0.20613863,0.0,0.0,0.0,0.0,0
3153760000,0.9785196,-0.0011129007,-0.0038774724,0.20613639,0.0,0.0,0.0,0.0,0
3153772000,0.9785207,-0.0011394841,-0.003853778,0.20613159,0.0,0.0,0.0,0.0,0
3153784000,0.97852224,-0.0011604654,-0.003821352,0.20612456,0.0,0.0,0.0,0.0,0
3153796000,0.97852427,-0.0011721341,-0.0037869667,0.20611575,0.0,0.0,0.0,0.0,0
3153804000,0.9785258,-0.0011749768,-0.0037630994,0.2061088,0.0,0.0,0.0,0.0,0
3153820000,0.97852904,-0.0011831563,-0.0036964817,0.20609456,0.0,0.0,0.0,0.0,0
3153828000,0.9785305,-0.0011839935,-0.0036545093,0.20608829,0.0,0.0,0.0,0.0,0
3153844000,0.978533,-0.0011718125,-0.0035604693,0.20607816,0.0,0.0,0.0,0.0,0
3153856000,0.9785347,-0.0011616622,-0.0034907213,0.20607129,0.0,0.0,0.0,0.0,0
3153864000,0.978536,-0.001157475,-0.003442078,0.20606597,0.0,0.0,0.0,0.0,0
3153880000,0.97853905,-0.0011489649,-0.0033490756,0.20605317,0.0,0.0,0.0,0.0,0
3153888000,0.9785406,-0.0011454416,-0.0033104874,0.20604648,0.0,0.0,0.0,0.0,0
3153904000,0.9785436,-0.0011413923,-0.0032473586,0.20603323,0.0,0.0,0.0,0.0,0
3153916000,0.97854567,-0.0011402603,-0.0032130054,0.20602405,0.0,0.0,0.0,0.0,0
3153928000,0.97854745,-0.0011352359,-0.003187342,0.20601594,0.0,0.0,0.0,0.0,0
3153940000,0.97854894,-0.0011361928,-0.003174473,0.2060089,0.0,0.0,0.0,0.0,0
3153948000,0.97854984,-0.0011443478,-0.00317228,0.20600474,0.0,0.0,0.0,0.0,0
3153964000,0.97855127,-0.001171479,-0.003180602,0.20599762,0.0,0.0,0.0,0.0,0
3153976000,0.97855204,-0.0011860582,-0.0031885523,0.20599379,0.0,0.0,0.0,0.0,0
3153984000,0.97855234,-0.0011934611,-0.0031900033,0.20599237,0.0,0.0,0.0,0.0,0
3154000000,0.9785524,-0.0012097217,-0.003179441,0.20599206,0.0,0.0,0.0,0.0,0
3154012000,0.97855204,-0.001217535,-0.0031686015,0.20599389,0.0,0.0,0.0,0.0,0
3154024000,0.9785513,-0.0012213029,-0.0031583763,0.20599744,0.0,0.0,0.0,0.0,0
3154036000,0.9785504,-0.0012135591,-0.0031510652,0.20600207,0.0,0.0,0.0,0.0,0
3154048000,0.97854936,-0.0011922148,-0.0031458654,0.20600721,0.0,0.0,0.0,0.0,0
3154060000,0.9785483,-0.0011689164,-0.003147291,0.20601237,0.0,0.0,0.0,0.0,0
3154072000,0.9785471,-0.0011531131,-0.0031574015,0.20601794,0.0,0.0,0.0,0.0,0
3154084000,0.97854567,-0.001136818,-0.0031805683,0.20602436,0.0,0.0,0.0,0.0,0
3154096000,0.9785441,-0.001116068,-0.0032075439,0.20603164,0.0,0.0,0.0,0.0,0
3154108000,0.97854227,-0.0010847666,-0.0032396258,0.2060399,0.0,0.0,0.0,0.0,0
3154120000,0.97854024,-0.0010417878,-0.0032813093,0.20604913,0.0,0.0,0.0,0.0,0
3154132000,0.9785382,-0.000991994,-0.0033384038,0.20605803,0.0,0.0,0.0,0.0,0
3154144000,0.97853655,-0.00094754365,-0.003405949,0.20606524,0.0,0.0,0.0,0.0,0
3154156000,0.97853535,-0.0009125225,-0.0034720828,0.20606977,0.0,0.0,0.0,0.0,0
3154164000,0.9785349,-0.0008895952,-0.0035144167,0.20607135,0.0,0.0,0.0,0.0,0
3154180000,0.97853434,-0.00084506767,-0.0035896788,0.20607288,0.0,0.0,0.0,0.0,0
3154192000,0.97853434,-0.00080309855,-0.00363178,0.20607226,0.0,0.0,0.0,0.0,0
3154200000,0.9785347,-0.0007758923,-0.003655035,0.20607035,0.0,0.0,0.0,0.0,0
3154212000,0.97853565,-0.0007351771,-0.0036875345,0.20606534,0.0,0.0,0.0,0.0,0
3154228000,0.9785375,-0.0006942758,-0.0037321004,0.20605582,0.0,0.0,0.0,0.0,0
3154240000,0.97853917,-0.0006858497,-0.0037592263,0.20604753,0.0,0.0,0.0,0.0,0
3154248000,0.97854024,-0.0006841597,-0.0037779978,0.206042,0.0,0.0,0.0,0.0,0
3154260000,0.9785418,-0.0006837221,-0.003803841,0.20603442,0.0,0.0,0.0,0.0,0
3154276000,0.9785436,-0.0006880275,-0.0038220973,0.20602551,0.0,0.0,0.0,0.0,0
3154288000,0.978545,-0.0006886304,-0.003824652,0.20601873,0.0,0.0,0.0,0.0,0
3154300000,0.9785465,-0.0006875514,-0.0038149199,0.20601174,0.0,0.0,0.0,0.0,0
3154312000,0.97854805,-0.00068515603,-0.0037944815,0.20600477,0.0,0.0,0.0,0.0,0
3154324000,0.97854924,-0.00069263286,-0.0037704918,0.20599951,0.0,0.0,0.0,0.0,0
3154336000,0.97855014,-0.0007078844,-0.0037442679,0.2059958,0.0,0.0,0.0,0.0,0
3154348000,0.978551,-0.0007156998,-0.0037169114,0.20599215,0.0,0.0,0.0,0.0,0
3154360000,0.9785521,-0.0007094393,-0.003689743,0.20598717,0.0,0.0,0.0,0.0,0
3154372000,0.9785534,-0.00068644574,-0.0036678023,0.20598161,0.0,0.0,0.0,0.0,0
3154380000,0.9785541,-0.00065985665,-0.0036523868,0.20597848,0.0,0.0,0.0,0.0,0
3154392000,0.9785551,-0.00060713105,-0.0036251075,0.20597456,0.0,0.0,0.0,0.0,0
3154404000,0.97855616,-0.00053879025,-0.0035898522,0.2059703,0.0,0.0,0.0,0.0,0
3154420000,0.9785577,-0.00044703388,-0.003533175,0.20596403,0.0,0.0,0.0,0.0,0
3154432000,0.9785588,-0.00039739333,-0.0035010686,0.2059597,0.0,0.0,0.0,0.0,0
3154444000,0.9785596,-0.0003586183,-0.0034863485,0.2059561,0.0,0.0,0.0,0.0,0
3154456000,0.9785602,-0.00032041047,-0.0034853965,0.20595333,0.0,0.0,0.0,0.0,0
3154468000,0.9785607,-0.00028265823,-0.0034862072,0.20595096,0.0,0.0,0.0,0.0,0
3154476000,0.978561,-0.00025470898,-0.003486772,0.2059498,0.0,0.0,0.0,0.0,0
3154492000,0.9785615,-0.00018577382,-0.0034756875,0.2059475,0.0,0.0,0.0,0.0,0
3154504000,0.9785621,-0.00013014268,-0.0034631323,0.20594472,0.0,0.0,0.0,0.0,0
3154516000,0.97856295,-6.950641e-05,-0.003452603,0.20594119,0.0,0.0,0.0,0.0,0
3154528000,0.9785636,1.4328708e-06,-0.003444417,0.20593813,0.0,0.0,0.0,0.0,0
3154536000,0.9785639,5.150777e-05,-0.0034389228,0.20593669,0.0,0.0,0.0,0.0,0
3154548000,0.9785642,0.000112606445,-0.0034264743,0.2059356,0.0,0.0,0.0,0.0,0
3154564000,0.978564,0.00016241557,-0.0034126367,0.20593652,0.0,0.0,0.0,0.0,0
3154576000,0.9785637,0.00017825997,-0.0034103498,0.2059381,0.0,0.0,0.0,0.0,0
3154588000,0.97856355,0.00018761541,-0.0034113105,0.20593876,0.0,0.0,0.0,0.0,0
3154600000,0.9785638,0.00021262906,-0.0034076169,0.20593773,0.0,0.0,0.0,0.0,0
3154612000,0.97856426,0.00025866536,-0.003396663,0.20593573,0.0,0.0,0.0,0.0,0
3154624000,0.97856486,0.00031577804,-0.0033840435,0.20593292,0.0,0.0,0.0,0.0,0
3154632000,0.9785653,0.00035948868,-0.0033764103,0.20593096,0.0,0.0,0.0,0.0,0
3154648000,0.9785654,0.00045308052,-0.0033719598,0.20593037,0.0,0.0,0.0,0.0,0
3154660000,0.9785648,0.0005130069,-0.0033880956,0.20593289,0.0,0.0,0.0,0.0,0
3154672000,0.97856385,0.00057296606,-0.0034201976,0.20593664,0.0,0.0,0.0,0.0,0
3154684000,0.9785629,0.0006273629,-0.0034717745,0.20594,0.0,0.0,0.0,0.0,0
3154696000,0.9785622,0.000666611,-0.0035370903,0.20594238,0.0,0.0,0.0,0.0,0
3154704000,0.97856176,0.0006899637,-0.003584279,0.20594324,0.0,0.0,0.0,0.0,0
3154720000,0.9785616,0.0007507827,-0.0036770126,0.20594244,0.0,0.0,0.0,0.0,0
3154732000,0.9785619,0.00080581324,-0.0037387859,0.20593959,0.0,0.0,0.0,0.0,0
3154740000,0.9785623,0.00084263674,-0.0037732108,0.20593697,0.0,0.0,0.0,0.0,0
3154756000,0.9785631,0.0009139393,-0.0038148651,0.20593208,0.0,0.0,0.0,0.0,0
3154764000,0.9785634,0.00094778434,-0.003822844,0.20593025,0.0,0.0,0.0,0.0,0
3154780000,0.9785642,0.0010054818,-0.0038249653,0.20592608,0.0,0.0,0.0,0.0,0
3154792000,0.9785654,0.0010411474,-0.003810712,0.2059206,0.0,0.0,0.0,0.0,0
3154800000,0.9785664,0.0010607052,-0.0037965477,0.20591584,0.0,0.0,0.0,0.0,0
3154812000,0.9785682,0.0010795768,-0.0037735298,0.20590758,0.0,0.0,0.0,0.0,0
3154828000,0.97857076,0.0010831736,-0.0037357695,0.20589627,0.0,0.0,0.0,0.0,0
3154836000,0.97857183,0.0010842737,-0.0037143442,0.20589143,0.0,0.0,0.0,0.0,0
3154848000,0.9785734,0.0010875616,-0.0036835421,0.20588467,0.0,0.0,0.0,0.0,0
3154860000,0.97857505,0.0010928352,-0.003656241,0.20587718,0.0,0.0,0.0,0.0,0
3154876000,0.9785778,0.0011058719,-0.0036227652,0.20586462,0.0,0.0,0.0,0.0,0
3154888000,0.97858024,0.0011096027,-0.0036008763,0.20585331,0.0,0.0,0.0,0.0,0
3154900000,0.97858304,0.0011114322,-0.0035819795,0.20584048,0.0,0.0,0.0,0.0,0
3154912000,0.97858626,0.0011180574,-0.003556791,0.20582554,0.0,0.0,0.0,0.0,0
3154920000,0.97858864,0.0011262452,-0.003539836,0.20581454,0.0,0.0,0.0,0.0,0
3154932000,0.9785923,0.0011404023,-0.0035164256,0.2057975,0.0,0.0,0.0,0.0,0
3154948000,0.978597,0.0011723427,-0.0034769732,0.20577557,0.0,0.0,0.0,0.0,0
3154960000,0.97860026,0.0012005541,-0.003447035,0.2057603,0.0,0.0,0.0,0.0,0
3154972000,0.97860324,0.0012250114,-0.003419313,0.20574638,0.0,0.0,0.0,0.0,0
3154984000,0.978606,0.001246233,-0.0034001726,0.20573357,0.0,0.0,0.0,0.0,0
3154992000,0.97860765,0.001260882,-0.0033927027,0.20572557,0.0,0.0,0.0,0.0,0
3155008000,0.97861063,0.0012970087,-0.003390985,0.20571126,0.0,0.0,0.0,0.0,0
3155016000,0.97861177,0.0013213619,-0.0033960177,0.20570575,0.0,0.0,0.0,0.0,0
3155032000,0.978613,0.0013923394,-0.003423775,0.20569873,0.0,0.0,0.0,0.0,0
3155044000,0.978613,0.0014668825,-0.0034627775,0.20569773,0.0,0.0,0.0,0.0,0
3155052000,0.9786125,0.0015295382,-0.0034913355,0.20569919,0.0,0.0,0.0,0.0,0
3155064000,0.9786112,0.0016423415,-0.0035307559,0.20570399,0.0,0.0,0.0,0.0,0
3155080000,0.97860825,0.0018142479,-0.0035770677,0.20571569,0.0,0.0,0.0,0.0,0
3155092000,0.97860515,0.001952745,-0.003604649,0.20572847,0.0,0.0,0.0,0.0,0
3155104000,0.9786015,0.0020933228,-0.0036207773,0.20574434,0.0,0.0,0.0,0.0,0
3155116000,0.9785973,0.0022329984,-0.0036188464,0.20576291,0.0,0.0,0.0,0.0,0
3155128000,0.9785925,0.0023683484,-0.0035937876,0.20578462,0.0,0.0,0.0,0.0,0
3155136000,0.97858906,0.0024531398,-0.0035616837,0.20580058,0.0,0.0,0.0,0.0,0
3155152000,0.9785819,0.0026028552,-0.003484355,0.20583405,0.0,0.0,0.0,0.0,0
3155164000,0.9785764,0.0026916391,-0.0034225956,0.20585987,0.0,0.0,0.0,0.0,0
3155176000,0.97857094,0.0027628446,-0.0033511755,0.2058864,0.0,0.0,0.0,0.0,0
3155188000,0.9785651,0.0028190035,-0.0032698694,0.20591451,0.0,0.0,0.0,0.0,0
3155200000,0.9785589,0.0028586441,-0.0031751415,0.2059449,0.0,0.0,0.0,0.0,0
3155208000,0.9785546,0.0028744244,-0.00310902,0.20596607,0.0,0.0,0.0,0.0,0
3155220000,0.97854817,0.0028835074,-0.0030120537,0.20599803,0.0,0.0,0.0,0.0,0
3155232000,0.9785418,0.0028803414,-0.002917361,0.20602971,0.0,0.0,0.0,0.0,0
3155248000,0.97853315,0.0028587133,-0.0027946576,0.2060728,0.0,0.0,0.0,0.0,0
3155260000,0.9785264,0.0028230392,-0.0027143178,0.20610641,0.0,0.0,0.0,0.0,0
3155272000,0.97851926,0.0027904836,-0.0026516132,0.2061415,0.0,0.0,0.0,0.0,0
3155284000,0.9785118,0.0027658509,-0.0025952866,0.20617802,0.0,0.0,0.0,0.0,0
3155292000,0.9785066,0.0027538978,-0.00255934,0.20620318,0.0,0.0,0.0,0.0,0
3155304000,0.97849864,0.002755136,-0.0025120517,0.20624158,0.0,0.0,0.0,0.0,0
3155316000,0.9784905,0.002786279,-0.0024660537,0.20628044,0.0,0.0,0.0,0.0,0
3155332000,0.9784797,0.0028740978,-0.0024084882,0.20633125,0.0,0.0,0.0,0.0,0
3155344000,0.9784718,0.002953234,-0.0023614557,0.20636784,0.0,0.0,0.0,0.0,0
3155356000,0.9784645,0.0030306382,-0.0023117752,0.20640217,0.0,0.0,0.0,0.0,0
3155364000,0.9784599,0.0030866012,-0.002274575,0.20642333,0.0,0.0,0.0,0.0,0
3155380000,0.97845143,0.0032072584,-0.0021839633,0.2064626,0.0,0.0,0.0,0.0,0
3155392000,0.9784454,0.003297344,-0.0021005643,0.20649059,0.0,0.0,0.0,0.0,0
3155404000,0.97843957,0.0033926812,-0.0020073734,0.20651762,0.0,0.0,0.0,0.0,0
3155416000,0.9784338,0.003490918,-0.0019194407,0.20654435,0.0,0.0,0.0,0.0,0
3155428000,0.97842795,0.003582607,-0.001838321,0.20657128,0.0,0.0,0.0,0.0,0
3155440000,0.97842205,0.003660911,-0.0017617377,0.20659837,0.0,0.0,0.0,0.0,0
3155452000,0.97841614,0.003721529,-0.001700375,0.20662564,0.0,0.0,0.0,0.0,0
3155460000,0.9784122,0.0037495026,-0.0016683148,0.2066441,0.0,0.0,0.0,0.0,0
3155476000,0.978404,0.0037806067,-0.0016206269,0.20668286,0.0,0.0,0.0,0.0,0
3155488000,0.9783975,0.003789324,-0.0015884278,0.20671381,0.0,0.0,0.0,0.0,0
3155500000,0.97839063,0.0037998827,-0.001555415,0.20674624,0.0,0.0,0.0,0.0,0
3155512000,0.97838354,0.003819124,-0.001520498,0.20677963,0.0,0.0,0.0,0.0,0
3155524000,0.9783766,0.0038442754,-0.0014768834,0.20681238,0.0,0.0,0.0,0.0,0
3155536000,0.9783701,0.0038671514,-0.0014287129,0.20684324,0.0,0.0,0.0,0.0,0
3155544000,0.9783659,0.0038798333,-0.0013917605,0.20686293,0.0,0.0,0.0,0.0,0
3155556000,0.9783597,0.003897063,-0.0013300064,0.20689222,0.0,0.0,0.0,0.0,0
3155572000,0.97835195,0.0039140778,-0.0012366009,0.20692934,0.0,0.0,0.0,0.0,0
3155580000,0.9783484,0.00391216,-0.0011869977,0.2069466,0.0,0.0,0.0,0.0,0
3155596000,0.9783418,0.0038836529,-0.0010913187,0.20697854,0.0,0.0,0.0,0.0,0
3155608000,0.9783372,0.0038529963,-0.0010301254,0.20700102,0.0,0.0,0.0,0.0,0
3155616000,0.9783343,0.0038329246,-0.000995715,0.20701534,0.0,0.0,0.0,0.0,0
3155632000,0.97832876,0.0037976464,-0.0009371122,0.20704255,0.0,0.0,0.0,0.0,0
3155644000,0.97832465,0.0037861073,-0.00089687115,0.20706232,0.0,0.0,0.0,0.0,0
3155652000,0.9783219,0.0037840586,-0.0008724535,0.20707554,0.0,0.0,0.0,0.0,0
3155668000,0.9783162,0.0037849047,-0.0008391888,0.20710261,0.0,0.0,0.0,0.0,0
3155680000,0.9783118,0.0037798749,-0.0008118045,0.20712376,0.0,0.0,0.0,0.0,0
3155692000,0.9783074,0.0037738427,-0.0007748288,0.20714444,0.0,0.0,0.0,0.0,0
3155704000,0.97830325,0.003766941,-0.0007295207,0.20716451,0.0,0.0,0.0,0.0,0
3155716000,0.9782992,0.0037594058,-0.00068346784,0.20718399,0.0,0.0,0.0,0.0,0
3155724000,0.97829664,0.0037495163,-0.0006597205,0.20719641,0.0,0.0,0.0,0.0,0
3155740000,0.97829217,0.003705556,-0.0006273788,0.20721836,0.0,0.0,0.0,0.0,0
3155752000,0.97828966,0.0036659304,-0.00060192903,0.2072309,0.0,0.0,0.0,0.0,0
3155764000,0.9782877,0.003633687,-0.0005760051,0.20724085,0.0,0.0,0.0,0.0,0
3155776000,0.97828615,0.0036166168,-0.000551884,0.2072484,0.0,0.0,0.0,0.0,0
3155788000,0.97828513,0.0036096969,-0.0005297691,0.20725335,0.0,0.0,0.0,0.0,0
3155796000,0.9782847,0.003605935,-0.00051492936,0.20725551,0.0,0.0,0.0,0.0,0
3155812000,0.9782842,0.0036063576,-0.00048255024,0.20725818,0.0,0.0,0.0,0.0,0
3155824000,0.97828376,0.003621847,-0.00045580138,0.20725995,0.0,0.0,0.0,0.0,0
3155836000,0.9782831,0.0036571377,-0.00043468075,0.20726229,0.0,0.0,0.0,0.0,0
3155848000,0.97828245,0.003706289,-0.0004257206,0.20726457,0.0,0.0,0.0,0.0,0
3155856000,0.9782819,0.0037382492,-0.0004231465,0.2072666,0.0,0.0,0.0,0.0,0
3155872000,0.97828054,0.0037787026,-0.00042632234,0.20727223,0.0,0.0,0.0,0.0,0
3155880000,0.97827977,0.003790521,-0.00042905426,0.20727582,0.0,0.0,0.0,0.0,0
3155896000,0.978278,0.0038029873,-0.00043251703,0.20728397,0.0,0.0,0.0,0.0,0
3155904000,0.9782771,0.0038045105,-0.00042836217,0.20728812,0.0,0.0,0.0,0.0,0
3155916000,0.97827595,0.0037994268,-0.0004126697,0.20729372,0.0,0.0,0.0,0.0,0
3155932000,0.9782747,0.0037700043,-0.00037117797,0.20730023,0.0,0.0,0.0,0.0,0
3155940000,0.9782741,0.0037449705,-0.00034245668,0.20730345,0.0,0.0,0.0,0.0,0
3155956000,0.97827286,0.003677297,-0.0002883042,0.20731075,0.0,0.0,0.0,0.0,0
3155964000,0.978272,0.0036323522,-0.00026721205,0.20731544,0.0,0.0,0.0,0.0,0
3155980000,0.9782702,0.0035220052,-0.00023747521,0.20732617,0.0,0.0,0.0,0.0,0
3155988000,0.9782693,0.0034589537,-0.00022347267,0.20733152,0.0,0.0,0.0,0.0,0
3156004000,0.9782678,0.003339082,-0.00018957777,0.20734046,0.0,0.0,0.0,0.0,0
3156012000,0.9782672,0.0032841293,-0.00016959463,0.20734406,0.0,0.0,0.0,0.0,0
3156028000,0.97826636,0.0031834065,-0.00011773254,0.20734963,0.0,0.0,0.0,0.0,0
3156040000,0.97826594,0.0031149234,-6.705947e-05,0.20735279,0.0,0.0,0.0,0.0,0
3156052000,0.9782655,0.0030502407,-1.4313369e-05,0.20735551,0.0,0.0,0.0,0.0,0
3156060000,0.97826535,0.0030070643,1.9782565e-05,0.20735721,0.0,0.0,0.0,0.0,0
3156076000,0.97826505,0.002896582,8.13474e-05,0.20736004,0.0,0.0,0.0,0.0,0
3156084000,0.978265,0.0028350009,0.00010950853,0.20736127,0.0,0.0,0.0,0.0,0
3156096000,0.97826487,0.0027428071,0.00015221689,0.20736304,0.0,0.0,0.0,0.0,0
3156108000,0.97826475,0.0026600307,0.00019980417,0.20736456,0.0,0.0,0.0,0.0,0
3156124000,0.97826463,0.0025806632,0.0002872716,0.20736617,0.0,0.0,0.0,0.0,0
3156136000,0.97826433,0.002559062,0.00036802818,0.2073675,0.0,0.0,0.0,0.0,0
3156148000,0.978264,0.002555179,0.00045803425,0.20736915,0.0,0.0,0.0,0.0,0
3156160000,0.9782635,0.0025593534,0.00055348745,0.20737113,0.0,0.0,0.0,0.0,0
3156168000,0.9782632,0.0025641632,0.0006136199,0.20737226,0.0,0.0,0.0,0.0,0
3156184000,0.9782626,0.0025855203,0.00071847823,0.2073745,0.0,0.0,0.0,0.0,0
3156192000,0.97826225,0.0025921108,0.0007654809,0.207376,0.0,0.0,0.0,0.0,0
3156208000,0.9782614,0.0025912132,0.0008470295,0.20737958,0.0,0.0,0.0,0.0,0
3156216000,0.978261,0.0025834094,0.0008817733,0.20738153,0.0,0.0,0.0,0.0,0
3156232000,0.97826046,0.0025525535,0.00094286795,0.20738414,0.0,0.0,0.0,0.0,0
3156244000,0.9782604,0.0025299399,0.0009810778,0.2073846,0.0,0.0,0.0,0.0,0
3156256000,0.97826064,0.0025160995,0.0010228946,0.20738345,0.0,0.0,0.0,0.0,0
3156264000,0.97826093,0.0025080633,0.0010520335,0.20738183,0.0,0.0,0.0,0.0,0
3156280000,0.97826195,0.0024894187,0.0011061421,0.20737705,0.0,0.0,0.0,0.0,0
3156292000,0.9782628,0.0024807225,0.0011311391,0.207373,0.0,0.0,0.0,0.0,0
3156300000,0.97826344,0.002475155,0.0011384012,0.20736992,0.0,0.0,0.0,0.0,0
3156312000,0.9782646,0.002456655,0.0011424312,0.20736499,0.0,0.0,0.0,0.0,0
3156324000,0.9782657,0.0024241048,0.0011489196,0.20735988,0.0,0.0,0.0,0.0,0
3156340000,0.97826725,0.0023675284,0.0011677896,0.20735306,0.0,0.0,0.0,0.0,0
3156352000,0.97826856,0.0023280922,0.0011854728,0.20734715,0.0,0.0,0.0,0.0,0
3156364000,0.9782701,0.0022911935,0.0012080935,0.20734018,0.0,0.0,0.0,0.0,0
3156372000,0.9782712,0.0022696161,0.0012279198,0.20733541,0.0,0.0,0.0,0.0,0
3156388000,0.97827303,0.0022372652,0.0012727372,0.20732674,0.0,0.0,0.0,0.0,0
3156400000,0.9782737,0.0022261906,0.0013075328,0.20732337,0.0,0.0,0.0,0.0,0
3156412000,0.9782736,0.0022229105,0.0013421185,0.20732385,0.0,0.0,0.0,0.0,0
3156424000,0.9782727,0.0022129293,0.0013741347,0.2073279,0.0,0.0,0.0,0.0,0
3156436000,0.97827125,0.0021948258,0.001407811,0.20733474,0.0,0.0,0.0,0.0,0
3156448000,0.9782697,0.0021673292,0.0014380171,0.20734195,0.0,0.0,0.0,0.0,0
3156456000,0.97826886,0.0021453104,0.0014527941,0.20734616,0.0,0.0,0.0,0.0,0
3156468000,0.97826743,0.002104324,0.0014670277,0.2073531,0.0,0.0,0.0,0.0,0
3156484000,0.9782651,0.002045501,0.0014752862,0.20736472,0.0,0.0,0.0,0.0,0
3156496000,0.97826296,0.0020018653,0.0014808401,0.20737512,0.0,0.0,0.0,0.0,0
3156508000,0.9782606,0.001954841,0.0014946117,0.20738684,0.0,0.0,0.0,0.0,0
3156516000,0.9782588,0.0019242062,0.0015086028,0.2073953,0.0,0.0,0.0,0.0,0
3156532000,0.97825515,0.0018859118,0.001549982,0.20741269,0.0,0.0,0.0,0.0,0
3156540000,0.97825325,0.0018798604,0.001577331,0.20742135,0.0,0.0,0.0,0.0,0
3156552000,0.97825044,0.0018850982,0.0016300651,0.20743434,0.0,0.0,0.0,0.0,0
3156568000,0.97824645,0.0019107563,0.0017085547,0.2074521,0.0,0.0,0.0,0.0,0
3156576000,0.9782444,0.0019287493,0.0017412055,0.20746124,0.0,0.0,0.0,0.0,0
3156592000,0.97824055,0.0019672676,0.0017955756,0.20747888,0.0,0.0,0.0,0.0,0
3156600000,0.9782385,0.0019887816,0.0018171817,0.20748791,0.0,0.0,0.0,0.0,0
3156612000,0.9782355,0.0020159893,0.0018409024,0.20750172,0.0,0.0,0.0,0.0,0
3156624000,0.97823256,0.0020388272,0.0018620734,0.20751512,0.0,0.0,0.0,0.0,0
3156636000,0.97822994,0.0020593693,0.0018769372,0.20752715,0.0,0.0,0.0,0.0,0
3156652000,0.97822726,0.002061697,0.0018853095,0.20753978,0.0,0.0,0.0,0.0,0
3156664000,0.9782254,0.0020486894,0.0018895571,0.2075486,0.0,0.0,0.0,0.0,0
3156676000,0.97822326,0.002030364,0.0018939668,0.20755863,0.0,0.0,0.0,0.0,0
3156684000,0.9782217,0.0020161178,0.001894095,0.20756623,0.0,0.0,0.0,0.0,0
3156696000,0.9782189,0.002002293,0.0018867741,0.20757952,0.0,0.0,0.0,0.0,0
3156708000,0.97821563,0.0019930964,0.0018818986,0.20759507,0.0,0.0,0.0,0.0,0
3156724000,0.97821087,0.001974139,0.0018907883,0.20761779,0.0,0.0,0.0,0.0,0
3156736000,0.97820705,0.0019484445,0.0019159332,0.20763566,0.0,0.0,0.0,0.0,0
3156748000,0.9782035,0.0019211575,0.0019493639,0.20765243,0.0,0.0,0.0,0.0,0
3156760000,0.9782004,0.0018919955,0.0019820118,0.20766717,0.0,0.0,0.0,0.0,0
3156772000,0.97819746,0.0018566349,0.0020038101,0.20768091,0.0,0.0,0.0,0.0,0
3156784000,0.9781948,0.0018176622,0.002017614,0.20769377,0.0,0.0,0.0,0.0,0
3156796000,0.9781921,0.0017803124,0.0020399375,0.20770662,0.0,0.0,0.0,0.0,0
3156808000,0.9781893,0.0017404284,0.0020725552,0.20771977,0.0,0.0,0.0,0.0,0
3156820000,0.97818655,0.0017059016,0.0021069346,0.20773253,0.0,0.0,0.0,0.0,0
3156832000,0.978184,0.0016774819,0.0021409441,0.20774463,0.0,0.0,0.0,0.0,0
3156844000,0.9781815,0.0016627264,0.0021663418,0.2077561,0.0,0.0,0.0,0.0,0
3156856000,0.97817904,0.0016607147,0.00217789,0.20776752,0.0,0.0,0.0,0.0,0
3156864000,0.97817737,0.0016575942,0.0021825398,0.2077755,0.0,0.0,0.0,0.0,0
3156880000,0.9781737,0.001642857,0.0021864036,0.20779295,0.0,0.0,0.0,0.0,0
3156892000,0.9781705,0.0016227802,0.002195203,0.20780773,0.0,0.0,0.0,0.0,0
3156904000,0.978167,0.0015961595,0.0022162714,0.20782425,0.0,0.0,0.0,0.0,0
3156916000,0.97816306,0.0015677445,0.0022501426,0.20784263,0.0,0.0,0.0,0.0,0
3156928000,0.978159,0.0015351016,0.0022879934,0.20786156,0.0,0.0,0.0,0.0,0
3156940000,0.9781551,0.0014999382,0.002319309,0.20788006,0.0,0.0,0.0,0.0,0
3156952000,0.97815126,0.0014671036,0.002347213,0.20789787,0.0,0.0,0.0,0.0,0
3156964000,0.9781475,0.0014396016,0.0023754372,0.20791544,0.0,0.0,0.0,0.0,0
3156972000,0.978145,0.0014254242,0.0023928387,0.20792703,0.0,0.0,0.0,0.0,0
3156988000,0.9781404,0.0014001454,0.002421737,0.20794854,0.0,0.0,0.0,0.0,0
3157000000,0.9781374,0.0013855252,0.0024429406,0.20796259,0.0,0.0,0.0,0.0,0
3157012000,0.97813463,0.001374619,0.002469415,0.20797528,0.0,0.0,0.0,0.0,0
3157020000,0.97813296,0.0013676422,0.0024891156,0.20798291,0.0,0.0,0.0,0.0,0
3157036000,0.9781301,0.0013529926,0.0025329823,0.20799619,0.0,0.0,0.0,0.0,0
3157044000,0.9781288,0.0013438527,0.002550484,0.20800214,0.0,0.0,0.0,0.0,0
3157060000,0.97812635,0.0013286953,0.0025673013,0.20801336,0.0,0.0,0.0,0.0,0
3157072000,0.97812456,0.0013338363,0.002562988,0.20802195,0.0,0.0,0.0,0.0,0
3157084000,0.9781228,0.0013569596,0.002549611,0.20803028,0.0,0.0,0.0,0.0,0
3157092000,0.97812164,0.0013747747,0.0025420054,0.20803574,0.0,0.0,0.0,0.0,0
3157104000,0.97811985,0.0014008774,0.0025328316,0.20804384,0.0,0.0,0.0,0.0,0
3157116000,0.9781181,0.0014279617,0.002521416,0.20805195,0.0,0.0,0.0,0.0,0
3157128000,0.97811633,0.0014472767,0.002505622,0.20806044,0.0,0.0,0.0,0.0,0
3157144000,0.97811353,0.0014606259,0.0024928,0.20807366,0.0,0.0,0.0,0.0,0
3157156000,0.9781112,0.0014712933,0.0024860648,0.20808469,0.0,0.0,0.0,0.0,0
3157168000,0.97810894,0.0014818563,0.0024820706,0.2080952,0.0,0.0,0.0,0.0,0
3157176000,0.9781076,0.0014860488,0.0024760237,0.20810185,0.0,0.0,0.0,0.0,0
3157188000,0.9781054,0.0014856404,0.0024622704,0.20811196,0.0,0.0,0.0,0.0,0
3157204000,0.978103,0.0014743176,0.0024326653,0.20812392,0.0,0.0,0.0,0.0,0
3157216000,0.9781016,0.0014563219,0.002397957,0.20813084,0.0,0.0,0.0,0.0,0
3157224000,0.9781009,0.0014425318,0.002369691,0.20813468,0.0,0.0,0.0,0.0,0
3157240000,0.97809976,0.0014202562,0.002314849,0.20814082,0.0,0.0,0.0,0.0,0
3157252000,0.97809905,0.0014007991,0.0022829904,0.2081447,0.0,0.0,0.0,0.0,0
3157260000,0.9780986,0.0013801368,0.00226059,0.2081472,0.0,0.0,0.0,0.0,0
3157276000,0.97809774,0.0013243438,0.0022139251,0.20815209,0.0,0.0,0.0,0.0,0
3157288000,0.97809714,0.0012770246,0.0021874157,0.20815536,0.0,0.0,0.0,0.0,0
3157300000,0.97809654,0.0012282635,0.0021729656,0.20815876,0.0,0.0,0.0,0.0,0
3157308000,0.978096,0.0011965784,0.0021674817,0.20816137,0.0,0.0,0.0,0.0,0
3157320000,0.9780951,0.0011483515,0.0021713395,0.20816596,0.0,0.0,0.0,0.0,0
3157332000,0.978094,0.0010982135,0.0021864213,0.20817117,0.0,0.0,0.0,0.0,0
3157344000,0.9780929,0.0010386514,0.002201332,0.20817646,0.0,0.0,0.0,0.0,0
3157360000,0.9780914,0.00094918365,0.0022256973,0.20818353,0.0,0.0,0.0,0.0,0
3157372000,0.97809047,0.0008906115,0.002253277,0.20818813,0.0,0.0,0.0,0.0,0
3157384000,0.9780897,0.00085075793,0.00229475,0.20819154,0.0,0.0,0.0,0.0,0
3157392000,0.9780893,0.00083138386,0.0023274692,0.20819321,0.0,0.0,0.0,0.0,0
3157404000,0.9780887,0.0008052002,0.0023804724,0.20819533,0.0,0.0,0.0,0.0,0
3157416000,0.97808826,0.0007725234,0.0024348483,0.20819697,0.0,0.0,0.0,0.0,0
3157432000,0.978088,0.0007323374,0.0025022533,0.2081972,0.0,0.0,0.0,0.0,0
3157444000,0.9780884,0.00070375093,0.0025435966,0.20819539,0.0,0.0,0.0,0.0,0
3157456000,0.97808915,0.0006743901,0.0025734399,0.2081914,0.0,0.0,0.0,0.0,0
3157464000,0.97808987,0.0006585178,0.0025851403,0.20818785,0.0,0.0,0.0,0.0,0
3157476000,0.9780912,0.000638415,0.0025909357,0.20818171,0.0,0.0,0.0,0.0,0
3157492000,0.97809327,0.00060781033,0.0025781335,0.20817219,0.0,0.0,0.0,0.0,0
3157500000,0.9780943,0.00059021724,0.002561913,0.20816752,0.0,0.0,0.0,0.0,0
3157516000,0.9780962,0.0005541067,0.002521394,0.20815927,0.0,0.0,0.0,0.0,0
3157528000,0.97809774,0.0005135286,0.0024983985,0.20815232,0.0,0.0,0.0,0.0,0
3157540000,0.97809964,0.00045526173,0.0024768477,0.20814389,0.0,0.0,0.0,0.0,0
3157548000,0.97810096,0.00040500707,0.0024637193,0.20813805,0.0,0.0,0.0,0.0,0
3157564000,0.97810304,0.00028514478,0.002440182,0.20812847,0.0,0.0,0.0,0.0,0
3157572000,0.9781038,0.00022369414,0.0024315473,0.20812514,0.0,0.0,0.0,0.0,0
3157584000,0.9781046,0.00013205083,0.0024211835,0.20812172,0.0,0.0,0.0,0.0,0
3157596000,0.9781049,4.2847543e-05,0.0024140833,0.20812027,0.0,0.0,0.0,0.0,0
3157612000,0.9781049,-5.8893078e-05,0.0024012055,0.20812066,0.0,0.0,0.0,0.0,0
3157624000,0.9781048,-0.000120258796,0.0023847255,0.20812108,0.0,0.0,0.0,0.0,0
3157632000,0.97810477,-0.00016350875,0.00237064,0.20812127,0.0,0.0,0.0,0.0,0
3157648000,0.9781047,-0.00024553877,0.0023400732,0.20812204,0.0,0.0,0.0,0.0,0
3157656000,0.9781046,-0.00028162834,0.0023228882,0.20812266,0.0,0.0,0.0,0.0,0
3157668000,0.9781046,-0.00033486937,0.0022978876,0.20812272,0.0,0.0,0.0,0.0,0
3157680000,0.9781049,-0.0003945599,0.0022801165,0.20812155,0.0,0.0,0.0,0.0,0
3157692000,0.9781052,-0.0004559218,0.002269648,0.20812005,0.0,0.0,0.0,0.0,0
3157708000,0.97810566,-0.0005372665,0.0022640403,0.20811783,0.0,0.0,0.0,0.0,0
3157716000,0.9781058,-0.0005830116,0.0022631476,0.20811713,0.0,0.0,0.0,0.0,0
3157732000,0.9781057,-0.00067943305,0.0022552887,0.20811726,0.0,0.0,0.0,0.0,0
3157744000,0.9781056,-0.0007525372,0.0022406436,0.2081176,0.0,0.0,0.0,0.0,0
3157752000,0.97810555,-0.00080050505,0.0022287243,0.20811774,0.0,0.0,0.0,0.0,0
3157768000,0.9781053,-0.00088817615,0.0022026647,0.20811887,0.0,0.0,0.0,0.0,0
3157780000,0.97810507,-0.00093323446,0.002192254,0.20811994,0.0,0.0,0.0,0.0,0
3157792000,0.978105,-0.00095891004,0.0021858881,0.20812017,0.0,0.0,0.0,0.0,0
3157800000,0.97810507,-0.0009665409,0.0021839142,0.20811987,0.0,0.0,0.0,0.0,0
3157812000,0.9781052,-0.0009734761,0.0021758408,0.20811927,0.0,0.0,0.0,0.0,0
3157824000,0.9781053,-0.00097643514,0.002165497,0.208119,0.0,0.0,0.0,0.0,0
3157836000,0.9781054,-0.0009727267,0.0021600856,0.2081185,0.0,0.0,0.0,0.0,0
3157852000,0.97810566,-0.0009578512,0.002167387,0.20811716,0.0,0.0,0.0,0.0,0
3157864000,0.978106,-0.0009514412,0.0021780161,0.20811561,0.0,0.0,0.0,0.0,0
3157876000,0.9781062,-0.00095294596,0.002194849,0.20811437,0.0,0.0,0.0,0.0,0
3157888000,0.97810626,-0.00095945253,0.0022192048,0.20811397,0.0,0.0,0.0,0.0,0
3157900000,0.97810644,-0.0009749723,0.0022412112,0.20811269,0.0,0.0,0.0,0.0,0
3157912000,0.978107,-0.0010000073,0.0022567543,0.20811005,0.0,0.0,0.0,0.0,0
3157920000,0.97810745,-0.0010229773,0.002266594,0.20810762,0.0,0.0,0.0,0.0,0
3157936000,0.9781085,-0.0010668593,0.002282379,0.20810208,0.0,0.0,0.0,0.0,0
3157944000,0.97810924,-0.0010824694,0.002286688,0.20809871,0.0,0.0,0.0,0.0,0
3157956000,0.9781105,-0.0010949208,0.0022890042,0.20809266,0.0,0.0,0.0,0.0,0
3157972000,0.9781126,-0.0010992502,0.002297131,0.20808278,0.0,0.0,0.0,0.0,0
3157984000,0.97811425,-0.0011006432,0.002316126,0.20807466,0.0,0.0,0.0,0.0,0
3157992000,0.9781155,-0.0011008322,0.0023348788,0.20806864,0.0,0.0,0.0,0.0,0
3158004000,0.9781175,-0.0010964485,0.002367897,0.20805877,0.0,0.0,0.0,0.0,0
3158020000,0.97812027,-0.0010783726,0.0024001913,0.20804559,0.0,0.0,0.0,0.0,0
3158032000,0.9781222,-0.0010672837,0.0024091506,0.20803653,0.0,0.0,0.0,0.0,0
3158044000,0.97812396,-0.0010653591,0.0024057485,0.20802817,0.0,0.0,0.0,0.0,0
3158056000,0.97812563,-0.0010670497,0.0023947945,0.20802031,0.0,0.0,0.0,0.0,0
3158068000,0.97812736,-0.001069365,0.0023876186,0.2080123,0.0,0.0,0.0,0.0,0
3158080000,0.978129,-0.0010659922,0.0023986462,0.20800424,0.0,0.0,0.0,0.0,0
3158088000,0.9781301,-0.001053059,0.0024172394,0.20799911,0.0,0.0,0.0,0.0,0
3158104000,0.97813237,-0.0010065443,0.0024688258,0.20798813,0.0,0.0,0.0,0.0,0
3158112000,0.97813356,-0.0009843468,0.0024990614,0.20798226,0.0,0.0,0.0,0.0,0
3158128000,0.9781358,-0.0009566891,0.0025510003,0.20797113,0.0,0.0,0.0,0.0,0
3158136000,0.97813666,-0.0009573113,0.0025717213,0.20796704,0.0,0.0,0.0,0.0,0
3158148000,0.97813725,-0.00096764206,0.0025986899,0.2079638,0.0,0.0,0.0,0.0,0
3158164000,0.97813714,-0.00096488604,0.0026315923,0.20796391,0.0,0.0,0.0,0.0,0
3158172000,0.97813684,-0.0009498022,0.002648166,0.20796515,0.0,0.0,0.0,0.0,0
3158188000,0.97813606,-0.0009094365,0.002687639,0.20796843,0.0,0.0,0.0,0.0,0
3158200000,0.9781354,-0.00087615906,0.0027134449,0.20797142,0.0,0.0,0.0,0.0,0
3158208000,0.97813493,-0.0008489743,0.0027296112,0.2079735,0.0,0.0,0.0,0.0,0
3158224000,0.9781342,-0.00079345965,0.0027550957,0.2079767,0.0,0.0,0.0,0.0,0
3158236000,0.97813386,-0.0007632599,0.0027695028,0.20797846,0.0,0.0,0.0,0.0,0
3158248000,0.97813356,-0.0007500492,0.0027779727,0.20797963,0.0,0.0,0.0,0.0,0
3158256000,0.9781335,-0.0007522044,0.0027767925,0.20798004,0.0,0.0,0.0,0.0,0
3158272000,0.97813326,-0.0007701338,0.0027509783,0.20798127,0.0,0.0,0.0,0.0,0
3158284000,0.97813284,-0.00079502043,0.0027135229,0.20798372,0.0,0.0,0.0,0.0,0
3158292000,0.97813237,-0.0008134837,0.0026827515,0.2079863,0.0,0.0,0.0,0.0,0
3158304000,0.97813153,-0.0008366351,0.0026384266,0.20799081,0.0,0.0,0.0,0.0,0
3158316000,0.97813034,-0.0008532705,0.0026085458,0.20799658,0.0,0.0,0.0,0.0,0
3158328000,0.97812897,-0.00085745956,0.0025899033,0.20800328,0.0,0.0,0.0,0.0,0
3158344000,0.9781272,-0.00085406087,0.0025750496,0.20801203,0.0,0.0,0.0,0.0,0
3158356000,0.9781258,-0.000848764,0.0025570146,0.20801853,0.0,0.0,0.0,0.0,0
3158368000,0.9781245,-0.0008472825,0.0025367523,0.20802511,0.0,0.0,0.0,0.0,0
3158376000,0.9781236,-0.00085750833,0.002522661,0.20802926,0.0,0.0,0.0,0.0,0
3158392000,0.9781222,-0.0008993663,0.0024874783,0.20803621,0.0,0.0,0.0,0.0,0
3158400000,0.9781217,-0.0009267511,0.0024655631,0.20803869,0.0,0.0,0.0,0.0,0
3158416000,0.97812104,-0.00097522675,0.0024098684,0.20804226,0.0,0.0,0.0,0.0,0
3158428000,0.97812057,-0.0010060288,0.0023550433,0.20804483,0.0,0.0,0.0,0.0,0
3158440000,0.9781202,-0.0010340397,0.0022830628,0.20804723,0.0,0.0,0.0,0.0,0
3158448000,0.9781201,-0.0010499409,0.0022307858,0.20804846,0.0,0.0,0.0,0.0,0
3158464000,0.9781198,-0.0010738436,0.0021349986,0.20805073,0.0,0.0,0.0,0.0,0
3158476000,0.9781194,-0.0010788923,0.0020794652,0.20805304,0.0,0.0,0.0,0.0,0
3158484000,0.97811896,-0.0010808943,0.0020535472,0.20805536,0.0,0.0,0.0,0.0,0
3158500000,0.97811764,-0.0010957383,0.002036959,0.20806146,0.0,0.0,0.0,0.0,0
3158512000,0.9781166,-0.0011062191,0.0020512338,0.20806639,0.0,0.0,0.0,0.0,0
3158524000,0.9781153,-0.0011116368,0.002081491,0.20807192,0.0,0.0,0.0,0.0,0
3158532000,0.9781145,-0.0011178071,0.0021018288,0.20807578,0.0,0.0,0.0,0.0,0
3158548000,0.97811264,-0.0011359889,0.0021293228,0.20808388,0.0,0.0,0.0,0.0,0
3158556000,0.9781117,-0.0011440445,0.0021410466,0.2080882,0.0,0.0,0.0,0.0,0
3158572000,0.9781097,-0.0011555452,0.002169678,0.20809709,0.0,0.0,0.0,0.0,0
3158584000,0.9781082,-0.0011648256,0.0021953676,0.20810379,0.0,0.0,0.0,0.0,0
3158596000,0.97810686,-0.0011714591,0.0022225513,0.20811006,0.0,0.0,0.0,0.0,0
3158608000,0.97810555,-0.0011660358,0.0022517687,0.2081158,0.0,0.0,0.0,0.0,0
3158616000,0.9781047,-0.0011547854,0.0022721223,0.20811966,0.0,0.0,0.0,0.0,0
3158632000,0.978103,-0.0011097695,0.0023131983,0.20812763,0.0,0.0,0.0,0.0,0
3158644000,0.9781016,-0.0010612061,0.0023453452,0.20813398,0.0,0.0,0.0,0.0,0
3158656000,0.9781001,-0.001001674,0.0023648327,0.20814107,0.0,0.0,0.0,0.0,0
3158668000,0.97809863,-0.00093750545,0.0023738446,0.2081483,0.0,0.0,0.0,0.0,0
3158680000,0.9780972,-0.000878824,0.0023738137,0.20815514,0.0,0.0,0.0,0.0,0
3158688000,0.9780964,-0.00084027014,0.0023739645,0.20815906,0.0,0.0,0.0,0.0,0
3158704000,0.9780948,-0.0007667107,0.002378734,0.20816669,0.0,0.0,0.0,0.0,0
3158716000,0.9780934,-0.00073050667,0.0023770186,0.20817348,0.0,0.0,0.0,0.0,0
3158724000,0.97809243,-0.0007190058,0.002372158,0.20817819,0.0,0.0,0.0,0.0,0
3158736000,0.97809094,-0.00072031457,0.0023657319,0.20818518,0.0,0.0,0.0,0.0,0
3158748000,0.9780894,-0.0007342816,0.002358898,0.20819265,0.0,0.0,0.0,0.0,0
3158760000,0.9780878,-0.00075343746,0.0023511532,0.2082001,0.0,0.0,0.0,0.0,0
3158772000,0.9780863,-0.00077054044,0.0023523641,0.20820692,0.0,0.0,0.0,0.0,0
3158784000,0.97808516,-0.00078154245,0.0023637295,0.20821235,0.0,0.0,0.0,0.0,0
3158800000,0.978084,-0.0007909503,0.0023881781,0.20821713,0.0,0.0,0.0,0.0,0
3158808000,0.9780838,-0.00079713203,0.0023972453,0.20821808,0.0,0.0,0.0,0.0,0
3158824000,0.9780837,-0.0008138201,0.002403302,0.20821835,0.0,0.0,0.0,0.0,0
3158836000,0.9780838,-0.00082243804,0.0023928527,0.20821823,0.0,0.0,0.0,0.0,0
3158848000,0.9780839,-0.00082908163,0.00236755,0.20821773,0.0,0.0,0.0,0.0,0
3158860000,0.9780842,-0.0008389246,0.002326853,0.20821692,0.0,0.0,0.0,0.0,0
3158868000,0.97808444,-0.0008507741,0.002301131,0.20821609,0.0,0.0,0.0,0.0,0
3158884000,0.97808504,-0.0008879591,0.0022621602,0.20821346,0.0,0.0,0.0,0.0,0
3158892000,0.9780854,-0.0009124819,0.0022459142,0.20821182,0.0,0.0,0.0,0.0,0
3158908000,0.9780863,-0.0009728831,0.0022123873,0.20820785,0.0,0.0,0.0,0.0,0
3158920000,0.97808725,-0.0010290807,0.0021810022,0.20820339,0.0,0.0,0.0,0.0,0
3158928000,0.9780881,-0.0010681568,0.0021533393,0.20819956,0.0,0.0,0.0,0.0,0
3158944000,0.97808963,-0.0011410057,0.0020794177,0.20819245,0.0,0.0,0.0,0.0,0
3158956000,0.9780905,-0.0011837605,0.0020172584,0.2081887,0.0,0.0,0.0,0.0,0
3158968000,0.978091,-0.0012144204,0.0019673782,0.20818675,0.0,0.0,0.0,0.0,0
3158976000,0.9780911,-0.0012281446,0.0019457178,0.20818648,0.0,0.0,0.0,0.0,0
3158992000,0.9780907,-0.0012468576,0.0019243343,0.20818834,0.0,0.0,0.0,0.0,0
3159004000,0.9780901,-0.0012620935,0.0019217167,0.2081912,0.0,0.0,0.0,0.0,0
3159012000,0.9780895,-0.0012750559,0.0019277926,0.20819372,0.0,0.0,0.0,0.0,0
3159024000,0.9780886,-0.0013014101,0.0019461712,0.20819762,0.0,0.0,0.0,0.0,0
3159040000,0.97808754,-0.0013353071,0.0019659672,0.20820235,0.0,0.0,0.0,0.0,0
3159052000,0.978087,-0.0013625273,0.0019730164,0.20820473,0.0,0.0,0.0,0.0,0
3159064000,0.9780866,-0.0013956011,0.0019733605,0.20820627,0.0,0.0,0.0,0.0,0
3159076000,0.9780863,-0.0014255529,0.0019620918,0.20820771,0.0,0.0,0.0,0.0,0
3159088000,0.978086,-0.0014498229,0.0019367231,0.20820901,0.0,0.0,0.0,0.0,0
3159100000,0.978086,-0.0014618373,0.0018983568,0.20820946,0.0,0.0,0.0,0.0,0
3159108000,0.97808605,-0.0014607817,0.0018705053,0.20820925,0.0,0.0,0.0,0.0,0
3159124000,0.97808665,-0.0014397681,0.0018099734,0.20820716,0.0,0.0,0.0,0.0,0
3159136000,0.97808737,-0.0014139016,0.0017559965,0.20820448,0.0,0.0,0.0,0.0,0
3159144000,0.9780878,-0.0013938639,0.0017150042,0.20820297,0.0,0.0,0.0,0.0,0
3159160000,0.97808814,-0.0013468735,0.0016188491,0.20820245,0.0,0.0,0.0,0.0,0
3159172000,0.97808826,-0.0013006052,0.0015352092,0.20820282,0.0,0.0,0.0,0.0,0
3159184000,0.97808844,-0.0012486693,0.0014377502,0.2082029,0.0,0.0,0.0,0.0,0
3159196000,0.9780886,-0.0011990961,0.0013299951,0.20820324,0.0,0.0,0.0,0.0,0
3159208000,0.9780887,-0.0011615832,0.0012244144,0.20820373,0.0,0.0,0.0,0.0,0
3159220000,0.97808886,-0.001148869,0.0011352617,0.2082034,0.0,0.0,0.0,0.0,0
3159232000,0.9780892,-0.0011501068,0.0010639393,0.2082021,0.0,0.0,0.0,0.0,0
3159244000,0.97808975,-0.0011568132,0.0010118083,0.20819992,0.0,0.0,0.0,0.0,0
3159256000,0.97809047,-0.0011659209,0.0009747728,0.20819658,0.0,0.0,0.0,0.0,0
3159264000,0.9780911,-0.0011721206,0.0009597086,0.2081937,0.0,0.0,0.0,0.0,0
3159280000,0.97809285,-0.0011749567,0.0009515657,0.20818546,0.0,0.0,0.0,0.0,0
3159288000,0.978094,-0.0011706528,0.00095515593,0.20818011,0.0,0.0,0.0,0.0,0
3159300000,0.978096,-0.0011608059,0.0009651958,0.20817056,0.0,0.0,0.0,0.0,0
3159312000,0.9780983,-0.0011516428,0.0009846531,0.20815992,0.0,0.0,0.0,0.0,0
3159324000,0.97810066,-0.0011558771,0.0010198422,0.20814854,0.0,0.0,0.0,0.0,0
3159336000,0.9781031,-0.0011690587,0.0010648896,0.20813681,0.0,0.0,0.0,0.0,0
3159348000,0.9781054,-0.0011883831,0.0011234182,0.20812558,0.0,0.0,0.0,0.0,0
3159364000,0.97810835,-0.0012123642,0.0012314648,0.20811109,0.0,0.0,0.0,0.0,0
3159376000,0.9781103,-0.0012283978,0.0013327763,0.20810091,0.0,0.0,0.0,0.0,0
3159388000,0.9781121,-0.0012452345,0.0014391906,0.20809172,0.0,0.0,0.0,0.0,0
3159400000,0.97811353,-0.0012618469,0.0015405372,0.20808439,0.0,0.0,0.0,0.0,0
3159412000,0.9781144,-0.0012826684,0.0016338611,0.20807928,0.0,0.0,0.0,0.0,0
3159420000,0.97811484,-0.001298524,0.0016919529,0.20807669,0.0,0.0,0.0,0.0,0
3159436000,0.9781157,-0.0013186733,0.0017827943,0.2080718,0.0,0.0,0.0,0.0,0
3159448000,0.97811645,-0.001324392,0.0018169051,0.20806803,0.0,0.0,0.0,0.0,0
3159456000,0.978117,-0.0013305176,0.0018260836,0.20806532,0.0,0.0,0.0,0.0,0
3159472000,0.978118,-0.0013449404,0.0018228579,0.2080605,0.0,0.0,0.0,0.0,0
3159484000,0.9781185,-0.0013644692,0.0018116635,0.2080582,0.0,0.0,0.0,0.0,0
3159496000,0.97811866,-0.0014038362,0.0018067571,0.20805705,0.0,0.0,0.0,0.0,0
3159504000,0.9781187,-0.0014393681,0.0018062813,0.20805652,0.0,0.0,0.0,0.0,0
3159520000,0.9781188,-0.0015191068,0.001810296,0.20805568,0.0,0.0,0.0,0.0,0
3159532000,0.9781187,-0.0015827076,0.0018135298,0.2080555,0.0,0.0,0.0,0.0,0
3159544000,0.9781185,-0.0016438246,0.0018161627,0.20805608,0.0,0.0,0.0,0.0,0
3159556000,0.9781182,-0.0016969276,0.0018193171,0.2080571,0.0,0.0,0.0,0.0,0
3159564000,0.978118,-0.0017226023,0.0018213243,0.20805754,0.0,0.0,0.0,0.0,0
3159580000,0.9781178,-0.0017582567,0.0018212894,0.2080582,0.0,0.0,0.0,0.0,0
3159588000,0.97811764,-0.0017722094,0.0018224127,0.20805885,0.0,0.0,0.0,0.0,0
3159604000,0.97811717,-0.001812911,0.0018320451,0.2080607,0.0,0.0,0.0,0.0,0
3159616000,0.97811675,-0.0018521119,0.0018363221,0.20806244,0.0,0.0,0.0,0.0,0
3159624000,0.97811645,-0.0018781452,0.0018334636,0.20806362,0.0,0.0,0.0,0.0,0
3159640000,0.9781162,-0.0019202579,0.001811536,0.20806444,0.0,0.0,0.0,0.0,0
3159648000,0.97811633,-0.0019299245,0.0017942351,0.20806403,0.0,0.0,0.0,0.0,0
3159664000,0.9781165,-0.0019391434,0.0017416137,0.20806338,0.0,0.0,0.0,0.0,0
3159672000,0.97811675,-0.0019473532,0.0017121237,0.20806263,0.0,0.0,0.0,0.0,0
3159684000,0.9781172,-0.0019631681,0.0016680255,0.20806047,0.0,0.0,0.0,0.0,0
3159700000,0.9781184,-0.001987498,0.0016047499,0.20805499,0.0,0.0,0.0,0.0,0
3159712000,0.9781195,-0.0020103282,0.0015433993,0.20805039,0.0,0.0,0.0,0.0,0
3159724000,0.97812045,-0.0020342553,0.0014750668,0.20804603,0.0,0.0,0.0,0.0,0
3159732000,0.97812116,-0.0020515986,0.0014335795,0.20804295,0.0,0.0,0.0,0.0,0
3159748000,0.9781224,-0.0020844322,0.0013637202,0.20803708,0.0,0.0,0.0,0.0,0
3159760000,0.9781231,-0.0020984698,0.0013130531,0.20803382,0.0,0.0,0.0,0.0,0
3159768000,0.97812355,-0.0021001264,0.001279347,0.2080323,0.0,0.0,0.0,0.0,0
3159780000,0.9781239,-0.0020922264,0.0012290308,0.20803092,0.0,0.0,0.0,0.0,0
3159796000,0.97812384,-0.002076191,0.0011629015,0.2080317,0.0,0.0,0.0,0.0,0
3159808000,0.97812337,-0.0020647168,0.001106802,0.20803423,0.0,0.0,0.0,0.0,0
3159820000,0.97812283,-0.002062554,0.0010461606,0.20803718,0.0,0.0,0.0,0.0,0
3159832000,0.9781224,-0.0020846429,0.0009840401,0.2080394,0.0,0.0,0.0,0.0,0
3159844000,0.97812206,-0.002130768,0.00091407675,0.20804088,0.0,0.0,0.0,0.0,0
3159852000,0.9781218,-0.0021722366,0.00086213864,0.20804176,0.0,0.0,0.0,0.0,0
3159868000,0.97812134,-0.0022646433,0.000733733,0.20804332,0.0,0.0,0.0,0.0,0
3159876000,0.97812134,-0.00230528,0.00066279236,0.20804337,0.0,0.0,0.0,0.0,0
3159892000,0.97812146,-0.0023736558,0.00054063293,0.20804225,0.0,0.0,0.0,0.0,0
3159900000,0.9781216,-0.0024019852,0.00048651383,0.20804143,0.0,0.0,0.0,0.0,0
3159912000,0.9781218,-0.0024412193,0.00040018046,0.20804004,0.0,0.0,0.0,0.0,0
3159924000,0.9781222,-0.0024859766,0.00030015392,0.208038,0.0,0.0,0.0,0.0,0
3159936000,0.97812295,-0.0025361849,0.00018264925,0.20803401,0.0,0.0,0.0,0.0,0
3159948000,0.9781241,-0.002573318,5.7576628e-05,0.2080283,0.0,0.0,0.0,0.0,0
3159964000,0.97812593,-0.00259059,-0.00010972977,0.20801927,0.0,0.0,0.0,0.0,0
3159972000,0.97812706,-0.0025910113,-0.00019564602,0.20801409,0.0,0.0,0.0,0.0,0
3159988000,0.97812957,-0.0025799142,-0.0003875399,0.20800193,0.0,0.0,0.0,0.0,0
3160000000,0.97813123,-0.002576472,-0.00052394153,0.20799403,0.0,0.0,0.0,0.0,0
3160012000,0.9781321,-0.0025870476,-0.0006467379,0.2079892,0.0,0.0,0.0,0.0,0
3160024000,0.9781326,-0.0026112173,-0.00075925246,0.20798627,0.0,0.0,0.0,0.0,0
3160032000,0.97813284,-0.002639474,-0.00082803733,0.20798469,0.0,0.0,0.0,0.0,0
3160044000,0.9781329,-0.0026831892,-0.00092861895,0.20798324,0.0,0.0,0.0,0.0,0
3160056000,0.97813284,-0.0027166058,-0.001020686,0.20798263,0.0,0.0,0.0,0.0,0
3160072000,0.9781326,-0.0027352895,-0.0011175434,0.20798326,0.0,0.0,0.0,0.0,0
3160080000,0.97813237,-0.002738276,-0.0011577205,0.20798397,0.0,0.0,0.0,0.0,0
3160096000,0.9781319,-0.0027556021,-0.0012288052,0.20798562,0.0,0.0,0.0,0.0,0
3160104000,0.9781315,-0.0027712428,-0.0012679918,0.2079871,0.0,0.0,0.0,0.0,0
3160116000,0.9781307,-0.0027962406,-0.0013431571,0.20798989,0.0,0.0,0.0,0.0,0
3160132000,0.9781298,-0.0028191796,-0.0014570889,0.20799313,0.0,0.0,0.0,0.0,0
3160144000,0.97812915,-0.002821278,-0.0015519016,0.20799547,0.0,0.0,0.0,0.0,0
3160156000,0.97812855,-0.0028121392,-0.0016393833,0.20799765,0.0,0.0,0.0,0.0,0
3160168000,0.9781281,-0.002787132,-0.0017041104,0.20799989,0.0,0.0,0.0,0.0,0
3160176000,0.9781277,-0.0027615507,-0.0017364882,0.20800143,0.0,0.0,0.0,0.0,0
3160192000,0.9781274,-0.002690444,-0.0017821795,0.20800337,0.0,0.0,0.0,0.0,0
3160204000,0.9781275,-0.0026353179,-0.0018023143,0.20800371,0.0,0.0,0.0,0.0,0
3160216000,0.9781274,-0.0025797847,-0.0018077218,0.2080046,0.0,0.0,0.0,0.0,0
3160228000,0.9781274,-0.0025266975,-0.001811889,0.20800519,0.0,0.0,0.0,0.0,0
3160240000,0.9781275,-0.0024763905,-0.0018149451,0.20800558,0.0,0.0,0.0,0.0,0
3160252000,0.97812736,-0.0024207516,-0.0018087322,0.20800693,0.0,0.0,0.0,0.0,0
3160264000,0.978127,-0.0023648788,-0.00179313,0.20800927,0.0,0.0,0.0,0.0,0
3160276000,0.97812647,-0.0023124623,-0.0017651785,0.20801266,0.0,0.0,0.0,0.0,0
3160284000,0.97812593,-0.0022839287,-0.0017390039,0.20801564,0.0,0.0,0.0,0.0,0
3160296000,0.9781251,-0.002249983,-0.0016919755,0.20802034,0.0,0.0,0.0,0.0,0
3160312000,0.9781239,-0.0022254833,-0.0016242963,0.20802689,0.0,0.0,0.0,0.0,0
3160324000,0.9781229,-0.0022275879,-0.0015775624,0.2080318,0.0,0.0,0.0,0.0,0
3160332000,0.97812235,-0.0022362014,-0.0015535916,0.20803462,0.0,0.0,0.0,0.0,0
3160348000,0.9781214,-0.00224868,-0.0015061337,0.20803912,0.0,0.0,0.0,0.0,0
3160360000,0.9781208,-0.0022437961,-0.0014662098,0.2080424,0.0,0.0,0.0,0.0,0
3160368000,0.97812027,-0.002232505,-0.0014373905,0.2080452,0.0,0.0,0.0,0.0,0
3160384000,0.97811884,-0.002202266,-0.0013828026,0.20805264,0.0,0.0,0.0,0.0,0
3160396000,0.9781175,-0.0021838904,-0.0013581249,0.20805898,0.0,0.0,0.0,0.0,0
3160408000,0.9781165,-0.0021760976,-0.0013432635,0.20806406,0.0,0.0,0.0,0.0,0
3160420000,0.97811586,-0.002174983,-0.0013311552,0.20806733,0.0,0.0,0.0,0.0,0
3160432000,0.97811544,-0.0021714584,-0.0013253966,0.20806919,0.0,0.0,0.0,0.0,0
3160444000,0.97811526,-0.0021657054,-0.0013240521,0.2080703,0.0,0.0,0.0,0.0,0
3160452000,0.97811514,-0.0021604388,-0.0013218719,0.20807083,0.0,0.0,0.0,0.0,0
3160464000,0.978115,-0.0021453837,-0.0013134374,0.20807146,0.0,0.0,0.0,0.0,0
3160476000,0.978115,-0.002121695,-0.0012991196,0.20807183,0.0,0.0,0.0,0.0,0
3160492000,0.9781153,-0.002083641,-0.001274333,0.20807116,0.0,0.0,0.0,0.0,0
3160504000,0.9781158,-0.0020436782,-0.0012492061,0.20806944,0.0,0.0,0.0,0.0,0
3160512000,0.9781163,-0.0020136235,-0.0012266638,0.2080676,0.0,0.0,0.0,0.0,0
3160528000,0.9781177,-0.001953781,-0.0011662832,0.20806168,0.0,0.0,0.0,0.0,0
3160540000,0.97811913,-0.001910536,-0.0011107913,0.20805573,0.0,0.0,0.0,0.0,0
3160552000,0.9781206,-0.0018691043,-0.0010434184,0.20804939,0.0,0.0,0.0,0.0,0
3160564000,0.9781223,-0.0018220561,-0.0009695789,0.2080424,0.0,0.0,0.0,0.0,0
