timestamp,q[0],q[1],q[2],q[3],delta_q_reset[0],delta_q_reset[1],delta_q_reset[2],delta_q_reset[3],quat_reset_counter
3151276000,-0.97792435,-0.0031258925,-0.00846397,-0.2087642,0.9999998,-2.9103833e-10,2.9103834e-11,0.00066861516,5
3151324000,-0.97791606,-0.0031630257,-0.008455571,-0.20880312,0.9999998,-2.9103833e-10,2.9103834e-11,0.00066861516,5
3151376000,-0.97790945,-0.0032051716,-0.008473297,-0.20883271,0.9999998,-2.9103833e-10,2.9103834e-11,0.00066861516,5
3151428000,-0.977915,-0.0031924488,-0.008466987,-0.20880695,0.9999998,-2.9103833e-10,2.9103834e-11,0.00066861516,5
3151480000,-0.97790647,-0.0031690802,-0.008416829,-0.20884979,0.9999998,-2.9103833e-10,2.9103834e-11,0.00066861516,5
3151536000,-0.9779071,-0.0032206778,-0.00843781,-0.20884462,0.9999998,-2.9103833e-10,2.9103834e-11,0.00066861516,5
3151584000,-0.9779048,-0.0032698228,-0.008438432,-0.20885514,0.9999998,-2.9103833e-10,2.9103834e-11,0.00066861516,5
3151636000,-0.977918,-0.0033155833,-0.008420381,-0.20879269,0.9999998,-2.9103833e-10,2.9103834e-11,0.00066861516,5
3151692000,-0.9779207,-0.0032746275,-0.008418962,-0.20878103,0.9999998,-2.9103833e-10,2.9103834e-11,0.00066861516,5
3151740000,-0.9779243,-0.003270991,-0.008487269,-0.20876133,0.9999998,-2.9103833e-10,2.9103834e-11,0.00066861516,5
3151792000,-0.97791874,-0.0032924144,-0.00853012,-0.2087852,0.9999998,-2.9103833e-10,2.9103834e-11,0.00066861516,5
3151844000,-0.97791666,-0.0032989318,-0.008583884,-0.20879316,0.9999998,-2.9103833e-10,2.9103834e-11,0.00066861516,5
3151900000,-0.9779105,-0.0032368624,-0.008550321,-0.208824,0.9999998,-2.9103833e-10,2.9103834e-11,0.00066861516,5
3151948000,-0.97792286,-0.0033158527,-0.008545139,-0.20876573,0.9999998,-2.9103833e-10,2.9103834e-11,0.00066861516,5
3152004000,-0.9779277,-0.0032871645,-0.008595134,-0.20874147,0.9999998,-2.9103833e-10,2.9103834e-11,0.00066861516,5
3152056000,-0.977931,-0.0031985498,-0.0085799685,-0.20872761,0.9999998,-2.9103833e-10,2.9103834e-11,0.00066861516,5
3152104000,-0.9779124,-0.0031540124,-0.008616793,-0.20881352,0.9999998,-2.9103833e-10,2.9103834e-11,0.00066861516,5
3152156000,-0.97791415,-0.0030883378,-0.008600311,-0.20880708,0.9999998,-2.9103833e-10,2.9103834e-11,0.00066861516,5
3152208000,-0.97791463,-0.0030658278,-0.008578943,-0.20880626,0.9999998,-2.9103833e-10,2.9103834e-11,0.00066861516,5
3152260000,-0.9779156,-0.003036396,-0.008587218,-0.20880164,0.9999998,-2.9103833e-10,2.9103834e-11,0.00066861516,5
3152312000,-0.9779219,-0.003030614,-0.008649174,-0.20876989,0.9999998,-2.9103833e-10,2.9103834e-11,0.00066861516,5
3152368000,-0.9779265,-0.0030540603,-0.008537183,-0.20875266,0.9999998,-2.9103833e-10,2.9103834e-11,0.00066861516,5
3152416000,-0.97791845,-0.0029849457,-0.008527196,-0.20879158,0.9999998,-2.9103833e-10,2.9103834e-11,0.00066861516,5
3152468000,-0.9779268,-0.0029108436,-0.008483838,-0.20875575,0.9999998,-2.9103833e-10,2.9103834e-11,0.00066861516,5
3152520000,-0.9779322,-0.0028875,-0.008502152,-0.20872957,0.9999998,-2.9103833e-10,2.9103834e-11,0.00066861516,5
3152572000,-0.97792095,-0.0028532348,-0.00849871,-0.2087827,0.9999998,-2.9103833e-10,2.9103834e-11,0.00066861516,5
3152628000,-0.9779135,-0.0028231838,-0.008515582,-0.20881772,0.9999998,-2.9103833e-10,2.9103834e-11,0.00066861516,5
3152676000,-0.97790784,-0.0028293398,-0.008566629,-0.2088419,0.9999998,-2.9103833e-10,2.9103834e-11,0.00066861516,5
3152728000,-0.97791356,-0.0028411134,-0.008598324,-0.20881413,0.9999998,-2.9103833e-10,2.9103834e-11,0.00066861516,5
3152780000,-0.977912,-0.0028515065,-0.0086138835,-0.20882054,0.9999998,-2.9103833e-10,2.9103834e-11,0.00066861516,5
3152832000,-0.97791976,-0.0029038736,-0.008660906,-0.20878112,0.9999998,-2.9103833e-10,2.9103834e-11,0.00066861516,5
3152884000,-0.9779075,-0.0029202588,-0.008650973,-0.20883867,0.9999998,-2.9103833e-10,2.9103834e-11,0.00066861516,5
3152936000,-0.97790146,-0.0028965694,-0.008725143,-0.20886432,0.9999998,-2.9103833e-10,2.9103834e-11,0.00066861516,5
3152988000,-0.97791326,-0.00297563,-0.008676036,-0.20880961,0.9999998,-2.9103833e-10,2.9103834e-11,0.00066861516,5
3153044000,-0.97791404,-0.0029823538,-0.008634742,-0.20880818,0.9999998,-2.9103833e-10,2.9103834e-11,0.00066861516,5
3153096000,-0.9779176,-0.002749484,-0.008117653,-0.20881511,0.9999998,-2.9103833e-10,2.9103834e-11,0.00066861516,5
3153148000,-0.9779463,-0.0011332724,-0.00532256,-0.20878604,0.9999998,-2.9103833e-10,2.9103834e-11,0.00066861516,5
3153200000,-0.9779642,0.00030894642,-0.0025937508,-0.20875609,0.9999998,-2.9103833e-10,2.9103834e-11,0.00066861516,5
3153248000,-0.9779745,0.0010015257,-0.0010066242,-0.20871963,0.9999998,-2.9103833e-10,2.9103834e-11,0.00066861516,5
3153304000,-0.9779619,0.0013561995,-9.828859e-05,-0.20877905,0.9999998,-2.9103833e-10,2.9103834e-11,0.00066861516,5
3153352000,-0.9779527,0.0013231141,-0.0001264771,-0.20882227,0.9999998,-2.9103833e-10,2.9103834e-11,0.00066861516,5
3153404000,-0.9779595,0.0013604244,-0.00060550775,-0.20878927,0.9999998,-2.9103833e-10,2.9103834e-11,0.00066861516,5
3153456000,-0.977939,0.00091368216,-0.0012691956,-0.20888533,0.9999998,-2.9103833e-10,2.9103834e-11,0.00066861516,5
3153512000,-0.9779366,0.00021241854,-0.0020892434,-0.20889115,0.9999998,-2.9103833e-10,2.9103834e-11,0.00066861516,5
3153560000,-0.977946,-0.00036127656,-0.0029037513,-0.20883784,0.9999998,-2.9103833e-10,2.9103834e-11,0.00066861516,5
3153616000,-0.9779294,-0.001134611,-0.0035269079,-0.20890297,0.9999998,-2.9103833e-10,2.9103834e-11,0.00066861516,5
3153664000,-0.9779273,-0.0014343943,-0.0038807523,-0.20890445,0.9999998,-2.9103833e-10,2.9103834e-11,0.00066861516,5
3153716000,-0.97792566,-0.0014555242,-0.0040930067,-0.20890841,0.9999998,-2.9103833e-10,2.9103834e-11,0.00066861516,5
3153768000,-0.9779097,-0.0014235115,-0.004193475,-0.20898098,0.9999998,-2.9103833e-10,2.9103834e-11,0.00066861516,5
3153820000,-0.97792035,-0.0012727985,-0.004340831,-0.2089294,0.9999998,-2.9103833e-10,2.9103834e-11,0.00066861516,5
3153872000,-0.97791386,-0.0013429667,-0.0046022553,-0.20895366,0.9999998,-2.9103833e-10,2.9103834e-11,0.00066861516,5
3153924000,-0.97792375,-0.0014139068,-0.004827359,-0.20890182,0.9999998,-2.9103833e-10,2.9103834e-11,0.00066861516,5
3153980000,-0.97794074,-0.0013548293,-0.0048729805,-0.2088214,0.9999998,-2.9103833e-10,2.9103834e-11,0.00066861516,5
3154028000,-0.977942,-0.0012583977,-0.0049022757,-0.20881559,0.9999998,-2.9103833e-10,2.9103834e-11,0.00066861516,5
3154080000,-0.97795343,-0.00134807,-0.004856061,-0.20876248,0.9999998,-2.9103833e-10,2.9103834e-11,0.00066861516,5
3154136000,-0.97793657,-0.0015110496,-0.004660327,-0.20884518,0.9999998,-2.9103833e-10,2.9103834e-11,0.00066861516,5
3154184000,-0.9779283,-0.0016222817,-0.004417456,-0.20888828,0.9999998,-2.9103833e-10,2.9103834e-11,0.00066861516,5
3154236000,-0.97792923,-0.00177213,-0.0042770947,-0.20888536,0.9999998,-2.9103833e-10,2.9103834e-11,0.00066861516,5
3154292000,-0.97793084,-0.0017776103,-0.004176471,-0.20887981,0.9999998,-2.9103833e-10,2.9103834e-11,0.00066861516,5
3154340000,-0.9779253,-0.0017618359,-0.004232969,-0.20890474,0.9999998,-2.9103833e-10,2.9103834e-11,0.00066861516,5
3154392000,-0.9779268,-0.0018436477,-0.004311928,-0.20889543,0.9999998,-2.9103833e-10,2.9103834e-11,0.00066861516,5
3154448000,-0.9779349,-0.0021076608,-0.0045114327,-0.2088507,0.9999998,-2.9103833e-10,2.9103834e-11,0.00066861516,5
3154496000,-0.97793007,-0.0022293567,-0.0045343824,-0.20887177,0.9999998,-2.9103833e-10,2.9103834e-11,0.00066861516,5
3154548000,-0.9779403,-0.0025346442,-0.004558678,-0.20881964,0.9999998,-2.9103833e-10,2.9103834e-11,0.00066861516,5
3154604000,-0.9779314,-0.002607284,-0.0045894315,-0.20885973,0.9999998,-2.9103833e-10,2.9103834e-11,0.00066861516,5
3154656000,-0.9779407,-0.0027576175,-0.004599181,-0.20881437,0.9999998,-2.9103833e-10,2.9103834e-11,0.00066861516,5
3154704000,-0.97792846,-0.0029147908,-0.0044283858,-0.20887305,0.9999998,-2.9103833e-10,2.9103834e-11,0.00066861516,5
3154756000,0.9778431,0.0031023931,0.004167267,0.20927505,-0.9999999,0.0,-8.1490736e-10,-0.00046835846,6
3154808000,0.9778913,0.0032436142,0.0041688564,0.20904669,-0.9999999,0.0,-8.1490736e-10,-0.00046835846,6
3154860000,0.9779361,0.0032838602,0.0042894017,0.20883471,-0.9999999,0.0,-8.1490736e-10,-0.00046835846,6
3154916000,0.97798723,0.0032728584,0.004354097,0.20859338,-0.9999999,0.0,-8.1490736e-10,-0.00046835846,6
3154964000,0.9780293,0.0033505938,0.0044407244,0.20839366,-0.9999999,0.0,-8.1490736e-10,-0.00046835846,6
3155016000,0.9780971,0.0035112149,0.004492071,0.20807086,-0.9999999,0.0,-8.1490736e-10,-0.00046835846,6
3155068000,0.9781519,0.0038526885,0.0043193786,0.20781094,-0.9999999,0.0,-8.1490736e-10,-0.00046835846,6
3155120000,0.9781736,0.004395603,0.004189324,0.20770054,-0.9999999,0.0,-8.1490736e-10,-0.00046835846,6
3155176000,0.97818464,0.004931383,0.0044625564,0.20763117,-0.9999999,0.0,-8.1490736e-10,-0.00046835846,6
3155224000,0.978196,0.0050549475,0.0048013963,0.20756678,-0.9999999,0.0,-8.1490736e-10,-0.00046835846,6
3155276000,0.9782036,0.0049861325,0.0052144756,0.20752269,-0.9999999,0.0,-8.1490736e-10,-0.00046835846,6
3155328000,0.97819346,0.005051154,0.00537,0.20756513,-0.9999999,0.0,-8.1490736e-10,-0.00046835846,6
3155380000,0.97817725,0.0054188366,0.005612114,0.20762613,-0.9999999,0.0,-8.1490736e-10,-0.00046835846,6
3155428000,0.9781643,0.005805946,0.0059944685,0.2076654,-0.9999999,0.0,-8.1490736e-10,-0.00046835846,6
3155488000,0.97815573,0.006061987,0.006215778,0.2076919,-0.9999999,0.0,-8.1490736e-10,-0.00046835846,6
3155536000,0.978118,0.006128592,0.006344339,0.20786397,-0.9999999,0.0,-8.1490736e-10,-0.00046835846,6
3155588000,0.97807455,0.006226102,0.0065689203,0.20805846,-0.9999999,0.0,-8.1490736e-10,-0.00046835846,6
3155644000,0.97804815,0.0060775806,0.006893969,0.20817621,-0.9999999,0.0,-8.1490736e-10,-0.00046835846,6
3155692000,0.97801524,0.0060257292,0.0069774915,0.2083294,-0.9999999,0.0,-8.1490736e-10,-0.00046835846,6
3155744000,0.9779697,0.006016621,0.0070904656,0.20853971,-0.9999999,0.0,-8.1490736e-10,-0.00046835846,6
3155796000,0.9779445,0.005968044,0.0071325703,0.20865801,-0.9999999,0.0,-8.1490736e-10,-0.00046835846,6
3155848000,0.9779364,0.006026515,0.0072464906,0.2086905,-0.9999999,0.0,-8.1490736e-10,-0.00046835846,6
3155900000,0.9779225,0.0061383364,0.0072185374,0.20875315,-0.9999999,0.0,-8.1490736e-10,-0.00046835846,6
3155956000,0.97792333,0.006033705,0.007386127,0.20874606,-0.9999999,0.0,-8.1490736e-10,-0.00046835846,6
3156004000,0.9779082,0.005723041,0.0074729784,0.20882279,-0.9999999,0.0,-8.1490736e-10,-0.00046835846,6
3156056000,0.9779095,0.005411053,0.007658585,0.20881815,-0.9999999,0.0,-8.1490736e-10,-0.00046835846,6
3156108000,0.97791266,0.004974505,0.007819844,0.2088084,-0.9999999,0.0,-8.1490736e-10,-0.00046835846,6
3156160000,0.97791594,0.0048744357,0.0081601795,0.20878233,-0.9999999,0.0,-8.1490736e-10,-0.00046835846,6
3156212000,0.9779129,0.004956975,0.008477115,0.20878221,-0.9999999,0.0,-8.1490736e-10,-0.00046835846,6
3156264000,0.9779043,0.0049110814,0.008649599,0.20881659,-0.9999999,0.0,-8.1490736e-10,-0.00046835846,6
3156316000,0.97790587,0.0049144905,0.008712298,0.20880668,-0.9999999,0.0,-8.1490736e-10,-0.00046835846,6
3156368000,0.9779213,0.0047396664,0.008755237,0.2087361,-0.9999999,0.0,-8.1490736e-10,-0.00046835846,6
3156420000,0.9779504,0.0046830513,0.008886672,0.20859605,-0.9999999,0.0,-8.1490736e-10,-0.00046835846,6
3156472000,0.97797495,0.0045346445,0.008968544,0.20848022,-0.9999999,0.0,-8.1490736e-10,-0.00046835846,6
3156524000,0.97798973,0.0043667844,0.008972639,0.20841426,-0.9999999,0.0,-8.1490736e-10,-0.00046835846,6
3156576000,0.9780047,0.00435121,0.009236945,0.20833279,-0.9999999,0.0,-8.1490736e-10,-0.00046835846,6
3156628000,0.9779949,0.0044690827,0.009392917,0.20836933,-0.9999999,0.0,-8.1490736e-10,-0.00046835846,6
3156680000,0.9780204,0.004455345,0.009409299,0.20824927,-0.9999999,0.0,-8.1490736e-10,-0.00046835846,6
3156732000,0.97800875,0.004317003,0.009355266,0.20830919,-0.9999999,0.0,-8.1490736e-10,-0.00046835846,6
3156784000,0.9780126,0.004176951,0.009451981,0.20828934,-0.9999999,0.0,-8.1490736e-10,-0.00046835846,6
3156840000,0.97800756,0.0040211044,0.009618603,0.20830876,-0.9999999,0.0,-8.1490736e-10,-0.00046835846,6
3156888000,0.97802263,0.004021656,0.009661306,0.20823619,-0.9999999,0.0,-8.1490736e-10,-0.00046835846,6
3156944000,0.97800994,0.0038634338,0.009783191,0.20829323,-0.9999999,0.0,-8.1490736e-10,-0.00046835846,6
3156992000,0.97798795,0.0038129091,0.0098682875,0.20839284,-0.9999999,0.0,-8.1490736e-10,-0.00046835846,6
3157044000,0.9779764,0.0037371484,0.009969583,0.20844418,-0.9999999,0.0,-8.1490736e-10,-0.00046835846,6
3157096000,0.9779638,0.0037003634,0.00995864,0.20850399,-0.9999999,0.0,-8.1490736e-10,-0.00046835846,6
3157148000,0.97795004,0.0037855797,0.009889974,0.20857038,-0.9999999,0.0,-8.1490736e-10,-0.00046835846,6
3157200000,0.9779314,0.0037845504,0.009916954,0.20865679,-0.9999999,0.0,-8.1490736e-10,-0.00046835846,6
3157252000,0.97792524,0.0036956945,0.009757803,0.20869492,-0.9999999,0.0,-8.1490736e-10,-0.00046835846,6
3157304000,0.97792566,0.0034915644,0.009626458,0.20870206,-0.9999999,0.0,-8.1490736e-10,-0.00046835846,6
3157356000,0.9779133,0.0032822723,0.00969581,0.2087601,-0.9999999,0.0,-8.1490736e-10,-0.00046835846,6
3157408000,0.9778948,0.0031081634,0.009814101,0.20884405,-0.9999999,0.0,-8.1490736e-10,-0.00046835846,6
3157460000,0.9778731,0.002990353,0.009965907,0.20894055,-0.9999999,0.0,-8.1490736e-10,-0.00046835846,6
3157516000,0.97786295,0.0028146633,0.009963568,0.20898993,-0.9999999,0.0,-8.1490736e-10,-0.00046835846,6
3157564000,0.9778829,0.0025778774,0.009873735,0.208904,-0.9999999,0.0,-8.1490736e-10,-0.00046835846,6
3157616000,0.9778811,0.0022535068,0.009807091,0.20891975,-0.9999999,0.0,-8.1490736e-10,-0.00046835846,6
3157668000,0.9778692,0.001995317,0.009689532,0.20898351,-0.9999999,0.0,-8.1490736e-10,-0.00046835846,6
3157720000,0.9778736,0.0016687461,0.009698467,0.20896503,-0.9999999,0.0,-8.1490736e-10,-0.00046835846,6
3157776000,0.9778732,0.0012911026,0.0096236635,0.20897341,-0.9999999,0.0,-8.1490736e-10,-0.00046835846,6
3157824000,0.9778768,0.0012295403,0.009580253,0.20895885,-0.9999999,0.0,-8.1490736e-10,-0.00046835846,6
3157876000,0.97787327,0.0012706328,0.009579801,0.2089747,-0.9999999,0.0,-8.1490736e-10,-0.00046835846,6
3157928000,0.97786516,0.0011622817,0.00965021,0.20901035,-0.9999999,0.0,-8.1490736e-10,-0.00046835846,6
3157984000,0.9778594,0.001052062,0.009658301,0.20903781,-0.9999999,0.0,-8.1490736e-10,-0.00046835846,6
3158032000,0.9778663,0.0011196053,0.0097852005,0.20899892,-0.9999999,0.0,-8.1490736e-10,-0.00046835846,6
3158084000,0.97786903,0.0011192829,0.009756628,0.20898758,-0.9999999,0.0,-8.1490736e-10,-0.00046835846,6
3158136000,0.9778946,0.0012697848,0.009960537,0.20885713,-0.9999999,0.0,-8.1490736e-10,-0.00046835846,6
3158188000,0.9778933,0.0012963542,0.010092056,0.2088568,-0.9999999,0.0,-8.1490736e-10,-0.00046835846,6
3158240000,0.9778909,0.0014710086,0.010191258,0.20886236,-0.9999999,0.0,-8.1490736e-10,-0.00046835846,6
3158292000,0.97791153,0.0014246546,0.01014647,0.20876843,-0.9999999,0.0,-8.1490736e-10,-0.00046835846,6
3158344000,0.9779088,0.0013137992,0.010104376,0.20878382,-0.9999999,0.0,-8.1490736e-10,-0.00046835846,6
3158396000,0.97790223,0.0012950611,0.01002298,0.20881848,-0.9999999,0.0,-8.1490736e-10,-0.00046835846,6
3158448000,0.97790855,0.0011789429,0.009768561,0.20880151,-0.9999999,0.0,-8.1490736e-10,-0.00046835846,6
3158500000,0.97791845,0.0011888115,0.009520475,0.20876688,-0.9999999,0.0,-8.1490736e-10,-0.00046835846,6
3158552000,0.9779196,0.0012134094,0.009675154,0.2087543,-0.9999999,0.0,-8.1490736e-10,-0.00046835846,6
3158604000,0.9779211,0.0011817622,0.009784702,0.20874234,-0.9999999,0.0,-8.1490736e-10,-0.00046835846,6
3158656000,0.97791994,0.0013146086,0.009933956,0.20873947,-0.9999999,0.0,-8.1490736e-10,-0.00046835846,6
3158708000,0.97792155,0.0015790964,0.009943864,0.20872973,-0.9999999,0.0,-8.1490736e-10,-0.00046835846,6
3158760000,0.9779182,0.0015945754,0.009915184,0.20874667,-0.9999999,0.0,-8.1490736e-10,-0.00046835846,6
3158812000,0.97790825,0.0015486238,0.009913982,0.2087941,-0.9999999,0.0,-8.1490736e-10,-0.00046835846,6
3158864000,0.9779075,0.0014760777,0.009803186,0.20880291,-0.9999999,0.0,-8.1490736e-10,-0.00046835846,6
3158916000,0.9779029,0.0013422383,0.00975668,0.2088279,-0.9999999,0.0,-8.1490736e-10,-0.00046835846,6
3158968000,0.977919,0.0010923729,0.009521619,0.20876482,-0.9999999,0.0,-8.1490736e-10,-0.00046835846,6
3159020000,0.9779119,0.0010463712,0.009474229,0.20880015,-0.9999999,0.0,-8.1490736e-10,-0.00046835846,6
3159076000,0.97791004,0.00092828745,0.009481385,0.20880954,-0.9999999,0.0,-8.1490736e-10,-0.00046835846,6
3159124000,0.97791517,0.00088774593,0.009293383,0.20879398,-0.9999999,0.0,-8.1490736e-10,-0.00046835846,6
3159176000,0.9779165,0.0009839722,0.009048257,0.20879805,-0.9999999,0.0,-8.1490736e-10,-0.00046835846,6
3159228000,0.9779082,0.001162558,0.008630322,0.20885354,-0.9999999,0.0,-8.1490736e-10,-0.00046835846,6
3159280000,0.97789645,0.0010912194,0.008488691,0.20891462,-0.9999999,0.0,-8.1490736e-10,-0.00046835846,6
3159332000,0.97790116,0.0011405024,0.008595121,0.20888822,-0.9999999,0.0,-8.1490736e-10,-0.00046835846,6
3159384000,0.9779215,0.0010585635,0.008918541,0.20877983,-0.9999999,0.0,-8.1490736e-10,-0.00046835846,6
3159436000,0.9779177,0.0009805654,0.009276166,0.20878267,-0.9999999,0.0,-8.1490736e-10,-0.00046835846,6
3159488000,0.9779251,0.00090775697,0.009264486,0.20874806,-0.9999999,0.0,-8.1490736e-10,-0.00046835846,6
3159540000,0.9779273,0.000631201,0.009290533,0.20873776,-0.9999999,0.0,-8.1490736e-10,-0.00046835846,6
3159592000,0.9779362,0.0005149855,0.009307814,0.20869567,-0.9999999,0.0,-8.1490736e-10,-0.00046835846,6
3159644000,0.9779263,0.00032479354,0.009316333,0.20874219,-0.9999999,0.0,-8.1490736e-10,-0.00046835846,6
3159696000,0.977923,0.00030651983,0.009174263,0.208764,-0.9999999,0.0,-8.1490736e-10,-0.00046835846,6
3159748000,0.97793347,0.00022452933,0.008872914,0.2087278,-0.9999999,0.0,-8.1490736e-10,-0.00046835846,6
3159800000,0.9779414,0.00019937678,0.008582253,0.20870332,-0.9999999,0.0,-8.1490736e-10,-0.00046835846,6
3159852000,0.97793645,0.00015657174,0.008365684,0.20873548,-0.9999999,0.0,-8.1490736e-10,-0.00046835846,6
3159904000,0.97793216,-6.960778e-05,0.0079243425,0.20877242,-0.9999999,0.0,-8.1490736e-10,-0.00046835846,6
3159956000,0.9779226,-0.00029145196,0.0074648303,0.20883413,-0.9999999,0.0,-8.1490736e-10,-0.00046835846,6
3160008000,0.9779398,-0.00024438306,0.006850358,0.20877482,-0.9999999,0.0,-8.1490736e-10,-0.00046835846,6
3160064000,0.9779414,-0.00040535844,0.006330887,0.20878315,-0.9999999,0.0,-8.1490736e-10,-0.00046835846,6
3160112000,0.97793895,-0.0004067415,0.0061115264,0.20880142,-0.9999999,0.0,-8.1490736e-10,-0.00046835846,6
3160164000,0.9779296,-0.0004086018,0.005756726,0.20885517,-0.9999999,0.0,-8.1490736e-10,-0.00046835846,6
3160216000,0.9779319,-0.0001682678,0.00563335,0.20884787,-0.9999999,0.0,-8.1490736e-10,-0.00046835846,6
3160268000,0.9779338,-4.0514733e-05,0.0056453072,0.20883879,-0.9999999,0.0,-8.1490736e-10,-0.00046835846,6
3160320000,0.97792673,9.160164e-05,0.0058464515,0.20886691,-0.9999999,0.0,-8.1490736e-10,-0.00046835846,6
3160372000,0.9779331,8.288969e-05,0.006003448,0.20883203,-0.9999999,0.0,-8.1490736e-10,-0.00046835846,6
3160424000,0.977923,0.00017081348,0.006122895,0.20887583,-0.9999999,0.0,-8.1490736e-10,-0.00046835846,6
3160476000,0.97791785,0.00024238901,0.00620327,0.20889755,-0.9999999,0.0,-8.1490736e-10,-0.00046835846,6
3160528000,0.97791016,0.000432883,0.0062805545,0.20893088,-0.9999999,0.0,-8.1490736e-10,-0.00046835846,6
3160584000,0.9779223,0.0005841857,0.0065764426,0.20886463,-0.9999999,0.0,-8.1490736e-10,-0.00046835846,6
3160632000,0.97791266,0.00071029464,0.007048415,0.20889424,-0.9999999,0.0,-8.1490736e-10,-0.00046835846,6
3160684000,0.9779193,0.0009853735,0.007401991,0.20884992,-0.9999999,0.0,-8.1490736e-10,-0.00046835846,6
3160736000,0.9779222,0.0010526689,0.0075493725,0.20883016,-0.9999999,0.0,-8.1490736e-10,-0.00046835846,6
3160792000,0.97792286,0.0012122404,0.007452506,0.20883006,-0.9999999,0.0,-8.1490736e-10,-0.00046835846,6
3160840000,0.9779229,0.0014465913,0.0075053824,0.20882641,-0.9999999,0.0,-8.1490736e-10,-0.00046835846,6
3160892000,0.9779253,0.0014174926,0.007633835,0.20881093,-0.9999999,0.0,-8.1490736e-10,-0.00046835846,6
3160944000,0.97793233,0.0013356606,0.00772862,0.20877503,-0.9999999,0.0,-8.1490736e-10,-0.00046835846,6
3160996000,0.9779166,0.0010467202,0.007617226,0.2088543,-0.9999999,0.0,-8.1490736e-10,-0.00046835846,6
3161048000,0.97791296,0.0006157938,0.007527034,0.2088763,-0.9999999,0.0,-8.1490736e-10,-0.00046835846,6
3161100000,0.9779209,0.0003879934,0.0076180147,0.20883624,-0.9999999,0.0,-8.1490736e-10,-0.00046835846,6
3161152000,0.97793365,0.0003642093,0.0077231363,0.20877291,-0.9999999,0.0,-8.1490736e-10,-0.00046835846,6
3161204000,0.9779225,0.00043828442,0.007642135,0.20882788,-0.9999999,0.0,-8.1490736e-10,-0.00046835846,6
3161260000,0.97791123,0.00043215638,0.0075519383,0.20888394,-0.9999999,0.0,-8.1490736e-10,-0.00046835846,6
3161308000,0.97790813,0.0006385765,0.0075362553,0.2088985,-0.9999999,0.0,-8.1490736e-10,-0.00046835846,6
3161364000,0.97791463,0.0009382368,0.0076077045,0.20886399,-0.9999999,0.0,-8.1490736e-10,-0.00046835846,6
3161412000,0.97791266,0.0009651901,0.0076746615,0.20887095,-0.9999999,0.0,-8.1490736e-10,-0.00046835846,6
3161464000,0.97790444,0.00095799344,0.0077425013,0.20890687,-0.9999999,0.0,-8.1490736e-10,-0.00046835846,6
3161516000,0.9778986,0.00086119375,0.008050249,0.20892307,-0.9999999,0.0,-8.1490736e-10,-0.00046835846,6
3161568000,0.97788745,0.00077173335,0.008291752,0.20896609,-0.9999999,0.0,-8.1490736e-10,-0.00046835846,6
3161620000,0.9778928,0.0007472015,0.008447018,0.20893484,-0.9999999,0.0,-8.1490736e-10,-0.00046835846,6
3161676000,0.9778935,0.0006837105,0.008457453,0.20893152,-0.9999999,0.0,-8.1490736e-10,-0.00046835846,6
3161724000,0.9778899,0.0006240397,0.008529763,0.2089457,-0.9999999,0.0,-8.1490736e-10,-0.00046835846,6
3161776000,0.9779031,0.00070593535,0.008596244,0.20888053,-0.9999999,0.0,-8.1490736e-10,-0.00046835846,6
3161828000,0.9779032,0.00064441556,0.008527572,0.20888318,-0.9999999,0.0,-8.1490736e-10,-0.00046835846,6
3161880000,0.9778964,0.00075069314,0.008451489,0.20891817,-0.9999999,0.0,-8.1490736e-10,-0.00046835846,6
3161932000,0.9779014,0.0009784385,0.008442606,0.20889372,-0.9999999,0.0,-8.1490736e-10,-0.00046835846,6
3161984000,0.9779159,0.0010559827,0.008641174,0.20881754,-0.9999999,0.0,-8.1490736e-10,-0.00046835846,6
3162036000,0.97790986,0.0010664706,0.008742386,0.20884189,-0.9999999,0.0,-8.1490736e-10,-0.00046835846,6
3162088000,0.97790045,0.0011376741,0.008642474,0.2088893,-0.9999999,0.0,-8.1490736e-10,-0.00046835846,6
3162140000,0.9779008,0.0011134364,0.008500959,0.20889403,-0.9999999,0.0,-8.1490736e-10,-0.00046835846,6
3162196000,0.9779016,0.0010286452,0.00823833,0.20890081,-0.9999999,0.0,-8.1490736e-10,-0.00046835846,6
3162244000,0.9779178,0.0010528394,0.008128179,0.20882899,-0.9999999,0.0,-8.1490736e-10,-0.00046835846,6
3162296000,0.9779237,0.0012938838,0.00810411,0.20880151,-0.9999999,0.0,-8.1490736e-10,-0.00046835846,6
3162348000,0.9779164,0.001470231,0.008218942,0.20883009,-0.9999999,0.0,-8.1490736e-10,-0.00046835846,6
3162400000,0.97792274,0.0017598982,0.008293232,0.20879509,-0.9999999,0.0,-8.1490736e-10,-0.00046835846,6
3162452000,0.9779234,0.0019675542,0.008348106,0.20878765,-0.9999999,0.0,-8.1490736e-10,-0.00046835846,6
3162504000,0.97790986,0.002229599,0.00846029,0.20884426,-0.9999999,0.0,-8.1490736e-10,-0.00046835846,6
3162556000,0.97790414,0.0023513325,0.008571698,0.2088652,-0.9999999,0.0,-8.1490736e-10,-0.00046835846,6
3162608000,0.97790885,0.0025714466,0.008493093,0.20884366,-0.9999999,0.0,-8.1490736e-10,-0.00046835846,6
3162660000,0.9779014,0.00276299,0.008534077,0.20887452,-0.9999999,0.0,-8.1490736e-10,-0.00046835846,6
3162712000,0.9779274,0.0030333688,0.008478441,0.20875114,-0.9999999,0.0,-8.1490736e-10,-0.00046835846,6
3162772000,0.9779315,0.0031539034,0.008510887,0.20872894,-0.9999999,0.0,-8.1490736e-10,-0.00046835846,6
3162820000,0.9779206,0.0032859687,0.008438808,0.20878084,-0.9999999,0.0,-8.1490736e-10,-0.00046835846,6
3162876000,0.9779217,0.0034602284,0.008419407,0.20877364,-0.9999999,0.0,-8.1490736e-10,-0.00046835846,6
3162924000,0.97793186,0.003406671,0.008355226,0.20872952,-0.9999999,0.0,-8.1490736e-10,-0.00046835846,6
3162976000,0.97792447,0.0033660668,0.008315493,0.20876652,-0.9999999,0.0,-8.1490736e-10,-0.00046835846,6
3163028000,0.97792697,0.0034838133,0.0083628185,0.20875047,-0.9999999,0.0,-8.1490736e-10,-0.00046835846,6
3163084000,0.97792166,0.0036298942,0.008255982,0.2087773,-0.9999999,0.0,-8.1490736e-10,-0.00046835846,6
3163136000,0.9779253,0.0037388054,0.007955881,0.20877002,-0.9999999,0.0,-8.1490736e-10,-0.00046835846,6
3163184000,0.9779223,0.0037485731,0.007787111,0.20879042,-0.9999999,0.0,-8.1490736e-10,-0.00046835846,6
3163236000,0.9779392,0.003770108,0.0075382674,0.20871998,-0.9999999,0.0,-8.1490736e-10,-0.00046835846,6
3163292000,0.9779274,0.0036136678,0.007444185,0.20878139,-0.9999999,0.0,-8.1490736e-10,-0.00046835846,6
3163340000,0.9779227,0.0034697554,0.0076792096,0.20879717,-0.9999999,0.0,-8.1490736e-10,-0.00046835846,6
3163392000,0.9779054,0.0034204638,0.008100421,0.20886306,-0.9999999,0.0,-8.1490736e-10,-0.00046835846,6
3163448000,0.97791034,0.0033556654,0.00841801,0.20882839,-0.9999999,0.0,-8.1490736e-10,-0.00046835846,6
3163496000,0.9778948,0.0034892715,0.008668127,0.20888907,-0.9999999,0.0,-8.1490736e-10,-0.00046835846,6
3163548000,0.97790533,0.0037240589,0.008975536,0.2088223,-0.9999999,0.0,-8.1490736e-10,-0.00046835846,6
3163600000,0.9779019,0.0039637154,0.009220738,0.2088234,-0.9999999,0.0,-8.1490736e-10,-0.00046835846,6
3163652000,0.97790354,0.004103453,0.009134907,0.20881668,-0.9999999,0.0,-8.1490736e-10,-0.00046835846,6
3163704000,0.9779162,0.004210486,0.009130971,0.20875566,-0.9999999,0.0,-8.1490736e-10,-0.00046835846,6
3163756000,0.97792125,0.0044123717,0.0091712,0.20872596,-0.9999999,0.0,-8.1490736e-10,-0.00046835846,6
3163808000,0.9779121,0.0046252087,0.009057388,0.2087688,-0.9999999,0.0,-8.1490736e-10,-0.00046835846,6
3163864000,0.97791296,0.004843279,0.0090487385,0.20876051,-0.9999999,0.0,-8.1490736e-10,-0.00046835846,6
3163916000,0.9779004,0.004786865,0.008986695,0.20882328,-0.9999999,0.0,-8.1490736e-10,-0.00046835846,6
3163964000,0.97790277,0.0045962185,0.008999162,0.20881583,-0.9999999,0.0,-8.1490736e-10,-0.00046835846,6
3164016000,0.9779017,0.004296679,0.009067742,0.20882446,-0.9999999,0.0,-8.1490736e-10,-0.00046835846,6
3164068000,0.97789526,0.00411617,0.009157758,0.20885399,-0.9999999,0.0,-8.1490736e-10,-0.00046835846,6
3164120000,0.9779029,0.0040419996,0.009173462,0.2088194,-0.9999999,0.0,-8.1490736e-10,-0.00046835846,6
3164172000,0.9779193,0.004190897,0.0090796305,0.20874369,-0.9999999,0.0,-8.1490736e-10,-0.00046835846,6
3164224000,0.9779256,0.0043306695,0.009039919,0.20871279,-0.9999999,0.0,-8.1490736e-10,-0.00046835846,6
3164280000,0.97792876,0.0044601196,0.009141591,0.20869085,-0.9999999,0.0,-8.1490736e-10,-0.00046835846,6
3164332000,0.9779212,0.0047210963,0.009710491,0.20869492,-0.9999999,0.0,-8.1490736e-10,-0.00046835846,6
3164380000,0.97791386,0.005237587,0.010364324,0.20868567,-0.9999999,0.0,-8.1490736e-10,-0.00046835846,6
3164432000,0.97789794,0.00548432,0.010783016,0.2087324,-0.9999999,0.0,-8.1490736e-10,-0.00046835846,6
3164484000,0.97789,0.00553307,0.011002656,0.2087568,-0.9999999,0.0,-8.1490736e-10,-0.00046835846,6
3164536000,0.97789896,0.0052438304,0.01111695,0.20871648,-0.9999999,0.0,-8.1490736e-10,-0.00046835846,6
3164592000,0.9778999,0.004839878,0.011027054,0.20872678,-0.9999999,0.0,-8.1490736e-10,-0.00046835846,6
3164640000,0.9779068,0.004422328,0.010826109,0.20871416,-0.9999999,0.0,-8.1490736e-10,-0.00046835846,6
3164692000,0.9779072,0.004224987,0.010415634,0.20873748,-0.9999999,0.0,-8.1490736e-10,-0.00046835846,6
3164744000,0.9779089,0.004204207,0.010111008,0.20874459,-0.9999999,0.0,-8.1490736e-10,-0.00046835846,6
3164796000,0.9778987,0.004070541,0.009949059,0.20880304,-0.9999999,0.0,-8.1490736e-10,-0.00046835846,6
3164848000,0.9779014,0.003866862,0.009876071,0.20879748,-0.9999999,0.0,-8.1490736e-10,-0.00046835846,6
3164900000,0.977906,0.0037500728,0.009609217,0.20879088,-0.9999999,0.0,-8.1490736e-10,-0.00046835846,6
3164952000,0.97791505,0.003684437,0.009614122,0.20874919,-0.9999999,0.0,-8.1490736e-10,-0.00046835846,6
3165004000,0.97792214,0.003655917,0.009719858,0.2087115,-0.9999999,0.0,-8.1490736e-10,-0.00046835846,6
3165056000,0.9779133,0.0040779514,0.009872353,0.20873797,-0.9999999,0.0,-8.1490736e-10,-0.00046835846,6
3165108000,0.9779187,0.004330963,0.010173188,0.20869344,-0.9999999,0.0,-8.1490736e-10,-0.00046835846,6
3165164000,0.9779304,0.0045068283,0.009800219,0.20865254,-0.9999999,0.0,-8.1490736e-10,-0.00046835846,6
3165216000,0.97791415,0.0046162778,0.0093517,0.20874691,-0.9999999,0.0,-8.1490736e-10,-0.00046835846,6
3165264000,0.9779103,0.0045611844,0.009140821,0.2087756,-0.9999999,0.0,-8.1490736e-10,-0.00046835846,6
3165316000,0.97791225,0.0045155366,0.008943043,0.2087757,-0.9999999,0.0,-8.1490736e-10,-0.00046835846,6
3165372000,0.97790825,0.004469382,0.009044787,0.2087913,-0.9999999,0.0,-8.1490736e-10,-0.00046835846,6
3165420000,0.97789854,0.004505875,0.009295383,0.20882489,-0.9999999,0.0,-8.1490736e-10,-0.00046835846,6
3165472000,0.97790486,0.004505664,0.009434541,0.20878918,-0.9999999,0.0,-8.1490736e-10,-0.00046835846,6
3165524000,0.97790223,0.004609598,0.00937451,0.20880182,-0.9999999,0.0,-8.1490736e-10,-0.00046835846,6
3165580000,0.9779023,0.0046186196,0.009219375,0.20880821,-0.9999999,0.0,-8.1490736e-10,-0.00046835846,6
3165628000,0.97791266,0.004566506,0.009041991,0.20876846,-0.9999999,0.0,-8.1490736e-10,-0.00046835846,6
3165680000,0.9779038,0.00456522,0.008955319,0.20881376,-0.9999999,0.0,-8.1490736e-10,-0.00046835846,6
3165732000,0.9779149,0.004450193,0.008794443,0.20877096,-0.9999999,0.0,-8.1490736e-10,-0.00046835846,6
3165784000,0.9779072,0.0043359073,0.00881139,0.20880902,-0.9999999,0.0,-8.1490736e-10,-0.00046835846,6
3165836000,0.977905,0.0040959,0.008988239,0.20881689,-0.9999999,0.0,-8.1490736e-10,-0.00046835846,6
3165888000,0.97789806,0.0039332644,0.009189056,0.20884311,-0.9999999,0.0,-8.1490736e-10,-0.00046835846,6
3165944000,0.97789323,0.0037682944,0.009187456,0.20886895,-0.9999999,0.0,-8.1490736e-10,-0.00046835846,6
3165996000,0.9779172,0.0035121357,0.009182125,0.20876138,-0.9999999,0.0,-8.1490736e-10,-0.00046835846,6
3166044000,0.9779347,0.0035124144,0.009028074,0.20868647,-0.9999999,0.0,-8.1490736e-10,-0.00046835846,6
3166096000,0.97792774,0.0038459762,0.008945125,0.20871688,-0.9999999,0.0,-8.1490736e-10,-0.00046835846,6
3166148000,0.97790813,0.004004469,0.008861304,0.20880908,-0.9999999,0.0,-8.1490736e-10,-0.00046835846,6
3166200000,0.977902,0.003993451,0.008681069,0.2088453,-0.9999999,0.0,-8.1490736e-10,-0.00046835846,6
3166252000,0.97791374,0.0038915735,0.008622536,0.20879523,-0.9999999,0.0,-8.1490736e-10,-0.00046835846,6
3166308000,0.9779309,0.0038375147,0.00849601,0.20872052,-0.9999999,0.0,-8.1490736e-10,-0.00046835846,6
3166356000,0.9779219,0.003851429,0.0082761645,0.20877121,-0.9999999,0.0,-8.1490736e-10,-0.00046835846,6
3166408000,0.9779245,0.0036669238,0.008105956,0.20876904,-0.9999999,0.0,-8.1490736e-10,-0.00046835846,6
3166460000,0.9779149,0.0034730274,0.0081364475,0.20881616,-0.9999999,0.0,-8.1490736e-10,-0.00046835846,6
3166512000,0.9778994,0.0033191417,0.008326996,0.20888413,-0.9999999,0.0,-8.1490736e-10,-0.00046835846,6
3166564000,0.97790515,0.0031285028,0.00844147,0.2088553,-0.9999999,0.0,-8.1490736e-10,-0.00046835846,6
3166616000,0.9779052,0.0029568255,0.008421451,0.20885812,-0.9999999,0.0,-8.1490736e-10,-0.00046835846,6
3166668000,0.9778968,0.0028889033,0.008617279,0.2088908,-0.9999999,0.0,-8.1490736e-10,-0.00046835846,6
3166720000,0.9778946,0.0026847548,0.008697652,0.20890054,-0.9999999,0.0,-8.1490736e-10,-0.00046835846,6
3166772000,0.97792095,0.0023922892,0.008720199,0.20877972,-0.9999999,0.0,-8.1490736e-10,-0.00046835846,6
3166824000,0.977917,0.0021198194,0.008775687,0.20879853,-0.9999999,0.0,-8.1490736e-10,-0.00046835846,6
3166876000,0.9779103,0.0021277373,0.008708375,0.20883274,-0.9999999,0.0,-8.1490736e-10,-0.00046835846,6
3166928000,0.9779092,0.0020699257,0.008618525,0.20884259,-0.9999999,0.0,-8.1490736e-10,-0.00046835846,6
3166980000,0.9779058,0.0021529798,0.0084962,0.20886253,-0.9999999,0.0,-8.1490736e-10,-0.00046835846,6
3167032000,0.9779053,0.0023393747,0.00845989,0.2088646,-0.9999999,0.0,-8.1490736e-10,-0.00046835846,6
3167084000,0.9779075,0.0026405754,0.008355265,0.20885494,-0.9999999,0.0,-8.1490736e-10,-0.00046835846,6
3167136000,0.97789806,0.0027508948,0.008251332,0.20890161,-0.9999999,0.0,-8.1490736e-10,-0.00046835846,6
3167188000,0.97790706,0.00271863,0.008260245,0.20885964,-0.9999999,0.0,-8.1490736e-10,-0.00046835846,6
3167240000,0.9779032,0.0026181766,0.008249913,0.20887889,-0.9999999,0.0,-8.1490736e-10,-0.00046835846,6
3167292000,0.97791004,0.0024885023,0.008183179,0.20885123,-0.9999999,0.0,-8.1490736e-10,-0.00046835846,6
3167348000,0.97790617,0.0022751861,0.0080728745,0.20887627,-0.9999999,0.0,-8.1490736e-10,-0.00046835846,6
3167396000,0.9779178,0.0021129833,0.007956296,0.20882769,-0.9999999,0.0,-8.1490736e-10,-0.00046835846,6
3167448000,0.97791415,0.0021418657,0.007800131,0.20885016,-0.9999999,0.0,-8.1490736e-10,-0.00046835846,6
3167500000,0.9779173,0.0021985837,0.007785696,0.20883577,-0.9999999,0.0,-8.1490736e-10,-0.00046835846,6
3167552000,0.9779127,0.0022956145,0.0078108455,0.20885499,-0.9999999,0.0,-8.1490736e-10,-0.00046835846,6
3167604000,0.9779135,0.0022172483,0.007820729,0.20885246,-0.9999999,0.0,-8.1490736e-10,-0.00046835846,6
3167656000,0.9779113,0.00196,0.0077144234,0.2088693,-0.9999999,0.0,-8.1490736e-10,-0.00046835846,6
3167708000,0.977924,0.0016928734,0.0076281675,0.20881508,-0.9999999,0.0,-8.1490736e-10,-0.00046835846,6
3167760000,0.9779142,0.0015281884,0.0073110606,0.20887361,-0.9999999,0.0,-8.1490736e-10,-0.00046835846,6
3167812000,0.9779041,0.0014344844,0.007327248,0.20892066,-0.9999999,0.0,-8.1490736e-10,-0.00046835846,6
3167864000,0.9779057,0.0016002409,0.007252013,0.20891465,-0.9999999,0.0,-8.1490736e-10,-0.00046835846,6
3167916000,0.9779037,0.0017047089,0.0071832207,0.20892547,-0.9999999,0.0,-8.1490736e-10,-0.00046835846,6
3167968000,0.9779216,0.0018180009,0.006986999,0.20884755,-0.9999999,0.0,-8.1490736e-10,-0.00046835846,6
3168020000,0.9779215,0.0018589104,0.0069286264,0.20884988,-0.9999999,0.0,-8.1490736e-10,-0.00046835846,6
3168072000,0.9779106,0.0018775997,0.006921276,0.20890082,-0.9999999,0.0,-8.1490736e-10,-0.00046835846,6
3168124000,0.97793543,0.0017363055,0.0067432555,0.20879103,-0.9999999,0.0,-8.1490736e-10,-0.00046835846,6
3168176000,0.97793096,0.0016275701,0.006609469,0.20881766,-0.9999999,0.0,-8.1490736e-10,-0.00046835846,6
3168228000,0.9779248,0.0014642762,0.0067647295,0.20884265,-0.9999999,0.0,-8.1490736e-10,-0.00046835846,6
3168280000,0.977918,0.0014706873,0.0069093886,0.20886931,-0.9999999,0.0,-8.1490736e-10,-0.00046835846,6
3168332000,0.9779077,0.0014099141,0.0069209277,0.20891783,-0.9999999,0.0,-8.1490736e-10,-0.00046835846,6
3168384000,0.9779207,0.001238413,0.006968856,0.20885661,-0.9999999,0.0,-8.1490736e-10,-0.00046835846,6
3168436000,0.9779131,0.0011967439,0.006918777,0.20889448,-0.9999999,0.0,-8.1490736e-10,-0.00046835846,6
3168488000,0.97791135,0.0012480034,0.006881863,0.20890331,-0.9999999,0.0,-8.1490736e-10,-0.00046835846,6
3168540000,0.97791225,0.0013029515,0.0069716233,0.20889595,-0.9999999,0.0,-8.1490736e-10,-0.00046835846,6
3168592000,0.9779224,0.0014069221,0.0073987735,0.20883302,-0.9999999,0.0,-8.1490736e-10,-0.00046835846,6
3168644000,0.9779341,0.0013156773,0.00750198,0.20877492,-0.9999999,0.0,-8.1490736e-10,-0.00046835846,6
3168700000,0.97791797,0.001237052,0.007778214,0.20884089,-0.9999999,0.0,-8.1490736e-10,-0.00046835846,6
3168748000,0.977915,0.001172469,0.007872019,0.20885147,-0.9999999,0.0,-8.1490736e-10,-0.00046835846,6
3168800000,0.977908,0.0013100553,0.0077859615,0.2088868,-0.9999999,0.0,-8.1490736e-10,-0.00046835846,6
3168852000,0.977913,0.0014743431,0.0075731757,0.20886998,-0.9999999,0.0,-8.1490736e-10,-0.00046835846,6
3168908000,0.977923,0.0016201858,0.0075229183,0.2088244,-0.9999999,0.0,-8.1490736e-10,-0.00046835846,6
3168960000,0.97792614,0.0014949215,0.007466644,0.20881225,-0.9999999,0.0,-8.1490736e-10,-0.00046835846,6
3169008000,0.9779273,0.0013359664,0.007559206,0.20880423,-0.9999999,0.0,-8.1490736e-10,-0.00046835846,6
3169060000,0.9779208,0.0012062333,0.007690298,0.208831,-0.9999999,0.0,-8.1490736e-10,-0.00046835846,6
3169112000,0.9779215,0.001274446,0.007725658,0.20882607,-0.9999999,0.0,-8.1490736e-10,-0.00046835846,6
3169164000,0.9779323,0.0012070121,0.007720463,0.20877643,-0.9999999,0.0,-8.1490736e-10,-0.00046835846,6
3169216000,0.9779263,0.001282047,0.0077707465,0.20880145,-0.9999999,0.0,-8.1490736e-10,-0.00046835846,6
3169268000,0.9779335,0.001344298,0.007814937,0.20876576,-0.9999999,0.0,-8.1490736e-10,-0.00046835846,6
3169320000,0.97792596,0.0012192415,0.0077603725,0.20880431,-0.9999999,0.0,-8.1490736e-10,-0.00046835846,6
3169372000,0.9779267,0.0011415934,0.007706232,0.2088035,-0.9999999,0.0,-8.1490736e-10,-0.00046835846,6
3169424000,0.9779193,0.0010559937,0.007656577,0.2088402,-0.9999999,0.0,-8.1490736e-10,-0.00046835846,6
3169476000,0.97792685,0.0011123087,0.0076163723,0.20880584,-0.9999999,0.0,-8.1490736e-10,-0.00046835846,6
3169528000,0.9779193,0.0009824628,0.0075815055,0.2088431,-0.9999999,0.0,-8.1490736e-10,-0.00046835846,6
3169580000,0.97791904,0.00076078845,0.00773292,0.20883992,-0.9999999,0.0,-8.1490736e-10,-0.00046835846,6
3169632000,0.9779039,0.00063313544,0.007970031,0.20890191,-0.9999999,0.0,-8.1490736e-10,-0.00046835846,6
3169684000,0.9779033,0.00055281044,0.008262504,0.20889392,-0.9999999,0.0,-8.1490736e-10,-0.00046835846,6
3169736000,0.97791684,0.00036919658,0.008197989,0.20883329,-0.9999999,0.0,-8.1490736e-10,-0.00046835846,6
3169788000,0.97794145,0.00032698282,0.008063847,0.2087234,-0.9999999,0.0,-8.1490736e-10,-0.00046835846,6
3169844000,0.9779335,0.00044914524,0.008026952,0.20876177,-0.9999999,0.0,-8.1490736e-10,-0.00046835846,6
3169892000,0.9779362,0.0006083892,0.00812217,0.20874499,-0.9999999,0.0,-8.1490736e-10,-0.00046835846,6
3169944000,0.97793585,0.0007203038,0.00823558,0.20874202,-0.9999999,0.0,-8.1490736e-10,-0.00046835846,6
3169996000,0.9779325,0.00065585534,0.008216149,0.20875835,-0.9999999,0.0,-8.1490736e-10,-0.00046835846,6
3170048000,0.9779219,0.0006504884,0.008076483,0.20881401,-0.9999999,0.0,-8.1490736e-10,-0.00046835846,6
3170100000,0.9779121,0.000581282,0.007950016,0.2088647,-0.9999999,0.0,-8.1490736e-10,-0.00046835846,6
3170152000,0.9779168,0.0006009138,0.007722658,0.2088509,-0.9999999,0.0,-8.1490736e-10,-0.00046835846,6
3170208000,0.97791433,0.00063214713,0.0075383647,0.20886926,-0.9999999,0.0,-8.1490736e-10,-0.00046835846,6
3170256000,0.9779297,0.0005210409,0.007516734,0.2087985,-0.9999999,0.0,-8.1490736e-10,-0.00046835846,6
3170308000,0.97792166,0.00033753045,0.0075900843,0.20883384,-0.9999999,0.0,-8.1490736e-10,-0.00046835846,6
3170364000,0.97791976,0.0003233616,0.007591206,0.20884255,-0.9999999,0.0,-8.1490736e-10,-0.00046835846,6
3170412000,0.9779255,0.0003703185,0.0075142435,0.20881854,-0.9999999,0.0,-8.1490736e-10,-0.00046835846,6
3170464000,0.9779389,0.00029904707,0.007527259,0.20875527,-0.9999999,0.0,-8.1490736e-10,-0.00046835846,6
3170516000,0.9779338,0.000107130625,0.007695556,0.20877318,-0.9999999,0.0,-8.1490736e-10,-0.00046835846,6
3170568000,0.97792494,-0.00012349123,0.008006003,0.2088034,-0.9999999,0.0,-8.1490736e-10,-0.00046835846,6
3170620000,0.97790956,-0.00032625665,0.008206062,0.20886694,-0.9999999,0.0,-8.1490736e-10,-0.00046835846,6
3170672000,0.97791106,-0.00025655824,0.008260823,0.20885813,-0.9999999,0.0,-8.1490736e-10,-0.00046835846,6
3170724000,0.97791487,-0.00019163916,0.008377301,0.20883568,-0.9999999,0.0,-8.1490736e-10,-0.00046835846,6
3170780000,0.9779208,-0.00013269814,0.008543555,0.20880137,-0.9999999,0.0,-8.1490736e-10,-0.00046835846,6
3170828000,0.97791636,-6.84754e-05,0.008647308,0.20881793,-0.9999999,0.0,-8.1490736e-10,-0.00046835846,6
3170880000,0.9779163,-4.4331755e-05,0.0085454015,0.2088223,-0.9999999,0.0,-8.1490736e-10,-0.00046835846,6
3170932000,0.9779145,-0.00018527897,0.0085139675,0.20883167,-0.9999999,0.0,-8.1490736e-10,-0.00046835846,6
3170984000,0.9779037,-0.00027278502,0.008426924,0.20888606,-0.9999999,0.0,-8.1490736e-10,-0.00046835846,6
3171036000,0.9779021,-0.00017905605,0.008390033,0.20889476,-0.9999999,0.0,-8.1490736e-10,-0.00046835846,6
3171088000,0.9779099,-0.00021120741,0.008374002,0.2088591,-0.9999999,0.0,-8.1490736e-10,-0.00046835846,6
3171140000,0.97792614,-0.00017684595,0.008194919,0.20879024,-0.9999999,0.0,-8.1490736e-10,-0.00046835846,6
3171192000,0.9779255,-0.00015597799,0.008114808,0.20879662,-0.9999999,0.0,-8.1490736e-10,-0.00046835846,6
3171248000,0.97793233,-0.00021534464,0.00811272,0.20876457,-0.9999999,0.0,-8.1490736e-10,-0.00046835846,6
3171300000,0.97792274,-0.00037700144,0.008055573,0.20881154,-0.9999999,0.0,-8.1490736e-10,-0.00046835846,6
3171352000,0.97792023,-0.0005413983,0.007967816,0.20882621,-0.9999999,0.0,-8.1490736e-10,-0.00046835846,6
3171400000,0.9779199,-0.0007185188,0.007814895,0.20883271,-0.9999999,0.0,-8.1490736e-10,-0.00046835846,6
3171456000,0.97792,-0.00083022274,0.0077947904,0.20883277,-0.9999999,0.0,-8.1490736e-10,-0.00046835846,6
3171504000,0.97791576,-0.0010626693,0.0076240525,0.208858,-0.9999999,0.0,-8.1490736e-10,-0.00046835846,6
3171556000,0.97791207,-0.0010870269,0.00736501,0.2088845,-0.9999999,0.0,-8.1490736e-10,-0.00046835846,6
3171608000,0.97790754,-0.00092357706,0.0072374637,0.20891069,-0.9999999,0.0,-8.1490736e-10,-0.00046835846,6
3171660000,0.9779202,-0.00070623466,0.0069993166,0.20886068,-0.9999999,0.0,-8.1490736e-10,-0.00046835846,6
3171712000,0.9779483,-0.0007142349,0.006752393,0.20873687,-0.9999999,0.0,-8.1490736e-10,-0.00046835846,6
3171764000,0.97794163,-0.0006364317,0.006740046,0.20876898,-0.9999999,0.0,-8.1490736e-10,-0.00046835846,6
3171816000,0.9779301,-0.00065513025,0.0065463292,0.20882887,-0.9999999,0.0,-8.1490736e-10,-0.00046835846,6
3171868000,0.97793114,-0.00013952776,0.0059578754,0.20884228,-0.9999999,0.0,-8.1490736e-10,-0.00046835846,6
3171920000,0.9779424,0.0014388302,0.004370629,0.2088243,-0.9999999,0.0,-8.1490736e-10,-0.00046835846,6
3171972000,0.97795844,0.0031155085,0.0024881123,0.20876168,-0.9999999,0.0,-8.1490736e-10,-0.00046835846,6
3172024000,0.9780732,0.004068861,0.0015042275,0.20821644,-0.9999999,0.0,-8.1490736e-10,-0.00046835846,6
3172076000,0.9784651,0.003014576,0.0029544127,0.20636949,-0.9999999,0.0,-8.1490736e-10,-0.00046835846,6
3172128000,0.9792181,-0.0006476598,0.008039465,0.20264989,-0.9999999,0.0,-8.1490736e-10,-0.00046835846,6
3172180000,0.9801369,-0.00688285,0.017375011,0.19744019,-0.9999999,0.0,-8.1490736e-10,-0.00046835846,6
3172232000,0.9811264,-0.017035084,0.033003353,0.1897674,-0.9999999,0.0,-8.1490736e-10,-0.00046835846,6
3172284000,0.9816664,-0.030809475,0.05378221,0.18024817,-0.9999999,0.0,-8.1490736e-10,-0.00046835846,6
3172336000,0.98126304,-0.048494525,0.07804639,0.16935152,-0.9999999,0.0,-8.1490736e-10,-0.00046835846,6
3172388000,0.9795352,-0.07016886,0.1038831,0.15746614,-0.9999999,0.0,-8.1490736e-10,-0.00046835846,6
3172440000,0.97656417,-0.09412053,0.12847026,0.14477329,-0.9999999,0.0,-8.1490736e-10,-0.00046835846,6
3172492000,0.97316515,-0.116586655,0.14854068,0.13150255,-0.9999999,0.0,-8.1490736e-10,-0.00046835846,6
3172544000,0.970338,-0.13523108,0.16217828,0.11770715,-0.9999999,0.0,-8.1490736e-10,-0.00046835846,6
3172596000,0.9688285,-0.14866728,0.16906711,0.103371724,-0.9999999,0.0,-8.1490736e-10,-0.00046835846,6
3172648000,0.96855766,-0.15782425,0.17087947,0.08824935,-0.9999999,0.0,-8.1490736e-10,-0.00046835846,6
3172700000,0.96924794,-0.16347949,0.16916727,0.07221823,-0.9999999,0.0,-8.1490736e-10,-0.00046835846,6
3172752000,0.97068274,-0.16619803,0.16456443,0.05542334,-0.9999999,0.0,-8.1490736e-10,-0.00046835846,6
3172804000,0.9721825,-0.16768041,0.15912196,0.03774603,-0.9999999,0.0,-8.1490736e-10,-0.00046835846,6
3172856000,0.9729471,-0.1701902,0.15499043,0.019677492,-0.9999999,0.0,-8.1490736e-10,-0.00046835846,6
3172908000,0.972681,-0.17485425,0.1526981,0.0010336322,-0.9999999,0.0,-8.1490736e-10,-0.00046835846,6
3172964000,0.97131777,-0.18195207,0.15185328,-0.019390058,-0.9999999,0.0,-8.1490736e-10,-0.00046835846,6
3173012000,0.9694855,-0.18895254,0.15170267,-0.037162613,-0.9999999,0.0,-8.1490736e-10,-0.00046835846,6
3173064000,0.9671391,-0.19628425,0.15134965,-0.056637526,-0.9999999,0.0,-8.1490736e-10,-0.00046835846,6
3173116000,0.964378,-0.20361471,0.15060717,-0.076377444,-0.9999999,0.0,-8.1490736e-10,-0.00046835846,6
3173168000,0.9612477,-0.21074182,0.14933942,-0.09637769,-0.9999999,0.0,-8.1490736e-10,-0.00046835846,6
3173220000,0.957798,-0.21748635,0.14743371,-0.11655924,-0.9999999,0.0,-8.1490736e-10,-0.00046835846,6
3173272000,0.9538952,-0.22412358,0.14517756,-0.13702582,-0.9999999,0.0,-8.1490736e-10,-0.00046835846,6
3173328000,0.9491724,-0.23122442,0.1423219,-0.15922189,-0.9999999,0.0,-8.1490736e-10,-0.00046835846,6
3173376000,0.9446444,-0.23734628,0.13955405,-0.17843321,-0.9999999,0.0,-8.1490736e-10,-0.00046835846,6
3173428000,0.9392059,-0.24412887,0.1361171,-0.1994131,-0.9999999,0.0,-8.1490736e-10,-0.00046835846,6
3173480000,0.9331851,-0.25098318,0.13245787,-0.22051723,-0.9999999,0.0,-8.1490736e-10,-0.00046835846,6
3173532000,0.92651385,-0.25788543,0.12857382,-0.2419421,-0.9999999,0.0,-8.1490736e-10,-0.00046835846,6
3173584000,0.9192572,-0.26465198,0.12440124,-0.26353335,-0.9999999,0.0,-8.1490736e-10,-0.00046835846,6
3173636000,0.9114148,-0.27102536,0.120139465,-0.28536788,-0.9999999,0.0,-8.1490736e-10,-0.00046835846,6
3173688000,0.9031759,-0.27642927,0.11583344,-0.3073158,-0.9999999,0.0,-8.1490736e-10,-0.00046835846,6
3173740000,0.89470494,-0.28039122,0.111321405,-0.3293806,-0.9999999,0.0,-8.1490736e-10,-0.00046835846,6
3173792000,0.8860517,-0.2832035,0.10640683,-0.35126334,-0.9999999,0.0,-8.1490736e-10,-0.00046835846,6
3173844000,0.87722045,-0.28473884,0.100844614,-0.3731468,-0.9999999,0.0,-8.1490736e-10,-0.00046835846,6
3173900000,0.8676526,-0.28478834,0.09379457,-0.39658186,-0.9999999,0.0,-8.1490736e-10,-0.00046835846,6
3173948000,0.8593711,-0.2837478,0.08718215,-0.41637453,-0.9999999,0.0,-8.1490736e-10,-0.00046835846,6
3174000000,0.8502278,-0.28183234,0.07952186,-0.4374466,-0.9999999,0.0,-8.1490736e-10,-0.00046835846,6
3174052000,0.84104705,-0.2785094,0.07152438,-0.45821038,-0.9999999,0.0,-8.1490736e-10,-0.00046835846,6
3174104000,0.83174545,-0.27423668,0.063469745,-0.47850305,-0.9999999,0.0,-8.1490736e-10,-0.00046835846,6
3174156000,0.8221982,-0.26945662,0.05521421,-0.49833184,-0.9999999,0.0,-8.1490736e-10,-0.00046835846,6
3174208000,0.81229115,-0.2647925,0.046915695,-0.51755863,-0.9999999,0.0,-8.1490736e-10,-0.00046835846,6
3174264000,0.8009347,-0.26089385,0.038471363,-0.5375481,-0.9999999,0.0,-8.1490736e-10,-0.00046835846,6
3174312000,0.7905609,-0.25880736,0.0320994,-0.5540775,-0.9999999,0.0,-8.1490736e-10,-0.00046835846,6
3174364000,0.77861464,-0.25783193,0.025605138,-0.57151234,-0.9999999,0.0,-8.1490736e-10,-0.00046835846,6
3174416000,0.7661091,-0.2578455,0.019482782,-0.58839875,-0.9999999,0.0,-8.1490736e-10,-0.00046835846,6
3174468000,0.75324726,-0.25809133,0.013668258,-0.604831,-0.9999999,0.0,-8.1490736e-10,-0.00046835846,6
3174520000,0.7400225,-0.2586612,0.0077855047,-0.62080634,-0.9999999,0.0,-8.1490736e-10,-0.00046835846,6
3174572000,0.7264758,-0.2592978,0.0020487872,-0.6363909,-0.9999999,0.0,-8.1490736e-10,-0.00046835846,6
3174624000,0.7127434,-0.25972047,-0.0037462006,-0.6515582,-0.9999999,0.0,-8.1490736e-10,-0.00046835846,6
3174680000,0.6977783,-0.25979903,-0.009927832,-0.6674664,-0.9999999,0.0,-8.1490736e-10,-0.00046835846,6
3174728000,0.68493503,-0.2594223,-0.015223259,-0.6806852,-0.9999999,0.0,-8.1490736e-10,-0.00046835846,6
3174784000,0.66980755,-0.25868452,-0.021427438,-0.69568753,-0.9999999,0.0,-8.1490736e-10,-0.00046835846,6
3174832000,0.6567247,-0.2580173,-0.026685292,-0.7081156,-0.9999999,0.0,-8.1490736e-10,-0.00046835846,6
3174884000,0.6425245,-0.25706464,-0.032195218,-0.72114044,-0.9999999,0.0,-8.1490736e-10,-0.00046835846,6
3174940000,0.62703997,-0.25617042,-0.038063798,-0.73467594,-0.9999999,0.0,-8.1490736e-10,-0.00046835846,6
3174988000,0.61378956,-0.255252,-0.04289914,-0.7458342,-0.9999999,0.0,-8.1490736e-10,-0.00046835846,6
3175040000,0.5993005,-0.25420162,-0.04798996,-0.75757337,-0.9999999,0.0,-8.1490736e-10,-0.00046835846,6
3175092000,0.5846632,-0.2533,-0.053042855,-0.7688919,-0.9999999,0.0,-8.1490736e-10,-0.00046835846,6
3175144000,0.56997615,-0.25236776,-0.05817078,-0.7797782,-0.9999999,0.0,-8.1490736e-10,-0.00046835846,6
3175200000,0.5541289,-0.25114095,-0.0636676,-0.7910853,-0.9999999,0.0,-8.1490736e-10,-0.00046835846,6
3175248000,0.5405125,-0.24998327,-0.06826055,-0.80043435,-0.9999999,0.0,-8.1490736e-10,-0.00046835846,6
3175300000,0.5257017,-0.24868909,-0.073169544,-0.81020856,-0.9999999,0.0,-8.1490736e-10,-0.00046835846,6
3175352000,0.51073027,-0.24716084,-0.07821264,-0.819725,-0.9999999,0.0,-8.1490736e-10,-0.00046835846,6
3175404000,0.4958404,-0.24544436,-0.08325834,-0.82883495,-0.9999999,0.0,-8.1490736e-10,-0.00046835846,6
3175456000,0.48142636,-0.24349266,-0.08835661,-0.8373369,-0.9999999,0.0,-8.1490736e-10,-0.00046835846,6
3175512000,0.46756688,-0.24131548,-0.09392272,-0.8451784,-0.9999999,0.0,-8.1490736e-10,-0.00046835846,6
3175560000,0.457025,-0.24021761,-0.09804147,-0.8507712,-0.9999999,0.0,-8.1490736e-10,-0.00046835846,6
3175612000,0.44707406,-0.23949794,-0.10155832,-0.8558338,-0.9999999,0.0,-8.1490736e-10,-0.00046835846,6
3175664000,0.43850955,-0.23915392,-0.10425382,-0.8600267,-0.9999999,0.0,-8.1490736e-10,-0.00046835846,6
3175716000,0.43111563,-0.23922653,-0.10628547,-0.86348903,-0.9999999,0.0,-8.1490736e-10,-0.00046835846,6
3175768000,0.42479023,-0.23980749,-0.10811496,-0.8662315,-0.9999999,0.0,-8.1490736e-10,-0.00046835846,6
3175820000,0.4194626,-0.24020393,-0.10963062,-0.8685243,-0.9999999,0.0,-8.1490736e-10,-0.00046835846,6
3175872000,0.415058,-0.24016695,-0.11098213,-0.87047666,-0.9999999,0.0,-8.1490736e-10,-0.00046835846,6
3175928000,0.4111831,-0.23995756,-0.11234746,-0.8721967,-0.9999999,0.0,-8.1490736e-10,-0.00046835846,6
3175976000,0.40826634,-0.24012199,-0.113550514,-0.87336487,-0.9999999,0.0,-8.1490736e-10,-0.00046835846,6
3176028000,0.40561584,-0.24040236,-0.114891976,-0.8743469,-0.9999999,0.0,-8.1490736e-10,-0.00046835846,6
3176080000,0.4035542,-0.24032979,-0.115961485,-0.8751792,-0.9999999,0.0,-8.1490736e-10,-0.00046835846,6
3176132000,0.40188077,-0.2401401,-0.11667325,-0.8759064,-0.9999999,0.0,-8.1490736e-10,-0.00046835846,6
3176184000,0.40046942,-0.23993771,-0.11722674,-0.8765341,-0.9999999,0.0,-8.1490736e-10,-0.00046835846,6
3176236000,0.39937785,-0.23940386,-0.1173968,-0.87715524,-0.9999999,0.0,-8.1490736e-10,-0.00046835846,6
3176288000,0.39855784,-0.23867805,-0.11764932,-0.8776919,-0.9999999,0.0,-8.1490736e-10,-0.00046835846,6
3176344000,0.39782232,-0.23835438,-0.11784679,-0.878087,-0.9999999,0.0,-8.1490736e-10,-0.00046835846,6
3176392000,0.39729682,-0.23838557,-0.118148685,-0.8782759,-0.9999999,0.0,-8.1490736e-10,-0.00046835846,6
3176444000,0.3968507,-0.23852368,-0.11847248,-0.87839645,-0.9999999,0.0,-8.1490736e-10,-0.00046835846,6
3176496000,0.39660582,-0.23845212,-0.11877246,-0.87848586,-0.9999999,0.0,-8.1490736e-10,-0.00046835846,6
3176548000,0.39630866,-0.23886123,-0.11885396,-0.8784979,-0.9999999,0.0,-8.1490736e-10,-0.00046835846,6
3176600000,0.39602563,-0.23946702,-0.11873652,-0.8784765,-0.9999999,0.0,-8.1490736e-10,-0.00046835846,6
3176652000,0.39588267,-0.23991023,-0.118702754,-0.8784245,-0.9999999,0.0,-8.1490736e-10,-0.00046835846,6
3176704000,0.3958081,-0.24017565,-0.11871629,-0.87838376,-0.9999999,0.0,-8.1490736e-10,-0.00046835846,6
3176756000,0.39577982,-0.2405698,-0.11870109,-0.8782908,-0.9999999,0.0,-8.1490736e-10,-0.00046835846,6
3176808000,0.39575064,-0.24091376,-0.118626006,-0.8782198,-0.9999999,0.0,-8.1490736e-10,-0.00046835846,6
3176860000,0.39579865,-0.24090984,-0.11878104,-0.8781782,-0.9999999,0.0,-8.1490736e-10,-0.00046835846,6
3176912000,0.39585474,-0.24089846,-0.11904268,-0.87812066,-0.9999999,0.0,-8.1490736e-10,-0.00046835846,6
3176964000,0.39600593,-0.24132343,-0.11925902,-0.8779064,-0.9999999,0.0,-8.1490736e-10,-0.00046835846,6
3177020000,0.3960836,-0.2418086,-0.11927165,-0.87773615,-0.9999999,0.0,-8.1490736e-10,-0.00046835846,6
3177068000,0.39618823,-0.24182956,-0.119113706,-0.8777046,-0.9999999,0.0,-8.1490736e-10,-0.00046835846,6
3177120000,0.3962181,-0.24209349,-0.11870191,-0.8776741,-0.9999999,0.0,-8.1490736e-10,-0.00046835846,6
3177172000,0.39629883,-0.24243777,-0.11826301,-0.87760186,-0.9999999,0.0,-8.1490736e-10,-0.00046835846,6
3177224000,0.39637867,-0.24279037,-0.117864825,-0.87752193,-0.9999999,0.0,-8.1490736e-10,-0.00046835846,6
3177276000,0.39647776,-0.24277903,-0.117618226,-0.8775134,-0.9999999,0.0,-8.1490736e-10,-0.00046835846,6
3177332000,0.39653492,-0.24295217,-0.117347576,-0.877476,-0.9999999,0.0,-8.1490736e-10,-0.00046835846,6
3177380000,0.39659938,-0.24335396,-0.117109165,-0.8773673,-0.9999999,0.0,-8.1490736e-10,-0.00046835846,6
3177432000,0.39667466,-0.2437615,-0.116972625,-0.87723833,-0.9999999,0.0,-8.1490736e-10,-0.00046835846,6
3177484000,0.39683214,-0.24385764,-0.11690002,-0.87715,-0.9999999,0.0,-8.1490736e-10,-0.00046835846,6
3177540000,0.39695084,-0.24415976,-0.116646156,-0.8770461,-0.9999999,0.0,-8.1490736e-10,-0.00046835846,6
3177588000,0.3969969,-0.24452771,-0.116320014,-0.87696606,-0.9999999,0.0,-8.1490736e-10,-0.00046835846,6
3177640000,0.39706194,-0.24485561,-0.11591042,-0.8768993,-0.9999999,0.0,-8.1490736e-10,-0.00046835846,6
3177692000,0.3971465,-0.24489126,-0.11559994,-0.87689203,-0.9999999,0.0,-8.1490736e-10,-0.00046835846,6
3177744000,0.39723414,-0.24504028,-0.11525249,-0.8768564,-0.9999999,0.0,-8.1490736e-10,-0.00046835846,6
3177800000,0.39734185,-0.24547604,-0.11488444,-0.876734,-0.9999999,0.0,-8.1490736e-10,-0.00046835846,6
3177848000,0.3973961,-0.24555562,-0.11475262,-0.8767045,-0.9999999,0.0,-8.1490736e-10,-0.00046835846,6
3177904000,0.39745003,-0.24556215,-0.114633545,-0.8766938,-0.9999999,0.0,-8.1490736e-10,-0.00046835846,6
3177952000,0.39755583,-0.24589273,-0.114462905,-0.87657535,-0.9999999,0.0,-8.1490736e-10,-0.00046835846,6
3178004000,0.39757636,-0.24624729,-0.11432458,-0.8764845,-0.9999999,0.0,-8.1490736e-10,-0.00046835846,6
3178056000,0.3976911,-0.24630553,-0.114381716,-0.87640864,-0.9999999,0.0,-8.1490736e-10,-0.00046835846,6
3178108000,0.397726,-0.24665171,-0.114461206,-0.87628514,-0.9999999,0.0,-8.1490736e-10,-0.00046835846,6
3178160000,0.39781496,-0.24709873,-0.114513606,-0.87611204,-0.9999999,0.0,-8.1490736e-10,-0.00046835846,6
3178212000,0.3978522,-0.247326,-0.11420958,-0.87607056,-0.9999999,0.0,-8.1490736e-10,-0.00046835846,6
3178264000,0.39796317,-0.24728152,-0.11381114,-0.87608457,-0.9999999,0.0,-8.1490736e-10,-0.00046835846,6
3178316000,0.39803517,-0.24718033,-0.11321331,-0.8761579,-0.9999999,0.0,-8.1490736e-10,-0.00046835846,6
3178368000,0.3980046,-0.247414,-0.11254386,-0.87619215,-0.9999999,0.0,-8.1490736e-10,-0.00046835846,6
3178420000,0.39801365,-0.24748579,-0.11192181,-0.87624747,-0.9999999,0.0,-8.1490736e-10,-0.00046835846,6
3178472000,0.39811313,-0.24705131,-0.111684576,-0.8763551,-0.9999999,0.0,-8.1490736e-10,-0.00046835846,6
3178524000,0.3982296,-0.24695864,-0.111509696,-0.87635046,-0.9999999,0.0,-8.1490736e-10,-0.00046835846,6
3178580000,0.3982553,-0.24735509,-0.11129502,-0.8762544,-0.9999999,0.0,-8.1490736e-10,-0.00046835846,6
3178632000,0.3982953,-0.2476605,-0.11128369,-0.87615126,-0.9999999,0.0,-8.1490736e-10,-0.00046835846,6
3178680000,0.39837477,-0.24745584,-0.11146857,-0.8761495,-0.9999999,0.0,-8.1490736e-10,-0.00046835846,6
3178736000,0.3984166,-0.24773593,-0.11148164,-0.87604964,-0.9999999,0.0,-8.1490736e-10,-0.00046835846,6
3178784000,0.39839563,-0.24833468,-0.11131008,-0.8759114,-0.9999999,0.0,-8.1490736e-10,-0.00046835846,6
3178836000,0.39842165,-0.24891375,-0.1111783,-0.87575203,-0.9999999,0.0,-8.1490736e-10,-0.00046835846,6
3178888000,0.3984263,-0.24897122,-0.11110961,-0.87574226,-0.9999999,0.0,-8.1490736e-10,-0.00046835846,6
3178944000,0.39847413,-0.24913585,-0.110835806,-0.87570834,-0.9999999,0.0,-8.1490736e-10,-0.00046835846,6
3178992000,0.39850885,-0.24933141,-0.110593796,-0.8756676,-0.9999999,0.0,-8.1490736e-10,-0.00046835846,6
3179044000,0.39849383,-0.24942985,-0.11046272,-0.8756629,-0.9999999,0.0,-8.1490736e-10,-0.00046835846,6
3179096000,0.39861587,-0.24921359,-0.11036399,-0.87568134,-0.9999999,0.0,-8.1490736e-10,-0.00046835846,6
3179148000,0.3987121,-0.24927016,-0.11004151,-0.87566197,-0.9999999,0.0,-8.1490736e-10,-0.00046835846,6
3179200000,0.39880016,-0.24928522,-0.10987582,-0.8756384,-0.9999999,0.0,-8.1490736e-10,-0.00046835846,6
3179256000,0.39888284,-0.24910875,-0.10978824,-0.875662,-0.9999999,0.0,-8.1490736e-10,-0.00046835846,6
3179304000,0.3989662,-0.24873523,-0.1097815,-0.87573105,-0.9999999,0.0,-8.1490736e-10,-0.00046835846,6
3179356000,0.3990215,-0.24880642,-0.10979137,-0.8756843,-0.9999999,0.0,-8.1490736e-10,-0.00046835846,6
3179408000,0.3990548,-0.24945034,-0.10979842,-0.87548506,-0.9999999,0.0,-8.1490736e-10,-0.00046835846,6
3179460000,0.39899087,-0.24993615,-0.10995182,-0.87535644,-0.9999999,0.0,-8.1490736e-10,-0.00046835846,6
3179512000,0.3989027,-0.25045046,-0.11009161,-0.875232,-0.9999999,0.0,-8.1490736e-10,-0.00046835846,6
3179564000,0.39892393,-0.25088188,-0.10970946,-0.8751467,-0.9999999,0.0,-8.1490736e-10,-0.00046835846,6
3179616000,0.39885226,-0.2510987,-0.10937785,-0.8751588,-0.9999999,0.0,-8.1490736e-10,-0.00046835846,6
3179668000,0.3989662,-0.25081426,-0.109386295,-0.87518734,-0.9999999,0.0,-8.1490736e-10,-0.00046835846,6
3179724000,0.3990345,-0.25047228,-0.1092365,-0.87527275,-0.9999999,0.0,-8.1490736e-10,-0.00046835846,6
3179772000,0.3990585,-0.250401,-0.109162144,-0.8752915,-0.9999999,0.0,-8.1490736e-10,-0.00046835846,6
3179824000,0.39919263,-0.2502252,-0.109087475,-0.87529,-0.9999999,0.0,-8.1490736e-10,-0.00046835846,6
3179876000,0.39930928,-0.24988188,-0.10924542,-0.87531507,-0.9999999,0.0,-8.1490736e-10,-0.00046835846,6
3179928000,0.3994367,-0.24981892,-0.10926785,-0.87527215,-0.9999999,0.0,-8.1490736e-10,-0.00046835846,6
3179980000,0.39936313,-0.25031474,-0.10901248,-0.875196,-0.9999999,0.0,-8.1490736e-10,-0.00046835846,6
3180036000,0.39931005,-0.25081104,-0.10879082,-0.8751056,-0.9999999,0.0,-8.1490736e-10,-0.00046835846,6
3180084000,0.39934012,-0.2508132,-0.10880054,-0.8750901,-0.9999999,0.0,-8.1490736e-10,-0.00046835846,6
3180136000,0.3993551,-0.25084227,-0.108796865,-0.8750754,-0.9999999,0.0,-8.1490736e-10,-0.00046835846,6
3180188000,0.39937946,-0.25093377,-0.10875907,-0.8750428,-0.9999999,0.0,-8.1490736e-10,-0.00046835846,6
3180240000,0.39941943,-0.25092745,-0.10887976,-0.8750113,-0.9999999,0.0,-8.1490736e-10,-0.00046835846,6
3180292000,0.3994209,-0.25088784,-0.10916789,-0.87498605,-0.9999999,0.0,-8.1490736e-10,-0.00046835846,6
3180344000,0.3995079,-0.2511302,-0.1092433,-0.87486744,-0.9999999,0.0,-8.1490736e-10,-0.00046835846,6
3180396000,0.39957398,-0.2513679,-0.10925936,-0.874767,-0.9999999,0.0,-8.1490736e-10,-0.00046835846,6
3180448000,0.39961636,-0.25154784,-0.10935566,-0.8746838,-0.9999999,0.0,-8.1490736e-10,-0.00046835846,6
3180500000,0.39966527,-0.2515083,-0.10936879,-0.8746712,-0.9999999,0.0,-8.1490736e-10,-0.00046835846,6
3180552000,0.39985257,-0.25106996,-0.10966405,-0.8746746,-0.9999999,0.0,-8.1490736e-10,-0.00046835846,6
3180608000,0.4000056,-0.2507015,-0.11008045,-0.874658,-0.9999999,0.0,-8.1490736e-10,-0.00046835846,6
3180656000,0.40005225,-0.2510731,-0.11036093,-0.87449473,-0.9999999,0.0,-8.1490736e-10,-0.00046835846,6
3180708000,0.4000089,-0.2518161,-0.11054311,-0.87427795,-0.9999999,0.0,-8.1490736e-10,-0.00046835846,6
