timestamp,ref_timestamp,ref_lat,ref_lon,x,y,z,delta_xy[0],delta_xy[1],delta_z,vx,vy,vz,z_deriv,delta_vxy[0],delta_vxy[1],delta_vz,ax,ay,az,yaw,ref_alt,dist_bottom,dist_bottom_rate,eph,epv,evh,evv,vxy_max,vz_max,hagl_min,hagl_max,xy_valid,z_valid,v_xy_valid,v_z_valid,xy_reset_counter,z_reset_counter,vxy_reset_counter,vz_reset_counter,xy_global,z_global,dist_bottom_valid
3151276000,0,47.3977508,8.5456074,-0.05559746,-0.07526839,0.72598267,0.0,0.0,0.0,0.0,0.0,0.0,0.0,0.0,0.0,0.0,0.0,0.0,0.0,0.41545016,488.83002,0.0,0.0,0.0,0.0,0.0,0.0,inf,inf,inf,inf,1,1,1,1,0,0,0,0,1,1,0
3151376000,0,47.3977508,8.5456074,-0.05559746,-0.07526839,0.72598267,0.0,0.0,0.0,0.0,0.0,0.0,0.0,0.0,0.0,0.0,0.0,0.0,0.0,0.41545016,488.83002,0.0,0.0,0.0,0.0,0.0,0.0,inf,inf,inf,inf,1,1,1,1,0,0,0,0,1,1,0
3151472000,0,47.3977508,8.5456074,-0.05559746,-0.07526839,0.72598267,0.0,0.0,0.0,0.0,0.0,0.0,0.0,0.0,0.0,0.0,0.0,0.0,0.0,0.41545004,488.83002,0.0,0.0,0.0,0.0,0.0,0.0,inf,inf,inf,inf,1,1,1,1,0,0,0,0,1,1,0
3151576000,0,47.3977508,8.5456074,-0.05559746,-0.07526839,0.72598267,0.0,0.0,0.0,0.0,0.0,0.0,0.0,0.0,0.0,0.0,0.0,0.0,0.0,0.41545013,488.83002,0.0,0.0,0.0,0.0,0.0,0.0,inf,inf,inf,inf,1,1,1,1,0,0,0,0,1,1,0
3151672000,0,47.3977508,8.5456074,-0.05559746,-0.07526839,0.72598267,0.0,0.0,0.0,0.0,0.0,0.0,0.0,0.0,0.0,0.0,0.0,0.0,0.0,0.41545004,488.83002,0.0,0.0,0.0,0.0,0.0,0.0,inf,inf,inf,inf,1,1,1,1,0,0,0,0,1,1,0
3151776000,0,47.3977508,8.5456074,-0.05559746,-0.07526839,0.72598267,0.0,0.0,0.0,0.0,0.0,0.0,0.0,0.0,0.0,0.0,0.0,0.0,0.0,0.41544995,488.83002,0.0,0.0,0.0,0.0,0.0,0.0,inf,inf,inf,inf,1,1,1,1,0,0,0,0,1,1,0
3151872000,0,47.3977508,8.5456074,-0.05559746,-0.07526839,0.72598267,0.0,0.0,0.0,0.0,0.0,0.0,0.0,0.0,0.0,0.0,0.0,0.0,0.0,0.41544998,488.83002,0.0,0.0,0.0,0.0,0.0,0.0,inf,inf,inf,inf,1,1,1,1,0,0,0,0,1,1,0
3151976000,0,47.3977508,8.5456074,-0.05559746,-0.07526839,0.72598267,0.0,0.0,0.0,0.0,0.0,0.0,0.0,0.0,0.0,0.0,0.0,0.0,0.0,0.41544998,488.83002,0.0,0.0,0.0,0.0,0.0,0.0,inf,inf,inf,inf,1,1,1,1,0,0,0,0,1,1,0
3152076000,0,47.3977508,8.5456074,-0.05559746,-0.07526839,0.72598267,0.0,0.0,0.0,0.0,0.0,0.0,0.0,0.0,0.0,0.0,0.0,0.0,0.0,0.4154498,488.83002,0.0,0.0,0.0,0.0,0.0,0.0,inf,inf,inf,inf,1,1,1,1,0,0,0,0,1,1,0
3152172000,0,47.3977508,8.5456074,-0.05559746,-0.07526839,0.72598267,0.0,0.0,0.0,0.0,0.0,0.0,0.0,0.0,0.0,0.0,0.0,0.0,0.0,0.4154498,488.83002,0.0,0.0,0.0,0.0,0.0,0.0,inf,inf,inf,inf,1,1,1,1,0,0,0,0,1,1,0
3152276000,0,47.3977508,8.5456074,-0.05559746,-0.07526839,0.72598267,0.0,0.0,0.0,0.0,0.0,0.0,0.0,0.0,0.0,0.0,0.0,0.0,0.0,0.4154498,488.83002,0.0,0.0,0.0,0.0,0.0,0.0,inf,inf,inf,inf,1,1,1,1,0,0,0,0,1,1,0
3152376000,0,47.3977508,8.5456074,-0.05559746,-0.07526839,0.72598267,0.0,0.0,0.0,0.0,0.0,0.0,0.0,0.0,0.0,0.0,0.0,0.0,0.0,0.41545013,488.83002,0.0,0.0,0.0,0.0,0.0,0.0,inf,inf,inf,inf,1,1,1,1,0,0,0,0,1,1,0
3152472000,0,47.3977508,8.5456074,-0.05559746,-0.07526839,0.72598267,0.0,0.0,0.0,0.0,0.0,0.0,0.0,0.0,0.0,0.0,0.0,0.0,0.0,0.41545013,488.83002,0.0,0.0,0.0,0.0,0.0,0.0,inf,inf,inf,inf,1,1,1,1,0,0,0,0,1,1,0
3152572000,0,47.3977508,8.5456074,-0.05559746,-0.07526839,0.72598267,0.0,0.0,0.0,0.0,0.0,0.0,0.0,0.0,0.0,0.0,0.0,0.0,0.0,0.41545013,488.83002,0.0,0.0,0.0,0.0,0.0,0.0,inf,inf,inf,inf,1,1,1,1,0,0,0,0,1,1,0
3152676000,0,47.3977508,8.5456074,-0.05559746,-0.07526839,0.72598267,0.0,0.0,0.0,0.0,0.0,0.0,0.0,0.0,0.0,0.0,0.0,0.0,0.0,0.4154501,488.83002,0.0,0.0,0.0,0.0,0.0,0.0,inf,inf,inf,inf,1,1,1,1,0,0,0,0,1,1,0
3152776000,0,47.3977508,8.5456074,-0.05559746,-0.07526839,0.72598267,0.0,0.0,0.0,0.0,0.0,0.0,0.0,0.0,0.0,0.0,0.0,0.0,0.0,0.4154501,488.83002,0.0,0.0,0.0,0.0,0.0,0.0,inf,inf,inf,inf,1,1,1,1,0,0,0,0,1,1,0
3152876000,0,47.3977508,8.5456074,-0.05559746,-0.07526839,0.72598267,0.0,0.0,0.0,0.0,0.0,0.0,0.0,0.0,0.0,0.0,0.0,0.0,0.0,0.4154501,488.83002,0.0,0.0,0.0,0.0,0.0,0.0,inf,inf,inf,inf,1,1,1,1,0,0,0,0,1,1,0
3152976000,0,47.3977508,8.5456074,-0.05559746,-0.07526839,0.72598267,0.0,0.0,0.0,0.0,0.0,0.0,0.0,0.0,0.0,0.0,0.0,0.0,0.0,0.4154501,488.83002,0.0,0.0,0.0,0.0,0.0,0.0,inf,inf,inf,inf,1,1,1,1,0,0,0,0,1,1,0
3153072000,0,47.3977508,8.5456074,-0.05559746,-0.07526839,0.72598267,0.0,0.0,0.0,0.0,0.0,0.0,0.0,0.0,0.0,0.0,0.0,0.0,0.0,0.41544923,488.83002,0.0,0.0,0.0,0.0,0.0,0.0,inf,inf,inf,inf,1,1,1,1,0,0,0,0,1,1,0
3153176000,0,47.3977508,8.5456074,-0.05559746,-0.07526839,0.71899414,0.0,0.0,0.0,0.0,0.0,-0.13,0.0,0.0,0.0,0.0,0.0,0.0,0.0,0.415326,488.83002,0.0,0.0,0.0,0.0,0.0,0.0,inf,inf,inf,inf,1,1,1,1,0,0,0,0,1,1,0
3153272000,0,47.3977508,8.5456074,-0.04447797,-0.07526839,0.6990051,0.0,0.0,0.0,0.01,0.0,-0.26999998,0.0,0.0,0.0,0.0,0.0,0.0,0.0,0.41532037,488.83002,0.0,0.0,0.0,0.0,0.0,0.0,inf,inf,inf,inf,1,1,1,1,0,0,0,0,1,1,0
3153376000,0,47.3977508,8.5456074,-0.04447797,-0.07526839,0.6629944,0.0,0.0,0.0,0.03,0.0,-0.39999998,0.0,0.0,0.0,0.0,0.0,0.0,0.0,0.41538098,488.83002,0.0,0.0,0.0,0.0,0.0,0.0,inf,inf,inf,inf,1,1,1,1,0,0,0,0,1,1,0
3153476000,0,47.3977508,8.5456074,-0.04447797,-0.07526839,0.6159973,0.0,0.0,0.0,0.04,-0.01,-0.53,0.0,0.0,0.0,0.0,0.0,0.0,0.0,0.4153872,488.83002,0.0,0.0,0.0,0.0,0.0,0.0,inf,inf,inf,inf,1,1,1,1,0,0,0,0,1,1,0
3153576000,0,47.3977508,8.5456074,-0.033358477,-0.07526839,0.55599976,0.0,0.0,0.0,0.049999997,-0.01,-0.65999997,0.0,0.0,0.0,0.0,0.0,0.0,0.0,0.4152952,488.83002,0.0,0.0,0.0,0.0,0.0,0.0,inf,inf,inf,inf,1,1,1,1,0,0,0,0,1,1,0
3153676000,0,47.3977508,8.5456074,-0.033358477,-0.07526839,0.4830017,0.0,0.0,0.0,0.049999997,-0.01,-0.78999996,0.0,0.0,0.0,0.0,0.0,0.0,0.0,0.41529512,488.83002,0.0,0.0,0.0,0.0,0.0,0.0,inf,inf,inf,inf,1,1,1,1,0,0,0,0,1,1,0
3153776000,0,47.3977508,8.5456074,-0.022238985,-0.07526839,0.3959961,0.0,0.0,0.0,0.049999997,-0.01,-0.91999996,0.0,0.0,0.0,0.0,0.0,0.0,0.0,0.4152506,488.83002,0.0,0.0,0.0,0.0,0.0,0.0,inf,inf,inf,inf,1,1,1,1,0,0,0,0,1,1,0
3153872000,0,47.3977508,8.5456074,-0.022238985,-0.07526839,0.30099487,0.0,0.0,0.0,0.049999997,0.0,-1.05,0.0,0.0,0.0,0.0,0.0,0.0,0.0,0.41510522,488.83002,0.0,0.0,0.0,0.0,0.0,0.0,inf,inf,inf,inf,1,1,1,1,0,0,0,0,1,1,0
3153976000,0,47.3977508,8.5456074,-0.011119491,-0.082795225,0.18399048,0.0,0.0,0.0,0.049999997,0.0,-1.1899999,0.0,0.0,0.0,0.0,0.0,0.0,0.0,0.4149693,488.83002,0.0,0.0,0.0,0.0,0.0,0.0,inf,inf,inf,inf,1,1,1,1,0,0,0,0,1,1,0
3154076000,0,47.3977508,8.5456074,-0.011119491,-0.082795225,0.0579834,0.0,0.0,0.0,0.049999997,0.0,-1.3199999,0.0,0.0,0.0,0.0,0.0,0.0,0.0,0.41502246,488.83002,0.0,0.0,0.0,0.0,0.0,0.0,inf,inf,inf,inf,1,1,1,1,0,0,0,0,1,1,0
3154176000,0,47.3977508,8.5456074,7.073231e-10,-0.082795225,-0.08099365,0.0,0.0,0.0,0.049999997,0.0,-1.4399999,0.0,0.0,0.0,0.0,0.0,0.0,0.0,0.41513094,488.83002,0.0,0.0,0.0,0.0,0.0,0.0,inf,inf,inf,inf,1,1,1,1,0,0,0,0,1,1,0
3154276000,0,47.3977508,8.5456074,7.073231e-10,-0.082795225,-0.23300171,0.0,0.0,0.0,0.049999997,0.0,-1.5699999,0.0,0.0,0.0,0.0,0.0,0.0,0.0,0.41503492,488.83002,0.0,0.0,0.0,0.0,0.0,0.0,inf,inf,inf,inf,1,1,1,1,0,0,0,0,1,1,0
3154372000,0,47.3977508,8.5456074,0.011119494,-0.082795225,-0.39001465,0.0,0.0,0.0,0.049999997,0.0,-1.6899999,0.0,0.0,0.0,0.0,0.0,0.0,0.0,0.41494432,488.83002,0.0,0.0,0.0,0.0,0.0,0.0,inf,inf,inf,inf,1,1,1,1,0,0,0,0,1,1,0
3154476000,0,47.3977508,8.5456074,0.011119494,-0.082795225,-0.5740051,0.0,0.0,0.0,0.049999997,0.0,-1.8299999,0.0,0.0,0.0,0.0,0.0,0.0,0.0,0.4148756,488.83002,0.0,0.0,0.0,0.0,0.0,0.0,inf,inf,inf,inf,1,1,1,1,0,0,0,0,1,1,0
3154576000,0,47.3977508,8.5456074,0.022238987,-0.082795225,-0.7630005,0.0,0.0,0.0,0.049999997,0.0,-1.9499999,0.0,0.0,0.0,0.0,0.0,0.0,0.0,0.41484863,488.83002,0.0,0.0,0.0,0.0,0.0,0.0,inf,inf,inf,inf,1,1,1,1,0,0,0,0,1,1,0
3154672000,0,47.3977508,8.5456074,0.022238987,-0.082795225,-0.95700073,0.0,0.0,0.0,0.049999997,0.0,-2.08,0.0,0.0,0.0,0.0,0.0,0.0,0.0,0.4148431,488.83002,0.0,0.0,0.0,0.0,0.0,0.0,inf,inf,inf,inf,1,1,1,1,0,0,0,0,1,1,0
3154772000,0,47.3977508,8.5456074,0.022238987,-0.082795225,-1.1719971,0.0,0.0,0.0,0.049999997,0.0,-2.2,0.0,0.0,0.0,0.0,0.0,0.0,0.0,0.41482484,488.83002,0.0,0.0,0.0,0.0,0.0,0.0,inf,inf,inf,inf,1,1,1,1,0,0,0,0,1,1,0
3154872000,0,47.3977508,8.5456074,0.03335848,-0.082795225,-1.3900146,0.0,0.0,0.0,0.049999997,0.0,-2.33,0.0,0.0,0.0,0.0,0.0,0.0,0.0,0.41469994,488.83002,0.0,0.0,0.0,0.0,0.0,0.0,inf,inf,inf,inf,1,1,1,1,0,0,0,0,1,1,0
3154976000,0,47.3977508,8.5456074,0.03335848,-0.082795225,-1.6499939,0.0,0.0,0.0,0.049999997,0.0,-2.46,0.0,0.0,0.0,0.0,0.0,0.0,0.0,0.414441,488.83002,0.0,0.0,0.0,0.0,0.0,0.0,inf,inf,inf,inf,1,1,1,1,0,0,0,0,1,1,0
3155072000,0,47.3977508,8.5456074,0.04447797,-0.082795225,-1.8860168,0.0,0.0,0.0,0.04,0.01,-2.4199998,0.0,0.0,0.0,0.0,0.0,0.0,0.0,0.41437042,488.83002,0.0,0.0,0.0,0.0,0.0,0.0,inf,inf,inf,inf,1,1,1,1,0,0,0,0,1,1,0
3155176000,0,47.3977508,8.5456074,0.04447797,-0.082795225,-2.130005,0.0,0.0,0.0,0.04,0.01,-2.28,0.0,0.0,0.0,0.0,0.0,0.0,0.0,0.4147254,488.83002,0.0,0.0,0.0,0.0,0.0,0.0,inf,inf,inf,inf,1,1,1,1,0,0,0,0,1,1,0
3155276000,0,47.3977508,8.5456074,0.055597465,-0.07526839,-2.3450012,0.0,0.0,0.0,0.04,0.01,-2.2,0.0,0.0,0.0,0.0,0.0,0.0,0.0,0.41527224,488.83002,0.0,0.0,0.0,0.0,0.0,0.0,inf,inf,inf,inf,1,1,1,1,0,0,0,0,1,1,0
3155372000,0,47.3977508,8.5456074,0.055597465,-0.07526839,-2.5630188,0.0,0.0,0.0,0.04,0.02,-2.1499999,0.0,0.0,0.0,0.0,0.0,0.0,0.0,0.4158635,488.83002,0.0,0.0,0.0,0.0,0.0,0.0,inf,inf,inf,inf,1,1,1,1,0,0,0,0,1,1,0
3155476000,0,47.3977508,8.5456074,0.055597465,-0.07526839,-2.7839966,0.0,0.0,0.0,0.03,0.02,-2.09,0.0,0.0,0.0,0.0,0.0,0.0,0.0,0.4163525,488.83002,0.0,0.0,0.0,0.0,0.0,0.0,inf,inf,inf,inf,1,1,1,1,0,0,0,0,1,1,0
3155572000,0,47.3977508,8.5456074,0.066716954,-0.06774155,-2.9830017,0.0,0.0,0.0,0.03,0.02,-2.03,0.0,0.0,0.0,0.0,0.0,0.0,0.0,0.41685784,488.83002,0.0,0.0,0.0,0.0,0.0,0.0,inf,inf,inf,inf,1,1,1,1,0,0,0,0,1,1,0
3155676000,0,47.3977508,8.5456074,0.066716954,-0.06774155,-3.1910095,0.0,0.0,0.0,0.03,0.03,-1.9699999,0.0,0.0,0.0,0.0,0.0,0.0,0.0,0.41724366,488.83002,0.0,0.0,0.0,0.0,0.0,0.0,inf,inf,inf,inf,1,1,1,1,0,0,0,0,1,1,0
3155776000,0,47.3977508,8.5456074,0.066716954,-0.06774155,-3.3850098,0.0,0.0,0.0,0.02,0.03,-1.91,0.0,0.0,0.0,0.0,0.0,0.0,0.0,0.41751498,488.83002,0.0,0.0,0.0,0.0,0.0,0.0,inf,inf,inf,inf,1,1,1,1,0,0,0,0,1,1,0
3155876000,0,47.3977508,8.5456074,0.07783645,-0.06021471,-3.572998,0.0,0.0,0.0,0.02,0.03,-1.86,0.0,0.0,0.0,0.0,0.0,0.0,0.0,0.4175676,488.83002,0.0,0.0,0.0,0.0,0.0,0.0,inf,inf,inf,inf,1,1,1,1,0,0,0,0,1,1,0
3155976000,0,47.3977508,8.5456074,0.07783645,-0.06021471,-3.757019,0.0,0.0,0.0,0.01,0.03,-1.81,0.0,0.0,0.0,0.0,0.0,0.0,0.0,0.41767034,488.83002,0.0,0.0,0.0,0.0,0.0,0.0,inf,inf,inf,inf,1,1,1,1,0,0,0,0,1,1,0
3156076000,0,47.3977508,8.5456074,0.07783645,-0.05268787,-3.9360046,0.0,0.0,0.0,0.01,0.03,-1.76,0.0,0.0,0.0,0.0,0.0,0.0,0.0,0.41774803,488.83002,0.0,0.0,0.0,0.0,0.0,0.0,inf,inf,inf,inf,1,1,1,1,0,0,0,0,1,1,0
3156172000,0,47.3977508,8.5456074,0.07783645,-0.05268787,-4.104004,0.0,0.0,0.0,0.01,0.03,-1.73,0.0,0.0,0.0,0.0,0.0,0.0,0.0,0.4177772,488.83002,0.0,0.0,0.0,0.0,0.0,0.0,inf,inf,inf,inf,1,1,1,1,0,0,0,0,1,1,0
3156276000,0,47.3977508,8.5456074,0.07783645,-0.04516103,-4.282013,0.0,0.0,0.0,0.0,0.03,-1.6999999,0.0,0.0,0.0,0.0,0.0,0.0,0.0,0.41779107,488.83002,0.0,0.0,0.0,0.0,0.0,0.0,inf,inf,inf,inf,1,1,1,1,0,0,0,0,1,1,0
3156372000,0,47.3977508,8.5456074,0.07783645,-0.04516103,-4.4440002,0.0,0.0,0.0,0.0,0.03,-1.67,0.0,0.0,0.0,0.0,0.0,0.0,0.0,0.41770387,488.83002,0.0,0.0,0.0,0.0,0.0,0.0,inf,inf,inf,inf,1,1,1,1,0,0,0,0,1,1,0
3156472000,0,47.3977508,8.5456074,0.07783645,-0.037634194,-4.610016,0.0,0.0,0.0,0.0,0.03,-1.64,0.0,0.0,0.0,0.0,0.0,0.0,0.0,0.4177466,488.83002,0.0,0.0,0.0,0.0,0.0,0.0,inf,inf,inf,inf,1,1,1,1,0,0,0,0,1,1,0
3156572000,0,47.3977508,8.5456074,0.07783645,-0.037634194,-4.7730103,0.0,0.0,0.0,0.0,0.03,-1.61,0.0,0.0,0.0,0.0,0.0,0.0,0.0,0.41795397,488.83002,0.0,0.0,0.0,0.0,0.0,0.0,inf,inf,inf,inf,1,1,1,1,0,0,0,0,1,1,0
3156676000,0,47.3977508,8.5456074,0.07783645,-0.030107355,-4.9389954,0.0,0.0,0.0,0.0,0.03,-1.5899999,0.0,0.0,0.0,0.0,0.0,0.0,0.0,0.41816366,488.83002,0.0,0.0,0.0,0.0,0.0,0.0,inf,inf,inf,inf,1,1,1,1,0,0,0,0,1,1,0
3156776000,0,47.3977508,8.5456074,0.07783645,-0.030107355,-5.0970154,0.0,0.0,0.0,-0.01,0.02,-1.5699999,0.0,0.0,0.0,0.0,0.0,0.0,0.0,0.4184228,488.83002,0.0,0.0,0.0,0.0,0.0,0.0,inf,inf,inf,inf,1,1,1,1,0,0,0,0,1,1,0
3156872000,0,47.3977508,8.5456074,0.07783645,-0.022580516,-5.2470093,0.0,0.0,0.0,-0.01,0.02,-1.55,0.0,0.0,0.0,0.0,0.0,0.0,0.0,0.41862488,488.83002,0.0,0.0,0.0,0.0,0.0,0.0,inf,inf,inf,inf,1,1,1,1,0,0,0,0,1,1,0
3156972000,0,47.3977508,8.5456074,0.07783645,-0.022580516,-5.402008,0.0,0.0,0.0,-0.01,0.02,-1.54,0.0,0.0,0.0,0.0,0.0,0.0,0.0,0.41891786,488.83002,0.0,0.0,0.0,0.0,0.0,0.0,inf,inf,inf,inf,1,1,1,1,0,0,0,0,1,1,0
3157072000,0,47.3977508,8.5456074,0.07783645,-0.022580516,-5.5549927,0.0,0.0,0.0,-0.01,0.02,-1.52,0.0,0.0,0.0,0.0,0.0,0.0,0.0,0.4191125,488.83002,0.0,0.0,0.0,0.0,0.0,0.0,inf,inf,inf,inf,1,1,1,1,0,0,0,0,1,1,0
3157176000,0,47.3977508,8.5456074,0.066716954,-0.015053677,-5.7120056,0.0,0.0,0.0,-0.02,0.02,-1.5,0.0,0.0,0.0,0.0,0.0,0.0,0.0,0.419276,488.83002,0.0,0.0,0.0,0.0,0.0,0.0,inf,inf,inf,inf,1,1,1,1,0,0,0,0,1,1,0
3157276000,0,47.3977508,8.5456074,0.066716954,-0.015053677,-5.8630066,0.0,0.0,0.0,-0.02,0.02,-1.49,0.0,0.0,0.0,0.0,0.0,0.0,0.0,0.4193767,488.83002,0.0,0.0,0.0,0.0,0.0,0.0,inf,inf,inf,inf,1,1,1,1,0,0,0,0,1,1,0
3157376000,0,47.3977508,8.5456074,0.066716954,-0.015053677,-6.006012,0.0,0.0,0.0,-0.02,0.01,-1.48,0.0,0.0,0.0,0.0,0.0,0.0,0.0,0.41945153,488.83002,0.0,0.0,0.0,0.0,0.0,0.0,inf,inf,inf,inf,1,1,1,1,0,0,0,0,1,1,0
3157472000,0,47.3977508,8.5456074,0.066716954,-0.015053677,-6.154999,0.0,0.0,0.0,-0.02,0.01,-1.48,0.0,0.0,0.0,0.0,0.0,0.0,0.0,0.41944075,488.83002,0.0,0.0,0.0,0.0,0.0,0.0,inf,inf,inf,inf,1,1,1,1,0,0,0,0,1,1,0
3157572000,0,47.3977508,8.5456074,0.066716954,-0.0075268387,-6.303009,0.0,0.0,0.0,-0.02,0.01,-1.4699999,0.0,0.0,0.0,0.0,0.0,0.0,0.0,0.41931817,488.83002,0.0,0.0,0.0,0.0,0.0,0.0,inf,inf,inf,inf,1,1,1,1,0,0,0,0,1,1,0
3157676000,0,47.3977508,8.5456074,0.055597465,-0.0075268387,-6.4559937,0.0,0.0,0.0,-0.02,0.01,-1.4699999,0.0,0.0,0.0,0.0,0.0,0.0,0.0,0.41930878,488.83002,0.0,0.0,0.0,0.0,0.0,0.0,inf,inf,inf,inf,1,1,1,1,0,0,0,0,1,1,0
3157776000,0,47.3977508,8.5456074,0.055597465,-0.0075268387,-6.602997,0.0,0.0,0.0,-0.02,0.0,-1.4599999,0.0,0.0,0.0,0.0,0.0,0.0,0.0,0.41930145,488.83002,0.0,0.0,0.0,0.0,0.0,0.0,inf,inf,inf,inf,1,1,1,1,0,0,0,0,1,1,0
3157876000,0,47.3977508,8.5456074,0.055597465,-0.0075268387,-6.75,0.0,0.0,0.0,-0.02,0.0,-1.4599999,0.0,0.0,0.0,0.0,0.0,0.0,0.0,0.4192905,488.83002,0.0,0.0,0.0,0.0,0.0,0.0,inf,inf,inf,inf,1,1,1,1,0,0,0,0,1,1,0
3157976000,0,47.3977508,8.5456074,0.055597465,-0.0075268387,-6.895996,0.0,0.0,0.0,-0.02,0.0,-1.4599999,0.0,0.0,0.0,0.0,0.0,0.0,0.0,0.41921997,488.83002,0.0,0.0,0.0,0.0,0.0,0.0,inf,inf,inf,inf,1,1,1,1,0,0,0,0,1,1,0
3158076000,0,47.3977508,8.5456074,0.04447797,-0.0075268387,-7.041992,0.0,0.0,0.0,-0.02,0.0,-1.4499999,0.0,0.0,0.0,0.0,0.0,0.0,0.0,0.41907036,488.83002,0.0,0.0,0.0,0.0,0.0,0.0,inf,inf,inf,inf,1,1,1,1,0,0,0,0,1,1,0
3158172000,0,47.3977508,8.5456074,0.04447797,-0.0075268387,-7.182007,0.0,0.0,0.0,-0.02,0.0,-1.4499999,0.0,0.0,0.0,0.0,0.0,0.0,0.0,0.41898596,488.83002,0.0,0.0,0.0,0.0,0.0,0.0,inf,inf,inf,inf,1,1,1,1,0,0,0,0,1,1,0
3158276000,0,47.3977508,8.5456074,0.04447797,-0.0075268387,-7.333008,0.0,0.0,0.0,-0.02,0.0,-1.4499999,0.0,0.0,0.0,0.0,0.0,0.0,0.0,0.41902128,488.83002,0.0,0.0,0.0,0.0,0.0,0.0,inf,inf,inf,inf,1,1,1,1,0,0,0,0,1,1,0
3158376000,0,47.3977508,8.5456074,0.04447797,-0.0075268387,-7.477997,0.0,0.0,0.0,-0.02,0.0,-1.4499999,0.0,0.0,0.0,0.0,0.0,0.0,0.0,0.41911736,488.83002,0.0,0.0,0.0,0.0,0.0,0.0,inf,inf,inf,inf,1,1,1,1,0,0,0,0,1,1,0
3158476000,0,47.3977508,8.5456074,0.03335848,-0.0075268387,-7.6230164,0.0,0.0,0.0,-0.02,0.0,-1.4399999,0.0,0.0,0.0,0.0,0.0,0.0,0.0,0.41916445,488.83002,0.0,0.0,0.0,0.0,0.0,0.0,inf,inf,inf,inf,1,1,1,1,0,0,0,0,1,1,0
3158576000,0,47.3977508,8.5456074,0.03335848,-0.0075268387,-7.7669983,0.0,0.0,0.0,-0.02,-0.01,-1.4399999,0.0,0.0,0.0,0.0,0.0,0.0,0.0,0.41925883,488.83002,0.0,0.0,0.0,0.0,0.0,0.0,inf,inf,inf,inf,1,1,1,1,0,0,0,0,1,1,0
3158672000,0,47.3977508,8.5456074,0.03335848,-0.015053677,-7.906006,0.0,0.0,0.0,-0.02,-0.01,-1.4399999,0.0,0.0,0.0,0.0,0.0,0.0,0.0,0.4193651,488.83002,0.0,0.0,0.0,0.0,0.0,0.0,inf,inf,inf,inf,1,1,1,1,0,0,0,0,1,1,0
3158772000,0,47.3977508,8.5456074,0.03335848,-0.015053677,-8.050995,0.0,0.0,0.0,-0.02,-0.01,-1.4399999,0.0,0.0,0.0,0.0,0.0,0.0,0.0,0.41948074,488.83002,0.0,0.0,0.0,0.0,0.0,0.0,inf,inf,inf,inf,1,1,1,1,0,0,0,0,1,1,0
3158872000,0,47.3977508,8.5456074,0.022238987,-0.015053677,-8.195007,0.0,0.0,0.0,-0.02,-0.01,-1.4399999,0.0,0.0,0.0,0.0,0.0,0.0,0.0,0.41949785,488.83002,0.0,0.0,0.0,0.0,0.0,0.0,inf,inf,inf,inf,1,1,1,1,0,0,0,0,1,1,0
3158976000,0,47.3977508,8.5456074,0.022238987,-0.015053677,-8.346008,0.0,0.0,0.0,-0.02,-0.01,-1.4399999,0.0,0.0,0.0,0.0,0.0,0.0,0.0,0.4194367,488.83002,0.0,0.0,0.0,0.0,0.0,0.0,inf,inf,inf,inf,1,1,1,1,0,0,0,0,1,1,0
3159076000,0,47.3977508,8.5456074,0.022238987,-0.015053677,-8.490021,0.0,0.0,0.0,-0.02,-0.01,-1.4399999,0.0,0.0,0.0,0.0,0.0,0.0,0.0,0.41947925,488.83002,0.0,0.0,0.0,0.0,0.0,0.0,inf,inf,inf,inf,1,1,1,1,0,0,0,0,1,1,0
3159172000,0,47.3977508,8.5456074,0.022238987,-0.022580516,-8.628998,0.0,0.0,0.0,-0.02,-0.01,-1.4399999,0.0,0.0,0.0,0.0,0.0,0.0,0.0,0.4194699,488.83002,0.0,0.0,0.0,0.0,0.0,0.0,inf,inf,inf,inf,1,1,1,1,0,0,0,0,1,1,0
3159276000,0,47.3977508,8.5456074,0.011119493,-0.022580516,-8.779999,0.0,0.0,0.0,-0.02,-0.01,-1.4499999,0.0,0.0,0.0,0.0,0.0,0.0,0.0,0.41943997,488.83002,0.0,0.0,0.0,0.0,0.0,0.0,inf,inf,inf,inf,1,1,1,1,0,0,0,0,1,1,0
3159376000,0,47.3977508,8.5456074,0.011119493,-0.022580516,-8.925018,0.0,0.0,0.0,-0.02,-0.01,-1.4499999,0.0,0.0,0.0,0.0,0.0,0.0,0.0,0.4192618,488.83002,0.0,0.0,0.0,0.0,0.0,0.0,inf,inf,inf,inf,1,1,1,1,0,0,0,0,1,1,0
3159476000,0,47.3977508,8.5456074,0.011119493,-0.022580516,-9.071014,0.0,0.0,0.0,-0.02,-0.01,-1.4499999,0.0,0.0,0.0,0.0,0.0,0.0,0.0,0.41917664,488.83002,0.0,0.0,0.0,0.0,0.0,0.0,inf,inf,inf,inf,1,1,1,1,0,0,0,0,1,1,0
3159576000,0,47.3977508,8.5456074,0.011119493,-0.022580516,-9.216003,0.0,0.0,0.0,-0.02,-0.01,-1.4499999,0.0,0.0,0.0,0.0,0.0,0.0,0.0,0.41917187,488.83002,0.0,0.0,0.0,0.0,0.0,0.0,inf,inf,inf,inf,1,1,1,1,0,0,0,0,1,1,0
3159672000,0,47.3977508,8.5456074,0.0,-0.030107355,-9.356018,0.0,0.0,0.0,-0.02,-0.02,-1.4599999,0.0,0.0,0.0,0.0,0.0,0.0,0.0,0.41918072,488.83002,0.0,0.0,0.0,0.0,0.0,0.0,inf,inf,inf,inf,1,1,1,1,0,0,0,0,1,1,0
3159776000,0,47.3977508,8.5456074,0.0,-0.030107355,-9.509003,0.0,0.0,0.0,-0.02,-0.02,-1.49,0.0,0.0,0.0,0.0,0.0,0.0,0.0,0.41911682,488.83002,0.0,0.0,0.0,0.0,0.0,0.0,inf,inf,inf,inf,1,1,1,1,0,0,0,0,1,1,0
3159876000,0,47.3977508,8.5456074,0.0,-0.030107355,-9.664001,0.0,0.0,0.0,-0.01,-0.02,-1.61,0.0,0.0,0.0,0.0,0.0,0.0,0.0,0.41914275,488.83002,0.0,0.0,0.0,0.0,0.0,0.0,inf,inf,inf,inf,1,1,1,1,0,0,0,0,1,1,0
3159972000,0,47.3977508,8.5456074,0.0,-0.037634194,-9.82901,0.0,0.0,0.0,-0.01,-0.02,-1.8,0.0,0.0,0.0,0.0,0.0,0.0,0.0,0.4190861,488.83002,0.0,0.0,0.0,0.0,0.0,0.0,inf,inf,inf,inf,1,1,1,1,0,0,0,0,1,1,0
3160072000,0,47.3977508,8.5456074,0.0,-0.037634194,-10.02301,0.0,0.0,0.0,-0.01,-0.02,-2.08,0.0,0.0,0.0,0.0,0.0,0.0,0.0,0.41902828,488.83002,0.0,0.0,0.0,0.0,0.0,0.0,inf,inf,inf,inf,1,1,1,1,0,0,0,0,1,1,0
3160176000,0,47.3977508,8.5456074,0.0,-0.037634194,-10.259003,0.0,0.0,0.0,0.0,-0.02,-2.4299998,0.0,0.0,0.0,0.0,0.0,0.0,0.0,0.41906977,488.83002,0.0,0.0,0.0,0.0,0.0,0.0,inf,inf,inf,inf,1,1,1,1,0,0,0,0,1,1,0
3160272000,0,47.3977508,8.5456074,0.0,-0.04516103,-10.506012,0.0,0.0,0.0,0.0,-0.02,-2.69,0.0,0.0,0.0,0.0,0.0,0.0,0.0,0.41908938,488.83002,0.0,0.0,0.0,0.0,0.0,0.0,inf,inf,inf,inf,1,1,1,1,0,0,0,0,1,1,0
3160372000,0,47.3977508,8.5456074,0.0,-0.04516103,-10.774017,0.0,0.0,0.0,0.0,-0.02,-2.87,0.0,0.0,0.0,0.0,0.0,0.0,0.0,0.4191594,488.83002,0.0,0.0,0.0,0.0,0.0,0.0,inf,inf,inf,inf,1,1,1,1,0,0,0,0,1,1,0
3160472000,0,47.3977508,8.5456074,0.0,-0.04516103,-11.080017,0.0,0.0,0.0,0.0,-0.02,-2.98,0.0,0.0,0.0,0.0,0.0,0.0,0.0,0.4192096,488.83002,0.0,0.0,0.0,0.0,0.0,0.0,inf,inf,inf,inf,1,1,1,1,0,0,0,0,1,1,0
3160576000,0,47.3977508,8.5456074,3.5366154e-10,-0.052687872,-11.391022,0.0,0.0,0.0,0.01,-0.02,-2.97,0.0,0.0,0.0,0.0,0.0,0.0,0.0,0.41913384,488.83002,0.0,0.0,0.0,0.0,0.0,0.0,inf,inf,inf,inf,1,1,1,1,0,0,0,0,1,1,0
3160672000,0,47.3977508,8.5456074,3.5366154e-10,-0.052687872,-11.675995,0.0,0.0,0.0,0.01,-0.02,-2.97,0.0,0.0,0.0,0.0,0.0,0.0,0.0,0.4190582,488.83002,0.0,0.0,0.0,0.0,0.0,0.0,inf,inf,inf,inf,1,1,1,1,0,0,0,0,1,1,0
3160776000,0,47.3977508,8.5456074,3.5366154e-10,-0.06021471,-11.985992,0.0,0.0,0.0,0.0,-0.02,-2.98,0.0,0.0,0.0,0.0,0.0,0.0,0.0,0.41900986,488.83002,0.0,0.0,0.0,0.0,0.0,0.0,inf,inf,inf,inf,1,1,1,1,0,0,0,0,1,1,0
3160876000,0,47.3977508,8.5456074,3.5366154e-10,-0.06021471,-12.283997,0.0,0.0,0.0,0.0,-0.02,-2.98,0.0,0.0,0.0,0.0,0.0,0.0,0.0,0.4190309,488.83002,0.0,0.0,0.0,0.0,0.0,0.0,inf,inf,inf,inf,1,1,1,1,0,0,0,0,1,1,0
3160976000,0,47.3977508,8.5456074,3.5366154e-10,-0.06021471,-12.571014,0.0,0.0,0.0,0.0,-0.02,-2.98,0.0,0.0,0.0,0.0,0.0,0.0,0.0,0.41905805,488.83002,0.0,0.0,0.0,0.0,0.0,0.0,inf,inf,inf,inf,1,1,1,1,0,0,0,0,1,1,0
3161076000,0,47.3977508,8.5456074,3.5366154e-10,-0.06021471,-12.882019,0.0,0.0,0.0,0.0,-0.02,-2.99,0.0,0.0,0.0,0.0,0.0,0.0,0.0,0.41903007,488.83002,0.0,0.0,0.0,0.0,0.0,0.0,inf,inf,inf,inf,1,1,1,1,0,0,0,0,1,1,0
3161172000,0,47.3977508,8.5456074,3.5366154e-10,-0.06774155,-13.169006,0.0,0.0,0.0,0.0,-0.02,-2.98,0.0,0.0,0.0,0.0,0.0,0.0,0.0,0.41903672,488.83002,0.0,0.0,0.0,0.0,0.0,0.0,inf,inf,inf,inf,1,1,1,1,0,0,0,0,1,1,0
3161272000,0,47.3977508,8.5456074,3.5366154e-10,-0.06774155,-13.455994,0.0,0.0,0.0,0.0,-0.02,-2.98,0.0,0.0,0.0,0.0,0.0,0.0,0.0,0.4190827,488.83002,0.0,0.0,0.0,0.0,0.0,0.0,inf,inf,inf,inf,1,1,1,1,0,0,0,0,1,1,0
3161376000,0,47.3977508,8.5456074,3.5366154e-10,-0.06774155,-13.778992,0.0,0.0,0.0,0.0,-0.02,-2.98,0.0,0.0,0.0,0.0,0.0,0.0,0.0,0.41899934,488.83002,0.0,0.0,0.0,0.0,0.0,0.0,inf,inf,inf,inf,1,1,1,1,0,0,0,0,1,1,0
3161472000,0,47.3977508,8.5456074,0.011119493,-0.07526839,-14.0660095,0.0,0.0,0.0,0.0,-0.01,-2.98,0.0,0.0,0.0,0.0,0.0,0.0,0.0,0.4189621,488.83002,0.0,0.0,0.0,0.0,0.0,0.0,inf,inf,inf,inf,1,1,1,1,0,0,0,0,1,1,0
3161572000,0,47.3977508,8.5456074,0.011119493,-0.07526839,-14.364014,0.0,0.0,0.0,0.0,-0.01,-2.98,0.0,0.0,0.0,0.0,0.0,0.0,0.0,0.41891456,488.83002,0.0,0.0,0.0,0.0,0.0,0.0,inf,inf,inf,inf,1,1,1,1,0,0,0,0,1,1,0
3161676000,0,47.3977508,8.5456074,0.011119493,-0.07526839,-14.675018,0.0,0.0,0.0,0.0,-0.01,-2.98,0.0,0.0,0.0,0.0,0.0,0.0,0.0,0.41887206,488.83002,0.0,0.0,0.0,0.0,0.0,0.0,inf,inf,inf,inf,1,1,1,1,0,0,0,0,1,1,0
3161776000,0,47.3977508,8.5456074,0.011119493,-0.07526839,-14.972992,0.0,0.0,0.0,0.0,-0.02,-2.97,0.0,0.0,0.0,0.0,0.0,0.0,0.0,0.4188534,488.83002,0.0,0.0,0.0,0.0,0.0,0.0,inf,inf,inf,inf,1,1,1,1,0,0,0,0,1,1,0
3161872000,0,47.3977508,8.5456074,0.011119494,-0.082795225,-15.246002,0.0,0.0,0.0,0.0,-0.02,-2.97,0.0,0.0,0.0,0.0,0.0,0.0,0.0,0.41886508,488.83002,0.0,0.0,0.0,0.0,0.0,0.0,inf,inf,inf,inf,1,1,1,1,0,0,0,0,1,1,0
3161972000,0,47.3977508,8.5456074,0.011119494,-0.082795225,-15.554993,0.0,0.0,0.0,0.0,-0.01,-2.97,0.0,0.0,0.0,0.0,0.0,0.0,0.0,0.4187936,488.83002,0.0,0.0,0.0,0.0,0.0,0.0,inf,inf,inf,inf,1,1,1,1,0,0,0,0,1,1,0
3162072000,0,47.3977508,8.5456074,7.073231e-10,-0.082795225,-15.852997,0.0,0.0,0.0,0.0,-0.01,-2.97,0.0,0.0,0.0,0.0,0.0,0.0,0.0,0.41883436,488.83002,0.0,0.0,0.0,0.0,0.0,0.0,inf,inf,inf,inf,1,1,1,1,0,0,0,0,1,1,0
3162176000,0,47.3977508,8.5456074,7.073231e-10,-0.082795225,-16.16101,0.0,0.0,0.0,0.0,-0.01,-2.96,0.0,0.0,0.0,0.0,0.0,0.0,0.0,0.41876867,488.83002,0.0,0.0,0.0,0.0,0.0,0.0,inf,inf,inf,inf,1,1,1,1,0,0,0,0,1,1,0
3162272000,0,47.3977508,8.5456074,7.073231e-10,-0.09032206,-16.445007,0.0,0.0,0.0,0.0,-0.01,-2.95,0.0,0.0,0.0,0.0,0.0,0.0,0.0,0.4186354,488.83002,0.0,0.0,0.0,0.0,0.0,0.0,inf,inf,inf,inf,1,1,1,1,0,0,0,0,1,1,0
3162376000,0,47.3977508,8.5456074,7.073231e-10,-0.09032206,-16.752014,0.0,0.0,0.0,0.0,-0.01,-2.95,0.0,0.0,0.0,0.0,0.0,0.0,0.0,0.41864893,488.83002,0.0,0.0,0.0,0.0,0.0,0.0,inf,inf,inf,inf,1,1,1,1,0,0,0,0,1,1,0
3162476000,0,47.3977508,8.5456074,7.073231e-10,-0.09032206,-17.048004,0.0,0.0,0.0,0.0,-0.01,-2.95,0.0,0.0,0.0,0.0,0.0,0.0,0.0,0.41868943,488.83002,0.0,0.0,0.0,0.0,0.0,0.0,inf,inf,inf,inf,1,1,1,1,0,0,0,0,1,1,0
3162576000,0,47.3977508,8.5456074,7.073231e-10,-0.09032206,-17.343018,0.0,0.0,0.0,0.0,-0.01,-2.9399998,0.0,0.0,0.0,0.0,0.0,0.0,0.0,0.418675,488.83002,0.0,0.0,0.0,0.0,0.0,0.0,inf,inf,inf,inf,1,1,1,1,0,0,0,0,1,1,0
3162676000,0,47.3977508,8.5456074,7.073231e-10,-0.09032206,-17.636993,0.0,0.0,0.0,-0.01,0.0,-2.9399998,0.0,0.0,0.0,0.0,0.0,0.0,0.0,0.4186048,488.83002,0.0,0.0,0.0,0.0,0.0,0.0,inf,inf,inf,inf,1,1,1,1,0,0,0,0,1,1,0
3162772000,0,47.3977508,8.5456074,7.073231e-10,-0.09032206,-17.920013,0.0,0.0,0.0,-0.01,0.0,-2.9399998,0.0,0.0,0.0,0.0,0.0,0.0,0.0,0.41854304,488.83002,0.0,0.0,0.0,0.0,0.0,0.0,inf,inf,inf,inf,1,1,1,1,0,0,0,0,1,1,0
3162876000,0,47.3977508,8.5456074,7.073231e-10,-0.09032206,-18.226013,0.0,0.0,0.0,-0.01,0.0,-2.9399998,0.0,0.0,0.0,0.0,0.0,0.0,0.0,0.41854978,488.83002,0.0,0.0,0.0,0.0,0.0,0.0,inf,inf,inf,inf,1,1,1,1,0,0,0,0,1,1,0
3162972000,0,47.3977508,8.5456074,7.073231e-10,-0.09032206,-18.509003,0.0,0.0,0.0,-0.01,0.0,-2.9299998,0.0,0.0,0.0,0.0,0.0,0.0,0.0,0.41864285,488.83002,0.0,0.0,0.0,0.0,0.0,0.0,inf,inf,inf,inf,1,1,1,1,0,0,0,0,1,1,0
3163076000,0,47.3977508,8.5456074,7.073231e-10,-0.09032206,-18.813995,0.0,0.0,0.0,-0.01,0.0,-2.9299998,0.0,0.0,0.0,0.0,0.0,0.0,0.0,0.41879922,488.83002,0.0,0.0,0.0,0.0,0.0,0.0,inf,inf,inf,inf,1,1,1,1,0,0,0,0,1,1,0
3163176000,0,47.3977508,8.5456074,-0.011119491,-0.09032206,-19.106995,0.0,0.0,0.0,-0.01,0.0,-2.9299998,0.0,0.0,0.0,0.0,0.0,0.0,0.0,0.41890213,488.83002,0.0,0.0,0.0,0.0,0.0,0.0,inf,inf,inf,inf,1,1,1,1,0,0,0,0,1,1,0
3163276000,0,47.3977508,8.5456074,-0.011119491,-0.09032206,-19.399994,0.0,0.0,0.0,-0.01,0.0,-2.9199998,0.0,0.0,0.0,0.0,0.0,0.0,0.0,0.41902974,488.83002,0.0,0.0,0.0,0.0,0.0,0.0,inf,inf,inf,inf,1,1,1,1,0,0,0,0,1,1,0
3163376000,0,47.3977508,8.5456074,-0.011119491,-0.09032206,-19.692993,0.0,0.0,0.0,-0.01,0.01,-2.9199998,0.0,0.0,0.0,0.0,0.0,0.0,0.0,0.4191452,488.83002,0.0,0.0,0.0,0.0,0.0,0.0,inf,inf,inf,inf,1,1,1,1,0,0,0,0,1,1,0
3163472000,0,47.3977508,8.5456074,-0.011119491,-0.09032206,-19.972015,0.0,0.0,0.0,-0.01,0.01,-2.86,0.0,0.0,0.0,0.0,0.0,0.0,0.0,0.41907343,488.83002,0.0,0.0,0.0,0.0,0.0,0.0,inf,inf,inf,inf,1,1,1,1,0,0,0,0,1,1,0
3163572000,0,47.3977508,8.5456074,-0.011119491,-0.09032206,-20.253021,0.0,0.0,0.0,-0.01,0.01,-2.76,0.0,0.0,0.0,0.0,0.0,0.0,0.0,0.41891277,488.83002,0.0,0.0,0.0,0.0,0.0,0.0,inf,inf,inf,inf,1,1,1,1,0,0,0,0,1,1,0
3163672000,0,47.3977508,8.5456074,-0.011119491,-0.09032206,-20.524017,0.0,0.0,0.0,-0.01,0.01,-2.6699998,0.0,0.0,0.0,0.0,0.0,0.0,0.0,0.418785,488.83002,0.0,0.0,0.0,0.0,0.0,0.0,inf,inf,inf,inf,1,1,1,1,0,0,0,0,1,1,0
3163772000,0,47.3977508,8.5456074,-0.011119491,-0.082795225,-20.787994,0.0,0.0,0.0,-0.01,0.01,-2.59,0.0,0.0,0.0,0.0,0.0,0.0,0.0,0.41874805,488.83002,0.0,0.0,0.0,0.0,0.0,0.0,inf,inf,inf,inf,1,1,1,1,0,0,0,0,1,1,0
3163872000,0,47.3977508,8.5456074,-0.022238985,-0.082795225,-21.043,0.0,0.0,0.0,-0.01,0.01,-2.51,0.0,0.0,0.0,0.0,0.0,0.0,0.0,0.41874847,488.83002,0.0,0.0,0.0,0.0,0.0,0.0,inf,inf,inf,inf,1,1,1,1,0,0,0,0,1,1,0
3163972000,0,47.3977508,8.5456074,-0.022238985,-0.082795225,-21.290009,0.0,0.0,0.0,-0.02,0.01,-2.4299998,0.0,0.0,0.0,0.0,0.0,0.0,0.0,0.4186754,488.83002,0.0,0.0,0.0,0.0,0.0,0.0,inf,inf,inf,inf,1,1,1,1,0,0,0,0,1,1,0
3164072000,0,47.3977508,8.5456074,-0.022238985,-0.082795225,-21.529022,0.0,0.0,0.0,-0.02,0.02,-2.35,0.0,0.0,0.0,0.0,0.0,0.0,0.0,0.4185511,488.83002,0.0,0.0,0.0,0.0,0.0,0.0,inf,inf,inf,inf,1,1,1,1,0,0,0,0,1,1,0
3164176000,0,47.3977508,8.5456074,-0.022238985,-0.07526839,-21.77002,0.0,0.0,0.0,-0.02,0.02,-2.27,0.0,0.0,0.0,0.0,0.0,0.0,0.0,0.41840196,488.83002,0.0,0.0,0.0,0.0,0.0,0.0,inf,inf,inf,inf,1,1,1,1,0,0,0,0,1,1,0
3164276000,0,47.3977508,8.5456074,-0.022238985,-0.07526839,-21.985016,0.0,0.0,0.0,-0.02,0.02,-2.21,0.0,0.0,0.0,0.0,0.0,0.0,0.0,0.4183892,488.83002,0.0,0.0,0.0,0.0,0.0,0.0,inf,inf,inf,inf,1,1,1,1,0,0,0,0,1,1,0
3164376000,0,47.3977508,8.5456074,-0.033358477,-0.07526839,-22.205017,0.0,0.0,0.0,-0.02,0.02,-2.1699998,0.0,0.0,0.0,0.0,0.0,0.0,0.0,0.418481,488.83002,0.0,0.0,0.0,0.0,0.0,0.0,inf,inf,inf,inf,1,1,1,1,0,0,0,0,1,1,0
3164476000,0,47.3977508,8.5456074,-0.033358477,-0.07526839,-22.428009,0.0,0.0,0.0,-0.02,0.02,-2.1,0.0,0.0,0.0,0.0,0.0,0.0,0.0,0.41858026,488.83002,0.0,0.0,0.0,0.0,0.0,0.0,inf,inf,inf,inf,1,1,1,1,0,0,0,0,1,1,0
3164580000,0,47.3977508,8.5456074,-0.033358477,-0.06774155,-22.643005,0.0,0.0,0.0,-0.03,0.02,-2.03,0.0,0.0,0.0,0.0,0.0,0.0,0.0,0.41860864,488.83002,0.0,0.0,0.0,0.0,0.0,0.0,inf,inf,inf,inf,1,1,1,1,0,0,0,0,1,1,0
3164676000,0,47.3977508,8.5456074,-0.033358477,-0.06774155,-22.835022,0.0,0.0,0.0,-0.03,0.02,-1.9599999,0.0,0.0,0.0,0.0,0.0,0.0,0.0,0.41868716,488.83002,0.0,0.0,0.0,0.0,0.0,0.0,inf,inf,inf,inf,1,1,1,1,0,0,0,0,1,1,0
3164780000,0,47.3977508,8.5456074,-0.04447797,-0.06021471,-23.035004,0.0,0.0,0.0,-0.03,0.02,-1.89,0.0,0.0,0.0,0.0,0.0,0.0,0.0,0.41877908,488.83002,0.0,0.0,0.0,0.0,0.0,0.0,inf,inf,inf,inf,1,1,1,1,0,0,0,0,1,1,0
3164876000,0,47.3977508,8.5456074,-0.04447797,-0.06021471,-23.21399,0.0,0.0,0.0,-0.03,0.02,-1.8199999,0.0,0.0,0.0,0.0,0.0,0.0,0.0,0.41878283,488.83002,0.0,0.0,0.0,0.0,0.0,0.0,inf,inf,inf,inf,1,1,1,1,0,0,0,0,1,1,0
3164980000,0,47.3977508,8.5456074,-0.04447797,-0.06021471,-23.400024,0.0,0.0,0.0,-0.03,0.02,-1.76,0.0,0.0,0.0,0.0,0.0,0.0,0.0,0.4187526,488.83002,0.0,0.0,0.0,0.0,0.0,0.0,inf,inf,inf,inf,1,1,1,1,0,0,0,0,1,1,0
3165080000,0,47.3977508,8.5456074,-0.05559746,-0.06021471,-23.574036,0.0,0.0,0.0,-0.03,0.02,-1.7199999,0.0,0.0,0.0,0.0,0.0,0.0,0.0,0.41882494,488.83002,0.0,0.0,0.0,0.0,0.0,0.0,inf,inf,inf,inf,1,1,1,1,0,0,0,0,1,1,0
3165180000,0,47.3977508,8.5456074,-0.05559746,-0.052687872,-23.744019,0.0,0.0,0.0,-0.03,0.02,-1.66,0.0,0.0,0.0,0.0,0.0,0.0,0.0,0.41891274,488.83002,0.0,0.0,0.0,0.0,0.0,0.0,inf,inf,inf,inf,1,1,1,1,0,0,0,0,1,1,0
3165280000,0,47.3977508,8.5456074,-0.05559746,-0.052687872,-23.900024,0.0,0.0,0.0,-0.03,0.02,-1.5999999,0.0,0.0,0.0,0.0,0.0,0.0,0.0,0.41896552,488.83002,0.0,0.0,0.0,0.0,0.0,0.0,inf,inf,inf,inf,1,1,1,1,0,0,0,0,1,1,0
3165380000,0,47.3977508,8.5456074,-0.066716954,-0.052687872,-24.057983,0.0,0.0,0.0,-0.03,0.02,-1.54,0.0,0.0,0.0,0.0,0.0,0.0,0.0,0.41892767,488.83002,0.0,0.0,0.0,0.0,0.0,0.0,inf,inf,inf,inf,1,1,1,1,0,0,0,0,1,1,0
3165476000,0,47.3977508,8.5456074,-0.066716954,-0.04516103,-24.210022,0.0,0.0,0.0,-0.03,0.02,-1.49,0.0,0.0,0.0,0.0,0.0,0.0,0.0,0.41884202,488.83002,0.0,0.0,0.0,0.0,0.0,0.0,inf,inf,inf,inf,1,1,1,1,0,0,0,0,1,1,0
3165580000,0,47.3977508,8.5456074,-0.066716954,-0.04516103,-24.362,0.0,0.0,0.0,-0.03,0.02,-1.43,0.0,0.0,0.0,0.0,0.0,0.0,0.0,0.41873977,488.83002,0.0,0.0,0.0,0.0,0.0,0.0,inf,inf,inf,inf,1,1,1,1,0,0,0,0,1,1,0
3165680000,0,47.3977508,8.5456074,-0.07783645,-0.04516103,-24.502014,0.0,0.0,0.0,-0.03,0.02,-1.38,0.0,0.0,0.0,0.0,0.0,0.0,0.0,0.4186363,488.83002,0.0,0.0,0.0,0.0,0.0,0.0,inf,inf,inf,inf,1,1,1,1,0,0,0,0,1,1,0
3165776000,0,47.3977508,8.5456074,-0.07783645,-0.037634194,-24.627014,0.0,0.0,0.0,-0.03,0.02,-1.3299999,0.0,0.0,0.0,0.0,0.0,0.0,0.0,0.4184917,488.83002,0.0,0.0,0.0,0.0,0.0,0.0,inf,inf,inf,inf,1,1,1,1,0,0,0,0,1,1,0
3165880000,0,47.3977508,8.5456074,-0.07783645,-0.037634194,-24.768982,0.0,0.0,0.0,-0.03,0.02,-1.29,0.0,0.0,0.0,0.0,0.0,0.0,0.0,0.4183012,488.83002,0.0,0.0,0.0,0.0,0.0,0.0,inf,inf,inf,inf,1,1,1,1,0,0,0,0,1,1,0
3165980000,0,47.3977508,8.5456074,-0.08895594,-0.037634194,-24.895996,0.0,0.0,0.0,-0.03,0.02,-1.25,0.0,0.0,0.0,0.0,0.0,0.0,0.0,0.41803685,488.83002,0.0,0.0,0.0,0.0,0.0,0.0,inf,inf,inf,inf,1,1,1,1,0,0,0,0,1,1,0
3166076000,0,47.3977508,8.5456074,-0.08895594,-0.030107355,-25.01001,0.0,0.0,0.0,-0.03,0.02,-1.2099999,0.0,0.0,0.0,0.0,0.0,0.0,0.0,0.41789353,488.83002,0.0,0.0,0.0,0.0,0.0,0.0,inf,inf,inf,inf,1,1,1,1,0,0,0,0,1,1,0
3166180000,0,47.3977508,8.5456074,-0.08895594,-0.030107355,-25.138977,0.0,0.0,0.0,-0.03,0.02,-1.17,0.0,0.0,0.0,0.0,0.0,0.0,0.0,0.41791058,488.83002,0.0,0.0,0.0,0.0,0.0,0.0,inf,inf,inf,inf,1,1,1,1,0,0,0,0,1,1,0
3166280000,0,47.3977508,8.5456074,-0.08895594,-0.030107355,-25.25,0.0,0.0,0.0,-0.03,0.02,-1.14,0.0,0.0,0.0,0.0,0.0,0.0,0.0,0.41781992,488.83002,0.0,0.0,0.0,0.0,0.0,0.0,inf,inf,inf,inf,1,1,1,1,0,0,0,0,1,1,0
3166376000,0,47.3977508,8.5456074,-0.10007543,-0.022580516,-25.359009,0.0,0.0,0.0,-0.03,0.02,-1.11,0.0,0.0,0.0,0.0,0.0,0.0,0.0,0.41791528,488.83002,0.0,0.0,0.0,0.0,0.0,0.0,inf,inf,inf,inf,1,1,1,1,0,0,0,0,1,1,0
3166480000,0,47.3977508,8.5456074,-0.10007543,-0.022580516,-25.47699,0.0,0.0,0.0,-0.02,0.02,-1.0699999,0.0,0.0,0.0,0.0,0.0,0.0,0.0,0.41805694,488.83002,0.0,0.0,0.0,0.0,0.0,0.0,inf,inf,inf,inf,1,1,1,1,0,0,0,0,1,1,0
3166576000,0,47.3977508,8.5456074,-0.10007543,-0.022580516,-25.580017,0.0,0.0,0.0,-0.02,0.02,-1.05,0.0,0.0,0.0,0.0,0.0,0.0,0.0,0.4180602,488.83002,0.0,0.0,0.0,0.0,0.0,0.0,inf,inf,inf,inf,1,1,1,1,0,0,0,0,1,1,0
3166676000,0,47.3977508,8.5456074,-0.11119492,-0.015053677,-25.679016,0.0,0.0,0.0,-0.02,0.01,-1.02,0.0,0.0,0.0,0.0,0.0,0.0,0.0,0.41807434,488.83002,0.0,0.0,0.0,0.0,0.0,0.0,inf,inf,inf,inf,1,1,1,1,0,0,0,0,1,1,0
3166780000,0,47.3977508,8.5456074,-0.11119492,-0.015053677,-25.788025,0.0,0.0,0.0,-0.02,0.01,-0.98999995,0.0,0.0,0.0,0.0,0.0,0.0,0.0,0.41803354,488.83002,0.0,0.0,0.0,0.0,0.0,0.0,inf,inf,inf,inf,1,1,1,1,0,0,0,0,1,1,0
3166876000,0,47.3977508,8.5456074,-0.11119492,-0.015053677,-25.882996,0.0,0.0,0.0,-0.02,0.01,-0.96999997,0.0,0.0,0.0,0.0,0.0,0.0,0.0,0.41814327,488.83002,0.0,0.0,0.0,0.0,0.0,0.0,inf,inf,inf,inf,1,1,1,1,0,0,0,0,1,1,0
3166980000,0,47.3977508,8.5456074,-0.11119492,-0.015053677,-25.979004,0.0,0.0,0.0,-0.02,0.01,-0.94,0.0,0.0,0.0,0.0,0.0,0.0,0.0,0.41820967,488.83002,0.0,0.0,0.0,0.0,0.0,0.0,inf,inf,inf,inf,1,1,1,1,0,0,0,0,1,1,0
3167080000,0,47.3977508,8.5456074,-0.122314416,-0.015053677,-26.077026,0.0,0.0,0.0,-0.02,0.0,-0.91999996,0.0,0.0,0.0,0.0,0.0,0.0,0.0,0.41818985,488.83002,0.0,0.0,0.0,0.0,0.0,0.0,inf,inf,inf,inf,1,1,1,1,0,0,0,0,1,1,0
3167180000,0,47.3977508,8.5456074,-0.122314416,-0.015053677,-26.16803,0.0,0.0,0.0,-0.02,0.0,-0.89,0.0,0.0,0.0,0.0,0.0,0.0,0.0,0.41815332,488.83002,0.0,0.0,0.0,0.0,0.0,0.0,inf,inf,inf,inf,1,1,1,1,0,0,0,0,1,1,0
3167280000,0,47.3977508,8.5456074,-0.122314416,-0.0075268387,-26.25299,0.0,0.0,0.0,-0.02,0.0,-0.87,0.0,0.0,0.0,0.0,0.0,0.0,0.0,0.41809893,488.83002,0.0,0.0,0.0,0.0,0.0,0.0,inf,inf,inf,inf,1,1,1,1,0,0,0,0,1,1,0
3167376000,0,47.3977508,8.5456074,-0.122314416,-0.0075268387,-26.33899,0.0,0.0,0.0,-0.02,0.0,-0.84999996,0.0,0.0,0.0,0.0,0.0,0.0,0.0,0.41804272,488.83002,0.0,0.0,0.0,0.0,0.0,0.0,inf,inf,inf,inf,1,1,1,1,0,0,0,0,1,1,0
3167480000,0,47.3977508,8.5456074,-0.122314416,-0.0075268387,-26.426025,0.0,0.0,0.0,-0.02,0.0,-0.82,0.0,0.0,0.0,0.0,0.0,0.0,0.0,0.41803983,488.83002,0.0,0.0,0.0,0.0,0.0,0.0,inf,inf,inf,inf,1,1,1,1,0,0,0,0,1,1,0
3167576000,0,47.3977508,8.5456074,-0.13343391,-0.0075268387,-26.504028,0.0,0.0,0.0,-0.02,0.0,-0.79999995,0.0,0.0,0.0,0.0,0.0,0.0,0.0,0.41806757,488.83002,0.0,0.0,0.0,0.0,0.0,0.0,inf,inf,inf,inf,1,1,1,1,0,0,0,0,1,1,0
3167680000,0,47.3977508,8.5456074,-0.13343391,-0.0075268387,-26.585999,0.0,0.0,0.0,-0.01,0.0,-0.77,0.0,0.0,0.0,0.0,0.0,0.0,0.0,0.4180886,488.83002,0.0,0.0,0.0,0.0,0.0,0.0,inf,inf,inf,inf,1,1,1,1,0,0,0,0,1,1,0
3167780000,0,47.3977508,8.5456074,-0.13343391,-0.0075268387,-26.663025,0.0,0.0,0.0,-0.01,0.0,-0.75,0.0,0.0,0.0,0.0,0.0,0.0,0.0,0.41810724,488.83002,0.0,0.0,0.0,0.0,0.0,0.0,inf,inf,inf,inf,1,1,1,1,0,0,0,0,1,1,0
3167876000,0,47.3977508,8.5456074,-0.13343391,-0.0075268387,-26.734009,0.0,0.0,0.0,-0.01,0.0,-0.72999996,0.0,0.0,0.0,0.0,0.0,0.0,0.0,0.41804528,488.83002,0.0,0.0,0.0,0.0,0.0,0.0,inf,inf,inf,inf,1,1,1,1,0,0,0,0,1,1,0
3167980000,0,47.3977508,8.5456074,-0.13343391,-0.0075268387,-26.809998,0.0,0.0,0.0,-0.01,0.0,-0.71,0.0,0.0,0.0,0.0,0.0,0.0,0.0,0.41795412,488.83002,0.0,0.0,0.0,0.0,0.0,0.0,inf,inf,inf,inf,1,1,1,1,0,0,0,0,1,1,0
3168080000,0,47.3977508,8.5456074,-0.13343391,-0.0075268387,-26.880005,0.0,0.0,0.0,-0.01,0.0,-0.68,0.0,0.0,0.0,0.0,0.0,0.0,0.0,0.4179496,488.83002,0.0,0.0,0.0,0.0,0.0,0.0,inf,inf,inf,inf,1,1,1,1,0,0,0,0,1,1,0
3168180000,0,47.3977508,8.5456074,-0.13343391,-0.0075268387,-26.947021,0.0,0.0,0.0,-0.01,0.0,-0.65999997,0.0,0.0,0.0,0.0,0.0,0.0,0.0,0.41796023,488.83002,0.0,0.0,0.0,0.0,0.0,0.0,inf,inf,inf,inf,1,1,1,1,0,0,0,0,1,1,0
3168280000,0,47.3977508,8.5456074,-0.14455341,-0.0075268387,-27.013,0.0,0.0,0.0,0.0,0.0,-0.64,0.0,0.0,0.0,0.0,0.0,0.0,0.0,0.41799062,488.83002,0.0,0.0,0.0,0.0,0.0,0.0,inf,inf,inf,inf,1,1,1,1,0,0,0,0,1,1,0
3168380000,0,47.3977508,8.5456074,-0.14455341,-0.0075268387,-27.077026,0.0,0.0,0.0,0.0,0.0,-0.62,0.0,0.0,0.0,0.0,0.0,0.0,0.0,0.41790247,488.83002,0.0,0.0,0.0,0.0,0.0,0.0,inf,inf,inf,inf,1,1,1,1,0,0,0,0,1,1,0
3168480000,0,47.3977508,8.5456074,-0.14455341,-0.0075268387,-27.138977,0.0,0.0,0.0,0.0,0.0,-0.61,0.0,0.0,0.0,0.0,0.0,0.0,0.0,0.41783267,488.83002,0.0,0.0,0.0,0.0,0.0,0.0,inf,inf,inf,inf,1,1,1,1,0,0,0,0,1,1,0
3168576000,0,47.3977508,8.5456074,-0.14455341,-0.0075268387,-27.197021,0.0,0.0,0.0,0.0,0.0,-0.59,0.0,0.0,0.0,0.0,0.0,0.0,0.0,0.41769633,488.83002,0.0,0.0,0.0,0.0,0.0,0.0,inf,inf,inf,inf,1,1,1,1,0,0,0,0,1,1,0
3168680000,0,47.3977508,8.5456074,-0.14455341,-0.0075268387,-27.259033,0.0,0.0,0.0,0.0,0.0,-0.58,0.0,0.0,0.0,0.0,0.0,0.0,0.0,0.41760415,488.83002,0.0,0.0,0.0,0.0,0.0,0.0,inf,inf,inf,inf,1,1,1,1,0,0,0,0,1,1,0
3168776000,0,47.3977508,8.5456074,-0.14455341,-0.0075268387,-27.312012,0.0,0.0,0.0,0.0,0.0,-0.57,0.0,0.0,0.0,0.0,0.0,0.0,0.0,0.41752952,488.83002,0.0,0.0,0.0,0.0,0.0,0.0,inf,inf,inf,inf,1,1,1,1,0,0,0,0,1,1,0
3168876000,0,47.3977508,8.5456074,-0.14455341,-0.0075268387,-27.371033,0.0,0.0,0.0,0.0,0.0,-0.55,0.0,0.0,0.0,0.0,0.0,0.0,0.0,0.41738164,488.83002,0.0,0.0,0.0,0.0,0.0,0.0,inf,inf,inf,inf,1,1,1,1,0,0,0,0,1,1,0
3168980000,0,47.3977508,8.5456074,-0.14455341,-0.0075268387,-27.427979,0.0,0.0,0.0,0.0,0.0,-0.53,0.0,0.0,0.0,0.0,0.0,0.0,0.0,0.41725606,488.83002,0.0,0.0,0.0,0.0,0.0,0.0,inf,inf,inf,inf,1,1,1,1,0,0,0,0,1,1,0
3169080000,0,47.3977508,8.5456074,-0.14455341,-0.0075268387,-27.481018,0.0,0.0,0.0,0.0,0.0,-0.52,0.0,0.0,0.0,0.0,0.0,0.0,0.0,0.41719925,488.83002,0.0,0.0,0.0,0.0,0.0,0.0,inf,inf,inf,inf,1,1,1,1,0,0,0,0,1,1,0
3169180000,0,47.3977508,8.5456074,-0.14455341,-0.015053677,-27.531982,0.0,0.0,0.0,0.0,0.0,-0.5,0.0,0.0,0.0,0.0,0.0,0.0,0.0,0.41712725,488.83002,0.0,0.0,0.0,0.0,0.0,0.0,inf,inf,inf,inf,1,1,1,1,0,0,0,0,1,1,0
3169280000,0,47.3977508,8.5456074,-0.14455341,-0.015053677,-27.580994,0.0,0.0,0.0,-0.01,0.0,-0.48,0.0,0.0,0.0,0.0,0.0,0.0,0.0,0.41709623,488.83002,0.0,0.0,0.0,0.0,0.0,0.0,inf,inf,inf,inf,1,1,1,1,0,0,0,0,1,1,0
3169376000,0,47.3977508,8.5456074,-0.14455341,-0.015053677,-27.627014,0.0,0.0,0.0,-0.01,0.0,-0.47,0.0,0.0,0.0,0.0,0.0,0.0,0.0,0.4170959,488.83002,0.0,0.0,0.0,0.0,0.0,0.0,inf,inf,inf,inf,1,1,1,1,0,0,0,0,1,1,0
3169480000,0,47.3977508,8.5456074,-0.14455341,-0.015053677,-27.674988,0.0,0.0,0.0,-0.01,0.0,-0.45,0.0,0.0,0.0,0.0,0.0,0.0,0.0,0.41707012,488.83002,0.0,0.0,0.0,0.0,0.0,0.0,inf,inf,inf,inf,1,1,1,1,0,0,0,0,1,1,0
3169580000,0,47.3977508,8.5456074,-0.1556729,-0.015053677,-27.720032,0.0,0.0,0.0,-0.01,-0.01,-0.42999998,0.0,0.0,0.0,0.0,0.0,0.0,0.0,0.41703716,488.83002,0.0,0.0,0.0,0.0,0.0,0.0,inf,inf,inf,inf,1,1,1,1,0,0,0,0,1,1,0
3169676000,0,47.3977508,8.5456074,-0.1556729,-0.015053677,-27.762024,0.0,0.0,0.0,-0.01,-0.01,-0.42,0.0,0.0,0.0,0.0,0.0,0.0,0.0,0.4169488,488.83002,0.0,0.0,0.0,0.0,0.0,0.0,inf,inf,inf,inf,1,1,1,1,0,0,0,0,1,1,0
3169776000,0,47.3977508,8.5456074,-0.1556729,-0.015053677,-27.804016,0.0,0.0,0.0,-0.01,-0.01,-0.41,0.0,0.0,0.0,0.0,0.0,0.0,0.0,0.41680163,488.83002,0.0,0.0,0.0,0.0,0.0,0.0,inf,inf,inf,inf,1,1,1,1,0,0,0,0,1,1,0
3169876000,0,47.3977508,8.5456074,-0.1556729,-0.022580517,-27.845032,0.0,0.0,0.0,-0.01,-0.01,-0.39999998,0.0,0.0,0.0,0.0,0.0,0.0,0.0,0.4168337,488.83002,0.0,0.0,0.0,0.0,0.0,0.0,inf,inf,inf,inf,1,1,1,1,0,0,0,0,1,1,0
3169980000,0,47.3977508,8.5456074,-0.1556729,-0.022580517,-27.885986,0.0,0.0,0.0,-0.01,-0.01,-0.38,0.0,0.0,0.0,0.0,0.0,0.0,0.0,0.41688955,488.83002,0.0,0.0,0.0,0.0,0.0,0.0,inf,inf,inf,inf,1,1,1,1,0,0,0,0,1,1,0
3170076000,0,47.3977508,8.5456074,-0.1556729,-0.022580517,-27.919983,0.0,0.0,0.0,-0.01,-0.01,-0.37,0.0,0.0,0.0,0.0,0.0,0.0,0.0,0.41693324,488.83002,0.0,0.0,0.0,0.0,0.0,0.0,inf,inf,inf,inf,1,1,1,1,0,0,0,0,1,1,0
3170180000,0,47.3977508,8.5456074,-0.1556729,-0.022580517,-27.960022,0.0,0.0,0.0,-0.01,-0.01,-0.35,0.0,0.0,0.0,0.0,0.0,0.0,0.0,0.41688156,488.83002,0.0,0.0,0.0,0.0,0.0,0.0,inf,inf,inf,inf,1,1,1,1,0,0,0,0,1,1,0
3170276000,0,47.3977508,8.5456074,-0.1556729,-0.022580517,-27.994019,0.0,0.0,0.0,-0.01,-0.01,-0.34,0.0,0.0,0.0,0.0,0.0,0.0,0.0,0.41678247,488.83002,0.0,0.0,0.0,0.0,0.0,0.0,inf,inf,inf,inf,1,1,1,1,0,0,0,0,1,1,0
3170380000,0,47.3977508,8.5456074,-0.1556729,-0.030107355,-28.028992,0.0,0.0,0.0,-0.01,-0.01,-0.32999998,0.0,0.0,0.0,0.0,0.0,0.0,0.0,0.41674224,488.83002,0.0,0.0,0.0,0.0,0.0,0.0,inf,inf,inf,inf,1,1,1,1,0,0,0,0,1,1,0
3170476000,0,47.3977508,8.5456074,-0.1556729,-0.030107355,-28.062012,0.0,0.0,0.0,-0.01,-0.02,-0.32999998,0.0,0.0,0.0,0.0,0.0,0.0,0.0,0.41670734,488.83002,0.0,0.0,0.0,0.0,0.0,0.0,inf,inf,inf,inf,1,1,1,1,0,0,0,0,1,1,0
3170576000,0,47.3977508,8.5456074,-0.1667924,-0.030107355,-28.095032,0.0,0.0,0.0,0.0,-0.02,-0.32,0.0,0.0,0.0,0.0,0.0,0.0,0.0,0.41679043,488.83002,0.0,0.0,0.0,0.0,0.0,0.0,inf,inf,inf,inf,1,1,1,1,0,0,0,0,1,1,0
3170680000,0,47.3977508,8.5456074,-0.1667924,-0.030107355,-28.12799,0.0,0.0,0.0,-0.01,-0.02,-0.31,0.0,0.0,0.0,0.0,0.0,0.0,0.0,0.41679502,488.83002,0.0,0.0,0.0,0.0,0.0,0.0,inf,inf,inf,inf,1,1,1,1,0,0,0,0,1,1,0
3170780000,0,47.3977508,8.5456074,-0.1667924,-0.037634194,-28.158997,0.0,0.0,0.0,-0.01,-0.02,-0.29999998,0.0,0.0,0.0,0.0,0.0,0.0,0.0,0.4167164,488.83002,0.0,0.0,0.0,0.0,0.0,0.0,inf,inf,inf,inf,1,1,1,1,0,0,0,0,1,1,0
3170880000,0,47.3977508,8.5456074,-0.1667924,-0.037634194,-28.189026,0.0,0.0,0.0,-0.01,-0.02,-0.29,0.0,0.0,0.0,0.0,0.0,0.0,0.0,0.41668376,488.83002,0.0,0.0,0.0,0.0,0.0,0.0,inf,inf,inf,inf,1,1,1,1,0,0,0,0,1,1,0
3170976000,0,47.3977508,8.5456074,-0.1667924,-0.045161035,-28.218018,0.0,0.0,0.0,-0.01,-0.02,-0.28,0.0,0.0,0.0,0.0,0.0,0.0,0.0,0.41668376,488.83002,0.0,0.0,0.0,0.0,0.0,0.0,inf,inf,inf,inf,1,1,1,1,0,0,0,0,1,1,0
3171080000,0,47.3977508,8.5456074,-0.1667924,-0.045161035,-28.24701,0.0,0.0,0.0,-0.01,-0.02,-0.26999998,0.0,0.0,0.0,0.0,0.0,0.0,0.0,0.41658473,488.83002,0.0,0.0,0.0,0.0,0.0,0.0,inf,inf,inf,inf,1,1,1,1,0,0,0,0,1,1,0
3171180000,0,47.3977508,8.5456074,-0.1667924,-0.045161035,-28.273987,0.0,0.0,0.0,-0.01,-0.02,-0.26,0.0,0.0,0.0,0.0,0.0,0.0,0.0,0.41651392,488.83002,0.0,0.0,0.0,0.0,0.0,0.0,inf,inf,inf,inf,1,1,1,1,0,0,0,0,1,1,0
3171280000,0,47.3977508,8.5456074,-0.1667924,-0.052687872,-28.301025,0.0,0.0,0.0,-0.01,-0.03,-0.25,0.0,0.0,0.0,0.0,0.0,0.0,0.0,0.4165238,488.83002,0.0,0.0,0.0,0.0,0.0,0.0,inf,inf,inf,inf,1,1,1,1,0,0,0,0,1,1,0
3171376000,0,47.3977508,8.5456074,-0.1667924,-0.052687872,-28.325012,0.0,0.0,0.0,-0.01,-0.03,-0.25,0.0,0.0,0.0,0.0,0.0,0.0,0.0,0.41654932,488.83002,0.0,0.0,0.0,0.0,0.0,0.0,inf,inf,inf,inf,1,1,1,1,0,0,0,0,1,1,0
3171476000,0,47.3977508,8.5456074,-0.1667924,-0.06021471,-28.350037,0.0,0.0,0.0,0.0,-0.03,-0.24,0.0,0.0,0.0,0.0,0.0,0.0,0.0,0.41653743,488.83002,0.0,0.0,0.0,0.0,0.0,0.0,inf,inf,inf,inf,1,1,1,1,0,0,0,0,1,1,0
3171580000,0,47.3977508,8.5456074,-0.17791188,-0.06021471,-28.375,0.0,0.0,0.0,0.0,-0.03,-0.22999999,0.0,0.0,0.0,0.0,0.0,0.0,0.0,0.41652894,488.83002,0.0,0.0,0.0,0.0,0.0,0.0,inf,inf,inf,inf,1,1,1,1,0,0,0,0,1,1,0
3171680000,0,47.3977508,8.5456074,-0.17791188,-0.06021471,-28.39801,0.0,0.0,0.0,0.0,-0.03,-0.22999999,0.0,0.0,0.0,0.0,0.0,0.0,0.0,0.4164283,488.83002,0.0,0.0,0.0,0.0,0.0,0.0,inf,inf,inf,inf,1,1,1,1,0,0,0,0,1,1,0
3171780000,0,47.3977508,8.5456074,-0.17791188,-0.06774155,-28.421997,0.0,0.0,0.0,0.0,-0.03,-0.22999999,0.0,0.0,0.0,0.0,0.0,0.0,0.0,0.41648954,488.83002,0.0,0.0,0.0,0.0,0.0,0.0,inf,inf,inf,inf,1,1,1,1,0,0,0,0,1,1,0
3171876000,0,47.3977508,8.5456074,-0.17791188,-0.06774155,-28.442993,0.0,0.0,0.0,0.0,-0.03,-0.24,0.0,0.0,0.0,0.0,0.0,0.0,0.0,0.41650146,488.83002,0.0,0.0,0.0,0.0,0.0,0.0,inf,inf,inf,inf,1,1,1,1,0,0,0,0,1,1,0
3171980000,0,47.3977508,8.5456074,-0.17791188,-0.07526839,-28.468994,0.0,0.0,0.0,0.0,-0.03,-0.22999999,0.0,0.0,0.0,0.0,0.0,0.0,0.0,0.41637635,488.83002,0.0,0.0,0.0,0.0,0.0,0.0,inf,inf,inf,inf,1,1,1,1,0,0,0,0,1,1,0
3172076000,0,47.3977508,8.5456074,-0.1667924,-0.07526839,-28.48999,0.0,0.0,0.0,0.01,-0.02,-0.17999999,0.0,0.0,0.0,0.0,0.0,0.0,0.0,0.41123465,488.83002,0.0,0.0,0.0,0.0,0.0,0.0,inf,inf,inf,inf,1,1,1,1,0,0,0,0,1,1,0
3172180000,0,47.3977508,8.5456074,-0.1667924,-0.082795225,-28.50299,0.0,0.0,0.0,0.01,-0.02,-0.04,0.0,0.0,0.0,0.0,0.0,0.0,0.0,0.39123735,488.83002,0.0,0.0,0.0,0.0,0.0,0.0,inf,inf,inf,inf,1,1,1,1,0,0,0,0,1,1,0
3172280000,0,47.3977508,8.5456074,-0.1667924,-0.082795225,-28.496033,0.0,0.0,0.0,-0.02,-0.049999997,0.17999999,0.0,0.0,0.0,0.0,0.0,0.0,0.0,0.35543206,488.83002,0.0,0.0,0.0,0.0,0.0,0.0,inf,inf,inf,inf,1,1,1,1,0,0,0,0,1,1,0
3172380000,0,47.3977508,8.5456074,-0.17791188,-0.09032207,-28.46399,0.0,0.0,0.0,-0.099999994,-0.13,0.44,0.0,0.0,0.0,0.0,0.0,0.0,0.0,0.30321366,488.83002,0.0,0.0,0.0,0.0,0.0,0.0,inf,inf,inf,inf,1,1,1,1,0,0,0,0,1,1,0
3172480000,0,47.3977508,8.5456074,-0.18903138,-0.11290258,-28.40503,0.0,0.0,0.0,-0.22999999,-0.26999998,0.7,0.0,0.0,0.0,0.0,0.0,0.0,0.0,0.23568335,488.83002,0.0,0.0,0.0,0.0,0.0,0.0,inf,inf,inf,inf,1,1,1,1,0,0,0,0,1,1,0
3172576000,0,47.3977508,8.5456074,-0.22238985,-0.15053678,-28.328003,0.0,0.0,0.0,-0.41,-0.47,0.88,0.0,0.0,0.0,0.0,0.0,0.0,0.0,0.16675805,488.83002,0.0,0.0,0.0,0.0,0.0,0.0,inf,inf,inf,inf,1,1,1,1,0,0,0,0,1,1,0
3172676000,0,47.3977508,8.5456074,-0.2779873,-0.21075149,-28.233032,0.0,0.0,0.0,-0.62,-0.71,0.98999995,0.0,0.0,0.0,0.0,0.0,0.0,0.0,0.09853355,488.83002,0.0,0.0,0.0,0.0,0.0,0.0,inf,inf,inf,inf,1,1,1,1,0,0,0,0,1,1,0
3172776000,0,47.3977508,8.5456074,-0.35582376,-0.29354674,-28.132996,0.0,0.0,0.0,-0.82,-0.96,1.0,0.0,0.0,0.0,0.0,0.0,0.0,0.0,0.032476015,488.83002,0.0,0.0,0.0,0.0,0.0,0.0,inf,inf,inf,inf,1,1,1,1,0,0,0,0,1,1,0
3172880000,0,47.3977508,8.5456074,-0.4447797,-0.40644932,-28.028992,0.0,0.0,0.0,-1.01,-1.1899999,0.97999996,0.0,0.0,0.0,0.0,0.0,0.0,0.0,-0.04016578,488.83002,0.0,0.0,0.0,0.0,0.0,0.0,inf,inf,inf,inf,1,1,1,1,0,0,0,0,1,1,0
3172980000,0,47.3977508,8.5456074,-0.5559746,-0.54193246,-27.93103,0.0,0.0,0.0,-1.17,-1.39,0.96999997,0.0,0.0,0.0,0.0,0.0,0.0,0.0,-0.1169188,488.83002,0.0,0.0,0.0,0.0,0.0,0.0,inf,inf,inf,inf,1,1,1,1,0,0,0,0,1,1,0
3173080000,0,47.3977508,8.5456074,-0.678289,-0.6849424,-27.83899,0.0,0.0,0.0,-1.3299999,-1.5899999,0.94,0.0,0.0,0.0,0.0,0.0,0.0,0.0,-0.19585614,488.83002,0.0,0.0,0.0,0.0,0.0,0.0,inf,inf,inf,inf,1,1,1,1,0,0,0,0,1,1,0
3173176000,0,47.3977508,8.5456074,-0.8117229,-0.8430061,-27.75,0.0,0.0,0.0,-1.4699999,-1.77,0.90999997,0.0,0.0,0.0,0.0,0.0,0.0,0.0,-0.2718903,488.83002,0.0,0.0,0.0,0.0,0.0,0.0,inf,inf,inf,inf,1,1,1,1,0,0,0,0,1,1,0
3173280000,0,47.3977508,8.5456074,-0.97851527,-1.0462308,-27.651978,0.0,0.0,0.0,-1.62,-1.9599999,0.88,0.0,0.0,0.0,0.0,0.0,0.0,0.0,-0.3536485,488.83002,0.0,0.0,0.0,0.0,0.0,0.0,inf,inf,inf,inf,1,1,1,1,0,0,0,0,1,1,0
3173376000,0,47.3977508,8.5456074,-1.1453077,-1.2419286,-27.567993,0.0,0.0,0.0,-1.76,-2.12,0.85999995,0.0,0.0,0.0,0.0,0.0,0.0,0.0,-0.42875975,488.83002,0.0,0.0,0.0,0.0,0.0,0.0,inf,inf,inf,inf,1,1,1,1,0,0,0,0,1,1,0
3173480000,0,47.3977508,8.5456074,-1.3343389,-1.4752607,-27.47998,0.0,0.0,0.0,-1.9,-2.3,0.83,0.0,0.0,0.0,0.0,0.0,0.0,0.0,-0.51008457,488.83002,0.0,0.0,0.0,0.0,0.0,0.0,inf,inf,inf,inf,1,1,1,1,0,0,0,0,1,1,0
3173580000,0,47.3977508,8.5456074,-1.5344898,-1.7161196,-27.397034,0.0,0.0,0.0,-2.03,-2.46,0.81,0.0,0.0,0.0,0.0,0.0,0.0,0.0,-0.5888703,488.83002,0.0,0.0,0.0,0.0,0.0,0.0,inf,inf,inf,inf,1,1,1,1,0,0,0,0,1,1,0
3173680000,0,47.3977508,8.5456074,-1.74576,-1.9720323,-27.317017,0.0,0.0,0.0,-2.1499999,-2.61,0.78999996,0.0,0.0,0.0,0.0,0.0,0.0,0.0,-0.66846764,488.83002,0.0,0.0,0.0,0.0,0.0,0.0,inf,inf,inf,inf,1,1,1,1,0,0,0,0,1,1,0
3173780000,0,47.3977508,8.5456074,-1.9570303,-2.227945,-27.242004,0.0,0.0,0.0,-2.27,-2.75,0.78,0.0,0.0,0.0,0.0,0.0,0.0,0.0,-0.74884677,488.83002,0.0,0.0,0.0,0.0,0.0,0.0,inf,inf,inf,inf,1,1,1,1,0,0,0,0,1,1,0
3173876000,0,47.3977508,8.5456074,-2.1905396,-2.5139651,-27.163025,0.0,0.0,0.0,-2.3799999,-2.86,0.78,0.0,0.0,0.0,0.0,0.0,0.0,0.0,-0.82566315,488.83002,0.0,0.0,0.0,0.0,0.0,0.0,inf,inf,inf,inf,1,1,1,1,0,0,0,0,1,1,0
3173980000,0,47.3977508,8.5456074,-2.4462876,-2.815039,-27.082031,0.0,0.0,0.0,-2.47,-2.9399998,0.77,0.0,0.0,0.0,0.0,0.0,0.0,0.0,-0.90841234,488.83002,0.0,0.0,0.0,0.0,0.0,0.0,inf,inf,inf,inf,1,1,1,1,0,0,0,0,1,1,0
3174080000,0,47.3977508,8.5456074,-2.6909163,-3.101059,-27.007996,0.0,0.0,0.0,-2.54,-3.0,0.77,0.0,0.0,0.0,0.0,0.0,0.0,0.0,-0.9883018,488.83002,0.0,0.0,0.0,0.0,0.0,0.0,inf,inf,inf,inf,1,1,1,1,0,0,0,0,1,1,0
3174180000,0,47.3977508,8.5456074,-2.957784,-3.4171865,-26.927979,0.0,0.0,0.0,-2.57,-3.02,0.76,0.0,0.0,0.0,0.0,0.0,0.0,0.0,-1.0686393,488.83002,0.0,0.0,0.0,0.0,0.0,0.0,inf,inf,inf,inf,1,1,1,1,0,0,0,0,1,1,0
3174280000,0,47.3977508,8.5456074,-3.2135322,-3.7182603,-26.85199,0.0,0.0,0.0,-2.58,-3.02,0.74,0.0,0.0,0.0,0.0,0.0,0.0,0.0,-1.1483766,488.83002,0.0,0.0,0.0,0.0,0.0,0.0,inf,inf,inf,inf,1,1,1,1,0,0,0,0,1,1,0
3174380000,0,47.3977508,8.5456074,-3.4692802,-4.0193343,-26.778015,0.0,0.0,0.0,-2.57,-3.02,0.72999996,0.0,0.0,0.0,0.0,0.0,0.0,0.0,-1.2273855,488.83002,0.0,0.0,0.0,0.0,0.0,0.0,inf,inf,inf,inf,1,1,1,1,0,0,0,0,1,1,0
3174480000,0,47.3977508,8.5456074,-3.7250285,-4.3128815,-26.708008,0.0,0.0,0.0,-2.56,-3.01,0.71999997,0.0,0.0,0.0,0.0,0.0,0.0,0.0,-1.3062681,488.83002,0.0,0.0,0.0,0.0,0.0,0.0,inf,inf,inf,inf,1,1,1,1,0,0,0,0,1,1,0
3174580000,0,47.3977508,8.5456074,-3.9918962,-4.629009,-26.634033,0.0,0.0,0.0,-2.54,-3.01,0.71,0.0,0.0,0.0,0.0,0.0,0.0,0.0,-1.385466,488.83002,0.0,0.0,0.0,0.0,0.0,0.0,inf,inf,inf,inf,1,1,1,1,0,0,0,0,1,1,0
3174676000,0,47.3977508,8.5456074,-4.2365246,-4.915029,-26.565002,0.0,0.0,0.0,-2.53,-3.0,0.71,0.0,0.0,0.0,0.0,0.0,0.0,0.0,-1.4620721,488.83002,0.0,0.0,0.0,0.0,0.0,0.0,inf,inf,inf,inf,1,1,1,1,0,0,0,0,1,1,0
3174780000,0,47.3977508,8.5456074,-4.492273,-5.231157,-26.491028,0.0,0.0,0.0,-2.52,-3.0,0.71,0.0,0.0,0.0,0.0,0.0,0.0,0.0,-1.5456127,488.83002,0.0,0.0,0.0,0.0,0.0,0.0,inf,inf,inf,inf,1,1,1,1,0,0,0,0,1,1,0
3174880000,0,47.3977508,8.5456074,-4.7480206,-5.532231,-26.419983,0.0,0.0,0.0,-2.51,-3.01,0.7,0.0,0.0,0.0,0.0,0.0,0.0,0.0,-1.6261795,488.83002,0.0,0.0,0.0,0.0,0.0,0.0,inf,inf,inf,inf,1,1,1,1,0,0,0,0,1,1,0
3174976000,0,47.3977508,8.5456074,-4.992649,-5.825778,-26.353027,0.0,0.0,0.0,-2.5,-3.01,0.69,0.0,0.0,0.0,0.0,0.0,0.0,0.0,-1.7034341,488.83002,0.0,0.0,0.0,0.0,0.0,0.0,inf,inf,inf,inf,1,1,1,1,0,0,0,0,1,1,0
3175080000,0,47.3977508,8.5456074,-5.2483974,-6.134379,-26.28003,0.0,0.0,0.0,-2.49,-3.01,0.69,0.0,0.0,0.0,0.0,0.0,0.0,0.0,-1.7866982,488.83002,0.0,0.0,0.0,0.0,0.0,0.0,inf,inf,inf,inf,1,1,1,1,0,0,0,0,1,1,0
3175176000,0,47.3977508,8.5456074,-5.4819064,-6.412873,-26.216003,0.0,0.0,0.0,-2.48,-3.01,0.69,0.0,0.0,0.0,0.0,0.0,0.0,0.0,-1.8633262,488.83002,0.0,0.0,0.0,0.0,0.0,0.0,inf,inf,inf,inf,1,1,1,1,0,0,0,0,1,1,0
3175276000,0,47.3977508,8.5456074,-5.737654,-6.7290006,-26.143982,0.0,0.0,0.0,-2.47,-3.02,0.69,0.0,0.0,0.0,0.0,0.0,0.0,0.0,-1.9430922,488.83002,0.0,0.0,0.0,0.0,0.0,0.0,inf,inf,inf,inf,1,1,1,1,0,0,0,0,1,1,0
3175376000,0,47.3977508,8.5456074,-5.9934025,-7.0300746,-26.075012,0.0,0.0,0.0,-2.46,-3.02,0.69,0.0,0.0,0.0,0.0,0.0,0.0,0.0,-2.0232754,488.83002,0.0,0.0,0.0,0.0,0.0,0.0,inf,inf,inf,inf,1,1,1,1,0,0,0,0,1,1,0
3175480000,0,47.3977508,8.5456074,-6.2491503,-7.3462024,-26.00299,0.0,0.0,0.0,-2.45,-3.03,0.68,0.0,0.0,0.0,0.0,0.0,0.0,0.0,-2.1025734,488.83002,0.0,0.0,0.0,0.0,0.0,0.0,inf,inf,inf,inf,1,1,1,1,0,0,0,0,1,1,0
3175580000,0,47.3977508,8.5456074,-6.4937787,-7.6548033,-25.934998,0.0,0.0,0.0,-2.44,-3.04,0.68,0.0,0.0,0.0,0.0,0.0,0.0,0.0,-2.1636214,488.83002,0.0,0.0,0.0,0.0,0.0,0.0,inf,inf,inf,inf,1,1,1,1,0,0,0,0,1,1,0
3175680000,0,47.3977508,8.5456074,-6.738407,-7.9634047,-25.866028,0.0,0.0,0.0,-2.4199998,-3.05,0.68,0.0,0.0,0.0,0.0,0.0,0.0,0.0,-2.2083006,488.83002,0.0,0.0,0.0,0.0,0.0,0.0,inf,inf,inf,inf,1,1,1,1,0,0,0,0,1,1,0
3175780000,0,47.3977508,8.5456074,-6.971916,-8.264479,-25.798035,0.0,0.0,0.0,-2.4199998,-3.07,0.66999996,0.0,0.0,0.0,0.0,0.0,0.0,0.0,-2.2404962,488.83002,0.0,0.0,0.0,0.0,0.0,0.0,inf,inf,inf,inf,1,1,1,1,0,0,0,0,1,1,0
3175880000,0,47.3977508,8.5456074,-7.2165446,-8.57308,-25.72998,0.0,0.0,0.0,-2.4099998,-3.08,0.66999996,0.0,0.0,0.0,0.0,0.0,0.0,0.0,-2.2638588,488.83002,0.0,0.0,0.0,0.0,0.0,0.0,inf,inf,inf,inf,1,1,1,1,0,0,0,0,1,1,0
3175980000,0,47.3977508,8.5456074,-7.450053,-8.874154,-25.664978,0.0,0.0,0.0,-2.4099998,-3.1,0.66999996,0.0,0.0,0.0,0.0,0.0,0.0,0.0,-2.2808256,488.83002,0.0,0.0,0.0,0.0,0.0,0.0,inf,inf,inf,inf,1,1,1,1,0,0,0,0,1,1,0
3176080000,0,47.3977508,8.5456074,-7.705801,-9.197809,-25.593994,0.0,0.0,0.0,-2.4099998,-3.12,0.68,0.0,0.0,0.0,0.0,0.0,0.0,0.0,-2.2928097,488.83002,0.0,0.0,0.0,0.0,0.0,0.0,inf,inf,inf,inf,1,1,1,1,0,0,0,0,1,1,0
3176176000,0,47.3977508,8.5456074,-7.93931,-9.498883,-25.528992,0.0,0.0,0.0,-2.4199998,-3.1299999,0.68,0.0,0.0,0.0,0.0,0.0,0.0,0.0,-2.3006423,488.83002,0.0,0.0,0.0,0.0,0.0,0.0,inf,inf,inf,inf,1,1,1,1,0,0,0,0,1,1,0
3176280000,0,47.3977508,8.5456074,-8.183938,-9.815011,-25.460022,0.0,0.0,0.0,-2.4199998,-3.1499999,0.68,0.0,0.0,0.0,0.0,0.0,0.0,0.0,-2.3061938,488.83002,0.0,0.0,0.0,0.0,0.0,0.0,inf,inf,inf,inf,1,1,1,1,0,0,0,0,1,1,0
3176380000,0,47.3977508,8.5456074,-8.428567,-10.1461935,-25.388977,0.0,0.0,0.0,-2.4199998,-3.1599998,0.68,0.0,0.0,0.0,0.0,0.0,0.0,0.0,-2.309553,488.83002,0.0,0.0,0.0,0.0,0.0,0.0,inf,inf,inf,inf,1,1,1,1,0,0,0,0,1,1,0
3176480000,0,47.3977508,8.5456074,-8.662075,-10.447268,-25.324036,0.0,0.0,0.0,-2.4099998,-3.1699998,0.68,0.0,0.0,0.0,0.0,0.0,0.0,0.0,-2.311604,488.83002,0.0,0.0,0.0,0.0,0.0,0.0,inf,inf,inf,inf,1,1,1,1,0,0,0,0,1,1,0
3176580000,0,47.3977508,8.5456074,-8.917823,-10.785976,-25.25299,0.0,0.0,0.0,-2.4099998,-3.1799998,0.68,0.0,0.0,0.0,0.0,0.0,0.0,0.0,-2.312523,488.83002,0.0,0.0,0.0,0.0,0.0,0.0,inf,inf,inf,inf,1,1,1,1,0,0,0,0,1,1,0
3176676000,0,47.3977508,8.5456074,-9.151332,-11.08705,-25.187012,0.0,0.0,0.0,-2.4199998,-3.1899998,0.68,0.0,0.0,0.0,0.0,0.0,0.0,0.0,-2.3127222,488.83002,0.0,0.0,0.0,0.0,0.0,0.0,inf,inf,inf,inf,1,1,1,1,0,0,0,0,1,1,0
3176776000,0,47.3977508,8.5456074,-9.384841,-11.395652,-25.121033,0.0,0.0,0.0,-2.4199998,-3.1999998,0.68,0.0,0.0,0.0,0.0,0.0,0.0,0.0,-2.312674,488.83002,0.0,0.0,0.0,0.0,0.0,0.0,inf,inf,inf,inf,1,1,1,1,0,0,0,0,1,1,0
3176880000,0,47.3977508,8.5456074,-9.651708,-11.749414,-25.046997,0.0,0.0,0.0,-2.4199998,-3.21,0.69,0.0,0.0,0.0,0.0,0.0,0.0,0.0,-2.3125443,488.83002,0.0,0.0,0.0,0.0,0.0,0.0,inf,inf,inf,inf,1,1,1,1,0,0,0,0,1,1,0
3176980000,0,47.3977508,8.5456074,-9.896336,-12.065543,-24.97699,0.0,0.0,0.0,-2.4299998,-3.22,0.69,0.0,0.0,0.0,0.0,0.0,0.0,0.0,-2.3119419,488.83002,0.0,0.0,0.0,0.0,0.0,0.0,inf,inf,inf,inf,1,1,1,1,0,0,0,0,1,1,0
3177080000,0,47.3977508,8.5456074,-10.1409645,-12.389198,-24.906982,0.0,0.0,0.0,-2.4299998,-3.23,0.7,0.0,0.0,0.0,0.0,0.0,0.0,0.0,-2.3110504,488.83002,0.0,0.0,0.0,0.0,0.0,0.0,inf,inf,inf,inf,1,1,1,1,0,0,0,0,1,1,0
3177180000,0,47.3977508,8.5456074,-10.374473,-12.705326,-24.83899,0.0,0.0,0.0,-2.44,-3.23,0.7,0.0,0.0,0.0,0.0,0.0,0.0,0.0,-2.3098392,488.83002,0.0,0.0,0.0,0.0,0.0,0.0,inf,inf,inf,inf,1,1,1,1,0,0,0,0,1,1,0
3177280000,0,47.3977508,8.5456074,-10.63022,-13.044035,-24.765015,0.0,0.0,0.0,-2.44,-3.23,0.71,0.0,0.0,0.0,0.0,0.0,0.0,0.0,-2.3088646,488.83002,0.0,0.0,0.0,0.0,0.0,0.0,inf,inf,inf,inf,1,1,1,1,0,0,0,0,1,1,0
3177376000,0,47.3977508,8.5456074,-10.8637295,-13.352636,-24.695984,0.0,0.0,0.0,-2.45,-3.24,0.71999997,0.0,0.0,0.0,0.0,0.0,0.0,0.0,-2.3079147,488.83002,0.0,0.0,0.0,0.0,0.0,0.0,inf,inf,inf,inf,1,1,1,1,0,0,0,0,1,1,0
3177480000,0,47.3977508,8.5456074,-11.119476,-13.691345,-24.619995,0.0,0.0,0.0,-2.46,-3.24,0.72999996,0.0,0.0,0.0,0.0,0.0,0.0,0.0,-2.3068404,488.83002,0.0,0.0,0.0,0.0,0.0,0.0,inf,inf,inf,inf,1,1,1,1,0,0,0,0,1,1,0
3177580000,0,47.3977508,8.5456074,-11.364104,-14.015,-24.54602,0.0,0.0,0.0,-2.47,-3.24,0.72999996,0.0,0.0,0.0,0.0,0.0,0.0,0.0,-2.30572,488.83002,0.0,0.0,0.0,0.0,0.0,0.0,inf,inf,inf,inf,1,1,1,1,0,0,0,0,1,1,0
3177680000,0,47.3977508,8.5456074,-11.619852,-14.338656,-24.471985,0.0,0.0,0.0,-2.48,-3.24,0.74,0.0,0.0,0.0,0.0,0.0,0.0,0.0,-2.3046587,488.83002,0.0,0.0,0.0,0.0,0.0,0.0,inf,inf,inf,inf,1,1,1,1,0,0,0,0,1,1,0
3177780000,0,47.3977508,8.5456074,-11.853361,-14.654784,-24.401001,0.0,0.0,0.0,-2.49,-3.24,0.74,0.0,0.0,0.0,0.0,0.0,0.0,0.0,-2.303639,488.83002,0.0,0.0,0.0,0.0,0.0,0.0,inf,inf,inf,inf,1,1,1,1,0,0,0,0,1,1,0
3177880000,0,47.3977508,8.5456074,-12.109108,-14.993494,-24.322021,0.0,0.0,0.0,-2.5,-3.23,0.75,0.0,0.0,0.0,0.0,0.0,0.0,0.0,-2.302868,488.83002,0.0,0.0,0.0,0.0,0.0,0.0,inf,inf,inf,inf,1,1,1,1,0,0,0,0,1,1,0
3177976000,0,47.3977508,8.5456074,-12.353736,-15.302095,-24.249023,0.0,0.0,0.0,-2.51,-3.23,0.76,0.0,0.0,0.0,0.0,0.0,0.0,0.0,-2.3019803,488.83002,0.0,0.0,0.0,0.0,0.0,0.0,inf,inf,inf,inf,1,1,1,1,0,0,0,0,1,1,0
3178080000,0,47.3977508,8.5456074,-12.620604,-15.640804,-24.169006,0.0,0.0,0.0,-2.52,-3.23,0.77,0.0,0.0,0.0,0.0,0.0,0.0,0.0,-2.3011754,488.83002,0.0,0.0,0.0,0.0,0.0,0.0,inf,inf,inf,inf,1,1,1,1,0,0,0,0,1,1,0
3178180000,0,47.3977508,8.5456074,-12.87635,-15.96446,-24.091003,0.0,0.0,0.0,-2.52,-3.23,0.78,0.0,0.0,0.0,0.0,0.0,0.0,0.0,-2.30024,488.83002,0.0,0.0,0.0,0.0,0.0,0.0,inf,inf,inf,inf,1,1,1,1,0,0,0,0,1,1,0
3178276000,0,47.3977508,8.5456074,-13.109859,-16.273062,-24.015991,0.0,0.0,0.0,-2.53,-3.23,0.78,0.0,0.0,0.0,0.0,0.0,0.0,0.0,-2.2991955,488.83002,0.0,0.0,0.0,0.0,0.0,0.0,inf,inf,inf,inf,1,1,1,1,0,0,0,0,1,1,0
3178380000,0,47.3977508,8.5456074,-13.376726,-16.61177,-23.934021,0.0,0.0,0.0,-2.55,-3.22,0.78999996,0.0,0.0,0.0,0.0,0.0,0.0,0.0,-2.2980118,488.83002,0.0,0.0,0.0,0.0,0.0,0.0,inf,inf,inf,inf,1,1,1,1,0,0,0,0,1,1,0
3178480000,0,47.3977508,8.5456074,-13.632474,-16.935427,-23.85498,0.0,0.0,0.0,-2.56,-3.22,0.78999996,0.0,0.0,0.0,0.0,0.0,0.0,0.0,-2.297094,488.83002,0.0,0.0,0.0,0.0,0.0,0.0,inf,inf,inf,inf,1,1,1,1,0,0,0,0,1,1,0
3178580000,0,47.3977508,8.5456074,-13.899341,-17.259083,-23.775024,0.0,0.0,0.0,-2.56,-3.21,0.78999996,0.0,0.0,0.0,0.0,0.0,0.0,0.0,-2.2962406,488.83002,0.0,0.0,0.0,0.0,0.0,0.0,inf,inf,inf,inf,1,1,1,1,0,0,0,0,1,1,0
3178676000,0,47.3977508,8.5456074,-14.132849,-17.55263,-23.702026,0.0,0.0,0.0,-2.57,-3.1999998,0.79999995,0.0,0.0,0.0,0.0,0.0,0.0,0.0,-2.295815,488.83002,0.0,0.0,0.0,0.0,0.0,0.0,inf,inf,inf,inf,1,1,1,1,0,0,0,0,1,1,0
3178780000,0,47.3977508,8.5456074,-14.410835,-17.898867,-23.61499,0.0,0.0,0.0,-2.58,-3.1999998,0.79999995,0.0,0.0,0.0,0.0,0.0,0.0,0.0,-2.2949846,488.83002,0.0,0.0,0.0,0.0,0.0,0.0,inf,inf,inf,inf,1,1,1,1,0,0,0,0,1,1,0
3178876000,0,47.3977508,8.5456074,-14.655463,-18.207468,-23.536987,0.0,0.0,0.0,-2.59,-3.1999998,0.81,0.0,0.0,0.0,0.0,0.0,0.0,0.0,-2.294237,488.83002,0.0,0.0,0.0,0.0,0.0,0.0,inf,inf,inf,inf,1,1,1,1,0,0,0,0,1,1,0
3178976000,0,47.3977508,8.5456074,-14.92233,-18.531124,-23.455994,0.0,0.0,0.0,-2.6,-3.1899998,0.81,0.0,0.0,0.0,0.0,0.0,0.0,0.0,-2.2934778,488.83002,0.0,0.0,0.0,0.0,0.0,0.0,inf,inf,inf,inf,1,1,1,1,0,0,0,0,1,1,0
3179076000,0,47.3977508,8.5456074,-15.178077,-18.85478,-23.374023,0.0,0.0,0.0,-2.61,-3.1899998,0.81,0.0,0.0,0.0,0.0,0.0,0.0,0.0,-2.292931,488.83002,0.0,0.0,0.0,0.0,0.0,0.0,inf,inf,inf,inf,1,1,1,1,0,0,0,0,1,1,0
3179176000,0,47.3977508,8.5456074,-15.444944,-19.170908,-23.291992,0.0,0.0,0.0,-2.62,-3.1899998,0.82,0.0,0.0,0.0,0.0,0.0,0.0,0.0,-2.2922602,488.83002,0.0,0.0,0.0,0.0,0.0,0.0,inf,inf,inf,inf,1,1,1,1,0,0,0,0,1,1,0
3179276000,0,47.3977508,8.5456074,-15.711811,-19.494564,-23.210022,0.0,0.0,0.0,-2.6299999,-3.1799998,0.82,0.0,0.0,0.0,0.0,0.0,0.0,0.0,-2.2919197,488.83002,0.0,0.0,0.0,0.0,0.0,0.0,inf,inf,inf,inf,1,1,1,1,0,0,0,0,1,1,0
3179380000,0,47.3977508,8.5456074,-15.978678,-19.825747,-23.125,0.0,0.0,0.0,-2.6299999,-3.1799998,0.82,0.0,0.0,0.0,0.0,0.0,0.0,0.0,-2.291436,488.83002,0.0,0.0,0.0,0.0,0.0,0.0,inf,inf,inf,inf,1,1,1,1,0,0,0,0,1,1,0
3179476000,0,47.3977508,8.5456074,-16.234425,-20.13435,-23.045013,0.0,0.0,0.0,-2.6399999,-3.1799998,0.82,0.0,0.0,0.0,0.0,0.0,0.0,0.0,-2.291061,488.83002,0.0,0.0,0.0,0.0,0.0,0.0,inf,inf,inf,inf,1,1,1,1,0,0,0,0,1,1,0
