timestamp,timestamp_sample,xyz[0],xyz[1],xyz[2]
3151276000,3151276000,0.0020655699,7.9815276e-05,0.0020860725
3151288000,3151288000,-0.0047453246,0.0013249351,0.005236485
3151296000,3151296000,-0.0018619784,0.0022762085,0.004402685
3151312000,3151312000,0.0038846969,-0.0031743953,0.00011297653
3151324000,3151324000,0.0036391034,-8.7175984e-05,-0.00051405287
3151336000,3151336000,0.0023602834,-0.0009913342,-7.212284e-05
3151348000,3151348000,0.001206724,-0.0014372747,0.0007888286
3151360000,3151360000,-0.00019743375,0.0027510703,0.002925025
3151372000,3151372000,0.0023332024,0.00030521676,0.0026378348
3151384000,3151384000,0.001233966,0.0006499663,-0.0015681174
3151396000,3151396000,-0.0017306127,-0.0011074231,-0.0010317916
3151408000,3151408000,0.001965203,0.000778832,0.0017953881
3151420000,3151420000,-0.0022664266,0.0024609482,-0.0013518222
3151432000,3151432000,0.00061887654,-0.0015063235,-0.0016434914
3151444000,3151444000,0.002735369,0.00083052414,0.0020761192
3151456000,3151456000,-0.0023170253,-0.0033584954,0.0057115285
3151468000,3151468000,-0.00371928,-5.5493787e-05,-0.0011395889
3151480000,3151480000,-0.0009442795,-0.005335539,0.0010272319
3151492000,3151492000,-0.0011662038,0.0030900254,0.00036960715
3151504000,3151504000,0.001691289,-0.0011227028,0.0016539592
3151516000,3151516000,0.004619197,0.00039402535,0.001113047
3151524000,3151524000,0.0039941696,-0.0005097613,0.00062400993
3151536000,3151536000,0.0011513219,-0.0012670881,-0.0033161163
3151552000,3151552000,0.0013435523,-0.0006296346,0.0018332376
3151564000,3151564000,0.009213479,-0.002768491,0.0032597613
3151576000,3151576000,0.00055782427,0.0018825978,-0.0038232445
3151588000,3151588000,-0.0017487593,-0.0013269181,0.0010696452
3151596000,3151596000,-0.00024220534,-0.0013175271,0.00022498542
3151612000,3151612000,-0.00069214765,-0.001946358,-0.0005355535
3151620000,3151620000,0.00365579,-0.0024715336,-0.003898741
3151636000,3151636000,0.0031403173,3.3118296e-05,-0.0016570396
3151648000,3151648000,-0.0032791712,0.0047650468,0.0031013305
3151660000,3151660000,-0.00087748736,0.0010433015,0.0026241792
3151672000,3151672000,-3.532495e-05,-0.0017012511,0.0013715557
3151684000,3151684000,-0.0028557228,-0.0012822412,-0.00419127
3151692000,3151692000,-0.0010207546,-0.004551293,-0.002649516
3151708000,3151708000,0.0016279205,0.004342355,-0.0046961666
3151720000,3151720000,0.0034604766,0.0033658193,0.0021102978
3151732000,3151732000,-0.0024787134,0.0020955135,0.0025754701
3151744000,3151744000,0.000562981,0.0012467916,-0.0003511684
3151752000,3151752000,0.0044006873,0.0008763517,0.00035676485
3151768000,3151768000,-0.0017554621,0.006649394,0.0031621852
3151776000,3151776000,-0.0017742139,0.0027259241,-0.0005071787
3151792000,3151792000,0.0027928904,-0.0019844817,0.0047844956
3151804000,3151804000,0.004031225,0.0035952248,0.0034303316
3151816000,3151816000,0.0052305292,0.00425718,-0.0033248207
3151824000,3151824000,-0.000282443,0.0016409159,-0.0011459416
3151840000,3151840000,-0.0026081407,0.0017152675,0.003169795
3151852000,3151852000,0.00103007,-0.0009322772,0.00072254665
3151864000,3151864000,0.0001266338,0.0015873513,-0.0017291567
3151872000,3151872000,-0.0019114038,0.00034394208,0.00085312006
3151888000,3151888000,-0.0057649044,0.00038665207,0.003131276
3151900000,3151900000,-0.0024990705,-0.0013733231,0.0044157277
3151908000,3151908000,0.0037843052,-0.0015293057,-0.0005697919
3151924000,3151924000,0.0055422196,0.0018927236,0.00042684196
3151932000,3151932000,0.0033372343,-0.001597302,0.00087786186
3151948000,3151948000,0.0008463034,-0.003833225,-0.0058362717
3151956000,3151956000,-0.0010046866,-0.004013927,-0.0017579014
3151972000,3151972000,-0.002090869,0.0072992886,-0.002385044
3151984000,3151984000,-0.0015913319,0.0054382095,-0.005135183
3151996000,3151996000,0.0030535487,-0.002540043,0.002015845
3152008000,3152008000,-0.0023197844,0.00074502965,0.0014757074
3152020000,3152020000,-0.0022794018,-0.0033834092,0.00013048458
3152032000,3152032000,-0.0030084464,0.00076532504,-0.0019160794
3152040000,3152040000,-0.0037028934,0.0010936144,-0.0026882752
3152056000,3152056000,-0.003092844,0.0030287073,0.0006569855
3152068000,3152068000,-0.0010168805,0.004401889,0.0027716197
3152080000,3152080000,0.0015012885,0.0056264666,0.0056864084
3152092000,3152092000,-0.003382071,0.00070394157,0.0038355624
3152104000,3152104000,-0.002694812,-0.0023272997,0.002836546
3152116000,3152116000,-0.0036187037,0.0005606683,-0.00024641654
3152128000,3152128000,-0.0018002675,-0.002128879,-0.0011942554
3152140000,3152140000,-0.0018796863,-0.0012453771,-0.0007456713
3152148000,3152148000,-0.0056245876,0.00070486777,0.0021691907
3152164000,3152164000,-0.0006980698,0.006304848,0.005862773
3152176000,3152176000,3.2381737e-05,0.0026232207,-0.001089256
3152188000,3152188000,-0.005398886,-1.8190127e-05,9.312463e-05
3152200000,3152200000,-0.00025599264,-0.0064840303,-0.0021913433
3152208000,3152208000,0.0021454094,-0.004327092,-0.0010804253
3152224000,3152224000,-0.0024109199,0.00027651805,0.00022858637
3152236000,3152236000,-0.002416247,0.001448581,-3.8316182e-05
3152248000,3152248000,-0.0009513248,-0.00056024455,0.00064627116
3152260000,3152260000,0.0013106577,0.0014529042,-0.00068841275
3152272000,3152272000,-6.303401e-05,0.003834215,-0.0029405637
3152280000,3152280000,-0.0008864347,0.0021651164,0.00088468834
3152292000,3152292000,0.0018620363,-0.0011907844,0.00329868
3152308000,3152308000,-0.0008321424,0.003119665,-0.005470898
3152320000,3152320000,0.0009890709,0.00219244,-0.0025487158
3152332000,3152332000,-0.0010642837,-0.0047021587,0.00040326224
3152340000,3152340000,-0.0007636427,-0.0042382176,-0.0020378255
3152356000,3152356000,0.0034024185,-0.004234475,-0.0010695262
3152368000,3152368000,0.00040047325,-0.0037087048,-0.00044473785
3152380000,3152380000,-0.0032552315,-0.0035103457,0.0015734716
3152392000,3152392000,-0.0009033304,-0.000821101,0.0008991538
3152404000,3152404000,-0.002970747,0.004276516,0.0060757413
3152412000,3152412000,-0.0037291849,0.0053883316,0.0033540293
3152428000,3152428000,-0.0057531507,-0.00022660987,-0.003082862
3152440000,3152440000,-0.0009965828,-0.0028337017,-0.0064083994
3152448000,3152448000,-0.0010491364,-0.003217455,-0.0016188027
3152460000,3152460000,-0.0038092756,0.0010005757,0.0012776961
3152476000,3152476000,-0.00365239,-0.00080156326,0.00022368314
3152484000,3152484000,-0.0035212692,0.001595065,0.0024065473
3152500000,3152500000,0.0025988305,-0.002001034,-0.0036701364
3152512000,3152512000,-0.0031568753,0.0013518254,-0.005718826
3152520000,3152520000,-0.0018639964,0.0017742051,-0.0008937638
3152536000,3152536000,-0.0014689757,0.0032180725,0.0026362243
3152544000,3152544000,-0.0059788367,0.0015808127,0.0021005278
3152556000,3152556000,0.0014304793,0.0012212393,0.0024219532
3152568000,3152568000,-0.0013126695,-0.0024151434,0.0013628707
3152580000,3152580000,0.002401718,-0.0034493837,0.0013636318
3152596000,3152596000,-0.0005303932,0.0038723464,0.0036222225
3152604000,3152604000,-0.0016256288,0.0049791806,0.0040852223
3152616000,3152616000,-0.0035739574,-0.0006336197,-0.001191747
3152628000,3152628000,-0.002425855,-0.0017340365,0.00029988927
3152640000,3152640000,9.9185156e-05,0.003204837,-0.00073472376
3152656000,3152656000,0.0009646943,0.0034202347,0.0059615406
3152668000,3152668000,0.0010966908,0.0043367934,0.0010209235
3152680000,3152680000,0.00011730555,-0.0026966631,-0.0036681865
3152692000,3152692000,-0.0010259706,-0.0029256265,-0.0017700766
3152704000,3152704000,0.0023692232,0.0024950802,-0.00051299203
3152712000,3152712000,1.3788231e-06,-0.0012403554,-0.0015219726
3152728000,3152728000,0.00050952286,0.007314871,-0.0009648738
3152740000,3152740000,-0.0025932286,0.00097450987,-0.0043886816
3152752000,3152752000,-8.117326e-05,0.0028347461,0.0065436778
3152760000,3152760000,-0.00017992104,-0.0015025861,0.003606581
3152776000,3152776000,0.003468249,0.00092215557,-0.0028883459
3152788000,3152788000,0.0024208413,0.0011430425,-0.00026642514
3152796000,3152796000,0.0012493267,0.0051511037,-0.003054918
3152812000,3152812000,0.004753768,0.001536353,-0.0027054425
3152824000,3152824000,-0.00083830475,-0.00039422838,0.0008230303
3152836000,3152836000,0.0036735514,-0.0017630835,0.0013331875
3152848000,3152848000,0.0031728137,-0.0013240273,0.0021445174
3152860000,3152860000,-0.0008440475,0.00055214576,-0.0011503168
3152868000,3152868000,-0.0037810863,-0.0011485792,0.0011207114
3152884000,3152884000,0.0014372449,0.00029965676,0.005917519
3152896000,3152896000,0.0012588061,0.0019969451,0.00048118673
3152908000,3152908000,0.0010720759,0.0038461387,-0.0008768065
3152920000,3152920000,-0.002082508,0.0028663005,0.0018036978
3152928000,3152928000,0.0008344947,0.004485823,0.0030066993
3152944000,3152944000,-0.0007357326,-0.001097193,0.00071765063
3152956000,3152956000,0.0006812926,-0.0020459485,-0.002448198
3152968000,3152968000,0.00026996317,-0.0033408972,-0.0028125832
3152980000,3152980000,0.0064263013,-0.0021170839,-0.0038257386
3152992000,3152992000,0.0025526963,-0.0016022422,2.625282e-06
3153000000,3153000000,-0.0023760556,-0.0029276628,0.0008980338
3153016000,3153016000,0.00010308251,-0.0038738097,0.0010756858
3153028000,3153028000,0.002139317,-0.0007243869,9.9646626e-05
3153040000,3153040000,-0.0011672616,0.002685154,-0.0009116891
3153052000,3153052000,-0.0015512878,-0.0034245192,-0.00022639387
3153060000,3153060000,0.00080626854,-0.0026042229,0.00055643864
3153072000,3153072000,-0.0069643133,-0.008858943,-0.0010149821
3153084000,3153084000,-0.015352583,-0.020223666,-0.0016109403
3153100000,3153100000,-0.03635048,-0.04419058,0.0024490934
3153112000,3153112000,-0.061027873,-0.07027058,-0.00052164646
3153124000,3153124000,-0.08387584,-0.092436604,0.00028377338
3153136000,3153136000,-0.09270209,-0.10663935,-0.0029104957
3153148000,3153148000,-0.10279806,-0.10765924,-0.0014683178
3153160000,3153160000,-0.09241719,-0.109468915,-0.003985928
3153168000,3153168000,-0.08449662,-0.10514156,-0.00015342556
3153180000,3153180000,-0.076933056,-0.0890953,-0.0009666631
3153196000,3153196000,-0.06853524,-0.07943595,0.00060289056
3153208000,3153208000,-0.057050925,-0.07263771,0.0027866345
3153220000,3153220000,-0.047577173,-0.06468293,-0.0009575307
3153228000,3153228000,-0.040428746,-0.058553796,-0.0033548996
3153244000,3153244000,-0.034526195,-0.053667545,-0.0036137435
3153256000,3153256000,-0.03122109,-0.044102274,-0.000481078
3153268000,3153268000,-0.023750676,-0.038353402,-0.00036181445
3153280000,3153280000,-0.020269852,-0.03220051,0.004046343
3153288000,3153288000,-0.01802115,-0.029176729,0.0013557142
3153304000,3153304000,-0.011234178,-0.014997292,0.0046974276
3153316000,3153316000,-0.0059596496,-0.0053093587,0.00388544
3153328000,3153328000,0.0063925833,-0.0025037164,-1.1546654e-05
3153340000,3153340000,0.0046483665,0.0021046745,-0.0014460329
3153348000,3153348000,0.00041541364,0.0057264287,0.0031303316
3153364000,3153364000,0.0011503494,0.015182223,-0.0031029568
3153376000,3153376000,0.00078214565,0.015613555,-0.0015391278
3153384000,3153384000,-0.0017510221,0.018003803,0.0033647784
3153400000,3153400000,0.005693949,0.021747783,-0.0036093371
3153412000,3153412000,0.008586004,0.025058176,0.0019221447
3153424000,3153424000,0.018577674,0.023761375,0.0035132095
3153432000,3153432000,0.025944335,0.021079035,-0.00053967
3153444000,3153444000,0.029729575,0.016261064,0.003174736
3153460000,3153460000,0.022991996,0.02211347,0.00440221
3153472000,3153472000,0.028469589,0.024452297,-0.0014019092
3153484000,3153484000,0.025182517,0.02367605,0.0015267655
3153496000,3153496000,0.031170597,0.023116006,0.003693305
3153508000,3153508000,0.03704833,0.023098502,-0.0029337294
3153520000,3153520000,0.031040192,0.026280824,-0.004970338
3153528000,3153528000,0.025275081,0.03133948,0.00056942285
3153544000,3153544000,0.029972745,0.028973386,-0.00055284955
3153552000,3153552000,0.03384567,0.024772234,-0.0018018279
3153568000,3153568000,0.035494573,0.023859553,-0.0044744555
3153580000,3153580000,0.033050973,0.019209964,-0.0008620109
3153588000,3153588000,0.037485216,0.018102624,0.0008189294
3153604000,3153604000,0.029887851,0.013477686,0.0031863842
3153616000,3153616000,0.02391423,0.012380688,0.0066490183
3153624000,3153624000,0.018875673,0.008760754,0.008470966
3153640000,3153640000,0.021060307,0.014871621,-0.002836258
3153652000,3153652000,0.01508562,0.012021252,0.001583474
3153664000,3153664000,0.00706576,0.013180675,-0.003024794
3153676000,3153676000,0.0014468445,0.010212649,-0.0026701316
3153688000,3153688000,0.0020231102,0.0073795896,-0.0041891704
3153700000,3153700000,-0.00020648423,0.01122693,0.0011975903
3153712000,3153712000,0.003395083,0.006945477,0.0042898855
3153724000,3153724000,0.007655676,-0.0021826793,-0.00060535886
3153736000,3153736000,0.0076332255,0.002413834,0.0053005675
3153748000,3153748000,-0.0004188955,0.0060483217,0.005553804
3153760000,3153760000,-0.006597858,0.0040360154,0.00076746877
3153772000,3153772000,-0.0074479254,0.009671092,0.0031208727
3153784000,3153784000,-0.0079899905,0.010614514,0.0035624984
3153796000,3153796000,-0.0013642326,0.0042341743,-0.00424119
3153808000,3153808000,-0.0041242787,0.0046716672,-0.005147789
3153820000,3153820000,-0.003963651,0.007102006,-0.0036921538
3153832000,3153832000,0.0030953125,0.011644228,0.002004961
3153840000,3153840000,0.005675161,0.008607015,0.0049609854
3153856000,3153856000,0.0041404287,0.008817665,-0.0019304615
3153864000,3153864000,0.006459574,0.01215964,-0.0034015253
3153880000,3153880000,0.0061734067,0.007136824,-0.0008753219
3153888000,3153888000,0.0068334565,0.008679208,-0.0030108227
3153904000,3153904000,0.00015503576,0.007856071,-0.0019815145
3153916000,3153916000,0.004411851,0.009990133,-0.0009727067
3153928000,3153928000,0.0073604975,0.007389822,-0.0021847729
3153940000,3153940000,0.0021377762,0.0067654774,-0.0020336076
3153948000,3153948000,-0.004211928,0.005031111,-0.0031601735
3153964000,3153964000,-0.003867235,-0.00078803534,-0.0036954123
3153976000,3153976000,-0.0009522195,-0.0033449493,-0.0028237775
3153988000,3153988000,-0.0045323875,0.0029270793,-0.00068344123
3154000000,3154000000,-0.0014621951,0.00045923004,-0.0025626286
3154008000,3154008000,-0.0034919647,0.0018635341,-0.00048571167
3154024000,3154024000,-0.0051978678,0.002177689,0.0004914998
3154036000,3154036000,0.0026154593,0.0013056393,4.590256e-06
3154048000,3154048000,0.0076487437,-0.0022809976,-0.00086454145
3154060000,3154060000,0.0022112636,0.0023480388,-0.0018245475
3154072000,3154072000,0.001752507,-0.0062246355,0.00043308458
3154084000,3154084000,-0.000359855,-0.0056573576,-0.0021393138
3154096000,3154096000,-0.001773505,-0.006509886,-0.0012924528
3154108000,3154108000,0.002437651,-0.0037992927,0.0038642522
3154120000,3154120000,0.008065591,-0.007209221,0.0056171333
3154132000,3154132000,0.009613809,-0.012170184,0.005729508
3154144000,3154144000,0.003830864,-0.009045634,0.00047461956
3154156000,3154156000,0.0053364006,-0.013047272,-0.00245474
3154164000,3154164000,-0.0005089459,-0.01423841,0.0034721452
3154180000,3154180000,0.0018812685,-0.01006571,0.0061892006
3154188000,3154188000,0.00039802748,-0.007297128,0.003302353
3154200000,3154200000,0.0040061288,-0.0038003153,0.0007809809
3154216000,3154216000,0.009230079,-0.0109725185,0.0013097066
3154228000,3154228000,0.00264669,-0.004088571,-0.0010897676
3154240000,3154240000,0.0015882218,-0.0052667037,-0.0029784113
3154248000,3154248000,0.0030902768,-0.007367924,0.00028423298
3154260000,3154260000,-0.0005449954,-0.00056536077,0.0032557554
3154276000,3154276000,-0.0015364902,-0.0046795644,-0.00065553735
3154288000,3154288000,-0.0026098834,-0.0051882197,0.00024921505
3154300000,3154300000,0.0035673473,-0.0011586146,-0.006011415
3154312000,3154312000,0.0020068998,0.0008927407,0.0017053661
3154324000,3154324000,-0.0035171313,0.0039110025,0.0021804522
3154336000,3154336000,-0.0021449188,0.0036912183,0.0052699028
3154348000,3154348000,0.00066397665,0.007540947,-0.0012900931
3154360000,3154360000,0.00019078376,0.0040844097,-0.004465245
3154372000,3154372000,0.0041122185,0.0019929637,0.0025884677
3154380000,3154380000,0.0026094576,0.0014348938,0.0038155643
3154392000,3154392000,0.008976114,0.00016948115,-0.0012636732
3154408000,3154408000,0.017789297,0.006163058,-0.002732981
3154420000,3154420000,0.013920876,0.008797154,-0.0010991504
3154432000,3154432000,0.006960894,0.007974155,-0.0012793585
3154444000,3154444000,0.0061156973,-0.0003308123,3.0486495e-05
3154456000,3154456000,0.004049959,0.0010916446,-0.0020126672
3154468000,3154468000,0.0034133315,-0.0026857425,0.001850138
3154480000,3154480000,0.0085093295,0.0002865577,0.0042679054
3154492000,3154492000,0.0077094426,0.001969377,1.2603414e-05
3154504000,3154504000,0.0059160274,0.00023114169,-0.0038619537
3154516000,3154516000,0.007135196,-0.001357506,-0.0016145166
3154528000,3154528000,0.015164554,-0.005850586,-0.0010381939
3154540000,3154540000,0.012853456,0.0012597323,-0.006237936
3154548000,3154548000,0.014176243,0.00013789628,0.0010112099
3154564000,3154564000,0.008514445,0.0021366565,0.0028338723
3154576000,3154576000,-0.0010832129,0.00097140716,0.0023378078
3154588000,3154588000,-0.0035135315,-0.0013312004,-8.283544e-05
3154600000,3154600000,0.0039475933,-0.0004431256,0.0020335547
3154612000,3154612000,0.002436558,-0.001347817,-0.002905651
3154624000,3154624000,0.0048670326,-0.00076510897,-0.008095771
3154632000,3154632000,0.010480269,0.0001431359,-0.0036066845
3154648000,3154648000,0.0045673377,-0.0008733645,0.0006950131
3154660000,3154660000,0.007935234,-0.0005327533,0.007256107
3154672000,3154672000,0.01084957,-0.0073778704,-0.00013494014
3154680000,3154680000,0.007114355,-0.008054143,0.0015993541
3154696000,3154696000,-0.002163134,-0.008357212,0.0017375639
3154708000,3154708000,0.0034307376,-0.011708559,0.0048764455
3154720000,3154720000,0.0060176114,-0.011540009,-0.00080357475
3154732000,3154732000,0.0057574683,-0.014115799,-0.0040837284
3154740000,3154740000,0.0039307824,-0.012956634,-0.0045764064
3154752000,3154752000,0.007061448,-0.007392417,-0.00037339015
3154764000,3154764000,0.0031093014,-0.0072557055,0.005809112
3154780000,3154780000,0.0037093014,-0.0008231737,-0.0014515268
3154792000,3154792000,0.008035229,0.0023613197,-0.000196282
3154800000,3154800000,0.009255324,0.0009832354,-0.0030762968
3154816000,3154816000,0.0012813743,0.004573055,-0.0032725884
3154828000,3154828000,0.0042802915,0.0054045063,0.0015821919
3154840000,3154840000,0.002678803,0.004525672,0.0034252305
3154848000,3154848000,0.00048532384,0.0042140167,0.0028441271
3154864000,3154864000,0.0042232936,0.0020711317,0.0022411416
3154876000,3154876000,0.0008075981,0.003927414,0.0019167427
3154888000,3154888000,-0.0020738547,-0.0004871427,0.0048705344
3154900000,3154900000,-0.0007676834,0.0051054377,0.0026296407
3154912000,3154912000,0.00285376,0.0034811792,-0.001691655
3154924000,3154924000,-0.0025237529,0.003020646,0.0025788671
3154936000,3154936000,0.00281421,0.0035808976,-0.0028511016
3154948000,3154948000,0.0056646867,-0.0005527963,0.0010501806
3154960000,3154960000,0.0065411413,0.0039005922,0.0022576903
3154972000,3154972000,0.0052823946,0.0024392826,0.0019207085
3154984000,3154984000,0.005373469,-0.00040998077,-0.0025652451
3154996000,3154996000,0.006720115,-0.003895354,-0.004593176
3155008000,3155008000,0.005083157,0.0017755362,-0.0008504181
3155020000,3155020000,0.009146056,0.0048383274,-0.006588938
3155032000,3155032000,0.0050605065,-0.0050076945,0.0009714848
3155040000,3155040000,0.0052567236,-0.010056631,0.0022592656
3155056000,3155056000,0.01497371,-0.010385056,-0.002620149
3155068000,3155068000,0.017422829,-0.0114709,-0.0011467036
3155080000,3155080000,0.018992167,-0.010910562,0.0017027454
3155092000,3155092000,0.018620135,-0.011343372,0.0013707737
3155100000,3155100000,0.01823585,-0.008384234,-0.0010345677
3155116000,3155116000,0.02002063,-0.0092704445,0.003982457
3155124000,3155124000,0.022523604,-0.0015492691,0.0050350516
3155136000,3155136000,0.02514084,0.0061569544,0.005615616
3155148000,3155148000,0.025711294,0.003845063,0.0044612978
3155160000,3155160000,0.018590977,0.007887779,0.0019596554
3155176000,3155176000,0.014166633,0.0052415803,0.0024511928
3155188000,3155188000,0.013527373,0.010155939,0.005404025
3155200000,3155200000,0.011694888,0.014825657,0.0077392184
3155208000,3155208000,0.005677278,0.013704553,0.0067194426
3155224000,3155224000,0.0045118695,0.013378964,0.002033566
3155236000,3155236000,0.0084689995,0.016817,0.006103904
3155248000,3155248000,-0.0006246882,0.021648513,0.0024361603
3155260000,3155260000,-0.0020670928,0.013849972,0.003670729
3155272000,3155272000,0.0013428257,0.010436746,0.005499469
3155284000,3155284000,-0.0075226296,0.0118274195,0.007316667
3155292000,3155292000,-0.0082984585,0.0061819945,0.0035661086
3155308000,3155308000,-0.004238748,0.006604246,0.013234768
3155316000,3155316000,0.00447813,0.0033402112,0.010089873
3155328000,3155328000,0.018831488,0.004780181,0.0108415345
3155344000,3155344000,0.011628125,0.006513914,0.0119346725
3155356000,3155356000,0.015894473,0.004388572,0.0037318917
3155364000,3155364000,0.02179919,0.0061895153,0.0057891877
3155380000,3155380000,0.014992691,0.0070198486,0.0078036543
3155388000,3155388000,0.014591216,0.0129425395,0.004299501
3155404000,3155404000,0.018406767,0.012331504,0.0047196634
3155416000,3155416000,0.019637115,0.00734651,0.0064991647
3155428000,3155428000,0.02184963,0.014753203,0.00485333
3155440000,3155440000,0.019891525,0.010528401,0.003045665
3155452000,3155452000,0.0144940475,0.008388314,0.0006842021
3155460000,3155460000,0.015680317,0.002810994,0.0023426185
3155476000,3155476000,0.0057185874,0.004345894,0.003474154
3155488000,3155488000,0.0014105599,0.0072178277,0.0053241216
3155496000,3155496000,0.00066585676,0.0036497596,0.008465632
3155512000,3155512000,0.0077396026,0.008445524,0.0128039345
3155524000,3155524000,0.005703047,0.0023145287,0.0050245514
3155536000,3155536000,0.0017149971,0.0060282955,0.0032642651
3155544000,3155544000,0.0017443136,0.005218834,0.010467939
3155560000,3155560000,0.008899763,0.004550352,0.006963174
3155572000,3155572000,0.009316162,0.008125657,0.007068315
3155580000,3155580000,0.0050054495,0.012874424,0.004131105
3155596000,3155596000,-0.0011607995,0.014227284,0.0067289053
3155608000,3155608000,-0.003375383,0.012339167,0.0055836374
3155620000,3155620000,-0.008556103,0.011195555,0.0018091615
3155628000,3155628000,-0.005957421,0.010572126,0.0016863763
3155644000,3155644000,0.00074750825,0.01714208,0.00066842104
3155656000,3155656000,0.0023496067,0.00541256,0.0026870484
3155668000,3155668000,-0.003035149,0.0032603398,0.0060310774
3155676000,3155676000,-0.0017846341,0.003420038,0.0032798313
3155692000,3155692000,-0.0018487577,0.0057992325,0.004245897
3155704000,3155704000,0.0028765236,0.00982929,0.0047013606
3155716000,3155716000,0.0073733446,0.0063507427,0.009060251
3155724000,3155724000,0.00239564,0.0010102969,0.010018464
3155740000,3155740000,-0.0038001197,0.0035748307,0.0015443317
3155752000,3155752000,-0.006967384,0.005083713,0.0065994496
3155760000,3155760000,-0.005032885,0.0039873165,0.0062391195
3155776000,3155776000,0.0025463146,0.0017207451,0.002998787
3155788000,3155788000,0.0010738401,0.0017456815,0.002334645
3155796000,3155796000,-0.0020850818,0.00061949436,-0.0014643921
3155808000,3155808000,-0.003835554,0.002353479,-0.0024631682
3155824000,3155824000,-0.0004310956,0.008661357,0.0009376243
3155832000,3155832000,0.0026907707,0.004354735,-0.0028009166
3155848000,3155848000,0.013105031,0.0017769774,-0.002365563
3155856000,3155856000,0.0077258926,-0.0017003985,-0.00059019733
3155872000,3155872000,0.0046263593,-0.0013045277,-0.00026024238
3155880000,3155880000,0.0025523677,-0.0043108254,0.0017387945
3155896000,3155896000,0.001393268,-0.0020173062,0.002806329
3155904000,3155904000,0.0035347475,-0.002439533,0.00015813037
3155920000,3155920000,-0.00095891743,0.00021748943,-0.00030639087
3155932000,3155932000,-0.0014071276,0.009358024,-0.0017830327
3155944000,3155944000,-0.0020684365,0.010977375,-0.0036004907
3155956000,3155956000,-0.0061106104,0.012058612,0.0026292363
3155964000,3155964000,-0.0062413965,0.005486972,0.00317972
3155980000,3155980000,-0.0137996115,0.0064193583,0.005009215
3155988000,3155988000,-0.013858354,0.0072884243,0.0016725145
3156004000,3156004000,-0.013470241,0.0073830476,0.003033028
3156012000,3156012000,-0.014273073,0.006350057,4.6181143e-05
3156028000,3156028000,-0.014833276,0.011297213,0.0014346542
3156040000,3156040000,-0.011886658,0.0116242,-0.00041165255
3156052000,3156052000,-0.0024963908,0.009713482,0.0016277363
3156064000,3156064000,-0.010183947,0.0071864338,-0.001236282
3156076000,3156076000,-0.010382997,0.010874761,0.0013768866
3156084000,3156084000,-0.015913913,0.011904715,0.00035146382
3156096000,3156096000,-0.015185871,0.0078255,-0.0002288238
3156108000,3156108000,-0.018864544,0.012378275,-0.00027160277
3156124000,3156124000,-0.0057995,0.011106407,-0.0016548571
3156136000,3156136000,0.001804963,0.011053576,0.00024960365
3156148000,3156148000,0.0035832413,0.017234052,0.0016864899
3156160000,3156160000,-0.0011944652,0.017961144,-0.00096011534
3156168000,3156168000,0.0033985071,0.014913252,-0.0014616586
3156184000,3156184000,0.003253878,0.015605563,-0.001139062
3156196000,3156196000,0.0060058385,0.011072395,0.0018044239
3156204000,3156204000,0.006929624,0.008023402,0.005482061
3156220000,3156220000,0.0007620108,0.010145308,0.0032477388
3156232000,3156232000,-0.0042513683,0.0046051275,0.0025794532
3156244000,3156244000,0.0006873307,0.007445249,0.0029432075
3156252000,3156252000,0.0034228587,0.006191385,0.0021013238
3156264000,3156264000,0.0004948779,0.008694323,-0.001074383
3156280000,3156280000,-0.0004266227,0.010747228,0.0016198084
3156292000,3156292000,0.0010858099,0.0036468576,-0.00066810363
3156304000,3156304000,0.0042546317,-0.0040189587,0.0022839885
3156312000,3156312000,6.877817e-06,-0.0037985025,-0.00023918645
3156328000,3156328000,-0.0072116386,0.0009879647,0.0053380067
3156336000,3156336000,-0.006778176,0.0042107287,0.002880872
3156352000,3156352000,-0.007404876,0.0020939154,-0.0009572257
3156364000,3156364000,-0.004839701,0.005894147,-0.003649719
3156376000,3156376000,-0.0045168707,0.0089487815,-0.009692872
3156388000,3156388000,-0.003490669,0.007454882,-0.005380191
3156400000,3156400000,0.0031175101,0.006939823,-0.004116137
3156412000,3156412000,-0.00055891427,0.002418649,-0.001147139
3156424000,3156424000,-0.0018652722,0.0035215863,0.0076151597
3156432000,3156432000,-0.004306391,0.0078044417,0.007238836
3156448000,3156448000,-0.0020902255,0.006782199,-0.004890881
3156456000,3156456000,-0.005272339,0.005268938,-0.00071251503
3156468000,3156468000,-0.0065923906,0.001193617,-0.0010461556
3156484000,3156484000,-0.004535046,-0.0007294165,0.0016403389
3156496000,3156496000,-0.0052978722,0.0014460334,-0.00037269463
3156508000,3156508000,-0.009016228,0.0021021527,0.003614477
3156516000,3156516000,-0.0096986415,0.0049220608,0.0012671899
3156532000,3156532000,-0.0062939413,0.0014980403,0.0029595029
3156544000,3156544000,-5.955575e-06,0.009003516,-0.0007720123
3156556000,3156556000,0.0033750208,0.015955102,0.0039033154
3156568000,3156568000,0.0031108002,0.010819216,0.0016455295
3156580000,3156580000,0.004980102,0.0104123615,-0.001385405
3156592000,3156592000,0.009493793,0.0065874485,0.00615778
3156600000,3156600000,0.005165216,0.0032830494,0.0030717012
3156612000,3156612000,0.000474012,0.0063718525,0.006956766
3156628000,3156628000,0.0069487337,0.0040644817,0.0045547783
3156640000,3156640000,0.0044182306,0.0008053039,-0.0033889085
3156652000,3156652000,-0.0009209418,0.00021044258,-0.0030813192
3156660000,3156660000,0.0016888289,0.0015092348,-0.00031053403
3156676000,3156676000,-0.0048899553,0.0031732146,-0.0017401904
3156688000,3156688000,-0.0057488377,-0.003257114,0.0027173164
3156700000,3156700000,-0.0032466832,-0.004848407,0.0043212296
3156708000,3156708000,-0.00094911247,-0.0056140726,0.003087083
3156724000,3156724000,-0.008417108,0.0036111092,0.009641239
3156736000,3156736000,-0.007556782,0.005993598,0.0043705916
3156748000,3156748000,-0.002074193,0.011382425,-0.00024833868
3156760000,3156760000,-0.0025463249,0.011001447,0.0048534977
3156772000,3156772000,-0.008656798,0.00077347877,-0.0013145562
3156784000,3156784000,-0.0038295032,-0.0035693115,0.0032713125
3156792000,3156792000,-0.006738589,0.0007717586,0.004779138
3156808000,3156808000,-0.0023633463,0.005231426,0.0038649696
3156820000,3156820000,-0.0057488447,0.009035884,0.0048572887
3156832000,3156832000,-0.0062016128,0.013142863,0.0008698739
3156844000,3156844000,0.00028699008,0.006101907,0.00016488245
3156852000,3156852000,0.0016946389,0.0068206475,0.0006946506
3156868000,3156868000,0.000988483,0.0017016325,-0.0002074496
3156880000,3156880000,0.00066870777,-0.0015884549,-9.2613045e-06
3156892000,3156892000,-0.0026754811,-0.001488111,-0.0016451492
3156904000,3156904000,-0.0033462658,0.0015911013,0.0050495923
3156912000,3156912000,-0.0012653387,0.007943543,0.0048254738
3156928000,3156928000,-0.0054262914,0.0073650014,0.004615469
3156940000,3156940000,-0.0062507354,0.0066357814,0.00033040877
3156952000,3156952000,-0.0037879162,0.008435559,0.0040260446
3156964000,3156964000,-0.001014872,0.005787056,0.0083902
3156972000,3156972000,-0.00021152501,0.005001719,0.0066274223
3156988000,3156988000,-0.003497509,-0.00014271354,0.0022442746
3157000000,3157000000,-0.0011668281,0.00130746,0.0064352416
3157012000,3157012000,-0.0015128824,-0.0004935218,0.0029226132
3157024000,3157024000,0.00028174685,0.0062349983,0.0015595835
3157036000,3157036000,-0.002177781,0.009705862,0.001619968
3157048000,3157048000,-0.0064797243,0.008005733,0.0006732171
3157060000,3157060000,-0.007628613,0.004859507,0.005389828
3157072000,3157072000,-0.0011728761,-0.0053400677,0.00093805516
3157084000,3157084000,0.0009539258,-0.0032625822,0.0032294767
3157092000,3157092000,0.0017290246,0.00040545594,0.00013087317
3157104000,3157104000,0.0059838956,0.0012095068,0.0018893258
3157120000,3157120000,0.002249205,-0.004712983,-0.0025975774
3157128000,3157128000,-0.00091425574,-0.0014397344,0.0014146536
3157144000,3157144000,-0.00026057672,-0.0056398967,0.007848194
3157156000,3157156000,0.003179963,0.0008163159,-0.00033919094
3157168000,3157168000,0.0017294255,-0.0013129851,0.00039096348
3157176000,3157176000,-0.00063844735,0.00022033788,0.005257565
3157192000,3157192000,-0.0012002032,0.0026380974,0.003186072
3157200000,3157200000,-0.0027118144,0.0027011826,0.00248163
3157212000,3157212000,-0.007411268,-0.0023830007,0.0011755768
3157224000,3157224000,-0.009516718,-0.008230947,0.001178134
3157236000,3157236000,-0.0013933248,-0.0049586995,0.00022837485
3157252000,3157252000,-0.0031613782,-0.004249419,0.0006036258
3157260000,3157260000,-0.0077337315,-0.0054777754,0.0015416115
3157276000,3157276000,-0.0079464605,-0.006464315,-0.00070818997
3157288000,3157288000,-0.00931322,-0.00045778695,-0.0005021963
3157300000,3157300000,-0.010226887,-0.0026146956,-0.0004895173
3157308000,3157308000,-0.011032747,0.0012818419,-0.00042209966
3157320000,3157320000,-0.0044374703,0.010020796,0.0010489498
3157332000,3157332000,-0.0061707036,0.0050063124,0.00036171425
3157344000,3157344000,-0.008821993,0.0058213393,0.0013048537
3157360000,3157360000,-0.014445541,0.0019421256,0.0013700975
3157372000,3157372000,-0.009642949,0.0048868507,0.0028708794
3157384000,3157384000,-0.0050996584,0.0061454475,-0.0005301913
3157396000,3157396000,0.00038551155,0.006120243,0.0024313403
3157404000,3157404000,-0.004463216,0.004740248,0.0031852738
3157416000,3157416000,-0.0030644229,0.0065053096,0.0036504064
3157432000,3157432000,-0.0012129624,0.0058380305,0.0046460237
3157444000,3157444000,-0.006462328,0.009575613,-0.00035325374
3157456000,3157456000,-0.006575004,0.0076950975,0.0014091326
3157468000,3157468000,-0.0052739484,0.007033608,0.0019921993
3157480000,3157480000,-0.0072657727,0.0068322434,-0.006805598
3157492000,3157492000,-0.009013193,0.00024998933,0.0015848507
3157504000,3157504000,-0.0058688927,-0.0053033927,0.003816701
3157516000,3157516000,-0.005192399,-0.00029964792,0.003491599
3157528000,3157528000,-0.0036817843,-0.0015996965,-0.00836183
3157540000,3157540000,-0.0076316698,0.00084357196,-0.0069664083
3157548000,3157548000,-0.012945465,-0.0019304124,-0.004821558
3157564000,3157564000,-0.014616919,-0.002391778,-0.0021042153
3157576000,3157576000,-0.015865723,0.00037250295,-0.0049547045
3157584000,3157584000,-0.013494257,0.0005897898,-0.0012012119
3157596000,3157596000,-0.016254757,0.0016551965,0.0031950097
3157612000,3157612000,-0.0056878407,-0.0013436289,0.0021707604
3157624000,3157624000,-0.011699304,-0.001750431,-0.003436627
3157636000,3157636000,-0.013435016,-0.0008832682,0.002840788
3157648000,3157648000,-0.009858482,-0.0030169515,0.006285481
3157660000,3157660000,-0.009496052,-0.0050200177,-0.002158226
3157672000,3157672000,-0.01385982,-0.00024053454,0.00021062623
3157684000,3157684000,-0.013727741,0.0008658394,-0.0012963887
3157696000,3157696000,-0.010679136,0.0010988121,-0.005652258
3157708000,3157708000,-0.013310593,0.006057524,-0.0005125561
3157716000,3157716000,-0.011931638,0.006444777,7.153547e-05
3157732000,3157732000,-0.012330665,0.0037750648,-0.0020569684
3157744000,3157744000,-0.01366405,0.0042530173,-0.0025803878
3157756000,3157756000,-0.019527089,-0.0037815296,0.0026871865
3157768000,3157768000,-0.012461543,0.00088559836,0.0011537145
3157780000,3157780000,-0.009099249,-0.0012654541,2.5304616e-06
3157792000,3157792000,-0.0014877408,0.0026623947,-0.0012961811
3157800000,3157800000,-0.0020626478,0.00077063264,-0.0024904436
3157812000,3157812000,-0.0036416256,-0.0027603814,0.0031781883
3157828000,3157828000,-0.002953724,-0.0036084824,-0.00084935233
3157836000,3157836000,0.0008901078,-0.00043450715,0.0006464704
3157852000,3157852000,0.0022133316,-0.0002534315,-0.0035913826
3157864000,3157864000,-8.489005e-06,-0.0023320424,-0.0024369156
3157876000,3157876000,0.0012021553,0.0020529705,0.005702029
3157888000,3157888000,0.00058075646,0.0029094322,0.00024302053
3157900000,3157900000,0.002122163,-0.0007701982,0.0012293805
3157908000,3157908000,-0.002157006,0.002541331,-0.0012226657
3157920000,3157920000,-0.010031785,0.0061520264,0.0028675767
3157936000,3157936000,-0.008907363,0.00593917,0.0021785162
3157948000,3157948000,-0.004152282,0.00057832384,-9.112683e-05
3157956000,3157956000,-0.002658618,-0.00011543231,-0.0013003503
3157972000,3157972000,-0.0018936738,-0.0001274338,0.003968331
3157984000,3157984000,-0.00498314,0.0024216473,-0.00094341044
3157992000,3157992000,-0.0026750057,0.005361428,-0.002707435
3158008000,3158008000,0.0035966304,0.0055046068,-0.0016828347
3158016000,3158016000,0.0071196193,0.0028000062,-0.0005832272
3158032000,3158032000,0.0046124,0.004628884,0.0010690795
3158044000,3158044000,0.0033851322,0.0019537616,5.0457835e-05
3158056000,3158056000,-0.00015960936,-0.0045259874,-0.0020758011
3158064000,3158064000,-0.0051078405,-0.0032613836,-0.0029883138
3158080000,3158080000,-0.0025406866,0.0021088521,0.0029016654
3158092000,3158092000,0.008823118,0.0010162755,-0.00083134044
3158104000,3158104000,0.009776974,0.009117477,-0.0043900986
3158112000,3158112000,0.012594871,0.0066233664,-0.0076106484
3158128000,3158128000,0.006695551,0.0049639577,-0.005258842
3158140000,3158140000,-0.0049036588,0.0072792526,-0.0021755788
3158148000,3158148000,-0.00540285,0.008067159,-0.0004465396
3158164000,3158164000,0.0047756573,0.0012768824,0.0013424642
3158172000,3158172000,0.009210368,0.0045019444,-0.0012809788
3158188000,3158188000,0.00064839935,0.003861763,0.001299902
3158200000,3158200000,0.0049967878,0.004931247,0.0029791696
3158212000,3158212000,0.008826339,0.0013684549,0.00019223499
3158220000,3158220000,0.008065246,6.2431674e-05,0.0010529083
3158232000,3158232000,0.0103742825,0.0013649783,0.0013430603
3158248000,3158248000,0.004558113,0.00479418,-0.0032289475
3158260000,3158260000,0.0015838938,0.0041008955,-0.0044271443
3158272000,3158272000,-0.0019613216,0.0021066219,-0.0033172355
3158284000,3158284000,-0.006629437,-0.005270889,-0.0004108029
3158292000,3158292000,-0.0059183817,-0.009335594,-0.0044983616
3158304000,3158304000,-0.009120771,-0.004495379,0.0014016537
3158316000,3158316000,-0.0049498947,-0.0034794016,0.0031728882
3158328000,3158328000,-0.0026187715,0.004196498,-0.0020840527
3158344000,3158344000,-0.0030119643,-0.000428651,0.0020222347
3158356000,3158356000,0.0048263674,-0.004397182,0.00215657
3158368000,3158368000,0.00085293135,-0.0020680632,0.004016964
3158376000,3158376000,-0.00017546455,-0.0029248912,0.004770741
3158392000,3158392000,-0.009318257,-0.0006319233,0.0015245322
3158400000,3158400000,-0.0080621205,-0.0021932623,-0.0012866646
3158416000,3158416000,-0.005697819,-0.00017555477,0.002296354
3158428000,3158428000,-0.0053827898,-0.00945051,0.0016038409
3158440000,3158440000,-0.0050226296,-0.01297942,-0.0015396847
3158448000,3158448000,-0.007836529,-0.013795687,-0.0020257747
3158464000,3158464000,-0.0031706188,-0.0133445915,-0.0037414813
3158476000,3158476000,0.0014466012,-0.013086317,0.0040457714
3158488000,3158488000,-0.0026822994,-0.007946946,4.9931754e-05
3158500000,3158500000,-0.00195695,-0.0027432563,-0.0025139733
3158512000,3158512000,0.0036799537,0.005507678,0.00076141866
3158524000,3158524000,0.0023530223,0.009643704,-0.0015246924
3158532000,3158532000,0.0010270055,0.008077672,-0.00035545602
3158548000,3158548000,8.144451e-05,0.003305501,-0.00031520112
3158560000,3158560000,0.0029459107,0.002571216,0.0013208841
3158572000,3158572000,0.00318202,0.004269764,0.0018765717
3158580000,3158580000,-0.00015512307,0.0048479224,0.002002499
3158596000,3158596000,-0.00095374696,0.00405087,-0.0024869018
3158608000,3158608000,-0.0032171868,0.0061813593,0.000598151
3158620000,3158620000,0.0009859506,0.0014874078,0.00018237607
3158632000,3158632000,0.004599929,0.009657038,-0.0021993793
3158644000,3158644000,0.00727439,0.004513963,0.0034420558
3158656000,3158656000,0.013527036,0.004529707,0.0013671573
3158668000,3158668000,0.0070836823,-0.0022307932,0.0027498151
3158680000,3158680000,0.006567117,-0.0033338629,-0.0026230826
3158688000,3158688000,0.011303192,-0.0017922949,-0.0024349135
3158704000,3158704000,0.013025327,0.0017645829,0.0033870572
3158712000,3158712000,0.012040235,-0.002896944,0.0021574178
3158724000,3158724000,0.0054903287,-0.0005482547,-0.001944613
3158740000,3158740000,0.00043942162,0.00037016626,-0.00067182333
3158748000,3158748000,-0.0020164503,-0.0027468717,0.0036192976
3158764000,3158764000,-0.0067924196,-0.0024875952,0.0023583241
3158776000,3158776000,-0.0036945024,-0.0016553085,0.0048184516
3158788000,3158788000,-0.00038011628,0.0025300253,0.00476463
3158800000,3158800000,-0.00038185203,0.0014501605,-0.001793605
3158808000,3158808000,-0.0035110475,0.0027043,8.838589e-05
3158824000,3158824000,-0.0033837494,0.0012654122,0.00065818516
3158836000,3158836000,-0.0033464173,0.0018918153,0.00091688265
3158848000,3158848000,-0.0032079655,-0.008485135,0.0020985855
3158860000,3158860000,-0.0044370783,-0.0074007134,0.0010856434
3158872000,3158872000,-0.006152948,-0.0043272716,0.0019285262
3158884000,3158884000,-0.005622303,-0.002727239,-0.00011044397
3158892000,3158892000,-0.0034512416,-0.0009499951,0.0045619477
3158908000,3158908000,-0.006246539,0.0019188055,0.001784239
3158920000,3158920000,-0.007515465,0.002462617,-0.005117556
3158932000,3158932000,-0.012089202,-0.0014275662,-0.0041423403
3158944000,3158944000,-0.012582246,-0.008799171,-0.0032473286
3158956000,3158956000,-0.012558062,-0.011281376,-0.0029784725
3158968000,3158968000,-0.009371401,-0.007732166,-0.0010908209
3158980000,3158980000,-0.002196667,-0.0036054072,-0.00079855026
3158992000,3158992000,-0.0015125319,-0.006216005,-0.00045977993
3159004000,3159004000,-0.0014276342,-0.002498827,0.003710685
3159012000,3159012000,-0.0040653986,0.0019061088,0.00010771968
3159028000,3159028000,-0.001251847,0.0010263477,0.0034382944
3159040000,3159040000,-0.00093535485,0.0007820702,0.0008153197
3159052000,3159052000,-0.004733403,0.0034242147,-0.0004590549
3159064000,3159064000,-0.0043669767,0.0016390085,0.0010479172
3159076000,3159076000,-0.008163568,0.00067534065,0.002129597
3159088000,3159088000,-0.009840913,-0.0050136633,0.0037198665
3159100000,3159100000,-0.006167274,-0.006871372,0.0024047832
3159108000,3159108000,-0.002651202,-0.0076703676,-0.00034043152
3159124000,3159124000,0.0012787259,-0.009613464,-0.006378972
3159136000,3159136000,0.0016078337,-0.008608878,-0.0012397028
3159144000,3159144000,-0.0007550196,-0.009283037,0.0036569424
3159160000,3159160000,0.0020601202,-0.009110594,0.005049543
3159172000,3159172000,0.00325188,-0.01176035,-0.003988602
3159184000,3159184000,0.0050527947,-0.013317183,0.0024311761
3159196000,3159196000,0.01064297,-0.019984122,0.0043406542
3159208000,3159208000,0.0020544117,-0.018777782,0.0008380731
3159220000,3159220000,-0.0014201695,-0.018259719,0.0020548184
3159232000,3159232000,-0.0025645518,-0.011724195,0.0020192359
3159244000,3159244000,-0.00319276,-0.011589924,0.0033413093
3159256000,3159256000,-0.006234957,-0.008636898,0.0038730744
3159264000,3159264000,-0.006937474,-0.0025557093,0.002297741
3159280000,3159280000,-0.000822776,0.0023264517,0.0030130832
3159288000,3159288000,-0.00018488336,0.0010866623,-0.0019165347
3159304000,3159304000,0.0053819157,0.00015438069,0.0015729705
3159312000,3159312000,0.0042558955,0.005926975,-0.0022831908
3159328000,3159328000,0.0026866766,0.0063860114,-0.0020996202
3159340000,3159340000,-0.0016633424,0.0074581066,-1.5623751e-05
3159352000,3159352000,-0.0024381094,0.007995448,-0.0014526702
3159364000,3159364000,-0.0004495572,0.012616709,-0.0024442654
3159376000,3159376000,-0.0014573537,0.017283918,-0.0047197263
3159388000,3159388000,0.002134283,0.016730472,-0.004630315
3159400000,3159400000,0.0021599457,0.012705922,0.0014082656
3159412000,3159412000,-0.0036722654,0.015738036,0.0012229978
3159424000,3159424000,-0.0019810118,0.01853028,0.0013102947
3159436000,3159436000,0.0021574167,0.010346729,0.0022753153
3159444000,3159444000,-0.0016769567,0.0071420753,-0.0043002074
3159460000,3159460000,-0.0026214141,0.0025108417,-0.001989234
3159472000,3159472000,0.00029076193,-0.0061792852,0.0005790781
3159484000,3159484000,-0.0027859535,-0.0027724016,0.001919907
3159496000,3159496000,-0.009011681,-0.00020388747,-0.0010235175
3159508000,3159508000,-0.008063799,0.003146971,0.00083778123
3159520000,3159520000,-0.009903308,0.0028733115,-0.0018806098
3159532000,3159532000,-0.008652696,0.003621215,0.0013558309
3159544000,3159544000,-0.014808444,0.0074107153,0.0037745298
3159556000,3159556000,-0.008611353,0.006987155,-0.0005423399
3159568000,3159568000,-0.0067203655,0.0009085643,-0.0016761584
3159580000,3159580000,-0.00048355665,-0.004559204,0.0014879967
3159592000,3159592000,-0.00087553915,0.0009223283,-0.00053575233
3159600000,3159600000,-0.0043530148,0.0032274562,0.0024484908
3159616000,3159616000,-0.008029005,0.003591613,0.0060274825
3159628000,3159628000,-0.01364619,0.0022824444,-0.0009470586
3159640000,3159640000,-0.005455888,0.0016809481,0.0019523479
3159648000,3159648000,-0.0010146294,-0.0038685263,0.005617854
3159664000,3159664000,-0.0020627514,-0.006217746,0.0042436533
3159676000,3159676000,-0.0010928013,-0.0065603466,0.0040680794
3159688000,3159688000,-0.00079517066,-0.0013544555,-0.0034818768
3159696000,3159696000,-0.0035498585,-0.0015188889,-0.0003679723
3159712000,3159712000,-0.0042115,-0.012252022,0.0008472418
3159724000,3159724000,-0.005794065,-0.013298421,-0.0014679569
3159732000,3159732000,-0.0056936843,-0.009473384,-0.0013550683
3159748000,3159748000,-0.008060324,-0.008287146,-0.00022899196
3159760000,3159760000,-0.007073882,-0.008964245,-0.0017840021
3159768000,3159768000,-0.0036371793,-0.012954617,-0.003608881
3159784000,3159784000,-0.0037632296,-0.00945971,-0.003128192
3159796000,3159796000,-0.0022127465,-0.00969518,0.0046012
3159808000,3159808000,0.0018716928,-0.014255604,0.001608857
3159816000,3159816000,0.0033196383,-0.009801484,0.0022356142
3159832000,3159832000,-0.0018724552,-0.007934137,-0.0009730668
3159840000,3159840000,-0.0029853885,-0.0066133616,0.0004127074
3159852000,3159852000,-0.012802634,-0.003701177,0.0046491795
3159868000,3159868000,-0.01630819,-0.01916428,0.0009695663
3159880000,3159880000,-0.016034108,-0.018747667,-7.821532e-05
3159892000,3159892000,-0.012673912,-0.010798244,0.0011826603
3159900000,3159900000,-0.008114275,-0.011656033,0.002424652
3159916000,3159916000,-0.007911852,-0.010728047,0.0043140473
3159928000,3159928000,-0.013813437,-0.016328976,-0.00020016229
3159936000,3159936000,-0.015558149,-0.017595764,0.00054715836
3159948000,3159948000,-0.012383662,-0.020126991,0.0016608981
3159964000,3159964000,-0.009215102,-0.012333535,0.002415533
3159972000,3159972000,-0.006585708,-0.021792296,-0.0040141465
3159988000,3159988000,-0.0022396783,-0.025308952,-0.0044667097
3159996000,3159996000,-0.0032572953,-0.023250178,-0.0011008219
3160012000,3160012000,0.00031943386,-0.025069918,-0.00034947664
3160024000,3160024000,-0.008662267,-0.01678301,-0.0004660021
3160036000,3160036000,-0.010070526,-0.02020584,-0.000296333
3160048000,3160048000,-0.016085025,-0.015902758,-0.0031639286
3160060000,3160060000,-0.007742835,-0.015725423,0.0021905266
3160068000,3160068000,-0.002212665,-0.014568691,0.00079989876
3160080000,3160080000,-0.00037799962,-0.011871182,-0.001832138
3160096000,3160096000,-0.0022227145,-0.005415113,0.0016306414
3160108000,3160108000,-0.005668308,-0.009413891,0.0029812402
3160120000,3160120000,-0.0044988864,-0.006315124,-0.0004928327
3160132000,3160132000,-0.0015085015,-0.012911768,0.0020602287
3160144000,3160144000,-0.005236313,-0.01872048,-0.0026215666
3160156000,3160156000,-0.0008625643,-0.016166532,0.0041082725
3160168000,3160168000,0.0010250967,-0.009866124,0.003951719
3160180000,3160180000,0.0103468,-0.013022602,-0.00046123745
3160192000,3160192000,0.005649482,-0.011326613,-0.0050544264
3160200000,3160200000,0.0070827333,-0.0056418334,0.003921747
3160216000,3160216000,0.00969238,0.0010990438,-0.002596388
3160228000,3160228000,0.0029641583,-0.000625249,-0.004429841
3160240000,3160240000,0.00646442,0.0013491772,0.00063119904
3160248000,3160248000,0.0052061994,-0.0006050118,-0.0012087938
3160264000,3160264000,0.007869369,-0.0021105185,-0.000778303
3160276000,3160276000,0.0052890135,0.004973195,0.0038592697
3160284000,3160284000,0.0069399565,0.0071839276,-0.0012236189
3160300000,3160300000,0.009438939,0.0063217897,0.00129019
3160312000,3160312000,0.00997743,0.010330198,0.001761908
3160320000,3160320000,0.0025063674,0.005753706,0.0015289348
3160332000,3160332000,-0.001321009,0.0061515393,-0.0021527992
3160348000,3160348000,-0.0026370385,0.0047581214,-0.002925559
3160356000,3160356000,-1.5446567e-05,0.0036986934,-0.0015995
3160372000,3160372000,0.0052202754,0.0092268605,0.002992472
3160384000,3160384000,0.007954787,0.004685947,0.005740986
3160396000,3160396000,0.005141129,0.0005829898,0.003592233
3160404000,3160404000,0.0036275564,0.0038128588,0.0023103869
3160416000,3160416000,0.0019745599,0.007254234,-0.00061958143
3160432000,3160432000,0.0023852794,0.001693567,-0.00037689804
3160444000,3160444000,0.00058265903,0.0017258357,0.0009543347
3160456000,3160456000,0.00505903,0.0015258195,0.0004814964
3160468000,3160468000,0.007872097,0.0058104666,0.002828076
3160480000,3160480000,0.0011757514,0.0036863124,0.0019237079
3160492000,3160492000,0.005646116,6.743986e-05,0.0031934618
3160504000,3160504000,0.007588617,0.00070754904,0.0049360218
3160516000,3160516000,0.008793964,0.0041921004,-0.0038783522
3160528000,3160528000,0.011130256,0.0002690144,0.0011900166
3160540000,3160540000,0.00498948,0.008497736,0.0023270568
3160552000,3160552000,0.009076543,0.009539831,-0.004092177
3160564000,3160564000,0.009636178,0.008706854,-0.0031748032
3160576000,3160576000,0.0076788357,0.0077366023,-0.0053027747
3160588000,3160588000,0.006037655,0.01148474,0.0019579087
3160600000,3160600000,0.008546081,0.018338505,0.0031362376
3160612000,3160612000,0.008949806,0.024008319,0.002088893
3160624000,3160624000,0.0047896276,0.018336523,0.0016128762
3160636000,3160636000,0.017694078,0.014523342,-0.0012425915
3160648000,3160648000,0.019277528,0.008036398,0.00128108
3160660000,3160660000,0.010519646,0.0075131087,-0.004326553
3160668000,3160668000,0.0129895415,0.014565824,-0.0029529037
3160680000,3160680000,0.0115428725,0.014948238,-0.0013183975
3160696000,3160696000,0.0047894605,0.01191957,-0.0010324661
3160708000,3160708000,0.0045842333,0.008995995,0.002463702
3160716000,3160716000,0.005194112,0.0051518264,0.0012489667
3160732000,3160732000,0.0018611725,0.00044297893,-0.00492108
3160740000,3160740000,0.00067786826,-0.0035437834,-0.0016123983
3160756000,3160756000,-0.00010509777,-0.009515829,-0.00012633775
3160768000,3160768000,0.0022719612,-0.0042966367,-0.0031548324
3160780000,3160780000,0.008091416,0.00068037864,-0.0014907522
3160792000,3160792000,0.009551551,-0.002091105,0.0033806406
3160804000,3160804000,0.010346351,-0.00668462,0.0013541996
3160812000,3160812000,0.010687208,-0.0055486243,0.00097376725
3160828000,3160828000,0.009166315,0.0018479333,-0.0023234212
3160840000,3160840000,0.009533003,0.006865642,-0.00014881033
3160852000,3160852000,0.0088356035,0.0054635433,-0.0005633954
3160864000,3160864000,0.0049990523,0.00436696,0.0009364029
3160876000,3160876000,-0.0029164082,0.006121531,-0.0005402608
3160888000,3160888000,-0.008859657,0.0051888092,0.00012774131
3160900000,3160900000,-0.004905833,0.0057250587,0.0018912656
3160912000,3160912000,-0.0029309087,0.009630052,0.0009374718
3160924000,3160924000,0.0030325833,0.0072857323,-0.0020453017
3160932000,3160932000,0.0011597548,0.005643068,-0.0020802997
3160948000,3160948000,-0.009240928,-0.004026544,-0.0015449389
3160960000,3160960000,-0.010722699,0.003242677,0.0028107672
3160968000,3160968000,-0.013903725,0.0067716017,0.0060329353
3160984000,3160984000,-0.009744288,-0.009077622,0.0017778263
3160996000,3160996000,-0.014007101,-0.005389572,0.005110014
3161008000,3161008000,-0.012827785,-0.0098656975,0.0035787853
3161020000,3161020000,-0.015497273,-0.001334555,-0.0012493088
3161028000,3161028000,-0.020582076,0.0049823127,-0.00200589
3161044000,3161044000,-0.019876217,0.0026665179,0.0022909855
3161056000,3161056000,-0.01079562,0.0051846257,0.0008267413
3161068000,3161068000,-0.012346076,0.0062490506,-0.0011095323
3161080000,3161080000,-0.0073980982,0.0038472717,0.00072432763
3161092000,3161092000,-0.00339934,0.00686963,-0.0050615156
3161100000,3161100000,-0.0036839982,0.0035848478,-0.0023060832
3161112000,3161112000,-0.0054418333,0.009390686,-0.003684446
3161132000,3161132000,0.0037314412,0.0037981118,-0.0028658349
3161144000,3161144000,0.0030445673,0.0025457891,-0.0037758239
3161152000,3161152000,0.001535929,0.00016254932,-0.00014787505
3161168000,3161168000,0.006156466,-0.0013031685,0.004484266
3161176000,3161176000,0.0048111337,-0.0003757761,0.0032194597
3161188000,3161188000,0.0031405557,-0.00033674762,0.003550519
3161200000,3161200000,-0.0010096373,-0.008954077,0.0015877994
3161216000,3161216000,-0.0060707456,-0.012881585,0.00040382074
3161228000,3161228000,-0.0031044255,-0.0011884328,0.0039042404
3161240000,3161240000,2.9157614e-05,-0.0008318727,0.003565879
3161248000,3161248000,0.001519459,0.0009276238,0.0021831852
3161260000,3161260000,0.002643505,-1.2983568e-05,-0.000910757
3161276000,3161276000,0.006594875,-0.0016208277,0.0036960603
3161284000,3161284000,0.0075275595,-0.0018373393,-0.0007670362
3161296000,3161296000,0.009237761,-0.0031495756,-0.0034335474
3161308000,3161308000,0.010152976,-0.0016743173,0.0014722082
3161320000,3161320000,0.012491954,0.00081822136,-0.003850493
3161332000,3161332000,0.013754195,0.004365157,-0.004020002
3161344000,3161344000,0.0073494725,-0.0003069439,-0.005658856
3161360000,3161360000,0.010125761,0.00068828976,0.004244762
3161368000,3161368000,0.013447325,-0.0025691749,0.0037237601
3161384000,3161384000,0.006504316,-0.00064857677,-0.000923453
3161396000,3161396000,-0.0002976266,0.0067917826,0.00014674145
3161408000,3161408000,-0.0035068793,0.0029582316,0.00028229193
3161420000,3161420000,-0.0042764,0.0021388063,-0.0014282549
3161432000,3161432000,-0.005219081,0.0024493313,-0.001195835
3161444000,3161444000,-0.0016415705,0.00039904518,0.0009161591
3161456000,3161456000,0.0072049415,0.0016147264,0.0028186035
3161468000,3161468000,0.0037773037,0.0073811263,-0.0005895728
3161476000,3161476000,0.0005238268,0.008194897,-0.00033583306
3161492000,3161492000,-0.0047520464,0.01572542,0.00047642252
3161504000,3161504000,-0.0021471512,0.016244804,0.0024678647
3161512000,3161512000,0.00024172,0.011725409,-0.00070521137
3161524000,3161524000,-0.0016430249,0.012959093,-0.0018144522
3161540000,3161540000,-0.0042615263,0.011680497,-0.0030020345
3161552000,3161552000,0.00053362723,0.008932844,0.0037767536
3161564000,3161564000,0.0021930665,0.007856013,0.00398897
3161572000,3161572000,-3.789086e-06,0.006329326,0.0013249827
3161588000,3161588000,-0.0018705036,0.0053596348,-0.0029584644
3161600000,3161600000,-0.0011906892,0.006328628,-0.0027662632
3161612000,3161612000,-0.0005772505,0.0065713106,-0.0012403283
3161620000,3161620000,0.00461485,0.0072731627,0.00090433634
3161632000,3161632000,-0.00031439343,0.002471496,-0.0032268537
3161644000,3161644000,-0.001673028,0.0018538772,0.0029965134
3161656000,3161656000,-0.0038606129,0.0021685143,0.00068851444
3161668000,3161668000,-0.0017029893,-0.00289228,-0.0057989564
3161684000,3161684000,-0.00466214,0.0029560814,0.0013040189
3161696000,3161696000,-0.0057398514,0.0027512661,0.00018849014
3161708000,3161708000,-0.0014477324,0.0022037183,0.0010457165
3161720000,3161720000,-0.0014630106,0.0035651359,0.0015117081
3161728000,3161728000,0.0071831243,0.006380599,-0.0019305474
3161740000,3161740000,0.0070206453,0.003702309,-0.0026903667
3161752000,3161752000,0.0014470814,0.001602083,-0.0021964451
3161768000,3161768000,0.0027258573,-0.00014922023,-0.0042833975
3161780000,3161780000,0.0015519984,0.005079243,-0.0019540736
3161792000,3161792000,-0.0009745073,0.0018069304,0.0037350308
3161804000,3161804000,-0.0013556604,0.00052566687,-0.002050812
3161816000,3161816000,-0.002932218,-0.0033236053,4.6395347e-05
3161824000,3161824000,-0.0064981305,-0.005691543,-0.0006166663
3161836000,3161836000,-0.0033333343,-0.0108028315,0.001850599
3161852000,3161852000,-0.00069875526,-0.0052795424,0.003311282
3161864000,3161864000,0.00899262,-0.0010498669,-0.0032513435
3161872000,3161872000,0.005935856,-0.004527429,-0.0026414131
3161888000,3161888000,0.0054869307,-0.001655913,0.00041983073
3161896000,3161896000,0.004804217,-0.00010110764,-0.001665781
3161908000,3161908000,0.0021449607,-0.001156359,0.0006730564
3161924000,3161924000,0.012608684,-0.0021785554,0.002602398
3161936000,3161936000,0.01596749,-0.004258059,-0.00603915
3161944000,3161944000,0.009978563,-0.00024587056,-0.0041952305
3161956000,3161956000,0.0068056905,0.0076574986,-0.0034011
3161968000,3161968000,0.0035183285,0.008778527,-0.0010130524
3161980000,3161980000,0.0016002937,0.011564951,-0.004735666
3161996000,3161996000,0.0031711152,0.00964218,0.001749042
3162008000,3162008000,0.0022724823,0.0024565314,0.002257669
3162016000,3162016000,0.003178259,-0.00014090259,-9.0571586e-05
3162028000,3162028000,0.00043300854,0.0037746304,5.723827e-05
3162044000,3162044000,-0.0012956195,-0.00044114143,0.0044207894
3162052000,3162052000,-0.00049351784,-0.00012899842,0.0020023505
3162068000,3162068000,0.0011628004,-0.0035601547,-0.0015530686
3162080000,3162080000,0.0071376,-0.009496462,0.0028539454
3162092000,3162092000,0.0011620509,-0.004882186,0.0058778645
3162100000,3162100000,-0.0008790274,7.339241e-05,0.004491565
3162116000,3162116000,-0.00046271656,-0.0026884666,-0.0005206262
3162124000,3162124000,-0.0038606524,-0.004469069,-0.0010167237
3162140000,3162140000,-0.0032523791,-0.010689733,0.00090574916
3162148000,3162148000,-0.003534365,-0.011035959,-0.0005478487
3162160000,3162160000,-0.0021288232,-0.008039597,0.003757874
3162176000,3162176000,-0.0042425944,-0.010339657,0.0050714393
3162188000,3162188000,-0.0054013906,-0.007073519,-0.0036165956
3162196000,3162196000,-0.008704009,-0.0068256073,-0.0046021757
3162212000,3162212000,-0.005396459,-0.0066438634,-0.0013225358
3162224000,3162224000,-0.0017615141,-0.0069477903,-0.002099762
3162232000,3162232000,0.0054507125,-0.007800502,-0.005861109
3162248000,3162248000,0.0051064324,-0.00032724906,-0.0014067458
3162256000,3162256000,0.0077225957,-3.7428923e-05,-0.0021322914
3162268000,3162268000,0.010620005,-0.0005234489,-0.003846344
3162284000,3162284000,0.008955867,-0.0070280773,0.00082804397
3162296000,3162296000,0.007852356,-0.0032013636,0.0013189318
3162304000,3162304000,0.010158841,0.00046755653,0.0026282037
3162316000,3162316000,0.011800886,0.0024548187,-0.0023213597
3162328000,3162328000,0.0035705003,0.0036474818,0.0034143305
3162340000,3162340000,0.009115987,0.009235313,0.0030875262
3162352000,3162352000,0.0044067125,0.00034173392,-0.0020453404
3162364000,3162364000,0.009201191,0.00054675806,-0.0007183418
3162380000,3162380000,0.014787806,-0.002445363,-0.0015683525
3162388000,3162388000,0.011857522,0.000624795,-0.001870545
3162404000,3162404000,0.011981665,0.002047629,-0.0007458041
3162412000,3162412000,0.00808374,-0.00020243786,0.0015969127
3162424000,3162424000,0.01282657,0.003381624,-0.003357587
3162436000,3162436000,0.007939751,0.0017709965,0.0012297526
3162448000,3162448000,0.005762002,-0.00083825085,-0.00010228512
3162464000,3162464000,0.015805887,-0.0011069542,0.0033612377
3162476000,3162476000,0.014317244,0.00037600985,0.0027316744
3162484000,3162484000,0.011248215,0.00051131565,0.0011993544
3162496000,3162496000,0.0055138245,0.0068717026,0.0025757537
3162512000,3162512000,0.009393297,0.003083372,0.0024421124
3162520000,3162520000,0.009461063,0.0027089515,0.0028437842
3162536000,3162536000,0.0031565782,0.0023597747,-0.001354119
3162548000,3162548000,0.0059889127,0.0028062388,6.8293884e-05
3162560000,3162560000,0.0033285324,0.0038860056,0.0028874965
3162572000,3162572000,0.0052053765,0.0020958786,-0.0034156104
3162584000,3162584000,0.01096826,-0.004012776,-0.00071933813
3162592000,3162592000,0.010492674,-0.008266581,4.0186627e-05
3162608000,3162608000,0.0072970483,-0.00903742,0.0017776266
3162616000,3162616000,0.0068179145,-0.0058589135,0.00025061914
3162632000,3162632000,-0.0008078567,-0.0024133418,-0.0026585783
3162644000,3162644000,0.0040897485,-0.0005028392,0.003078325
3162656000,3162656000,0.016612142,0.004035515,0.0058499714
3162664000,3162664000,0.014520872,0.0010448399,0.0021298097
3162676000,3162676000,0.010296436,-0.0033453102,-0.007362157
3162692000,3162692000,0.009041237,-0.0071862023,-0.006113002
3162704000,3162704000,0.004846689,-0.006113359,-0.0037607222
3162712000,3162712000,0.0120854955,-0.00045767426,-0.00062887167
3162728000,3162728000,0.013133537,-0.0020303214,0.0014581627
3162740000,3162740000,0.0067335367,0.0021372915,0.0017546781
3162752000,3162752000,-0.0005206211,0.0024102593,-0.0013329316
3162760000,3162760000,0.00081888447,0.0043011117,-0.0057073114
3162776000,3162776000,-0.00043089944,-0.004805174,0.002071385
3162788000,3162788000,-0.0022137025,-0.0041498966,0.004628608
3162800000,3162800000,0.0075383554,-0.0031800806,0.0024335315
3162812000,3162812000,0.0070777405,-0.0022852793,0.0010261266
3162824000,3162824000,0.009969294,-0.006499845,-0.00088466005
3162832000,3162832000,0.007041374,-0.0033774353,0.0011196942
3162844000,3162844000,0.0070104133,-0.0026589027,0.00013359718
3162860000,3162860000,0.0068098158,0.0022660508,0.0019080631
3162868000,3162868000,0.0070229983,-0.0016213846,-0.0011231136
3162884000,3162884000,5.7125e-06,-0.004816539,-0.0061424286
3162892000,3162892000,-0.0004920452,-0.0018234546,-0.005343214
3162904000,3162904000,-0.003560233,-0.0014415137,0.0008442335
3162920000,3162920000,-0.0032816562,-0.001264553,-0.000696859
3162936000,3162936000,-0.0037888386,-0.0004344033,-0.0017012302
3162944000,3162944000,-0.001329749,0.002592492,0.0019929355
3162956000,3162956000,-0.0009869278,-0.00321334,0.002046905
3162972000,3162972000,-0.0027002236,-0.0023782584,0.0012595798
3162980000,3162980000,-0.0031184778,0.00033167377,0.00020644628
