timestamp,ref_timestamp,ref_lat,ref_lon,x,y,z,delta_xy[0],delta_xy[1],delta_z,vx,vy,vz,z_deriv,delta_vxy[0],delta_vxy[1],delta_vz,ax,ay,az,yaw,ref_alt,dist_bottom,dist_bottom_rate,eph,epv,evh,evv,vxy_max,vz_max,hagl_min,hagl_max,xy_valid,z_valid,v_xy_valid,v_z_valid,xy_reset_counter,z_reset_counter,vxy_reset_counter,vz_reset_counter,xy_global,z_global,dist_bottom_valid
3151272000,1684000,47.3977508,8.5456074,-0.06285135,-0.07388919,-0.017065197,-0.022669492,-0.0033747193,0.0,0.0025847745,0.003543334,0.005709611,0.018242186,-0.05914641,-0.009015089,0.12613459,0.015470242,0.095846765,0.013326294,0.42070287,0.0,0.1,-0.005709611,0.43194783,0.23464325,0.17715786,0.10444552,inf,inf,inf,inf,1,1,1,1,2,0,2,2,1,1,1
3151368000,1684000,47.3977508,8.5456074,-0.062280294,-0.073194616,-0.015707226,-0.022669492,-0.0033747193,0.0,0.0034616864,0.0061123064,0.0053059636,0.01734023,-0.05914641,-0.009015089,0.12613459,-0.008600123,-0.04102074,-0.016829928,0.42085382,0.0,0.1,-0.0053059636,0.41827473,0.23452443,0.1722103,0.10406726,inf,inf,inf,inf,1,1,1,1,2,0,2,2,1,1,1
3151472000,1684000,47.3977508,8.5456074,-0.06189505,-0.072548024,-0.014372612,-0.022669492,-0.0033747193,0.0,0.0013705867,0.005229334,0.0062530925,0.01766576,-0.05914641,-0.009015089,0.12613459,-0.02267702,0.031919487,-0.011299736,0.42088568,0.0,0.1,-0.0062530925,0.43129346,0.23475097,0.17694274,0.10445459,inf,inf,inf,inf,1,1,1,1,2,0,2,2,1,1,1
3151568000,1684000,47.3977508,8.5456074,-0.06137081,-0.07344096,-0.012496494,-0.022669492,-0.0033747193,0.0,0.002252557,0.004139215,0.0061778645,0.017661382,-0.05914641,-0.009015089,0.12613459,0.018186895,-0.020903988,-0.0072205435,0.42092925,0.0,0.1,-0.0061778645,0.41771334,0.23463267,0.17204267,0.104077905,inf,inf,inf,inf,1,1,1,1,2,0,2,2,1,1,1
3151668000,1684000,47.3977508,8.5456074,-0.060677722,-0.07476102,-0.011359305,-0.022669492,-0.0033747193,0.0,0.0052587055,0.0033676103,0.008580459,0.019341648,-0.05914641,-0.009015089,0.12613459,0.04986557,-0.03181787,0.07960013,0.42082927,0.0,0.1,-0.008580459,0.4296887,0.23423456,0.17641403,0.10427999,inf,inf,inf,inf,1,1,1,1,2,0,2,2,1,1,1
3151772000,1684000,47.3977508,8.5456074,-0.059971575,-0.0758979,-0.009819591,-0.022669492,-0.0033747193,0.0,0.0073386724,0.002418439,0.011203577,0.02124684,-0.05914641,-0.009015089,0.12613459,-0.008208517,-0.049572047,0.024374573,0.4207299,0.0,0.1,-0.011203577,0.41721186,0.23474896,0.17191081,0.10409442,inf,inf,inf,inf,1,1,1,1,2,0,2,2,1,1,1
3151868000,1684000,47.3977508,8.5456074,-0.059352532,-0.07656783,-0.008042924,-0.022669492,-0.0033747193,0.0,0.0074131032,0.0042888476,0.010224097,0.020003723,-0.05914641,-0.009015089,0.12613459,-0.062970795,0.019061444,-0.026362015,0.4207505,0.0,0.1,-0.010224097,0.42916998,0.23434149,0.17626725,0.10429363,inf,inf,inf,inf,1,1,1,1,2,0,2,2,1,1,1
3151972000,1684000,47.3977508,8.5456074,-0.058669783,-0.076905824,-0.0066205566,-0.022669492,-0.0033747193,0.0,0.007933784,0.0043497225,0.011304642,0.020315507,-0.05914641,-0.009015089,0.12613459,-0.07056549,0.05374222,-0.074848525,0.4206889,0.0,0.1,-0.011304642,0.41686213,0.23327377,0.17184891,0.10370198,inf,inf,inf,inf,1,1,1,1,2,0,2,2,1,1,1
3152068000,1684000,47.3977508,8.5456074,-0.05824775,-0.07709034,-0.0052173897,-0.022669492,-0.0033747193,0.0,0.004940309,0.0028138182,0.012197527,0.02071765,-0.05914641,-0.009015089,0.12613459,-0.028171036,0.0067154337,0.104078084,0.42067552,0.0,0.1,-0.012197527,0.42881274,0.2344854,0.17621581,0.10432847,inf,inf,inf,inf,1,1,1,1,2,0,2,2,1,1,1
3152172000,1684000,47.3977508,8.5456074,-0.057604983,-0.07702088,-0.005256751,-0.022669492,-0.0033747193,0.0,0.0027688409,0.0031993827,0.012428113,0.018802898,-0.05914641,-0.009015089,0.12613459,0.017068159,-0.069703974,-0.012516043,0.42083734,0.0,0.1,-0.012428113,0.416554,0.23340565,0.171813,0.103732266,inf,inf,inf,inf,1,1,1,1,2,0,2,2,1,1,1
3152268000,1684000,47.3977508,8.5456074,-0.05710951,-0.076821566,-0.0052844305,-0.022669492,-0.0033747193,0.0,0.0024949852,0.0041730283,0.0108334385,0.01556362,-0.05914641,-0.009015089,0.12613459,0.040500846,0.052653525,0.011031515,0.42076054,0.0,0.1,-0.0108334385,0.42849937,0.23462775,0.17617609,0.10436395,inf,inf,inf,inf,1,1,1,1,2,0,2,2,1,1,1
3152372000,1684000,47.3977508,8.5456074,-0.056744378,-0.07629791,-0.005566427,-0.022669492,-0.0033747193,0.0,0.0013180339,0.005942684,0.010256101,0.013222396,-0.05914641,-0.009015089,0.12613459,-0.043716863,0.03065877,-0.09696092,0.42070466,0.0,0.1,-0.010256101,0.41628382,0.23355323,0.17178306,0.10377077,inf,inf,inf,inf,1,1,1,1,2,0,2,2,1,1,1
3152468000,1684000,47.3977508,8.5456074,-0.056552738,-0.075750306,-0.005691765,-0.022669492,-0.0033747193,0.0,0.0019168743,0.004744835,0.011291652,0.012941545,-0.05914641,-0.009015089,0.12613459,0.013604469,0.0201711,0.018145887,0.42069316,0.0,0.1,-0.011291652,0.42822573,0.23476796,0.176154,0.10439943,inf,inf,inf,inf,1,1,1,1,2,0,2,2,1,1,1
3152572000,1684000,47.3977508,8.5456074,-0.05559209,-0.075236216,-0.0050774813,-0.022669492,-0.0033747193,0.0,0.00033212325,0.0048108287,0.012993152,0.0139702475,-0.05914641,-0.009015089,0.12613459,-0.10272388,0.07893338,-0.052486543,0.42074773,0.0,0.1,-0.012993152,0.41604775,0.23369856,0.17176883,0.10380917,inf,inf,inf,inf,1,1,1,1,2,0,2,2,1,1,1
3152668000,1684000,47.3977508,8.5456074,-0.054871112,-0.074673094,-0.005108712,-0.022669492,-0.0033747193,0.0,-0.0007541215,0.004471246,0.014616033,0.014308189,-0.05914641,-0.009015089,0.12613459,0.020350503,-0.050837543,0.071116716,0.42088717,0.0,0.1,-0.014616033,0.42798755,0.23493199,0.17613137,0.104446135,inf,inf,inf,inf,1,1,1,1,2,0,2,2,1,1,1
3152772000,1684000,47.3977508,8.5456074,-0.05419542,-0.07375897,-0.004725366,-0.022669492,-0.0033747193,0.0,-0.00065429154,0.005719893,0.014787574,0.013528077,-0.05914641,-0.009015089,0.12613459,-0.037845366,-0.04610782,-0.03128312,0.4208064,0.0,0.1,-0.014787574,0.41584206,0.23387481,0.17174578,0.10386137,inf,inf,inf,inf,1,1,1,1,2,0,2,2,1,1,1
3152868000,1684000,47.3977508,8.5456074,-0.053705126,-0.0729896,-0.0047584902,-0.022669492,-0.0033747193,0.0,-0.00023471222,0.0035364549,0.0152205685,0.012819891,-0.05914641,-0.009015089,0.12613459,0.007562877,-0.11348803,-0.08058361,0.4207876,0.0,0.1,-0.0152205685,0.42778036,0.23511748,0.17610843,0.10450215,inf,inf,inf,inf,1,1,1,1,2,0,2,2,1,1,1
3152972000,1684000,47.3977508,8.5456074,-0.05335899,-0.07191015,-0.004337843,-0.022669492,-0.0033747193,0.0,-0.00049417187,0.0018166635,0.016904157,0.0137260575,-0.05914641,-0.009015089,0.12613459,0.025497587,0.06999189,0.028148292,0.4208201,0.0,0.1,-0.016904157,0.4156633,0.23404561,0.17174107,0.103910714,inf,inf,inf,inf,1,1,1,1,2,0,2,2,1,1,1
3153068000,1684000,47.3977508,8.5456074,-0.053317107,-0.07102445,-0.0028369552,-0.022669492,-0.0033747193,0.0,-0.0032161453,0.0016801134,0.014049398,0.01126773,-0.05914641,-0.009015089,0.12613459,0.03076103,-0.070346914,-0.28456652,0.4208031,0.0,0.1,-0.014049398,0.42760158,0.23366892,0.17610401,0.10412405,inf,inf,inf,inf,1,1,1,1,2,0,2,2,1,1,1
3153172000,1684000,47.3977508,8.5456074,-0.053543825,-0.07061154,-0.0065115565,-0.022669492,-0.0033747193,0.0,-0.0010339607,0.0008128057,-0.105250895,-0.10768654,-0.05914641,-0.009015089,0.12613459,-0.030745685,0.03009571,-1.5883129,0.4206529,0.0,0.10143757,0.105250895,0.41550907,0.23422065,0.17173181,0.103961736,inf,inf,inf,inf,1,1,1,1,2,0,2,2,1,1,1
3153268000,1684000,47.3977508,8.5456074,-0.053596612,-0.07058597,-0.023987133,-0.022669492,-0.0033747193,0.0,0.006490485,-0.0023611127,-0.24336003,-0.24586426,-0.05914641,-0.009015089,0.12613459,0.07598592,-0.0047361497,-1.1983746,0.4205294,0.0,0.11966421,0.24336003,0.42744857,0.23384082,0.17619982,0.10417387,inf,inf,inf,inf,1,1,1,1,2,0,2,2,1,1,1
3153372000,1684000,47.3977508,8.5456074,-0.052737575,-0.07060094,-0.055970203,-0.022669492,-0.0033747193,0.0,0.014735008,-0.0043538576,-0.37154043,-0.37374568,-0.05914641,-0.009015089,0.12613459,0.11323104,-0.07796735,-1.2941657,0.42067647,0.0,0.15164728,0.37154043,0.41538048,0.23439078,0.17241198,0.1040105,inf,inf,inf,inf,1,1,1,1,2,0,2,2,1,1,1
3153468000,1684000,47.3977508,8.5456074,-0.05103998,-0.07107702,-0.096989654,-0.022669492,-0.0033747193,0.0,0.024040295,-0.010443556,-0.49708483,-0.4983183,-0.05914641,-0.009015089,0.12613459,0.062340204,-0.08584704,-1.3399897,0.42086014,0.0,0.19266674,0.49708483,0.427367,0.23401684,0.17731348,0.104225636,inf,inf,inf,inf,1,1,1,1,2,0,2,2,1,1,1
3153572000,1684000,47.3977508,8.5456074,-0.048283666,-0.07223595,-0.15578693,-0.022669492,-0.0033747193,0.0,0.026917296,-0.013504608,-0.6348427,-0.63574773,-0.05914641,-0.009015089,0.12613459,-0.060741227,0.019721726,-1.2174044,0.42077518,0.0,0.251464,0.6348427,0.4153098,0.23297638,0.17336991,0.10364678,inf,inf,inf,inf,1,1,1,1,2,0,2,2,1,1,1
3153668000,1684000,47.3977508,8.5456074,-0.04574794,-0.073332116,-0.22270495,-0.022669492,-0.0033747193,0.0,0.025089854,-0.011895994,-0.75697976,-0.75781345,-0.05914641,-0.009015089,0.12613459,0.038393654,-0.008904431,-1.2301877,0.4209094,0.0,0.31838202,0.75697976,0.42734712,0.23420428,0.17829274,0.10428168,inf,inf,inf,inf,1,1,1,1,2,0,2,2,1,1,1
3153772000,1684000,47.3977508,8.5456074,-0.042676453,-0.0743002,-0.30843422,-0.022669492,-0.0033747193,0.0,0.024806054,-0.009087661,-0.89194727,-0.89257514,-0.05914641,-0.009015089,0.12613459,-0.038521606,-0.08881292,-1.2063895,0.42110875,0.0,0.4041113,0.89194727,0.4152928,0.233149,0.17428856,0.103696235,inf,inf,inf,inf,1,1,1,1,2,0,2,2,1,1,1
3153868000,1684000,47.3977508,8.5456074,-0.039938763,-0.075096644,-0.39956346,-0.022669492,-0.0033747193,0.0,0.021959182,-0.008716397,-1.0164863,-1.016638,-0.05914641,-0.009015089,0.12613459,-0.007836752,-0.02560387,-1.3851578,0.4210462,0.0,0.49524054,1.0164863,0.42738077,0.23438628,0.17919926,0.10433518,inf,inf,inf,inf,1,1,1,1,2,0,2,2,1,1,1
3153972000,1684000,47.3977508,8.5456074,-0.03681885,-0.07553508,-0.5123862,-0.022669492,-0.0033747193,0.0,0.01829,-0.0065187407,-1.1530521,-1.1530366,-0.05914641,-0.009015089,0.12613459,-0.072800055,-0.037143506,-1.2374809,0.4207842,0.0,0.6080633,1.1530521,0.41532192,0.23333356,0.17509528,0.10375065,inf,inf,inf,inf,1,1,1,1,2,0,2,2,1,1,1
3154068000,1684000,47.3977508,8.5456074,-0.03443788,-0.07592922,-0.6292885,-0.022669492,-0.0033747193,0.0,0.012479464,-0.007881043,-1.2772291,-1.277495,-0.05914641,-0.009015089,0.12613459,0.029768342,0.036293123,-1.2835851,0.42069027,0.0,0.7249656,1.2772291,0.42745826,0.23456237,0.180034,0.1043854,inf,inf,inf,inf,1,1,1,1,2,0,2,2,1,1,1
3154172000,1684000,47.3977508,8.5456074,-0.031815972,-0.07673238,-0.77059585,-0.022669492,-0.0033747193,0.0,0.008863537,-0.0077409693,-1.4115822,-1.4132129,-0.05914641,-0.009015089,0.12613459,-0.094402656,0.055453457,-1.2336652,0.4208518,0.0,0.8662729,1.4115822,0.41538844,0.23350365,0.17585099,0.103798315,inf,inf,inf,inf,1,1,1,1,2,0,2,2,1,1,1
3154268000,1684000,47.3977508,8.5456074,-0.029814607,-0.07747279,-0.9139547,-0.022669492,-0.0033747193,0.0,0.006389509,-0.0073622577,-1.535765,-1.5391273,-0.05914641,-0.009015089,0.12613459,0.08439598,0.028394846,-1.2710662,0.420934,0.0,1.0096318,1.535765,0.42757133,0.23474145,0.18078397,0.10443679,inf,inf,inf,inf,1,1,1,1,2,0,2,2,1,1,1
3154372000,1684000,47.3977508,8.5456074,-0.02698838,-0.07876587,-1.0826348,-0.022669492,-0.0033747193,0.0,0.005793202,-0.009178289,-1.6653289,-1.6704274,-0.05914641,-0.009015089,0.12613459,-0.084747136,-0.030833375,-1.2934812,0.4209216,0.0,1.1783118,1.6653289,0.41548586,0.23367672,0.17651129,0.10384686,inf,inf,inf,inf,1,1,1,1,2,0,2,2,1,1,1
3154476000,1684000,47.3977508,8.5456074,-0.024523443,-0.080219075,-1.2647414,-0.022669492,-0.0033747193,0.0,0.003445325,-0.010201227,-1.8005357,-1.8068308,-0.05914641,-0.009015089,0.12613459,-0.014083146,-0.09639157,-1.3213446,0.42088667,0.0,1.3604186,1.8005357,0.4287559,0.23393309,0.18184908,0.10425008,inf,inf,inf,inf,1,1,1,1,2,0,2,2,1,1,1
3154572000,1684000,47.3977508,8.5456074,-0.021881683,-0.08199837,-1.4452226,-0.022669492,-0.0033747193,0.0,0.00031721892,-0.009600012,-1.9215022,-1.9288666,-0.05914641,-0.009015089,0.12613459,-0.08700063,0.027500441,-1.2858537,0.42082375,0.0,1.5408998,1.9215022,0.41560683,0.23384544,0.17707844,0.10389303,inf,inf,inf,inf,1,1,1,1,2,0,2,2,1,1,1
3154668000,1684000,47.3977508,8.5456074,-0.019980405,-0.08376603,-1.6375227,-0.022669492,-0.0033747193,0.0,-0.004271773,-0.010547641,-2.0450768,-2.0534801,-0.05914641,-0.009015089,0.12613459,0.024446081,0.019655667,-1.2464913,0.42075917,0.0,1.7331998,2.0450768,0.42787233,0.23508443,0.18200289,0.10453131,inf,inf,inf,inf,1,1,1,1,2,0,2,2,1,1,1
3154772000,1684000,47.3977508,8.5456074,-0.016899167,-0.085836284,-1.8595481,-0.022669492,-0.0033747193,0.0,-0.004865317,-0.009112895,-2.179499,-2.1891968,-0.05914641,-0.009015089,0.12613459,-0.029028216,-0.022297196,-1.3209274,0.4216555,0.0,1.9552252,2.179499,0.4157231,0.23400922,0.17540626,0.10393616,inf,inf,inf,inf,1,1,1,1,2,0,2,2,1,1,1
3154868000,1684000,47.3977508,8.5456074,-0.014462481,-0.08753253,-2.0765705,-0.022669492,-0.0033747193,0.0,-0.007275954,-0.008145067,-2.298227,-2.3088453,-0.05914641,-0.009015089,0.12613459,-0.001063403,0.056843184,-1.2127663,0.42073756,0.0,2.1722476,2.298227,0.42781705,0.23524885,0.17620689,0.10457451,inf,inf,inf,inf,1,1,1,1,2,0,2,2,1,1,1
3154972000,1684000,47.3977508,8.5456074,-0.013000641,-0.089068845,-2.325315,-0.022669492,-0.0033747193,0.0,-0.012574078,-0.009484673,-2.4300067,-2.4420054,-0.05914641,-0.009015089,0.12613459,-0.12048962,0.011318977,-1.1152354,0.41986454,0.0,2.4209921,2.4300067,0.44127798,0.23550019,0.17750724,0.10496074,inf,inf,inf,inf,1,1,1,1,2,0,2,2,1,1,1
3155068000,1684000,47.3977508,8.5456074,-0.010648794,-0.090173714,-2.5609434,-0.022669492,-0.0033747193,0.0,-0.014551687,-0.010741834,-2.4092252,-2.4210818,-0.05914641,-0.009015089,0.12613459,-0.022035368,0.004513491,1.4212848,0.41871214,0.0,2.6566205,2.4092252,0.42625648,0.23537576,0.16959752,0.1045667,inf,inf,inf,inf,1,1,1,1,2,0,2,2,1,1,1
3155172000,1684000,47.3977508,8.5456074,-0.008194322,-0.09118505,-2.8049078,-0.022669492,-0.0033747193,0.0,-0.012080333,-0.009515066,-2.2621353,-2.2739885,-0.05914641,-0.009015089,0.12613459,-0.0138768945,-0.009731731,1.0595227,0.41837278,0.0,2.900585,2.2621353,0.43920565,0.23561476,0.17176282,0.104951635,inf,inf,inf,inf,1,1,1,1,2,0,2,2,1,1,1
3155276000,1684000,47.3977508,8.5456074,-0.005175252,-0.09215346,-3.0375426,-0.022669492,-0.0033747193,0.0,-0.014180386,-0.010224047,-2.185582,-2.1975777,-0.05914641,-0.009015089,0.12613459,-0.06747285,-0.061738852,0.6580846,0.41814318,0.0,3.1332197,2.185582,0.4254733,0.23451391,0.16518033,0.1043302,inf,inf,inf,inf,1,1,1,1,2,0,2,2,1,1,1
3155368000,1684000,47.3977508,8.5456074,-0.0031177024,-0.0931611,-3.2110038,-0.022669492,-0.0033747193,0.0,-0.010274921,-0.012391015,-2.1371477,-2.1488123,-0.05914641,-0.009015089,0.12613459,-0.11185662,0.05633286,0.4760241,0.4183269,0.0,3.306681,2.1371477,0.43507743,0.23445337,0.16710667,0.10456456,inf,inf,inf,inf,1,1,1,1,2,0,2,2,1,1,1
3155468000,1684000,47.3977508,8.5456074,0.0001715722,-0.093953624,-3.4164395,-0.022669492,-0.0033747193,0.0,-0.012294885,-0.012135641,-2.0869648,-2.0998938,-0.05914641,-0.009015089,0.12613459,-0.083767645,0.028335037,0.7171081,0.41845715,0.0,3.5121167,2.0869648,0.42083964,0.23431502,0.16144136,0.104168974,inf,inf,inf,inf,1,1,1,1,2,0,2,2,1,1,1
3155572000,1684000,47.3977508,8.5456074,0.003834016,-0.09441967,-3.6343973,-0.022669492,-0.0033747193,0.0,-0.01352275,-0.01039118,-2.0189807,-2.0349092,-0.05914641,-0.009015089,0.12613459,0.018839039,0.035446666,0.70195454,0.41916555,0.0,3.7300744,2.0189807,0.43290043,0.23460372,0.16467087,0.104583845,inf,inf,inf,inf,1,1,1,1,2,0,2,2,1,1,1
3155668000,1684000,47.3977508,8.5456074,0.0072924774,-0.094229944,-3.83005,-0.022669492,-0.0033747193,0.0,-0.015092893,-0.008626137,-1.9587193,-1.9776007,-0.05914641,-0.009015089,0.12613459,-0.04139726,-0.09872899,0.7583508,0.41968477,0.0,3.9257271,1.9587193,0.41913,0.2329249,0.16005066,0.1038028,inf,inf,inf,inf,1,1,1,1,2,0,2,2,1,1,1
3155772000,1684000,47.3977508,8.5456074,0.009875039,-0.094028816,-4.03574,-0.022669492,-0.0033747193,0.0,-0.017154582,-0.010125691,-1.8988868,-1.9204605,-0.05914641,-0.009015089,0.12613459,-0.021638464,0.01586796,0.66012514,0.42046088,0.0,4.131417,1.8988868,0.4308875,0.2348213,0.16384631,0.104642645,inf,inf,inf,inf,1,1,1,1,2,0,2,2,1,1,1
3155868000,1684000,47.3977508,8.5456074,0.012837646,-0.09309487,-4.220408,-0.022669492,-0.0033747193,0.0,-0.018484555,-0.008696454,-1.853208,-1.8767865,-0.05914641,-0.009015089,0.12613459,0.01665634,0.016300233,0.47277376,0.4206054,0.0,4.316085,1.853208,0.41738957,0.23314944,0.15995783,0.10386592,inf,inf,inf,inf,1,1,1,1,2,0,2,2,1,1,1
3155972000,1684000,47.3977508,8.5456074,0.015234303,-0.091779456,-4.415802,-0.022669492,-0.0033747193,0.0,-0.020206474,-0.0054563903,-1.8025538,-1.8283488,-0.05914641,-0.009015089,0.12613459,-0.011399068,-0.029431254,0.4413649,0.42076537,0.0,4.511479,1.8025538,0.42891496,0.23505296,0.16431841,0.10470944,inf,inf,inf,inf,1,1,1,1,2,0,2,2,1,1,0
3156068000,1684000,47.3977508,8.5456074,0.01841996,-0.089381315,-4.5917454,-0.022669492,-0.0033747193,0.0,-0.020914342,-0.0029326174,-1.7615258,-1.7890867,-0.05914641,-0.009015089,0.12613459,-0.0029045476,-0.059772067,0.39560625,0.42083094,0.0,4.6874223,1.7615258,0.41567832,0.2333618,0.16103886,0.10392559,inf,inf,inf,inf,1,1,1,1,2,0,2,2,1,1,0
3156172000,1684000,47.3977508,8.5456074,0.021338722,-0.08700234,-4.7775645,-0.022669492,-0.0033747193,0.0,-0.02188882,-0.0041808602,-1.7227708,-1.7514479,-0.05914641,-0.009015089,0.12613459,-0.025005966,-0.025131214,0.36976856,0.42076814,0.0,4.8732414,1.7227708,0.42704526,0.23365296,0.16589417,0.10434449,inf,inf,inf,inf,1,1,1,1,2,0,2,2,1,1,0
3156268000,1684000,47.3977508,8.5456074,0.024092847,-0.0847889,-4.946023,-0.022669492,-0.0033747193,0.0,-0.023506118,-0.0042356458,-1.6917635,-1.7216407,-0.05914641,-0.009015089,0.12613459,-0.0017328274,0.077158846,0.4205899,0.42087534,0.0,5.0417,1.6917635,0.4140543,0.2335804,0.16303012,0.103990115,inf,inf,inf,inf,1,1,1,1,2,0,2,2,1,1,0
3156372000,1684000,47.3977508,8.5456074,0.026052598,-0.082837045,-5.1253457,-0.022669492,-0.0033747193,0.0,-0.02441594,-0.00508699,-1.663238,-1.6943363,-0.05914641,-0.009015089,0.12613459,0.01621843,0.016354052,0.26175377,0.4206454,0.0,5.2210226,1.663238,0.4253358,0.2338574,0.16833499,0.10440392,inf,inf,inf,inf,1,1,1,1,2,0,2,2,1,1,0
3156468000,1684000,47.3977508,8.5456074,0.02820133,-0.08026618,-5.2887726,-0.022669492,-0.0033747193,0.0,-0.026658455,-0.004424416,-1.636689,-1.6692264,-0.05914641,-0.009015089,0.12613459,-0.02721595,0.035169426,0.29205808,0.42018652,0.0,5.3844495,1.636689,0.41257036,0.23377153,0.16572663,0.10404438,inf,inf,inf,inf,1,1,1,1,2,0,2,2,1,1,0
3156572000,1684000,47.3977508,8.5456074,0.029832477,-0.07792854,-5.462186,-0.022669492,-0.0033747193,0.0,-0.02750176,-0.007129791,-1.6090876,-1.6423682,-0.05914641,-0.009015089,0.12613459,-0.02398899,0.01977361,0.1520859,0.4198741,0.0,5.5578628,1.6090876,0.42383707,0.23405296,0.17139696,0.10446156,inf,inf,inf,inf,1,1,1,1,2,0,2,2,1,1,0
3156668000,1684000,47.3977508,8.5456074,0.031318653,-0.07528643,-5.619626,-0.022669492,-0.0033747193,0.0,-0.028847978,-0.007311625,-1.5901262,-1.6235473,-0.05914641,-0.009015089,0.12613459,-0.027851215,0.022055311,0.18535833,0.4197341,0.0,5.715303,1.5901262,0.41127178,0.23397171,0.16888024,0.104104385,inf,inf,inf,inf,1,1,1,1,2,0,2,2,1,1,0
3156772000,1684000,47.3977508,8.5456074,0.032040298,-0.07277441,-5.7874036,-0.022669492,-0.0033747193,0.0,-0.029954402,-0.008202425,-1.5698147,-1.6026353,-0.05914641,-0.009015089,0.12613459,0.032673907,-0.036091644,0.1807073,0.4197579,0.0,5.8830805,1.5698147,0.42258868,0.23424006,0.17482333,0.10451667,inf,inf,inf,inf,1,1,1,1,2,0,2,2,1,1,0
3156868000,1684000,47.3977508,8.5456074,0.033200283,-0.0705407,-5.9401946,-0.022669492,-0.0033747193,0.0,-0.030105898,-0.008937482,-1.5553778,-1.5874238,-0.05914641,-0.009015089,0.12613459,-0.09920542,-0.02768297,0.10966788,0.4197477,0.0,6.0358715,1.5553778,0.41019347,0.23415504,0.1722934,0.10415821,inf,inf,inf,inf,1,1,1,1,2,0,2,2,1,1,0
3156972000,1684000,47.3977508,8.5456074,0.033828016,-0.06868737,-6.105021,-0.022669492,-0.0033747193,0.0,-0.03042125,-0.009738108,-1.5445298,-1.576402,-0.05914641,-0.009015089,0.12613459,-0.022457372,-0.039582055,0.17341132,0.41992286,0.0,6.200698,1.5445298,0.4216192,0.23443694,0.17845231,0.10457726,inf,inf,inf,inf,1,1,1,1,2,0,2,2,1,1,0
3157068000,1684000,47.3977508,8.5456074,0.033892978,-0.06621621,-6.2556505,-0.022669492,-0.0033747193,0.0,-0.03191853,-0.011659636,-1.5277185,-1.5593318,-0.05914641,-0.009015089,0.12613459,-0.035965595,0.059035596,0.18077901,0.42015272,0.0,6.3513274,1.5277185,0.4093595,0.2343393,0.1757768,0.10421317,inf,inf,inf,inf,1,1,1,1,2,0,2,2,1,1,0
3157172000,1684000,47.3977508,8.5456074,0.033095393,-0.06398982,-6.4173017,-0.022669492,-0.0033747193,0.0,-0.03289416,-0.0118926745,-1.5167629,-1.5481131,-0.05914641,-0.009015089,0.12613459,-0.08631297,0.021042144,0.07417332,0.42040735,0.0,6.5129786,1.5167629,0.42094386,0.23460902,0.18210293,0.10462748,inf,inf,inf,inf,1,1,1,1,2,0,2,2,1,1,0
3157268000,1684000,47.3977508,8.5456074,0.03252441,-0.061244298,-6.565159,-0.022669492,-0.0033747193,0.0,-0.03341404,-0.011627823,-1.5072163,-1.5379604,-0.05914641,-0.009015089,0.12613459,0.0019663419,0.040875968,0.07156468,0.42062205,0.0,6.6608357,1.5072163,0.40878153,0.23451741,0.17916308,0.10426614,inf,inf,inf,inf,1,1,1,1,2,0,2,2,1,1,0
3157368000,1684000,47.3977508,8.5456074,0.031642444,-0.05880047,-6.711657,-0.022669492,-0.0033747193,0.0,-0.0323869,-0.011859685,-1.4973494,-1.5270509,-0.05914641,-0.009015089,0.12613459,-0.1121533,0.0069478787,0.15184654,0.42078626,0.0,6.807334,1.4973494,0.41963142,0.23415004,0.18509512,0.10448787,inf,inf,inf,inf,1,1,1,1,2,0,2,2,1,1,0
3157472000,1684000,47.3977508,8.5456074,0.030533437,-0.055505738,-6.869118,-0.022669492,-0.0033747193,0.0,-0.03360956,-0.011803053,-1.4986281,-1.5267481,-0.05914641,-0.009015089,0.12613459,-0.0013595853,-0.06022859,0.054101456,0.42108232,0.0,6.964795,1.4986281,0.40845802,0.23468935,0.18235911,0.10431677,inf,inf,inf,inf,1,1,1,1,2,0,2,2,1,1,0
3157568000,1684000,47.3977508,8.5456074,0.029027814,-0.052621573,-7.014161,-0.022669492,-0.0033747193,0.0,-0.034806892,-0.012480433,-1.4930869,-1.5195849,-0.05914641,-0.009015089,0.12613459,-0.036291704,-0.08787575,0.21283421,0.42099553,0.0,7.109838,1.4930869,0.41951472,0.2343362,0.18833692,0.1045454,inf,inf,inf,inf,1,1,1,1,2,0,2,2,1,1,0
3157672000,1684000,47.3977508,8.5456074,0.027484192,-0.04958126,-7.169608,-0.022669492,-0.0033747193,0.0,-0.034794584,-0.0097168675,-1.4848388,-1.5090843,-0.05914641,-0.009015089,0.12613459,-0.026393259,-0.06372624,0.11877994,0.42116103,0.0,7.265285,1.4848388,0.40846372,0.23330623,0.18536718,0.103971444,inf,inf,inf,inf,1,1,1,1,2,0,2,2,1,1,0
3157776000,1684000,47.3977508,8.5456074,0.025502983,-0.047293216,-7.3246236,-0.022669492,-0.0033747193,0.0,-0.034533873,-0.012795727,-1.4836292,-1.5059226,-0.05914641,-0.009015089,0.12613459,-0.071778044,-0.07402804,0.011828727,0.42113015,0.0,7.4203005,1.4836292,0.42072272,0.23521274,0.19184789,0.10482105,inf,inf,inf,inf,1,1,1,1,2,0,2,2,1,1,0
3157872000,1684000,47.3977508,8.5456074,0.024204675,-0.04507882,-7.467292,-0.022669492,-0.0033747193,0.0,-0.033439264,-0.01322004,-1.4806974,-1.5010786,-0.05914641,-0.009015089,0.12613459,0.04647861,-0.0025347443,0.0044973562,0.42111042,0.0,7.5629687,1.4806974,0.40869108,0.23352088,0.18795058,0.10404247,inf,inf,inf,inf,1,1,1,1,2,0,2,2,1,1,0
3157968000,1684000,47.3977508,8.5456074,0.022616932,-0.043572217,-7.609784,-0.022669492,-0.0033747193,0.0,-0.032728348,-0.014432613,-1.4792773,-1.4980563,-0.05914641,-0.009015089,0.12613459,-0.058305476,-0.0418017,0.027918255,0.4212687,0.0,7.705461,1.4792773,0.42021686,0.23478279,0.19394952,0.10469542,inf,inf,inf,inf,1,1,1,1,2,0,2,2,1,1,0
3158072000,1684000,47.3977508,8.5456074,0.021217119,-0.042065557,-7.7639914,-0.022669492,-0.0033747193,0.0,-0.029814174,-0.016146315,-1.4752076,-1.4925354,-0.05914641,-0.009015089,0.12613459,-0.04227372,-0.006594933,0.11323578,0.42116252,0.0,7.8596683,1.4752076,0.4091099,0.23374388,0.19016805,0.104115754,inf,inf,inf,inf,1,1,1,1,2,0,2,2,1,1,0
3158168000,1684000,47.3977508,8.5456074,0.0198201,-0.041379195,-7.9060173,-0.022669492,-0.0033747193,0.0,-0.027667869,-0.018438105,-1.4739842,-1.4901471,-0.05914641,-0.009015089,0.12613459,0.06919201,-0.030858165,-0.0063003968,0.4208836,0.0,8.001695,1.4739842,0.42087078,0.23499617,0.19612198,0.10476358,inf,inf,inf,inf,1,1,1,1,2,0,2,2,1,1,0
3158272000,1684000,47.3977508,8.5456074,0.018841002,-0.040729765,-8.059651,-0.022669492,-0.0033747193,0.0,-0.02817099,-0.018437915,-1.4694577,-1.4845195,-0.05914641,-0.009015089,0.12613459,0.017157188,-0.045415547,0.095643096,0.4207897,0.0,8.155329,1.4694577,0.4096875,0.23394056,0.1919536,0.104175806,inf,inf,inf,inf,1,1,1,1,2,0,2,2,1,1,0
3158368000,1684000,47.3977508,8.5456074,0.017657336,-0.040614102,-8.201041,-0.022669492,-0.0033747193,0.0,-0.030218564,-0.018598584,-1.4708142,-1.4847472,-0.05914641,-0.009015089,0.12613459,-0.11076764,0.016187662,-0.02813246,0.42080432,0.0,8.296719,1.4708142,0.42167297,0.23520122,0.1978376,0.10482652,inf,inf,inf,inf,1,1,1,1,2,0,2,2,1,1,0
3158472000,1684000,47.3977508,8.5456074,0.016949227,-0.04008312,-8.353629,-0.022669492,-0.0033747193,0.0,-0.028654918,-0.019325826,-1.4656315,-1.4780388,-0.05914641,-0.009015089,0.12613459,0.10149298,0.005434887,0.06868503,0.42074853,0.0,8.4493065,1.4656315,0.41038802,0.23414634,0.19331132,0.104238346,inf,inf,inf,inf,1,1,1,1,2,0,2,2,1,1,0
3158576000,1684000,47.3977508,8.5456074,0.016185727,-0.03999031,-8.505677,-0.022669492,-0.0033747193,0.0,-0.027708754,-0.020286387,-1.4656556,-1.4765265,-0.05914641,-0.009015089,0.12613459,-0.08558785,-0.045249484,0.010862014,0.42070556,0.0,8.601355,1.4656556,0.42363024,0.23441729,0.1996063,0.10465019,inf,inf,inf,inf,1,1,1,1,2,0,2,2,1,1,0
3158672000,1684000,47.3977508,8.5456074,0.015745709,-0.039834395,-8.645504,-0.022669492,-0.0033747193,0.0,-0.026456168,-0.02159931,-1.4655207,-1.4744726,-0.05914641,-0.009015089,0.12613459,0.09128963,0.06285495,-0.004996545,0.42065445,0.0,8.741181,1.4655207,0.41117617,0.23433581,0.194265,0.104292504,inf,inf,inf,inf,1,1,1,1,2,0,2,2,1,1,0
3158768000,1684000,47.3977508,8.5456074,0.014895125,-0.04012202,-8.785419,-0.022669492,-0.0033747193,0.0,-0.027624164,-0.021351643,-1.4654194,-1.472902,-0.05914641,-0.009015089,0.12613459,-0.03424777,-0.045804765,-0.0858223,0.42068505,0.0,8.881097,1.4654194,0.4235592,0.23397784,0.2000002,0.10451446,inf,inf,inf,inf,1,1,1,1,2,0,2,2,1,1,0
3158872000,1684000,47.3977508,8.5456074,0.012853542,-0.03987495,-8.936614,-0.022669492,-0.0033747193,0.0,-0.029574554,-0.019497858,-1.467751,-1.4732773,-0.05914641,-0.009015089,0.12613459,-0.026752574,-0.020691168,-0.070095055,0.42081404,0.0,9.032291,1.467751,0.41201848,0.2345263,0.19486353,0.10434587,inf,inf,inf,inf,1,1,1,1,2,0,2,2,1,1,0
3158968000,1684000,47.3977508,8.5456074,0.010478586,-0.039851684,-9.076558,-0.022669492,-0.0033747193,0.0,-0.02803124,-0.01901272,-1.4671689,-1.4714227,-0.05914641,-0.009015089,0.12613459,0.033740446,0.025220245,0.026103107,0.42069867,0.0,9.1722355,1.4671689,0.42456812,0.23415558,0.20049988,0.104562074,inf,inf,inf,inf,1,1,1,1,2,0,2,2,1,1,0
3159072000,1684000,47.3977508,8.5456074,0.008224782,-0.039974958,-9.228209,-0.022669492,-0.0033747193,0.0,-0.030478219,-0.01973844,-1.4676244,-1.4706889,-0.05914641,-0.009015089,0.12613459,0.030905602,-0.0036540057,0.096213065,0.42080662,0.0,9.323886,1.4676244,0.41288546,0.23471044,0.19512677,0.10439551,inf,inf,inf,inf,1,1,1,1,2,0,2,2,1,1,0
3159168000,1684000,47.3977508,8.5456074,0.005815156,-0.040717382,-9.368118,-0.022669492,-0.0033747193,0.0,-0.03060139,-0.021172991,-1.4659851,-1.4680828,-0.05914641,-0.009015089,0.12613459,0.024286097,0.077140085,-0.001666136,0.42076576,0.0,9.463796,1.4659851,0.4255778,0.23434441,0.20065647,0.10461356,inf,inf,inf,inf,1,1,1,1,2,0,2,2,1,1,0
3159272000,1684000,47.3977508,8.5456074,0.0033832947,-0.041185036,-9.519675,-0.022669492,-0.0033747193,0.0,-0.027778802,-0.020491488,-1.4685371,-1.4696779,-0.05914641,-0.009015089,0.12613459,0.13411373,0.041611,0.0083567565,0.42099392,0.0,9.615353,1.4685371,0.41375095,0.23488761,0.19506718,0.10444093,inf,inf,inf,inf,1,1,1,1,2,0,2,2,1,1,0
3159368000,1684000,47.3977508,8.5456074,0.0014602274,-0.041686837,-9.659352,-0.022669492,-0.0033747193,0.0,-0.023859378,-0.018137658,-1.467853,-1.4678622,-0.05914641,-0.009015089,0.12613459,0.013118027,-0.04526536,-0.03817491,0.42079937,0.0,9.75503,1.467853,0.42656067,0.23451819,0.2004893,0.104657516,inf,inf,inf,inf,1,1,1,1,2,0,2,2,1,1,0
3159472000,1684000,47.3977508,8.5456074,-0.00055841234,-0.041564148,-9.810415,-0.022669492,-0.0033747193,0.0,-0.02353875,-0.0160499,-1.4664838,-1.4652781,-0.05914641,-0.009015089,0.12613459,0.050648548,-0.008094117,-0.0048335637,0.42064577,0.0,9.906093,1.4664838,0.41459236,0.2334607,0.19473943,0.10406509,inf,inf,inf,inf,1,1,1,1,2,0,2,2,1,1,0
3159568000,1684000,47.3977508,8.5456074,-0.0024473255,-0.04151046,-9.949977,-0.022669492,-0.0033747193,0.0,-0.022947095,-0.015146335,-1.4710811,-1.4687524,-0.05914641,-0.009015089,0.12613459,-0.0527662,0.018855754,0.017628072,0.4205643,0.0,10.045654,1.4710811,0.42749557,0.23469439,0.20006593,0.10470157,inf,inf,inf,inf,1,1,1,1,2,0,2,2,1,1,0
3159672000,1684000,47.3977508,8.5456074,-0.004552908,-0.041096974,-10.100888,-0.022669492,-0.0033747193,0.0,-0.023748716,-0.015080654,-1.4721795,-1.4684124,-0.05914641,-0.009015089,0.12613459,-0.051678605,0.06455224,-0.09331665,0.4207062,0.0,10.196566,1.4721795,0.41539207,0.23362245,0.19418387,0.10410257,inf,inf,inf,inf,1,1,1,1,2,0,2,2,1,1,0
3159768000,1684000,47.3977508,8.5456074,-0.00667533,-0.041017327,-10.241354,-0.022669492,-0.0033747193,0.0,-0.024392895,-0.015189942,-1.4961165,-1.4913517,-0.05914641,-0.009015089,0.12613459,-0.045283027,0.025172899,-0.59669274,0.42052945,0.0,10.337031,1.4961165,0.4283658,0.23486523,0.19941972,0.1047426,inf,inf,inf,inf,1,1,1,1,2,0,2,2,1,1,0
3159872000,1684000,47.3977508,8.5456074,-0.009319337,-0.040509377,-10.401524,-0.022669492,-0.0033747193,0.0,-0.027545677,-0.013204949,-1.6125524,-1.6080865,-0.05914641,-0.009015089,0.12613459,0.020128107,-0.03414049,-1.6174613,0.42060834,0.0,10.497201,1.6125524,0.416137,0.2337959,0.1934576,0.10414464,inf,inf,inf,inf,1,1,1,1,2,0,2,2,1,1,0
3159968000,1684000,47.3977508,8.5456074,-0.012160626,-0.04036877,-10.564359,-0.022669492,-0.0033747193,0.0,-0.02981912,-0.014106387,-1.7962073,-1.7921154,-0.05914641,-0.009015089,0.12613459,-0.021670012,0.00029930013,-2.1914158,0.4207584,0.0,10.660036,1.7962073,0.42916283,0.23503004,0.19876271,0.10478102,inf,inf,inf,inf,1,1,1,1,2,0,2,2,1,1,0
3160072000,1684000,47.3977508,8.5456074,-0.015454139,-0.04075131,-10.764478,-0.022669492,-0.0033747193,0.0,-0.02972691,-0.014638073,-2.0740714,-2.0701673,-0.05914641,-0.009015089,0.12613459,-0.028438471,-0.0070971325,-2.9300468,0.42064595,0.0,10.860155,2.0740714,0.444034,0.2352815,0.2049614,0.105166376,inf,inf,inf,inf,1,1,1,1,2,0,2,2,1,1,0
3160168000,1684000,47.3977508,8.5456074,-0.017192116,-0.042035647,-10.976896,-0.022669492,-0.0033747193,0.0,-0.027348485,-0.017264351,-2.3960514,-2.3908238,-0.05914641,-0.009015089,0.12613459,0.03813115,-0.021030948,-3.5536175,0.42085767,0.0,11.072574,2.3960514,0.42834207,0.23515776,0.19803548,0.10476759,inf,inf,inf,inf,1,1,1,1,2,0,2,2,1,1,0
3160272000,1684000,47.3977508,8.5456074,-0.018555816,-0.043794747,-11.240474,-0.022669492,-0.0033747193,0.0,-0.025009211,-0.015251317,-2.691333,-2.6848116,-0.05914641,-0.009015089,0.12613459,0.048806686,-0.014338718,-2.3494873,0.42080703,0.0,11.336151,2.691333,0.44318962,0.23540528,0.20473064,0.10515417,inf,inf,inf,inf,1,1,1,1,2,0,2,2,1,1,0
3160368000,1684000,47.3977508,8.5456074,-0.019123197,-0.04562075,-11.5036335,-0.022669492,-0.0033747193,0.0,-0.024028357,-0.015917063,-2.8663232,-2.8564517,-0.05914641,-0.009015089,0.12613459,-0.0019253783,0.019093543,-1.4846259,0.4207583,0.0,11.599311,2.8663232,0.4276238,0.23527113,0.19818832,0.10475356,inf,inf,inf,inf,1,1,1,1,2,0,2,2,1,1,0
3160472000,1684000,47.3977508,8.5456074,-0.019748682,-0.047755882,-11.803758,-0.022669492,-0.0033747193,0.0,-0.022344513,-0.016991489,-2.9846077,-2.9713461,-0.05914641,-0.009015089,0.12613459,-0.049522225,0.0032617152,-0.67770666,0.42091167,0.0,11.899435,2.9846077,0.4424798,0.23552482,0.20461711,0.10514329,inf,inf,inf,inf,1,1,1,1,2,0,2,2,1,1,0
3160568000,1684000,47.3977508,8.5456074,-0.019587763,-0.049681086,-12.0865755,-0.022669492,-0.0033747193,0.0,-0.017941829,-0.016259022,-2.9831736,-2.9672832,-0.05914641,-0.009015089,0.12613459,0.036922585,-0.019446528,0.2786135,0.4208687,0.0,12.182253,2.9831736,0.42702037,0.23539774,0.19739918,0.10474474,inf,inf,inf,inf,1,1,1,1,2,0,2,2,1,1,0
3160672000,1684000,47.3977508,8.5456074,-0.019275066,-0.05172861,-12.392335,-0.022669492,-0.0033747193,0.0,-0.017652882,-0.01548384,-2.9722962,-2.9551308,-0.05914641,-0.009015089,0.12613459,-0.008297691,0.06619034,-0.10510533,0.42088166,0.0,12.488012,2.9722962,0.44181806,0.2356393,0.20304869,0.1051276,inf,inf,inf,inf,1,1,1,1,2,0,2,2,1,1,0
3160768000,1684000,47.3977508,8.5456074,-0.018451042,-0.053111337,-12.676119,-0.022669492,-0.0033747193,0.0,-0.016407251,-0.017065654,-2.9775653,-2.9608119,-0.05914641,-0.009015089,0.12613459,0.052871805,0.0177508,-0.11201761,0.42078173,0.0,12.771796,2.9775653,0.42647597,0.23388645,0.1952988,0.104298346,inf,inf,inf,inf,1,1,1,1,2,0,2,2,1,1,0
3160872000,1684000,47.3977508,8.5456074,-0.01771436,-0.054339718,-12.984152,-0.022669492,-0.0033747193,0.0,-0.01762046,-0.0140054,-2.9776704,-2.9616013,-0.05914641,-0.009015089,0.12613459,-0.11428437,0.017766194,-0.042377036,0.42078602,0.0,13.079829,2.9776704,0.44114974,0.2357589,0.20051676,0.105113596,inf,inf,inf,inf,1,1,1,1,2,0,2,2,1,1,0
3160968000,1684000,47.3977508,8.5456074,-0.017134324,-0.054973718,-13.268792,-0.022669492,-0.0033747193,0.0,-0.019766767,-0.009676161,-2.978663,-2.9633825,-0.05914641,-0.009015089,0.12613459,0.017889265,0.029601831,0.036645677,0.4207896,0.0,13.36447,2.978663,0.42593402,0.2340021,0.19307521,0.104285225,inf,inf,inf,inf,1,1,1,1,2,0,2,2,1,1,0
3161072000,1684000,47.3977508,8.5456074,-0.016987527,-0.0554164,-13.577998,-0.022669492,-0.0033747193,0.0,-0.019190455,-0.0078101764,-2.9795077,-2.9657397,-0.05914641,-0.009015089,0.12613459,0.03385008,-7.0867823e-06,-0.026793217,0.42087483,0.0,13.673676,2.9795077,0.4404834,0.23586544,0.19819592,0.10509736,inf,inf,inf,inf,1,1,1,1,2,0,2,2,1,1,0
3161168000,1684000,47.3977508,8.5456074,-0.016184049,-0.056608357,-13.863745,-0.022669492,-0.0033747193,0.0,-0.020802347,-0.008322789,-2.978599,-2.966246,-0.05914641,-0.009015089,0.12613459,0.030395238,0.075135656,-0.010321847,0.42074418,0.0,13.959422,2.978599,0.4253907,0.23411462,0.19094792,0.10427402,inf,inf,inf,inf,1,1,1,1,2,0,2,2,1,1,0
3161272000,1684000,47.3977508,8.5456074,-0.015500599,-0.058272157,-14.173307,-0.022669492,-0.0033747193,0.0,-0.020181464,-0.0103391865,-2.978418,-2.9675834,-0.05914641,-0.009015089,0.12613459,0.015877666,-0.061982904,0.009079463,0.42096475,0.0,14.268985,2.978418,0.4398163,0.2359867,0.19599164,0.10509108,inf,inf,inf,inf,1,1,1,1,2,0,2,2,1,1,0
3161368000,1684000,47.3977508,8.5456074,-0.014621953,-0.05939116,-14.459664,-0.022669492,-0.0033747193,0.0,-0.020349143,-0.007968393,-2.9777958,-2.968723,-0.05914641,-0.009015089,0.12613459,0.015726851,0.083051465,-0.04877429,0.42088693,0.0,14.555342,2.9777958,0.42484474,0.23422366,0.18894154,0.10426454,inf,inf,inf,inf,1,1,1,1,2,0,2,2,1,1,0
3161468000,1684000,47.3977508,8.5456074,-0.013907295,-0.060165823,-14.746019,-0.022669492,-0.0033747193,0.0,-0.017444115,-0.006071958,-2.9737647,-2.966428,-0.05914641,-0.009015089,0.12613459,0.029449074,-0.011391803,0.0060768793,0.4209627,0.0,14.841697,2.9737647,0.43802378,0.2354402,0.19352022,0.10488381,inf,inf,inf,inf,1,1,1,1,2,0,2,2,1,1,0
3161572000,1684000,47.3977508,8.5456074,-0.013099681,-0.060738076,-15.057151,-0.022669492,-0.0033747193,0.0,-0.018304799,-0.004917852,-2.9771638,-2.972299,-0.05914641,-0.009015089,0.12613459,-0.017421378,0.0935259,0.033956017,0.42107117,0.0,15.152828,2.9771638,0.4242962,0.2343392,0.18705173,0.10426135,inf,inf,inf,inf,1,1,1,1,2,0,2,2,1,1,0
3161668000,1684000,47.3977508,8.5456074,-0.012829192,-0.061141282,-15.344492,-0.022669492,-0.0033747193,0.0,-0.018517777,-0.005091459,-2.9714289,-2.9688396,-0.05914641,-0.009015089,0.12613459,-0.0101491595,0.002222883,0.054172236,0.42099547,0.0,15.440169,2.9714289,0.43736535,0.2355823,0.19156422,0.10489325,inf,inf,inf,inf,1,1,1,1,2,0,2,2,1,1,0
3161772000,1684000,47.3977508,8.5456074,-0.012240493,-0.0618502,-15.655677,-0.022669492,-0.0033747193,0.0,-0.020152377,-0.0049139224,-2.96686,-2.9668982,-0.05914641,-0.009015089,0.12613459,-0.060366027,-0.007529817,0.0579562,0.42090225,0.0,15.751354,2.96686,0.4238548,0.23448844,0.18534681,0.10427858,inf,inf,inf,inf,1,1,1,1,2,0,2,2,1,1,0
3161872000,1684000,47.3977508,8.5456074,-0.01222837,-0.062614106,-15.9422655,-0.022669492,-0.0033747193,0.0,-0.019075051,-0.006013246,-2.958932,-2.96102,-0.05914641,-0.009015089,0.12613459,0.14234935,-0.007685366,0.047508623,0.42097265,0.0,16.037943,2.958932,0.43682474,0.23411053,0.1897858,0.10448292,inf,inf,inf,inf,1,1,1,1,2,0,2,2,1,1,0
3161968000,1684000,47.3977508,8.5456074,-0.01168177,-0.06424613,-16.227768,-0.022669492,-0.0033747193,0.0,-0.017949598,-0.0045626047,-2.9596899,-2.9630206,-0.05914641,-0.009015089,0.12613459,-0.06331767,0.016118944,-0.0857124,0.42085606,0.0,16.323444,2.9596899,0.42235324,0.2340094,0.18335031,0.10410837,inf,inf,inf,inf,1,1,1,1,2,0,2,2,1,1,0
3162072000,1684000,47.3977508,8.5456074,-0.011591761,-0.066050544,-16.538399,-0.022669492,-0.0033747193,0.0,-0.020752283,-0.0040660594,-2.961496,-2.9668434,-0.05914641,-0.009015089,0.12613459,-0.018795006,0.008269983,-0.0112177795,0.4208604,0.0,16.634075,2.961496,0.43627256,0.23426783,0.18811288,0.104506426,inf,inf,inf,inf,1,1,1,1,2,0,2,2,1,1,0
3162168000,1684000,47.3977508,8.5456074,-0.011744472,-0.06808412,-16.825253,-0.022669492,-0.0033747193,0.0,-0.022836536,-0.0043407823,-2.9501555,-2.957751,-0.05914641,-0.009015089,0.12613459,-0.013222699,-0.0443911,0.14710239,0.4210213,0.0,16.920929,2.9501555,0.42189598,0.234173,0.18187436,0.104135446,inf,inf,inf,inf,1,1,1,1,2,0,2,2,1,1,0
3162272000,1684000,47.3977508,8.5456074,-0.012364182,-0.070239455,-17.134245,-0.022669492,-0.0033747193,0.0,-0.020469427,-0.0042190026,-2.9402013,-2.9494183,-0.05914641,-0.009015089,0.12613459,-0.022169566,-0.06434972,0.11892057,0.42072693,0.0,17.229921,2.9402013,0.43571496,0.23445371,0.18661134,0.10454408,inf,inf,inf,inf,1,1,1,1,2,0,2,2,1,1,0
3162368000,1684000,47.3977508,8.5456074,-0.012264651,-0.07295864,-17.418627,-0.022669492,-0.0033747193,0.0,-0.019495402,-0.0053567244,-2.9397683,-2.9498749,-0.05914641,-0.009015089,0.12613459,0.004263347,-0.06428636,0.066525295,0.4208162,0.0,17.514303,2.9397683,0.4214316,0.23435478,0.18046367,0.104171306,inf,inf,inf,inf,1,1,1,1,2,0,2,2,1,1,0
3162472000,1684000,47.3977508,8.5456074,-0.01221275,-0.0758294,-17.72592,-0.022669492,-0.0033747193,0.0,-0.018726133,-0.003833225,-2.936135,-2.9467533,-0.05914641,-0.009015089,0.12613459,-0.050079614,0.03392472,0.078066245,0.42080685,0.0,17.821596,2.936135,0.43514994,0.23462261,0.18516643,0.104574814,inf,inf,inf,inf,1,1,1,1,2,0,2,2,1,1,0
3162568000,1684000,47.3977508,8.5456074,-0.01183508,-0.0787561,-18.009651,-0.022669492,-0.0033747193,0.0,-0.018792257,-0.005063689,-2.9295027,-2.9409502,-0.05914641,-0.009015089,0.12613459,-0.037878953,-0.044778436,-0.0018551945,0.4208613,0.0,18.105328,2.9295027,0.42096016,0.23452938,0.17919946,0.10420515,inf,inf,inf,inf,1,1,1,1,2,0,2,2,1,1,0
3162672000,1684000,47.3977508,8.5456074,-0.011694523,-0.081763074,-18.31627,-0.022669492,-0.0033747193,0.0,-0.018727336,-0.00397773,-2.9265664,-2.9386523,-0.05914641,-0.009015089,0.12613459,-0.02709402,0.121562645,0.047701407,0.4208636,0.0,18.411947,2.9265664,0.43458474,0.2348021,0.1838862,0.104611434,inf,inf,inf,inf,1,1,1,1,2,0,2,2,1,1,0
3162768000,1684000,47.3977508,8.5456074,-0.011317868,-0.08396853,-18.599688,-0.022669492,-0.0033747193,0.0,-0.018813245,-0.003951262,-2.9278672,-2.9408777,-0.05914641,-0.009015089,0.12613459,-0.014915872,0.08516259,0.051641833,0.4206231,0.0,18.695364,2.9278672,0.42048666,0.23469669,0.17804793,0.10423672,inf,inf,inf,inf,1,1,1,1,2,0,2,2,1,1,0
3162872000,1684000,47.3977508,8.5456074,-0.011343723,-0.08572891,-18.905828,-0.022669492,-0.0033747193,0.0,-0.019913876,-0.0024778752,-2.9219427,-2.9353027,-0.05914641,-0.009015089,0.12613459,0.061719775,-0.023599112,0.074381,0.42075226,0.0,19.001505,2.9219427,0.4340221,0.23495722,0.18273112,0.10463841,inf,inf,inf,inf,1,1,1,1,2,0,2,2,1,1,0
3162968000,1684000,47.3977508,8.5456074,-0.012085934,-0.0867357,-19.188156,-0.022669492,-0.0033747193,0.0,-0.020542314,-0.0022459927,-2.9206371,-2.9344206,-0.05914641,-0.009015089,0.12613459,0.0065073543,-0.032413803,-0.12019183,0.42071047,0.0,19.283833,2.9206371,0.42001352,0.23325495,0.17704149,0.10384689,inf,inf,inf,inf,1,1,1,1,2,0,2,2,1,1,0
3163072000,1684000,47.3977508,8.5456074,-0.013560373,-0.08766663,-19.49427,-0.022669492,-0.0033747193,0.0,-0.022069082,-0.0031739972,-2.9189441,-2.9334452,-0.05914641,-0.009015089,0.12613459,0.025988612,0.007060127,-0.04106387,0.42072326,0.0,19.589947,2.9189441,0.4334656,0.23512347,0.18169099,0.10467138,inf,inf,inf,inf,1,1,1,1,2,0,2,2,1,1,0
3163168000,1684000,47.3977508,8.5456074,-0.015549715,-0.08872165,-19.7774,-0.022669492,-0.0033747193,0.0,-0.022357514,-0.0023459913,-2.9137816,-2.9297721,-0.05914641,-0.009015089,0.12613459,0.043063756,0.014851349,0.1074681,0.42075655,0.0,19.873075,2.9137816,0.41954467,0.2334066,0.1761246,0.1038744,inf,inf,inf,inf,1,1,1,1,2,0,2,2,1,1,0
3163272000,1684000,47.3977508,8.5456074,-0.01781149,-0.08955481,-20.083643,-0.022669492,-0.0033747193,0.0,-0.018654477,0.001272887,-2.9112635,-2.9286556,-0.05914641,-0.009015089,0.12613459,0.09361922,0.03015297,0.026761552,0.42067146,0.0,20.17932,2.9112635,0.43291914,0.23528443,0.18077816,0.10470331,inf,inf,inf,inf,1,1,1,1,2,0,2,2,1,1,0
3163368000,1684000,47.3977508,8.5456074,-0.018736709,-0.089968964,-20.365788,-0.022669492,-0.0033747193,0.0,-0.016136562,0.002519744,-2.9072852,-2.925431,-0.05914641,-0.009015089,0.12613459,-0.017423501,-0.021606976,0.1631677,0.42082956,0.0,20.461464,2.9072852,0.41908255,0.2335705,0.17531715,0.10390854,inf,inf,inf,inf,1,1,1,1,2,0,2,2,1,1,0
3163472000,1684000,47.3977508,8.5456074,-0.01949316,-0.09028033,-20.668816,-0.022669492,-0.0033747193,0.0,-0.013113235,0.00025411256,-2.8550305,-2.87368,-0.05914641,-0.009015089,0.12613459,0.109197214,0.014715596,0.9416406,0.42092496,0.0,20.764492,2.8550305,0.43238425,0.23543984,0.17997298,0.10473365,inf,inf,inf,inf,1,1,1,1,2,0,2,2,1,1,0
3163568000,1684000,47.3977508,8.5456074,-0.019967975,-0.0905242,-20.940575,-0.022669492,-0.0033747193,0.0,-0.01325385,-0.00018182104,-2.7539551,-2.7730355,-0.05914641,-0.009015089,0.12613459,0.052567497,-0.028727498,0.9520929,0.42093384,0.0,21.036251,2.7539551,0.41862935,0.23371223,0.17458807,0.10393372,inf,inf,inf,inf,1,1,1,1,2,0,2,2,1,1,0
3163672000,1684000,47.3977508,8.5456074,-0.020591186,-0.09070589,-21.223766,-0.022669492,-0.0033747193,0.0,-0.0112961205,-0.0011777879,-2.6630063,-2.6813958,-0.05914641,-0.009015089,0.12613459,0.024839012,-0.0042827413,0.80645823,0.4208528,0.0,21.319443,2.6630063,0.4318584,0.23397323,0.17897597,0.1043362,inf,inf,inf,inf,1,1,1,1,2,0,2,2,1,1,0
3163768000,1684000,47.3977508,8.5456074,-0.021035297,-0.09074336,-21.477201,-0.022669492,-0.0033747193,0.0,-0.011990652,-0.0029262118,-2.5857058,-2.60362,-0.05914641,-0.009015089,0.12613459,0.0685551,-0.032339986,0.8498597,0.42072555,0.0,21.572878,2.5857058,0.4181843,0.23386665,0.17342342,0.103964284,inf,inf,inf,inf,1,1,1,1,2,0,2,2,1,1,0
3163872000,1684000,47.3977508,8.5456074,-0.021720251,-0.09073877,-21.743599,-0.022669492,-0.0033747193,0.0,-0.012105779,-0.0012172533,-2.5013206,-2.5190601,-0.05914641,-0.009015089,0.12613459,-0.014739736,0.0012466371,0.7358668,0.42077956,0.0,21.839275,2.5013206,0.43132207,0.23411646,0.17776756,0.1043624,inf,inf,inf,inf,1,1,1,1,2,0,2,2,1,1,0
3163976000,1684000,47.3977508,8.5456074,-0.022081766,-0.090395994,-22.002205,-0.022669492,-0.0033747193,0.0,-0.012075119,0.0026129053,-2.4171455,-2.4356427,-0.05914641,-0.009015089,0.12613459,0.01788976,-0.009242837,0.725422,0.42083615,0.0,22.097881,2.4171455,0.41871423,0.2346564,0.17275354,0.10418848,inf,inf,inf,inf,1,1,1,1,2,0,2,2,1,1,0
3164072000,1684000,47.3977508,8.5456074,-0.022463957,-0.09004429,-22.233587,-0.022669492,-0.0033747193,0.0,-0.012307997,0.0007331519,-2.3400564,-2.359587,-0.05914641,-0.009015089,0.12613459,0.01301123,-0.0010360599,0.78671885,0.4209175,0.0,22.329264,2.3400564,0.43078724,0.23427339,0.17677805,0.104396015,inf,inf,inf,inf,1,1,1,1,2,0,2,2,1,1,0
3164168000,1684000,47.3977508,8.5456074,-0.022829887,-0.08882757,-22.457573,-0.022669492,-0.0033747193,0.0,-0.011907961,-0.0015765548,-2.2675316,-2.2877216,-0.05914641,-0.009015089,0.12613459,0.12659493,-0.033848356,0.7864246,0.42067546,0.0,22.55325,2.2675316,0.41727516,0.23416345,0.17154989,0.10402358,inf,inf,inf,inf,1,1,1,1,2,0,2,2,1,1,0
3164268000,1684000,47.3977508,8.5456074,-0.022920059,-0.08781299,-22.637983,-0.022669492,-0.0033747193,0.0,-0.0030885108,-0.004223091,-2.208956,-2.2286584,-0.05914641,-0.009015089,0.12613459,0.055348437,-0.018145157,0.47318077,0.42059636,0.0,22.73366,2.208956,0.42721272,0.23410583,0.17490557,0.10426642,inf,inf,inf,inf,1,1,1,1,2,0,2,2,1,1,0
3164372000,1684000,47.3977508,8.5456074,-0.022245117,-0.08670131,-22.867634,-0.022669492,-0.0033747193,0.0,-0.0021106142,-0.00614234,-2.1777236,-2.1963432,-0.05914641,-0.009015089,0.12613459,-0.028958863,-0.041249022,0.61642003,0.4206345,0.0,22.96331,2.1777236,0.41488746,0.23463984,0.17015806,0.1040867,inf,inf,inf,inf,1,1,1,1,2,0,2,2,1,1,0
3164476000,1684000,47.3977508,8.5456074,-0.021492677,-0.08555708,-23.075642,-0.022669492,-0.0033747193,0.0,-0.002063971,-0.0033293741,-2.1063566,-2.125285,-0.05914641,-0.009015089,0.12613459,0.045233827,-0.0156185115,0.80015135,0.42077446,0.0,23.171318,2.1063566,0.42671373,0.23427531,0.17427906,0.10430768,inf,inf,inf,inf,1,1,1,1,2,0,2,2,1,1,0
3164572000,1684000,47.3977508,8.5456074,-0.02140158,-0.08355995,-23.278893,-0.022669492,-0.0033747193,0.0,-0.006024328,-0.0013182753,-2.0480165,-2.0688226,-0.05914641,-0.009015089,0.12613459,-0.045424514,-0.018240107,0.69160104,0.42072266,0.0,23.374569,2.0480165,0.41377616,0.23420285,0.16956621,0.10395723,inf,inf,inf,inf,1,1,1,1,2,0,2,2,1,1,0
3164676000,1684000,47.3977508,8.5456074,-0.022185653,-0.08154368,-23.493353,-0.022669492,-0.0033747193,0.0,-0.008513925,-0.0026339572,-1.9744565,-1.9978305,-0.05914641,-0.009015089,0.12613459,0.0029755027,-0.11572342,0.814815,0.42065758,0.0,23.58903,1.9744565,0.4265378,0.23292886,0.17397073,0.103973135,inf,inf,inf,inf,1,1,1,1,2,0,2,2,1,1,0
3164772000,1684000,47.3977508,8.5456074,-0.023708668,-0.07958499,-23.6843,-0.022669492,-0.0033747193,0.0,-0.010499749,-0.0031240608,-1.9047312,-1.9302541,-0.05914641,-0.009015089,0.12613459,-0.0030588706,-0.012885789,0.6625317,0.42075253,0.0,23.779976,1.9047312,0.41371885,0.23291358,0.16929284,0.10365081,inf,inf,inf,inf,1,1,1,1,2,0,2,2,1,1,0
3164876000,1684000,47.3977508,8.5456074,-0.025756635,-0.077827975,-23.884619,-0.022669492,-0.0033747193,0.0,-0.010268878,-0.0032485377,-1.8369137,-1.8647448,-0.05914641,-0.009015089,0.12613459,0.066695176,-0.03599374,0.7187258,0.4208768,0.0,23.980295,1.8369137,0.42645663,0.23324636,0.17369497,0.10408764,inf,inf,inf,inf,1,1,1,1,2,0,2,2,1,1,0
3164972000,1684000,47.3977508,8.5456074,-0.02834314,-0.07644139,-24.033428,-0.022669492,-0.0033747193,0.0,-0.0048431666,-0.006978289,-1.7849385,-1.8139862,-0.05914641,-0.009015089,0.12613459,0.1983901,-0.049609322,0.5143284,0.4207161,0.0,24.129105,1.7849385,0.41174302,0.23352934,0.16836517,0.10378237,inf,inf,inf,inf,1,1,1,1,2,0,2,2,1,1,0
3165076000,1684000,47.3977508,8.5456074,-0.031496096,-0.07536984,-24.22119,-0.022669492,-0.0033747193,0.0,-0.00655358,-0.00957441,-1.7434133,-1.7732438,-0.05914641,-0.009015089,0.12613459,-0.0892013,-0.021593254,0.38735285,0.42066765,0.0,24.316866,1.7434133,0.42437276,0.23386218,0.1728143,0.1042209,inf,inf,inf,inf,1,1,1,1,2,0,2,2,1,1,0
3165172000,1684000,47.3977508,8.5456074,-0.034129877,-0.07504182,-24.390203,-0.022669492,-0.0033747193,0.0,-0.007565581,-0.010866197,-1.6916893,-1.7220641,-0.05914641,-0.009015089,0.12613459,-0.07092072,0.05106193,0.66917944,0.42058703,0.0,24.48588,1.6916893,0.43653166,0.23358233,0.17701904,0.104458466,inf,inf,inf,inf,1,1,1,1,2,0,2,2,1,1,0
3165276000,1684000,47.3977508,8.5456074,-0.03714798,-0.074666284,-24.567764,-0.022669492,-0.0033747193,0.0,-0.004880857,-0.011175576,-1.6275393,-1.659183,-0.05914641,-0.009015089,0.12613459,0.133217,0.10188126,0.536872,0.4207628,0.0,24.66344,1.6275393,0.42319277,0.23264249,0.17222527,0.103899404,inf,inf,inf,inf,1,1,1,1,2,0,2,2,1,1,0
3165372000,1684000,47.3977508,8.5456074,-0.039366484,-0.07453656,-24.726364,-0.022669492,-0.0033747193,0.0,-0.00029493193,-0.011841692,-1.5752405,-1.608167,-0.05914641,-0.009015089,0.12613459,0.13549256,-0.017398607,0.5951281,0.4207985,0.0,24.82204,1.5752405,0.43527266,0.23396291,0.17642637,0.10455765,inf,inf,inf,inf,1,1,1,1,2,0,2,2,1,1,0
3165476000,1684000,47.3977508,8.5456074,-0.042248596,-0.0738059,-24.894413,-0.022669492,-0.0033747193,0.0,-0.00021589872,-0.0125649255,-1.5211152,-1.5569884,-0.05914641,-0.009015089,0.12613459,0.062080503,-0.085645385,0.55580956,0.4208178,0.0,24.99009,1.5211152,0.4221126,0.23301034,0.17166576,0.10399115,inf,inf,inf,inf,1,1,1,1,2,0,2,2,1,1,0
3165572000,1684000,47.3977508,8.5456074,-0.044672802,-0.07336424,-25.043646,-0.022669492,-0.0033747193,0.0,-0.0001786898,-0.013370829,-1.4679872,-1.5054747,-0.05914641,-0.009015089,0.12613459,0.046928048,-0.068909705,0.5586436,0.42082098,0.0,25.139322,1.4679872,0.43412113,0.23433122,0.17590277,0.104647525,inf,inf,inf,inf,1,1,1,1,2,0,2,2,1,1,0
3165676000,1684000,47.3977508,8.5456074,-0.047982305,-0.07190689,-25.19907,-0.022669492,-0.0033747193,0.0,0.00081813114,-0.012485467,-1.4145125,-1.453045,-0.05914641,-0.009015089,0.12613459,0.04465214,-0.016928293,0.45258456,0.4208755,0.0,25.294746,1.4145125,0.4211237,0.23334938,0.17128184,0.10406705,inf,inf,inf,inf,1,1,1,1,2,0,2,2,1,1,0
3165772000,1684000,47.3977508,8.5456074,-0.050458577,-0.07062381,-25.337795,-0.022669492,-0.0033747193,0.0,0.0053834068,-0.010317435,-1.3702937,-1.4094862,-0.05914641,-0.009015089,0.12613459,0.021253332,0.034413323,0.46393552,0.42082897,0.0,25.433472,1.3702937,0.4330739,0.23306362,0.1755196,0.10429575,inf,inf,inf,inf,1,1,1,1,2,0,2,2,1,1,0
3165876000,1684000,47.3977508,8.5456074,-0.05305448,-0.069241226,-25.482075,-0.022669492,-0.0033747193,0.0,0.005952857,-0.009189405,-1.3247403,-1.3633423,-0.05914641,-0.009015089,0.12613459,0.03003975,0.104107566,0.4493361,0.42086816,0.0,25.577751,1.3247403,0.42022327,0.23367888,0.17101161,0.10413693,inf,inf,inf,inf,1,1,1,1,2,0,2,2,1,1,0
3165980000,1684000,47.3977508,8.5456074,-0.055061016,-0.068301745,-25.620743,-0.022669492,-0.0033747193,0.0,0.006965366,-0.0112767685,-1.2857572,-1.3227324,-0.05914641,-0.009015089,0.12613459,0.0572088,-0.047753837,0.42517853,0.42084527,0.0,25.71642,1.2857572,0.43314105,0.23401256,0.17566948,0.104550205,inf,inf,inf,inf,1,1,1,1,2,0,2,2,1,1,0
3166076000,1684000,47.3977508,8.5456074,-0.057978462,-0.06680553,-25.745,-0.022669492,-0.0033747193,0.0,0.0080467565,-0.014085937,-1.2496456,-1.2851946,-0.05914641,-0.009015089,0.12613459,0.039208867,-0.05517387,0.3492273,0.4206154,0.0,25.840677,1.2496456,0.4194081,0.23396584,0.17090234,0.10418757,inf,inf,inf,inf,1,1,1,1,2,0,2,2,1,1,0
3166172000,1684000,47.3977508,8.5456074,-0.060402043,-0.06572949,-25.865355,-0.022669492,-0.0033747193,0.0,0.008402472,-0.014297618,-1.2143497,-1.2481952,-0.05914641,-0.009015089,0.12613459,-0.003702269,0.020032791,0.3602663,0.42085648,0.0,25.961031,1.2143497,0.4312776,0.23365362,0.1752476,0.104405314,inf,inf,inf,inf,1,1,1,1,2,0,2,2,1,1,0
3166276000,1684000,47.3977508,8.5456074,-0.063449465,-0.06453823,-25.990587,-0.022669492,-0.0033747193,0.0,0.008417349,-0.015760902,-1.1798564,-1.2107137,-0.05914641,-0.009015089,0.12613459,0.037980672,-0.038210515,0.2947291,0.42071158,0.0,26.086264,1.1798564,0.41867647,0.23424785,0.17091446,0.104236744,inf,inf,inf,inf,1,1,1,1,2,0,2,2,1,1,0
3166372000,1684000,47.3977508,8.5456074,-0.06572139,-0.06385332,-26.103266,-0.022669492,-0.0033747193,0.0,0.010624873,-0.0138402525,-1.1510623,-1.1795647,-0.05914641,-0.009015089,0.12613459,0.06983063,0.007524857,0.26671585,0.42069423,0.0,26.198942,1.1510623,0.43052197,0.23391484,0.1752871,0.1044461,inf,inf,inf,inf,1,1,1,1,2,0,2,2,1,1,0
3166476000,1684000,47.3977508,8.5456074,-0.06834203,-0.06176705,-26.2219,-0.022669492,-0.0033747193,0.0,0.0126658175,-0.012412276,-1.1176949,-1.143643,-0.05914641,-0.009015089,0.12613459,0.047969162,-0.107204415,0.31967273,0.4208876,0.0,26.317577,1.1176949,0.41802555,0.23290431,0.17102131,0.103854455,inf,inf,inf,inf,1,1,1,1,2,0,2,2,1,1,0
3166572000,1684000,47.3977508,8.5456074,-0.07003142,-0.060072653,-26.327353,-0.022669492,-0.0033747193,0.0,0.014758086,-0.01199126,-1.08761,-1.1106673,-0.05914641,-0.009015089,0.12613459,0.058052417,0.03692749,0.39667913,0.42087352,0.0,26.423029,1.08761,0.42985663,0.23417312,0.17544939,0.10448748,inf,inf,inf,inf,1,1,1,1,2,0,2,2,1,1,0
3166676000,1684000,47.3977508,8.5456074,-0.07256518,-0.057714257,-26.437881,-0.022669492,-0.0033747193,0.0,0.016585063,-0.011441044,-1.0584017,-1.0779994,-0.05914641,-0.009015089,0.12613459,0.051114924,-0.0125188595,0.27948987,0.42097086,0.0,26.533558,1.0584017,0.4174516,0.23314019,0.17119662,0.103887394,inf,inf,inf,inf,1,1,1,1,2,0,2,2,1,1,0
3166772000,1684000,47.3977508,8.5456074,-0.07438254,-0.055910386,-26.536968,-0.022669492,-0.0033747193,0.0,0.017921377,-0.011747008,-1.0333493,-1.0498542,-0.05914641,-0.009015089,0.12613459,0.082681224,-0.02863688,0.15173478,0.42073828,0.0,26.632645,1.0333493,0.42927518,0.23439515,0.17564122,0.10451501,inf,inf,inf,inf,1,1,1,1,2,0,2,2,1,1,0
3166876000,1684000,47.3977508,8.5456074,-0.07676572,-0.05369806,-26.641819,-0.022669492,-0.0033747193,0.0,0.01963029,-0.013783098,-1.0062921,-1.0199791,-0.05914641,-0.009015089,0.12613459,0.10898751,-0.07654241,0.2577258,0.42084253,0.0,26.737495,1.0062921,0.4169505,0.23335934,0.17144047,0.103915684,inf,inf,inf,inf,1,1,1,1,2,0,2,2,1,1,0
3166972000,1684000,47.3977508,8.5456074,-0.0783717,-0.052417345,-26.735638,-0.022669492,-0.0033747193,0.0,0.019518973,-0.017226791,-0.9803443,-0.9913587,-0.05914641,-0.009015089,0.12613459,0.09372994,-0.02977802,0.24517065,0.42090893,0.0,26.831314,0.9803443,0.4287743,0.23461843,0.17591746,0.10454611,inf,inf,inf,inf,1,1,1,1,2,0,2,2,1,1,0
3167076000,1684000,47.3977508,8.5456074,-0.081276156,-0.051245805,-26.83481,-0.022669492,-0.0033747193,0.0,0.020957831,-0.0193562,-0.954626,-0.96328497,-0.05914641,-0.009015089,0.12613459,0.010612566,-0.008280699,0.23423879,0.42088467,0.0,26.930487,0.954626,0.4165185,0.23356263,0.17172676,0.10394,inf,inf,inf,inf,1,1,1,1,2,0,2,2,1,1,0
3167172000,1684000,47.3977508,8.5456074,-0.08335494,-0.05069008,-26.92375,-0.022669492,-0.0033747193,0.0,0.023654656,-0.019061869,-0.9289573,-0.93557245,-0.05914641,-0.009015089,0.12613459,0.03917205,-0.026667468,0.22470763,0.42092347,0.0,27.019426,0.9289573,0.42834815,0.23481764,0.1762157,0.10456979,inf,inf,inf,inf,1,1,1,1,2,0,2,2,1,1,0
3167276000,1684000,47.3977508,8.5456074,-0.08601152,-0.049408954,-27.017632,-0.022669492,-0.0033747193,0.0,0.022258213,-0.0181192,-0.90295607,-0.90782976,-0.05914641,-0.009015089,0.12613459,0.06631159,0.0700162,0.2598008,0.4208548,0.0,27.113308,0.90295607,0.41615114,0.23376888,0.172028,0.10396901,inf,inf,inf,inf,1,1,1,1,2,0,2,2,1,1,0
3167372000,1684000,47.3977508,8.5456074,-0.08775744,-0.04859042,-27.10157,-0.022669492,-0.0033747193,0.0,0.022936303,-0.01951803,-0.8773379,-0.8805342,-0.05914641,-0.009015089,0.12613459,0.050313257,-0.039291356,0.19911861,0.42086458,0.0,27.197247,0.8773379,0.42799112,0.2350114,0.17652968,0.1045944,inf,inf,inf,inf,1,1,1,1,2,0,2,2,1,1,0
3167476000,1684000,47.3977508,8.5456074,-0.08965508,-0.047073625,-27.19013,-0.022669492,-0.0033747193,0.0,0.02496101,-0.020672739,-0.8539276,-0.85553885,-0.05914641,-0.009015089,0.12613459,0.019195823,0.013938384,0.29554215,0.42084062,0.0,27.285807,0.8539276,0.4158434,0.23394498,0.1723402,0.10398813,inf,inf,inf,inf,1,1,1,1,2,0,2,2,1,1,0
3167572000,1684000,47.3977508,8.5456074,-0.090660855,-0.04611011,-27.269339,-0.022669492,-0.0033747193,0.0,0.025014382,-0.02028686,-0.82960176,-0.8297545,-0.05914641,-0.009015089,0.12613459,0.0071508544,0.046439268,0.2716342,0.42088404,0.0,27.365015,0.82960176,0.42769742,0.2351937,0.17686704,0.10461777,inf,inf,inf,inf,1,1,1,1,2,0,2,2,1,1,0
3167676000,1684000,47.3977508,8.5456074,-0.09354765,-0.044745307,-27.352758,-0.022669492,-0.0033747193,0.0,0.022925774,-0.019004703,-0.80555487,-0.8045203,-0.05914641,-0.009015089,0.12613459,-0.0090044625,-0.030861402,0.17184763,0.420938,0.0,27.448435,0.80555487,0.41559032,0.23411915,0.17266935,0.10401019,inf,inf,inf,inf,1,1,1,1,2,0,2,2,1,1,0
3167772000,1684000,47.3977508,8.5456074,-0.09575282,-0.04412036,-27.427402,-0.022669492,-0.0033747193,0.0,0.025460143,-0.020898381,-0.78224975,-0.7800314,-0.05914641,-0.009015089,0.12613459,0.041402597,-0.030242505,0.23964418,0.4209511,0.0,27.523079,0.78224975,0.42746183,0.23535682,0.17720075,0.10463636,inf,inf,inf,inf,1,1,1,1,2,0,2,2,1,1,0
3167876000,1684000,47.3977508,8.5456074,-0.09837131,-0.043471597,-27.506155,-0.022669492,-0.0033747193,0.0,0.02545242,-0.022843685,-0.7584118,-0.7554383,-0.05914641,-0.009015089,0.12613459,0.06827748,-0.07555799,0.14501995,0.4209572,0.0,27.601831,0.7584118,0.4153877,0.23428401,0.17299545,0.10403183,inf,inf,inf,inf,1,1,1,1,2,0,2,2,1,1,0
3167972000,1684000,47.3977508,8.5456074,-0.09994196,-0.043506365,-27.576994,-0.022669492,-0.0033747193,0.0,0.026101312,-0.024158536,-0.7382695,-0.7348451,-0.05914641,-0.009015089,0.12613459,-0.07274202,0.0018371928,0.19078887,0.42082664,0.0,27.67267,0.7382695,0.42727935,0.23391204,0.17754139,0.10423598,inf,inf,inf,inf,1,1,1,1,2,0,2,2,1,1,0
3168076000,1684000,47.3977508,8.5456074,-0.102061994,-0.042949196,-27.651146,-0.022669492,-0.0033747193,0.0,0.026799886,-0.02206571,-0.71469384,-0.71056026,-0.05914641,-0.009015089,0.12613459,0.08773032,-0.037953254,0.21743214,0.4209267,0.0,27.746822,0.71469384,0.4152305,0.2344484,0.17331518,0.104056664,inf,inf,inf,inf,1,1,1,1,2,0,2,2,1,1,0
3168172000,1684000,47.3977508,8.5456074,-0.10319826,-0.042751472,-27.717442,-0.022669492,-0.0033747193,0.0,0.029055104,-0.021825323,-0.6941135,-0.68934506,-0.05914641,-0.009015089,0.12613459,0.022777544,-0.00601836,0.2049664,0.4207768,0.0,27.813118,0.6941135,0.42714432,0.234063,0.17788091,0.104256816,inf,inf,inf,inf,1,1,1,1,2,0,2,2,1,1,0
3168276000,1684000,47.3977508,8.5456074,-0.104181886,-0.042613246,-27.787226,-0.022669492,-0.0033747193,0.0,0.03022626,-0.021515405,-0.67007315,-0.66488415,-0.05914641,-0.009015089,0.12613459,-0.0017225537,0.031594027,0.24123769,0.42087054,0.0,27.882902,0.67007315,0.4151143,0.23460566,0.17362538,0.10408173,inf,inf,inf,inf,1,1,1,1,2,0,2,2,1,1,0
3168372000,1684000,47.3977508,8.5456074,-0.10432212,-0.042851523,-27.84947,-0.022669492,-0.0033747193,0.0,0.030579746,-0.021188775,-0.65173495,-0.64614755,-0.05914641,-0.009015089,0.12613459,-0.0063966285,0.058495257,0.1707552,0.42085025,0.0,27.945147,0.65173495,0.4270515,0.23422481,0.17820561,0.10428581,inf,inf,inf,inf,1,1,1,1,2,0,2,2,1,1,0
3168476000,1684000,47.3977508,8.5456074,-0.10487873,-0.042464115,-27.913754,-0.022669492,-0.0033747193,0.0,0.03369534,-0.021536598,-0.6321772,-0.6249338,-0.05914641,-0.009015089,0.12613459,0.10396727,0.03539146,0.2709124,0.42092302,0.0,28.00943,0.6321772,0.41503456,0.23475608,0.1739163,0.10410687,inf,inf,inf,inf,1,1,1,1,2,0,2,2,1,1,0
3168576000,1684000,47.3977508,8.5456074,-0.10457702,-0.04239305,-27.971449,-0.022669492,-0.0033747193,0.0,0.034877267,-0.02037673,-0.615777,-0.6073737,-0.05914641,-0.009015089,0.12613459,-0.066641286,-0.06126612,0.047976147,0.42091367,0.0,28.067125,0.615777,0.4269958,0.23437156,0.17851916,0.104311116,inf,inf,inf,inf,1,1,1,1,2,0,2,2,1,1,0
