timestamp,roll,pitch,yaw,thrust_body[0],thrust_body[1],thrust_body[2]
3151276000,-0.048644,-0.09673056,-1.175853,0.0,0.0,0.0
3151296000,-0.048314236,-0.09688796,-1.176071,0.0,0.0,0.0
3151308000,-0.048777938,-0.096651465,-1.1761696,0.0,0.0,0.0
3151336000,-0.049127087,-0.09656227,-1.1760291,0.0,0.0,0.0
3151356000,-0.04933796,-0.096426934,-1.1761055,0.0,0.0,0.0
3151376000,-0.04953658,-0.096593484,-1.1762449,0.0,0.0,0.0
3151392000,-0.04946217,-0.09667158,-1.1761647,0.0,0.0,0.0
3151412000,-0.049564663,-0.096711904,-1.1762141,0.0,0.0,0.0
3151436000,-0.04943612,-0.096738026,-1.1760881,0.0,0.0,0.0
3151456000,-0.049523905,-0.09655789,-1.1762891,0.0,0.0,0.0
3151476000,-0.04923446,-0.09625897,-1.1763333,0.0,0.0,0.0
3151492000,-0.049058467,-0.09640702,-1.1763655,0.0,0.0,0.0
3151516000,-0.04944924,-0.09635988,-1.176439,0.0,0.0,0.0
3151536000,-0.049747556,-0.09618033,-1.1763378,0.0,0.0,0.0
3151552000,-0.049707893,-0.09625579,-1.1764036,0.0,0.0,0.0
3151576000,-0.0504136,-0.09630683,-1.1763515,0.0,0.0,0.0
3151592000,-0.050403945,-0.09619793,-1.1763704,0.0,0.0,0.0
3151616000,-0.050369248,-0.09597762,-1.1762882,0.0,0.0,0.0
3151632000,-0.050768167,-0.09596124,-1.1759735,0.0,0.0,0.0
3151652000,-0.05051776,-0.09632175,-1.1760596,0.0,0.0,0.0
3151676000,-0.050525323,-0.09628041,-1.1761281,0.0,0.0,0.0
3151692000,-0.050344303,-0.096013896,-1.1759471,0.0,0.0,0.0
3151716000,-0.050481353,-0.096515894,-1.1757472,0.0,0.0,0.0
3151736000,-0.0503776,-0.09675115,-1.1758714,0.0,0.0,0.0
3151752000,-0.050635245,-0.09690452,-1.1758674,0.0,0.0,0.0
3151776000,-0.050466232,-0.09746885,-1.175797,0.0,0.0,0.0
3151792000,-0.050654277,-0.09726931,-1.1759683,0.0,0.0,0.0
3151816000,-0.05122998,-0.09782457,-1.1759238,0.0,0.0,0.0
3151832000,-0.05086788,-0.09789184,-1.1759248,0.0,0.0,0.0
3151856000,-0.05086516,-0.097952604,-1.1759852,0.0,0.0,0.0
3151872000,-0.050786138,-0.098132394,-1.1759442,0.0,0.0,0.0
3151896000,-0.04996837,-0.09791106,-1.1761267,0.0,0.0,0.0
3151912000,-0.050436795,-0.09774889,-1.1760874,0.0,0.0,0.0
3151932000,-0.050861664,-0.097801045,-1.1760988,0.0,0.0,0.0
3151956000,-0.051063687,-0.09739469,-1.1758702,0.0,0.0,0.0
3151972000,-0.050878294,-0.097717375,-1.1758478,0.0,0.0,0.0
3151992000,-0.050674662,-0.09807131,-1.1756283,0.0,0.0,0.0
3152008000,-0.05061304,-0.09803939,-1.1757002,0.0,0.0,0.0
3152036000,-0.050292503,-0.09779954,-1.1755967,0.0,0.0,0.0
3152056000,-0.049771428,-0.09800731,-1.1756138,0.0,0.0,0.0
3152076000,-0.049653847,-0.098512016,-1.1757885,0.0,0.0,0.0
3152092000,-0.049503442,-0.09869522,-1.1760291,0.0,0.0,0.0
3152116000,-0.049023055,-0.098525524,-1.1761134,0.0,0.0,0.0
3152132000,-0.048846826,-0.09827375,-1.1760333,0.0,0.0,0.0
3152152000,-0.048413545,-0.098247975,-1.1760452,0.0,0.0,0.0
3152172000,-0.04833345,-0.09880288,-1.1762421,0.0,0.0,0.0
3152192000,-0.04787723,-0.09870715,-1.1761848,0.0,0.0,0.0
3152212000,-0.048101336,-0.09814603,-1.1760858,0.0,0.0,0.0
3152232000,-0.047695722,-0.09824282,-1.1760658,0.0,0.0,0.0
3152256000,-0.047707368,-0.098114915,-1.1760881,0.0,0.0,0.0
3152276000,-0.047621805,-0.09853846,-1.1759684,0.0,0.0,0.0
3152288000,-0.62299013,-0.32305062,-0.006413877,0.0,0.0,-0.120624855
3152312000,-0.41177052,-0.22162588,-0.0022341013,0.0,0.0,-0.12023737
3152332000,-0.29943788,-0.124447994,-0.0005298257,0.0,0.0,-0.1200996
3152356000,-0.24598606,-0.08946825,-3.5583973e-05,0.0,0.0,-0.120059446
3152376000,-0.18129838,-0.06942355,0.00022441149,0.0,0.0,-0.12002657
3152392000,-0.1531403,-0.03699115,0.00035315752,0.0,0.0,-0.12002046
3152412000,-0.12090263,-0.040044382,0.00011497736,0.0,0.0,-0.120011486
3152436000,-0.110791445,-0.032952376,0.00034832954,0.0,0.0,-0.120489016
3152456000,-0.082247496,-0.019820988,0.00046652555,0.0,0.0,-0.14444192
3152468000,-0.08172474,-0.019754633,0.00045973063,0.0,0.0,-0.14444192
3152488000,-0.06536177,-0.03220084,0.00039553642,0.0,0.0,-0.15824242
3152512000,-0.06398426,-0.049925264,0.0007147193,0.0,0.0,-0.18312047
3152536000,-0.067681774,-0.050963596,0.000562191,0.0,0.0,-0.19752195
3152552000,-0.06841431,-0.049300686,0.00042003393,0.0,0.0,-0.21142194
3152572000,-0.06142965,-0.05094809,0.00038015842,0.0,0.0,-0.22273602
3152592000,-0.08010599,-0.06330442,0.00031614304,0.0,0.0,-0.23670626
3152608000,-0.089853406,-0.06343681,0.00012588501,0.0,0.0,-0.2510069
3152632000,-0.08267325,-0.067467496,0.00015377998,0.0,0.0,-0.2622967
3152652000,-0.07699819,-0.0656132,1.6987324e-05,0.0,0.0,-0.2769423
3152676000,-0.06852223,-0.06643493,7.3313713e-06,0.0,0.0,-0.29123336
3152692000,-0.065101795,-0.06601085,0.00013786554,0.0,0.0,-0.30242413
3152712000,-0.06408535,-0.06636519,0.00019347668,0.0,0.0,-0.3172541
3152732000,-0.07426083,-0.067605965,0.00019437075,0.0,0.0,-0.33173457
3152756000,-0.07624463,-0.061757855,5.9902668e-05,0.0,0.0,-0.35779345
3152776000,-0.069065705,-0.059024625,0.00021404028,0.0,0.0,-0.37245733
3152796000,-0.06683585,-0.06863827,0.00025820732,0.0,0.0,-0.3834874
3152812000,-0.06603181,-0.068934105,0.00044989586,0.0,0.0,-0.39837733
3152836000,-0.059040375,-0.06790005,0.00042325258,0.0,0.0,-0.41334707
3152852000,-0.05838084,-0.06898992,0.00037032366,0.0,0.0,-0.42531973
3152876000,-0.063196465,-0.069527596,0.000233531,0.0,0.0,-0.44094512
3152892000,-0.059045553,-0.06694242,0.0001013875,0.0,0.0,-0.45561033
3152912000,-0.058901012,-0.07405539,0.0001373291,0.0,0.0,-0.46792805
3152932000,-0.06658042,-0.07287113,-3.9339066e-06,0.0,0.0,-0.48318312
3152956000,-0.06243114,-0.07429054,-2.503395e-06,0.0,0.0,-0.49879763
3152976000,-0.05591014,-0.07848549,0.0002540946,0.0,0.0,-0.5110299
3152996000,-0.056718785,-0.07462315,0.00027877092,0.0,0.0,-0.5269468
3153016000,-0.06335352,-0.078510575,0.00025874376,0.0,0.0,-0.5547276
3153032000,-0.065666005,-0.080707476,0.00024569035,0.0,0.0,-0.5706907
3153056000,-0.06446485,-0.08542359,0.0002886057,0.0,0.0,-0.5866236
3153072000,-0.06380196,-0.08271159,0.00028699636,0.0,0.0,-0.59792024
3153088000,-0.0574096,-0.071133405,0.00036120415,0.0,0.0,-0.6088793
3153112000,-0.048615746,-0.05903771,0.0003299117,0.0,0.0,-0.6171521
3153136000,-0.036978353,-0.049451314,0.00040394068,0.0,0.0,-0.6144794
3153156000,-0.02201838,-0.037903722,0.0005607605,0.0,0.0,-0.61697453
3153172000,-0.013950228,-0.02719272,0.0005659461,0.0,0.0,-0.618475
3153196000,-0.010545729,-0.017673124,0.0006970167,0.0,0.0,-0.6087069
3153212000,-0.0008830562,-0.0059078084,0.000554502,0.0,0.0,-0.60966116
3153232000,0.012633318,0.004129653,0.0007522702,0.0,0.0,-0.6107181
3153256000,0.02616407,0.016470073,0.00087314844,0.0,0.0,-0.602679
3153272000,0.027277429,0.024008559,0.00089353323,0.0,0.0,-0.60596746
3153296000,0.029465558,0.036338888,0.00073868036,0.0,0.0,-0.6056783
3153312000,0.031738818,0.0404267,0.00049066544,0.0,0.0,-0.60952735
3153332000,0.0334694,0.042742237,0.00043863058,0.0,0.0,-0.6137779
3153356000,0.03620011,0.045972753,0.00029486418,0.0,0.0,-0.60948706
3153376000,0.040134665,0.044734355,0.00046652555,0.0,0.0,-0.6125555
3153396000,0.044964783,0.04477751,0.00041502714,0.0,0.0,-0.6160437
3153416000,0.053086717,0.051715374,0.00033152103,0.0,0.0,-0.61104405
3153432000,0.05306772,0.047998928,0.0002462268,0.0,0.0,-0.6141532
3153456000,0.054549232,0.045669533,-0.00011461973,0.0,0.0,-0.61694247
3153468000,0.059118245,0.047927782,-0.00011998415,0.0,0.0,-0.6114921
3153492000,0.056468546,0.04481534,-0.0002977252,0.0,0.0,-0.61450845
3153512000,0.053322986,0.043214176,-0.00023174286,0.0,0.0,-0.6177036
3153536000,0.0500946,0.04083789,-0.00017899275,0.0,0.0,-0.61167604
3153552000,0.050304227,0.035845365,-0.0001269579,0.0,0.0,-0.61455214
3153576000,0.039909147,0.030512106,0.00012713671,0.0,0.0,-0.6120998
3153592000,0.036382355,0.028718334,8.332729e-05,0.0,0.0,-0.6120998
3153616000,0.026637448,0.029930796,-0.00028270483,0.0,0.0,-0.6186954
3153636000,0.022820199,0.025947506,-0.0003683567,0.0,0.0,-0.6141606
3153656000,0.023959095,0.021424703,-0.0003862381,0.0,0.0,-0.61765903
3153676000,0.018986117,0.019587666,-0.00020241737,0.0,0.0,-0.6212007
3153692000,0.01676971,0.023302536,-0.0001232028,0.0,0.0,-0.61584276
3153712000,0.016369354,0.01885397,-0.00027626753,0.0,0.0,-0.61861694
3153736000,0.020274658,0.024306295,-0.00049585104,0.0,0.0,-0.6218919
3153752000,0.014307953,0.02786125,-0.0006632209,0.0,0.0,-0.61644936
3153776000,0.013892951,0.027406782,-0.00079876184,0.0,0.0,-0.62007844
3153792000,0.018575767,0.02474962,-0.0007413626,0.0,0.0,-0.6236443
3153812000,0.020287735,0.022352874,-0.00054073334,0.0,0.0,-0.6185674
3153832000,0.019797493,0.025060762,-0.00050085783,0.0,0.0,-0.62222457
3153856000,0.020633016,0.017010015,-0.0006546378,0.0,0.0,-0.6196167
3153872000,0.02006431,0.016031034,-0.00059741735,0.0,0.0,-0.6196167
3153892000,0.014533283,0.018980134,-0.00044578314,0.0,0.0,-0.6250396
3153916000,0.011810448,0.017282601,-0.0003427863,0.0,0.0,-0.6192009
3153936000,0.01138299,0.016886206,-0.00023317337,0.0,0.0,-0.62178355
3153948000,0.0123341745,0.014242634,-9.36985e-05,0.0,0.0,-0.62497544
3153976000,0.010851331,0.012770673,0.00014930964,0.0,0.0,-0.6199147
3153992000,0.013461873,0.011440983,0.00021582842,0.0,0.0,-0.62352264
3154016000,0.014641679,0.013558427,0.000310421,0.0,0.0,-0.62754226
3154036000,0.013783542,0.0052235294,0.0003116727,0.0,0.0,-0.6220052
3154052000,0.014003744,0.006408428,0.0003771186,0.0,0.0,-0.62508833
3154076000,0.015915856,0.00020161131,0.00048190355,0.0,0.0,-0.6278611
3154096000,0.018370591,-0.00070400303,0.00064086914,0.0,0.0,-0.6254361
3154112000,0.017942756,-0.000110856956,0.00042825937,0.0,0.0,-0.6254361
3154136000,0.016262755,0.003368765,0.00011122227,0.0,0.0,-0.62250745
3154156000,0.015561549,0.0037155712,0.00022637844,0.0,0.0,-0.62588954
3154176000,0.012302235,0.007554113,-2.7894974e-05,0.0,0.0,-0.6293918
3154192000,0.008848494,0.005363907,-0.00018078089,0.0,0.0,-0.624281
3154216000,0.011309711,0.0065624784,-0.00023853779,0.0,0.0,-0.627615
3154232000,0.012916784,0.0096430145,-0.00021922588,0.0,0.0,-0.63065785
3154252000,0.013274199,0.01368236,-0.00022119284,0.0,0.0,-0.6244666
3154276000,0.010557331,0.00803495,-0.00023978949,0.0,0.0,-0.6274241
3154292000,0.009313014,0.012683403,-0.00022566319,0.0,0.0,-0.63065255
3154316000,0.012355344,0.011190426,-0.00013697147,0.0,0.0,-0.6252146
3154336000,0.017494857,0.011765993,-0.00035977364,0.0,0.0,-0.6289845
3154356000,0.020153655,0.011234632,-0.00018972158,0.0,0.0,-0.6329027
3154372000,0.020617343,0.012392278,-0.0001847148,0.0,0.0,-0.6275959
3154392000,0.020147528,0.012774253,-0.0002360344,0.0,0.0,-0.63125616
3154416000,0.015458702,0.0064660925,-0.00011730194,0.0,0.0,-0.6287617
3154436000,0.0139588695,0.007522371,-6.2942505e-05,0.0,0.0,-0.63202906
3154452000,0.017730646,0.0097200805,4.1663647e-05,0.0,0.0,-0.63484806
3154476000,0.016659059,0.0066766315,-9.351969e-05,0.0,0.0,-0.6290193
3154492000,0.019365551,0.0048105028,-0.0001348257,0.0,0.0,-0.63230693
3154512000,0.014650488,0.0049419003,2.7000904e-05,0.0,0.0,-0.6361519
3154532000,0.012036616,0.007183687,0.00011211634,0.0,0.0,-0.6305174
3154552000,0.012055683,0.009673821,0.00019150972,0.0,0.0,-0.6341882
3154576000,0.0159483,0.007610834,4.2378902e-05,0.0,0.0,-0.6377904
3154596000,0.012771257,0.003763103,5.865097e-05,0.0,0.0,-0.6323428
3154616000,0.013124655,0.0013927224,0.00017005205,0.0,0.0,-0.6358486
3154632000,0.009682471,-0.002354858,0.00044202805,0.0,0.0,-0.63890773
3154652000,0.014949518,-0.004016481,0.00047385693,0.0,0.0,-0.6334776
3154668000,0.008435265,-0.0056474274,0.0002744794,0.0,0.0,-0.6365483
3154696000,0.013208083,0.0008101654,8.72612e-05,0.0,0.0,-0.6345092
3154712000,0.01424835,0.006332806,-0.000102460384,0.0,0.0,-0.6372733
3154732000,0.011678724,0.0050290134,-0.002498567,0.0,0.0,-0.6404747
3154752000,0.007266799,0.00993447,-0.0023056269,0.0,0.0,-0.6348274
3154772000,0.009327117,0.011622766,-0.0023810863,0.0,0.0,-0.63798076
3154792000,0.010835894,0.010059157,-0.001824081,0.0,0.0,-0.6412231
3154812000,0.011742116,0.008182944,-0.0009586215,0.0,0.0,-0.6364074
3154836000,0.010013093,0.007306635,-0.00053554773,0.0,0.0,-0.6399305
3154848000,0.0070504267,0.006183265,-0.00016146898,0.0,0.0,-0.64381915
3154872000,0.0083291065,0.0063346718,0.00028681755,0.0,0.0,-0.638742
3154892000,0.008689361,0.008082166,0.0007018447,0.0,0.0,-0.6424012
3154916000,0.011531053,0.008120846,0.0013795495,0.0,0.0,-0.6458219
3154932000,0.00506126,0.0062794015,0.0018088818,0.0,0.0,-0.6401076
3154952000,0.008746736,0.0016850545,0.0023081303,0.0,0.0,-0.63326716
3154976000,0.018448193,-0.008515509,0.002797544,0.0,0.0,-0.5776535
3154992000,0.020867974,-0.0037976308,0.0034140944,0.0,0.0,-0.56278586
3155012000,0.025390621,-0.0018719025,0.0042895675,0.0,0.0,-0.55181795
3155032000,0.02720537,-0.0048940773,0.0048603415,0.0,0.0,-0.5328141
3155052000,0.02576083,-0.0017443285,0.00541842,0.0,0.0,-0.534102
3155072000,0.022897698,0.0060068993,0.00595361,0.0,0.0,-0.5382753
3155092000,0.023569364,0.013310296,0.0061933994,0.0,0.0,-0.53835714
3155116000,0.02150397,0.01483258,0.0065048933,0.0,0.0,-0.5480177
3155128000,0.021527138,0.016003609,0.006533861,0.0,0.0,-0.5581819
3155152000,0.012369362,0.019690786,0.006540656,0.0,0.0,-0.5600921
3155176000,0.007719776,0.018542318,0.0068303347,0.0,0.0,-0.56759316
3155192000,0.0070777005,0.018981224,0.0069124103,0.0,0.0,-0.5737299
3155212000,0.0012521613,0.016969206,0.007052064,0.0,0.0,-0.56814307
3155232000,0.0024040863,0.012949082,0.0072630644,0.0,0.0,-0.5713529
3155252000,0.0039443783,0.0129414145,0.007445812,0.0,0.0,-0.57379544
3155272000,0.012030499,0.006210968,0.007602453,0.0,0.0,-0.5686548
3155292000,0.01152936,0.0021557487,0.007635534,0.0,0.0,-0.5788128
3155312000,0.02194582,0.01067905,0.00741899,0.0,0.0,-0.5719832
3155336000,0.02080895,0.0120684,0.007187605,0.0,0.0,-0.5827013
3155352000,0.027357766,0.01782604,0.0070391893,0.0,0.0,-0.57526034
3155376000,0.018731555,0.014115244,0.0069209933,0.0,0.0,-0.57817477
3155392000,0.016906952,0.0124466885,0.0068718195,0.0,0.0,-0.57817477
3155412000,0.012749158,0.009924713,0.0067332387,0.0,0.0,-0.5684675
3155432000,0.009448802,0.0047189137,0.0066727996,0.0,0.0,-0.5707807
3155452000,0.013539394,0.0076084,0.006711781,0.0,0.0,-0.5660116
3155476000,0.011229448,0.010198187,0.006623447,0.0,0.0,-0.5687893
3155496000,0.007289769,0.0089793,0.006369531,0.0,0.0,-0.57220995
3155516000,0.007918652,0.0130919125,0.005771756,0.0,0.0,-0.5652925
3155536000,0.0052442914,0.011987997,0.005619943,0.0,0.0,-0.56858987
3155556000,0.0058684093,0.009661842,0.0050620437,0.0,0.0,-0.57195544
3155576000,0.0036221012,0.009571234,0.0046471953,0.0,0.0,-0.56812125
3155596000,0.0011161705,0.011202175,0.0042568445,0.0,0.0,-0.57195514
3155620000,0.007986432,0.010632536,0.003906369,0.0,0.0,-0.5655534
3155640000,0.002160036,0.012082102,0.003673911,0.0,0.0,-0.56919485
3155656000,0.0014535715,0.009843759,0.003532827,0.0,0.0,-0.5722087
3155672000,0.0018109591,0.0064701,0.0031664371,0.0,0.0,-0.5656943
3155700000,0.00047054468,0.0048335027,0.0027818084,0.0,0.0,-0.5697885
3155716000,0.0044377428,0.003473532,0.0023292303,0.0,0.0,-0.5735464
3155740000,0.006889642,0.00367794,0.0018212199,0.0,0.0,-0.56665677
3155756000,0.009339508,0.0035258979,0.0014074445,0.0,0.0,-0.57049215
3155776000,0.009274925,0.004341256,0.0010564327,0.0,0.0,-0.5734999
3155796000,0.007932479,0.0019821203,0.0008997917,0.0,0.0,-0.56773764
3155820000,0.01119539,0.0022603618,0.00070112944,0.0,0.0,-0.5711572
3155836000,0.0077353874,0.0026737615,0.00071275234,0.0,0.0,-0.5743261
3155856000,0.0043536345,0.005241045,0.00064229965,0.0,0.0,-0.57025963
3155880000,0.0012285635,0.010062894,0.00053071976,0.0,0.0,-0.57363427
3155900000,-0.0025552218,0.011729712,0.00032275915,0.0,0.0,-0.56695545
3155912000,-0.008401319,0.011871404,0.00030863285,0.0,0.0,-0.5707295
3155940000,-0.011626178,0.011343682,0.00048834085,0.0,0.0,-0.5749598
3155956000,-0.008425685,0.011480214,0.0004080534,0.0,0.0,-0.568914
3155976000,-0.0042789755,0.010902563,0.00016200542,0.0,0.0,-0.5726905
3155996000,-0.004794978,0.014727674,2.7894974e-05,0.0,0.0,-0.57642144
3156016000,-0.012177786,0.012841045,-2.682209e-06,0.0,0.0,-0.5697688
3156040000,-0.007781259,0.010917893,-9.119511e-06,0.0,0.0,-0.5729343
3156056000,-0.008478468,0.008126659,-1.7881393e-05,0.0,0.0,-0.5764812
3156076000,-0.003659008,0.017489737,-8.100271e-05,0.0,0.0,-0.570645
3156092000,0.0020500263,0.01858609,-7.95722e-05,0.0,0.0,-0.57406723
3156120000,0.00910083,0.014987217,-1.1265278e-05,0.0,0.0,-0.5718096
3156140000,0.0067256237,0.012496761,8.028746e-05,0.0,0.0,-0.5751197
3156156000,0.0064885863,0.010880439,9.3877316e-05,0.0,0.0,-0.5751197
3156176000,0.0036124466,0.008363136,0.0001757741,0.0,0.0,-0.5723785
3156196000,0.004786775,0.009594889,0.00023388863,0.0,0.0,-0.57568717
3156216000,0.0018217843,0.0075241704,0.00015950203,0.0,0.0,-0.5787126
3156236000,0.0030158493,0.009735815,-1.6629696e-05,0.0,0.0,-0.5724168
3156260000,0.0030337838,0.002573518,-2.3066998e-05,0.0,0.0,-0.5756678
3156280000,-0.0010585198,0.0040431353,-5.632639e-05,0.0,0.0,-0.57914245
3156296000,-0.0016265935,0.006880478,-4.2378902e-05,0.0,0.0,-0.5726654
3156316000,-0.0026325895,0.0061944462,1.1980534e-05,0.0,0.0,-0.5763168
3156336000,-0.0028701634,0.007856193,-0.00013285875,0.0,0.0,-0.5795715
3156356000,0.004856835,0.00853659,-3.3974648e-06,0.0,0.0,-0.5726989
3156376000,0.0035022036,0.009208591,0.0005144477,0.0,0.0,-0.5755261
3156400000,-0.0025947634,0.008024442,0.001113832,0.0,0.0,-0.5711647
3156420000,-0.004710107,0.0034753836,0.0012938976,0.0,0.0,-0.5746309
3156440000,-0.005398686,0.0049003214,0.0013845563,0.0,0.0,-0.57816565
3156456000,-0.004452041,0.0030700152,0.0015406609,0.0,0.0,-0.5713565
3156480000,-0.002229385,0.009687157,0.001860559,0.0,0.0,-0.57525706
3156500000,0.0028852704,0.009661118,0.002087295,0.0,0.0,-0.578761
3156516000,0.0071706497,0.012131779,0.0021842122,0.0,0.0,-0.57298136
3156536000,0.0077099386,0.0133439815,0.0023363829,0.0,0.0,-0.57691705
3156556000,0.0069701057,0.0093759885,0.0024796128,0.0,0.0,-0.5805344
3156576000,0.0063901185,0.0021875286,0.0027176142,0.0,0.0,-0.57437104
3156600000,0.0019479613,0.0045651044,0.0027095675,0.0,0.0,-0.5772936
3156616000,0.000501045,0.005415985,0.0024701357,0.0,0.0,-0.58043146
3156636000,-0.000454559,0.0062851408,0.0025894046,0.0,0.0,-0.57367414
3156656000,-0.0015222123,0.0038202186,0.0029241443,0.0,0.0,-0.5770147
3156676000,-0.0006349096,-1.7919112e-05,0.0031469464,0.0,0.0,-0.580389
3156696000,-0.0063921595,0.012588831,0.0030745268,0.0,0.0,-0.5771322
3156720000,-0.0062931078,0.008256938,0.0030333996,0.0,0.0,-0.580392
3156736000,-0.005962746,0.006684614,0.0028556585,0.0,0.0,-0.5742131
3156760000,-0.0030600121,0.006928264,0.0028209686,0.0,0.0,-0.57807785
3156776000,-0.0016651461,0.0021733122,0.0030437708,0.0,0.0,-0.5823322
3156800000,0.0042282734,0.008086093,0.0028848052,0.0,0.0,-0.575977
3156816000,0.00075780787,0.005351634,0.0028231144,0.0,0.0,-0.5793155
3156836000,0.00027513877,0.005482431,0.0028635263,0.0,0.0,-0.5826733
3156856000,-0.00037082378,0.012012348,0.0028806925,0.0,0.0,-0.5760025
3156876000,-0.00030150544,0.008113869,0.0031231642,0.0,0.0,-0.57960075
3156896000,-0.0049850363,0.006931903,0.0032592416,0.0,0.0,-0.58281827
3156912000,-0.0024303105,0.008639505,0.0030688047,0.0,0.0,-0.5753934
3156940000,0.0031591589,0.00776194,0.0029622316,0.0,0.0,-0.5806442
3156956000,0.003454484,0.007058279,0.0028520823,0.0,0.0,-0.5806442
3156972000,0.002510598,0.005701354,0.0025624037,0.0,0.0,-0.5736828
3157000000,-0.00074238516,0.002942338,0.0022519827,0.0,0.0,-0.58098733
3157016000,-0.0025634905,0.003237295,0.0021645427,0.0,0.0,-0.5750946
3157032000,0.0017392226,-0.00020485441,0.0021216273,0.0,0.0,-0.5784608
3157056000,0.0015790081,-0.0039937096,0.00206995,0.0,0.0,-0.5820402
3157080000,0.0040998096,0.00088851666,0.0018505454,0.0,0.0,-0.57624656
3157096000,0.002397691,0.00043333042,0.0018146038,0.0,0.0,-0.5798233
3157116000,-0.0017223554,0.0021170788,0.0017872453,0.0,0.0,-0.58329886
3157136000,0.0021815384,-0.0011395658,0.0016608238,0.0,0.0,-0.5768085
3157160000,-0.0022020852,-0.00046140281,0.0013847351,0.0,0.0,-0.57958233
3157176000,-0.0055513484,0.00202718,0.0012270212,0.0,0.0,-0.582838
3157196000,-0.0040219,0.001495261,0.0009357333,0.0,0.0,-0.57580817
3157220000,-0.0065491246,-0.000632548,0.0007941127,0.0,0.0,-0.58266693
3157232000,-0.0064672893,-0.00014037732,0.00080126524,0.0,0.0,-0.58266693
3157260000,-0.0060328078,0.0048071626,0.0006675124,0.0,0.0,-0.5796063
3157276000,-0.005481343,0.005511595,0.0006156564,0.0,0.0,-0.5796063
3157300000,-0.011872527,0.012359597,0.0005684495,0.0,0.0,-0.5761735
3157316000,-0.0085554365,0.010574235,0.0005275011,0.0,0.0,-0.5793882
3157332000,-0.0043453854,0.008379332,0.0005251765,0.0,0.0,-0.58253527
3157356000,-0.0004516421,0.009323068,0.00029343367,0.0,0.0,-0.5797705
3157376000,-0.0012529911,0.011047803,0.0001219511,0.0,0.0,-0.5839668
3157396000,-0.0031431438,0.0036347376,4.1663647e-05,0.0,0.0,-0.5882184
3157416000,-0.0023350976,0.0007668205,-0.00019025803,0.0,0.0,-0.58072805
3157440000,-0.00367029,0.0021185442,-0.0006015301,0.0,0.0,-0.5834765
3157456000,-0.007258214,0.0010104789,-0.0006519556,0.0,0.0,-0.5853697
3157476000,-0.010778974,0.0026571786,-0.00057685375,0.0,0.0,-0.57991886
3157496000,-0.013323004,0.0056250356,-0.0006875396,0.0,0.0,-0.5820091
3157516000,-0.014177715,0.0055571888,-0.00096166134,0.0,0.0,-0.57533175
3157536000,-0.016508214,0.0029265198,-0.00062173605,0.0,0.0,-0.5786702
3157556000,-0.014413613,0.0009564775,-0.0004915595,0.0,0.0,-0.5820823
3157572000,-0.0043433653,-0.002660336,-0.00034689903,0.0,0.0,-0.576616
3157596000,-0.0071655354,-0.0015976651,-0.00052052736,0.0,0.0,-0.58073217
3157612000,-0.010495104,-0.0011673012,-0.00061655045,0.0,0.0,-0.58493614
3157636000,-0.010218803,0.0015084188,-0.0005979538,0.0,0.0,-0.5790535
3157656000,-0.012457187,0.0050526294,-0.0009021163,0.0,0.0,-0.5828586
3157676000,-0.014683778,0.0062949006,-0.0008919239,0.0,0.0,-0.585923
3157700000,-0.012434917,0.0043485872,-0.00067698956,0.0,0.0,-0.58337945
3157712000,-0.011228674,0.0037591415,-0.0006916523,0.0,0.0,-0.58337945
3157740000,-0.002646449,0.0040498488,-0.00068718195,0.0,0.0,-0.5793933
3157760000,0.0011395449,0.0014277531,-0.0007481575,0.0,0.0,-0.58214927
3157780000,0.0010671071,0.0009235946,-0.00078874826,0.0,0.0,-0.5852949
3157796000,0.0009078244,0.0024971361,-0.000639081,0.0,0.0,-0.57788295
3157816000,0.0021460676,0.0035165413,-0.00076031685,0.0,0.0,-0.58137363
3157836000,-0.0019650115,0.006277113,-0.0007660389,0.0,0.0,-0.5849811
3157856000,-0.0024046255,0.0040595024,-0.00061154366,0.0,0.0,-0.5783607
3157876000,-0.003326403,0.0011992789,-0.00073421,0.0,0.0,-0.5820467
3157900000,-0.003851613,0.0025308891,-0.00089102983,0.0,0.0,-0.5856105
3157920000,-0.004264824,0.004452016,-0.0009455681,0.0,0.0,-0.5788408
3157940000,0.0006997604,0.0027138628,-0.0010778904,0.0,0.0,-0.5816385
3157956000,-0.00032192655,0.0077694478,-0.0010825396,0.0,0.0,-0.5847669
3157976000,-0.00022424944,0.003537098,-0.0012191534,0.0,0.0,-0.5778018
3157996000,-0.0009840522,-0.0010276944,-0.0010482073,0.0,0.0,-0.5812809
3158012000,0.0015312522,-0.0019433002,-0.00096935034,0.0,0.0,-0.58406764
3158040000,0.004095377,0.008903192,-0.00096809864,0.0,0.0,-0.5815384
3158056000,0.003870598,0.009120154,-0.00088119507,0.0,0.0,-0.5815384
3158080000,0.0020818664,0.0077385237,-0.0009148121,0.0,0.0,-0.57859576
3158096000,-0.0028991858,0.005985049,-0.00077337027,0.0,0.0,-0.58172697
3158116000,0.0010554045,0.0036463535,-0.00033277273,0.0,0.0,-0.5851967
3158140000,0.010100279,0.0076975124,-0.00015985966,0.0,0.0,-0.5786307
3158152000,0.008538591,0.0051230094,-0.00013589859,0.0,0.0,-0.58179766
3158172000,0.0019384744,0.0034780994,-0.00011229515,0.0,0.0,-0.5847928
3158200000,9.5933676e-05,0.0015978216,-0.00020545721,0.0,0.0,-0.57780147
3158216000,-0.0010853559,0.00091691385,-0.0002052784,0.0,0.0,-0.5813079
3158236000,-0.0018934021,-0.0030885357,-0.0002143979,0.0,0.0,-0.58497834
3158256000,-0.008395937,0.00062611996,5.77569e-05,0.0,0.0,-0.57867754
3158276000,-0.004328451,-0.002354933,0.00014233589,0.0,0.0,-0.5822461
3158296000,-0.002241835,0.0011716692,0.0003168583,0.0,0.0,-0.5859069
3158316000,-0.0045336233,0.00015295087,0.00019186735,0.0,0.0,-0.5818461
3158340000,-0.005951235,-0.0025000875,0.0003912449,0.0,0.0,-0.584953
3158356000,-0.0028047552,-0.0059928037,0.00032418966,0.0,0.0,-0.5773676
3158372000,-0.005808237,-0.0071327006,9.459257e-05,0.0,0.0,-0.58053696
3158396000,-0.009551802,-0.011682598,8.261204e-05,0.0,0.0,-0.58389676
3158416000,-0.00067394413,-0.0078050047,9.959936e-05,0.0,0.0,-0.5781764
3158440000,-0.00074645877,-0.0041686143,0.000108897686,0.0,0.0,-0.5817255
3158460000,-0.0013061017,0.0037845627,0.00033652782,0.0,0.0,-0.5853349
3158472000,0.00082983077,0.005091116,0.00026732683,0.0,0.0,-0.57939225
3158500000,0.0034353817,0.009031866,0.00033706427,0.0,0.0,-0.58308536
3158520000,-0.0010808241,0.0070525007,0.00039160252,0.0,0.0,-0.58664733
3158536000,0.0015594056,0.009063726,0.00040251017,0.0,0.0,-0.58043957
3158556000,0.0031541912,0.005281463,0.00045400858,0.0,0.0,-0.5836494
3158580000,0.003915011,0.0038712467,0.00039035082,0.0,0.0,-0.5793682
3158596000,0.0040245904,0.0035169327,0.0005584359,0.0,0.0,-0.5793682
3158616000,0.0062655928,0.003411789,0.00053071976,0.0,0.0,-0.58233345
3158636000,0.006920499,0.0013508342,0.000590086,0.0,0.0,-0.5789495
3158656000,0.004012955,-0.0022745782,0.00062155724,0.0,0.0,-0.58276254
3158676000,0.0029692487,-6.161048e-05,0.00054609776,0.0,0.0,-0.586695
3158700000,-0.0017346041,0.004840905,0.00062692165,0.0,0.0,-0.58051914
3158716000,-0.002458091,0.0022434394,0.000623703,0.0,0.0,-0.583654
3158736000,-0.0019470351,0.0025438936,0.000618875,0.0,0.0,-0.586726
3158760000,-0.002815579,0.00056556263,0.00046902895,0.0,0.0,-0.5803492
3158776000,-0.0016622236,0.0013322333,0.0003722906,0.0,0.0,-0.5836513
3158796000,-0.003100818,-0.0029404592,0.0002374649,0.0,0.0,-0.58648646
3158816000,-0.0031679193,-0.008382572,0.00024354458,0.0,0.0,-0.5796742
3158836000,-0.009784948,-0.006652606,0.00024747849,0.0,0.0,-0.58285093
3158860000,-0.012700581,-0.0006366214,0.00015074015,0.0,0.0,-0.57937074
3158876000,-0.009207901,-0.0030712774,0.00013840199,0.0,0.0,-0.5825965
3158896000,-0.008891383,-0.0028558327,-2.7179718e-05,0.0,0.0,-0.5825965
3158916000,-0.0069342116,-0.002117593,9.834766e-06,0.0,0.0,-0.5798972
3158940000,-0.005007022,-0.0003322101,0.00028073788,0.0,0.0,-0.5832589
3158956000,-0.0041412497,0.0014614789,0.00033849478,0.0,0.0,-0.58652794
3158976000,-0.0027332297,0.004329115,0.0004194975,0.0,0.0,-0.5795877
3158996000,-0.004247901,0.0030976082,0.00042897463,0.0,0.0,-0.582934
3159020000,-0.003418699,-0.0012382338,0.00030899048,0.0,0.0,-0.5862151
3159040000,-0.0062476206,-0.0031543036,0.00019079447,0.0,0.0,-0.5795732
3159056000,-0.004664543,-0.0052545397,0.0002347827,0.0,0.0,-0.58280474
3159076000,-0.0035564764,-0.008872598,0.00014287233,0.0,0.0,-0.5860575
3159100000,0.0013388931,-0.009697512,1.859665e-05,0.0,0.0,-0.579677
3159116000,0.003590222,-0.014799066,1.7881393e-06,0.0,0.0,-0.58296573
3159136000,0.001839498,-0.014390016,0.00032311678,0.0,0.0,-0.5862901
3159160000,-0.00060983794,-0.015294528,0.00012248755,0.0,0.0,-0.5841025
3159176000,0.00037971,-0.0064223763,0.00027143955,0.0,0.0,-0.5872871
3159200000,-0.001921061,-0.008611803,6.455183e-05,0.0,0.0,-0.5805939
3159220000,-0.0019428078,-0.004029987,5.13196e-05,0.0,0.0,-0.5840089
3159236000,-0.0020651137,0.00023132621,-4.7385693e-05,0.0,0.0,-0.5870855
3159256000,-0.0011135121,0.0058234567,-0.00024658442,0.0,0.0,-0.5796877
3159280000,0.002645594,0.0047565326,-0.0004105568,0.0,0.0,-0.58255726
3159292000,0.0010289205,0.011098707,-0.00042003393,0.0,0.0,-0.5861853
3159320000,-0.0007192483,0.018514201,-0.0003274083,0.0,0.0,-0.57949805
3159336000,0.0020435946,0.018373782,-0.00030362606,0.0,0.0,-0.58293015
3159360000,-0.0027529048,0.014637401,-0.0001232028,0.0,0.0,-0.586545
3159372000,-0.004358461,0.010903908,0.0001360774,0.0,0.0,-0.5799909
3159400000,-0.0040623634,0.0033105144,0.00031632185,0.0,0.0,-0.58724666
3159416000,-0.0037654624,0.002147296,0.00033545494,0.0,0.0,-0.58724666
3159440000,-0.008565212,-0.0010113468,0.00033688545,0.0,0.0,-0.58480465
3159456000,-0.009869434,-0.0013984671,0.0005133748,0.0,0.0,-0.58793527
3159476000,-0.009817746,0.0031898485,0.00056272745,0.0,0.0,-0.58148474
3159500000,-0.009960324,0.003094803,0.0006478429,0.0,0.0,-0.5843584
3159520000,-0.005272642,0.004226628,0.000715971,0.0,0.0,-0.58731127
3159532000,-0.0028522275,0.0044567334,0.00069129467,0.0,0.0,-0.57958853
3159560000,-0.0042341254,0.0012614544,0.00070023537,0.0,0.0,-0.5829671
3159580000,-0.006641126,-0.002247253,0.0007574558,0.0,0.0,-0.5862262
3159600000,-0.005378005,-0.0034407373,0.0008059144,0.0,0.0,-0.5798261
3159616000,-0.005541145,-0.0047094836,0.00067037344,0.0,0.0,-0.583805
3159636000,-0.0042568166,-0.0059014354,0.00077068806,0.0,0.0,-0.5878718
3159656000,-0.0019269004,-0.005516461,0.0005532503,0.0,0.0,-0.5820783
3159676000,-0.0020828778,-0.005964171,0.00041270256,0.0,0.0,-0.58741516
3159696000,-0.0071058646,-0.00900879,0.0005441308,0.0,0.0,-0.59396404
3159720000,-0.003555032,-0.009603903,0.0005351901,0.0,0.0,-0.6004884
3159736000,-0.0029596025,-0.008640196,0.00063192844,0.0,0.0,-0.6004884
3159756000,-0.0023867288,-0.012971899,0.0007427931,0.0,0.0,-0.60902286
3159780000,-0.0077052796,-0.011599019,0.00091159344,0.0,0.0,-0.62089056
3159796000,-0.00986847,-0.011670813,0.0009035468,0.0,0.0,-0.63320327
3159816000,-0.010054431,-0.0104761645,0.0008382797,0.0,0.0,-0.6275231
3159836000,-0.012324389,-0.011933883,0.00085937977,0.0,0.0,-0.63880503
3159856000,-0.010786149,-0.01674013,0.00070005655,0.0,0.0,-0.6501196
3159872000,-0.01733077,-0.01892164,0.0006930828,0.0,0.0,-0.6393225
3159896000,-0.0110199,-0.016740125,0.00065392256,0.0,0.0,-0.65088296
3159916000,-0.007722514,-0.018897217,0.0004182458,0.0,0.0,-0.6640255
3159932000,-0.0056659514,-0.018729948,0.00039464235,0.0,0.0,-0.65267277
3159956000,-0.0051894947,-0.020861397,0.00017023087,0.0,0.0,-0.66637546
3159976000,-0.0062445416,-0.017671239,0.00042647123,0.0,0.0,-0.68035865
3159996000,-0.00981451,-0.017220277,0.00056934357,0.0,0.0,-0.6821573
3160016000,-0.009547044,-0.014364858,0.0005046129,0.0,0.0,-0.6821573
3160040000,-0.0040717344,-0.008901439,0.0005117655,0.0,0.0,-0.68116224
3160056000,-0.0035705133,-0.01063239,0.00056916475,0.0,0.0,-0.69828886
3160080000,-0.004396251,-0.011664493,0.00055521727,0.0,0.0,-0.71584386
3160096000,-0.0005185576,-0.010603441,0.0005351901,0.0,0.0,-0.6962421
3160116000,0.0025876514,-0.011779573,0.00038141012,0.0,0.0,-0.7087815
3160140000,0.002878625,-0.009557915,0.00023674965,0.0,0.0,-0.7193365
3160160000,0.009512232,-0.0072922837,0.00013071299,0.0,0.0,-0.6908223
3160176000,0.0057956157,-0.0035737054,-1.3589859e-05,0.0,0.0,-0.6980998
3160196000,0.004010222,-0.0010014523,0.00015413761,0.0,0.0,-0.7036501
3160220000,0.007795306,0.0072465506,9.7453594e-05,0.0,0.0,-0.6713773
3160232000,0.0031672656,0.0056049074,0.00018274784,0.0,0.0,-0.67707586
3160256000,0.0009212578,0.0027676215,0.00028574467,0.0,0.0,-0.682603
3160276000,-0.00033016736,0.009347084,0.000108897686,0.0,0.0,-0.6554761
3160300000,0.0021449472,0.0044903187,0.00013035536,0.0,0.0,-0.66986763
3160316000,0.007654611,0.006325438,5.9366226e-05,0.0,0.0,-0.6462197
3160340000,0.0019943956,0.0019357688,0.00017935038,0.0,0.0,-0.6542295
3160356000,0.0008082208,0.0010073186,0.00023049116,0.0,0.0,-0.660889
3160380000,0.0013060039,0.0013345677,9.8884106e-05,0.0,0.0,-0.6386436
3160400000,0.0040407917,0.0011372684,-9.7990036e-05,0.0,0.0,-0.6448027
3160416000,0.003729655,0.003991181,-0.000104784966,0.0,0.0,-0.64090955
3160440000,0.008610722,0.0025822232,-4.4345856e-05,0.0,0.0,-0.62506527
3160460000,0.008830007,0.0047413306,-0.000103890896,0.0,0.0,-0.6149958
3160476000,0.0072150817,0.0053622415,-0.00018399954,0.0,0.0,-0.6062116
3160496000,0.0055227424,0.0060333936,-0.00031864643,0.0,0.0,-0.5970966
3160520000,0.009034201,0.007928067,-0.00027537346,0.0,0.0,-0.5930566
3160540000,0.009478259,0.013601938,-0.00047707558,0.0,0.0,-0.59596354
3160556000,0.008680655,0.012704308,-0.00031846762,0.0,0.0,-0.59596354
3160580000,0.009272254,0.015529328,-2.8073788e-05,0.0,0.0,-0.602352
3160600000,0.011709862,0.015827952,-0.00018113852,0.0,0.0,-0.6064456
3160616000,0.009362347,0.008476159,-0.00026375055,0.0,0.0,-0.6087861
3160640000,0.004688338,0.0053840093,-0.00027537346,0.0,0.0,-0.6100701
3160660000,0.0059738117,0.0022753566,-0.00018578768,0.0,0.0,-0.6106353
3160680000,0.0020702141,3.2988377e-05,-0.00011140108,0.0,0.0,-0.6105587
3160696000,0.0006578411,-0.00024673616,1.090765e-05,0.0,0.0,-0.60999364
3160716000,0.0050783493,-0.0068110744,-6.0617924e-05,0.0,0.0,-0.60898924
3160740000,0.0043169414,-0.004019832,0.00012946129,0.0,0.0,-0.60898405
3160760000,0.008902488,-0.003973656,0.000109255314,0.0,0.0,-0.60834765
3160776000,0.009947773,-3.6945334e-05,0.00020867586,0.0,0.0,-0.6078224
3160796000,0.0069329026,0.0045413575,0.000103890896,0.0,0.0,-0.60724086
3160816000,0.0024937447,0.0035876124,5.9902668e-05,0.0,0.0,-0.6073614
3160840000,-0.0019435943,0.0045036813,0.00013643503,0.0,0.0,-0.6073645
3160860000,-0.0043008467,0.0024472408,0.00014233589,0.0,0.0,-0.60769254
3160876000,-0.0071825073,-0.00014282815,0.00017756224,0.0,0.0,-0.6075917
3160900000,-0.007302124,0.0022212,0.00014054775,0.0,0.0,-0.6076047
3160916000,-0.008707985,0.0015990111,0.00015681982,0.0,0.0,-0.607563
3160936000,-0.016884334,-8.6575295e-05,0.00032687187,0.0,0.0,-0.60798615
3160960000,-0.01776871,-0.0041148784,0.00036656857,0.0,0.0,-0.60731506
3160980000,-0.013878328,-0.003940693,0.00022262335,0.0,0.0,-0.6070214
3160996000,-0.013110362,0.00144249,1.090765e-05,0.0,0.0,-0.6074468
3161020000,-0.011510485,0.0060210247,-7.742643e-05,0.0,0.0,-0.6081084
3161036000,-0.005950577,0.003813447,-2.6464462e-05,0.0,0.0,-0.60756826
3161056000,-0.0019726055,0.007206731,-0.00012230873,0.0,0.0,-0.6069973
3161080000,-0.002284225,0.00044026517,-0.000104248524,0.0,0.0,-0.6064756
3161096000,-0.0030286303,-0.00041347288,0.00014197826,0.0,0.0,-0.60628694
3161120000,9.0200454e-05,-0.0045150886,0.00030452013,0.0,0.0,-0.6062472
3161140000,0.000543206,-0.006194619,0.00045847893,0.0,0.0,-0.6061063
3161156000,0.0018059048,-0.008800838,0.00048458576,0.0,0.0,-0.6062003
3161176000,0.0016866946,-0.0031556252,0.00029718876,0.0,0.0,-0.60641193
3161200000,0.0062869904,0.00068387267,0.00015950203,0.0,0.0,-0.6069239
3161216000,0.008995781,-0.0004027302,0.00015610456,0.0,0.0,-0.60744184
3161236000,0.006610483,0.0013703842,-0.00011765957,0.0,0.0,-0.6076345
3161260000,0.0071141208,0.0021952223,-0.0001705885,0.0,0.0,-0.6071412
3161276000,0.010285086,-0.0034724833,-0.00031507015,0.0,0.0,-0.60620433
3161296000,0.009343073,-0.0026033884,-0.00017076731,0.0,0.0,-0.6060714
3161316000,0.0052872067,-0.003131787,-0.00024408102,0.0,0.0,-0.60623366
3161340000,0.0018661553,0.002235141,0.00015467405,0.0,0.0,-0.60634315
3161360000,0.0010529598,0.0021494161,-1.4305115e-06,0.0,0.0,-0.60634315
3161380000,-0.0041484316,0.0052531487,-7.367134e-05,0.0,0.0,-0.6045632
3161400000,-0.00012212712,0.005322178,-0.00017291307,0.0,0.0,-0.6062037
3161424000,0.003966402,0.011914497,-0.00019866228,0.0,0.0,-0.6066106
3161440000,-0.0012152893,0.013441123,-0.00016880035,0.0,0.0,-0.6074107
3161464000,-0.003947421,0.010980704,-0.00034743547,0.0,0.0,-0.6078329
3161480000,5.3229276e-05,0.012699774,-0.0003772974,0.0,0.0,-0.60781157
3161504000,0.0002850853,0.0077679064,-0.0005148053,0.0,0.0,-0.6074104
3161524000,0.0004133759,0.0040238486,-0.00044810772,0.0,0.0,-0.6064468
3161540000,0.0021943278,0.009788029,-0.00030487776,0.0,0.0,-0.60540617
3161564000,-0.00022298796,0.003700025,-0.0006135106,0.0,0.0,-0.6049256
3161580000,0.0030301753,0.001620227,-0.0005888343,0.0,0.0,-0.60474485
3161596000,-0.003680287,0.0019986613,-0.0005187392,0.0,0.0,-0.6023248
3161620000,-0.0037487182,0.00021128674,-0.0005239248,0.0,0.0,-0.6053627
3161640000,0.0009910511,-0.00018900546,-0.00050389767,0.0,0.0,-0.60120606
3161664000,0.0020436128,0.0009108958,-0.0004348755,0.0,0.0,-0.606655
3161680000,0.0021435348,-0.00036802544,-0.0004861951,0.0,0.0,-0.60723287
3161700000,-0.0004467694,0.00541277,-0.0005185604,0.0,0.0,-0.6006667
3161720000,-0.0016556745,0.0024622479,-0.0006195903,0.0,0.0,-0.60662043
3161740000,-0.00016422942,0.0028719257,-0.00047653913,0.0,0.0,-0.60782564
3161764000,0.00506789,-0.0022716988,-0.0004080534,0.0,0.0,-0.5987642
3161784000,0.0003161151,-0.0063348124,-0.00021314621,0.0,0.0,-0.6050472
3161804000,-0.0016324329,-0.005844717,-0.00023710728,0.0,0.0,-0.59756464
3161820000,-0.0028762906,-0.005580801,-0.00024408102,0.0,0.0,-0.60418445
3161840000,0.0041800104,-0.0038003975,-0.00039499998,0.0,0.0,-0.61045474
3161860000,0.0067128316,0.0005254992,-0.0003694296,0.0,0.0,-0.59873754
3161876000,0.0075032827,-0.0017119932,-0.0003799796,0.0,0.0,-0.60528886
3161900000,0.008991595,0.006993726,-0.00034332275,0.0,0.0,-0.6046923
3161924000,0.0035166093,0.0027086209,-0.00048977137,0.0,0.0,-0.61419785
3161944000,0.005873662,0.0068088816,-0.00019776821,0.0,0.0,-0.6046101
3161960000,0.0006730696,0.0038114903,-2.8073788e-05,0.0,0.0,-0.6095727
3161976000,-1.1223368e-05,0.0016775499,0.00015252829,0.0,0.0,-0.61197853
3162004000,0.0012965184,-0.001265285,8.350611e-05,0.0,0.0,-0.5989629
3162020000,0.00027731666,-0.0027194042,0.00011855364,0.0,0.0,-0.60388535
3162044000,0.0003818879,-0.0049428036,-4.416704e-05,0.0,0.0,-0.60900164
3162064000,0.00018052664,-0.00083365815,-1.9133091e-05,0.0,0.0,-0.59564763
3162080000,-0.0021727514,-0.0065607745,-5.1498413e-05,0.0,0.0,-0.6023545
3162100000,-0.0009721485,-0.0061132084,-0.0003311634,0.0,0.0,-0.60848004
3162120000,-0.0025540902,-0.0044550137,-0.0003093481,0.0,0.0,-0.59494644
3162140000,-0.0024253316,-0.0032877875,-0.00026088953,0.0,0.0,-0.60122615
3162160000,-0.0014863699,-0.0061451346,-0.00030380487,0.0,0.0,-0.6081861
3162180000,0.002261872,-0.008173881,-0.00046008825,0.0,0.0,-0.5958595
3162204000,0.005576029,-0.004367314,-0.00028896332,0.0,0.0,-0.6107149
3162224000,0.009229209,-0.0006836916,-0.00018650293,0.0,0.0,-0.59794396
3162244000,0.008094236,-0.00086524815,9.924173e-05,0.0,0.0,-0.6048433
3162264000,0.009093594,-0.0008724482,0.0002784133,0.0,0.0,-0.61179274
3162284000,0.009692679,0.005351256,0.0003131032,0.0,0.0,-0.59862715
3162300000,0.00678866,0.0014984534,0.0002503395,0.0,0.0,-0.60490435
3162320000,0.006168835,-0.0016063938,0.00022298098,0.0,0.0,-0.6110035
3162340000,0.009842167,0.004494364,1.9669533e-05,0.0,0.0,-0.59653056
3162364000,0.011111646,0.0008760325,8.958578e-05,0.0,0.0,-0.6034565
3162380000,0.009796802,0.0007417139,0.00012767315,0.0,0.0,-0.61011124
3162400000,0.016323533,0.0073599173,0.0002821684,0.0,0.0,-0.5968726
3162420000,0.012556756,0.0054112403,0.00027483702,0.0,0.0,-0.6039277
3162440000,0.007407469,0.0028484878,0.00027912855,0.0,0.0,-0.61102444
3162460000,0.0051473966,0.0026306924,0.00030112267,0.0,0.0,-0.5980177
3162480000,0.0033162832,0.00063113635,7.5638294e-05,0.0,0.0,-0.61040276
3162500000,0.005264408,0.0010765814,1.2516975e-06,0.0,0.0,-0.5968292
3162520000,0.005297723,-0.0035047028,-0.00013536215,0.0,0.0,-0.60338384
3162544000,0.0057174023,0.0006476494,-9.2089176e-05,0.0,0.0,-0.6104326
3162564000,0.006669106,-0.0026733256,-0.00012677908,0.0,0.0,-0.5977771
3162584000,0.011186983,-0.0043958044,2.2530556e-05,0.0,0.0,-0.605165
3162596000,0.011648077,-0.0007532614,-3.540516e-05,0.0,0.0,-0.61197615
3162620000,0.0117309615,-0.0013867202,-5.275011e-05,0.0,0.0,-0.5991889
3162640000,0.012573377,-0.0025239405,2.861023e-05,0.0,0.0,-0.6056112
3162660000,0.0067096883,-0.0034029842,-0.00022548437,0.0,0.0,-0.61198986
3162684000,0.006122061,-0.0012848207,0.00019311905,0.0,0.0,-0.60465074
3162696000,0.005407057,-0.00035892078,0.00040107965,0.0,0.0,-0.60465074
3162724000,0.0069641434,-0.0015598456,0.00045257807,0.0,0.0,-0.59655386
3162740000,0.006295734,-0.0010209486,0.0003529787,0.0,0.0,-0.6030391
3162760000,0.006282605,-0.0013673084,0.0005105138,0.0,0.0,-0.6030391
3162780000,0.0054283356,-0.0011647996,0.00050997734,0.0,0.0,-0.5951821
3162804000,0.004830351,-0.0033482588,0.00029343367,0.0,0.0,-0.6025441
3162820000,0.0011712662,-0.0014979872,0.00024694204,0.0,0.0,-0.6097049
3162836000,-0.0021054824,-0.00095794606,0.00027000904,0.0,0.0,-0.5972669
3162864000,-0.00051390845,-0.0029774427,0.00014269352,0.0,0.0,-0.60421073
3162884000,-0.00011390727,-0.0034735864,0.00040519238,0.0,0.0,-0.6109098
3162896000,-0.0009141052,0.0029902558,0.00046509504,0.0,0.0,-0.5975805
3162924000,-0.0011098911,0.004152885,0.0005065799,0.0,0.0,-0.6046662
3162936000,0.0013899682,0.0026212663,0.0005675554,0.0,0.0,-0.61121917
3162960000,0.0026623774,-0.0014615671,0.00045007467,0.0,0.0,-0.5976089
3162980000,0.002682093,-0.0042668404,0.00038605928,0.0,0.0,-0.6043632
3163000000,0.0046298685,-0.0066288235,0.0004030466,0.0,0.0,-0.61060137
3163020000,0.007823529,-0.005234141,0.00041109324,0.0,0.0,-0.5971553
3163044000,0.0033913208,-0.01011641,0.0005119443,0.0,0.0,-0.60957783
3163060000,0.0058538932,-0.009518921,0.00036513805,0.0,0.0,-0.5965835
3163084000,0.0027504796,-0.010051748,0.00034672022,0.0,0.0,-0.60315716
3163100000,0.0019492046,-0.0075677843,0.00031739473,0.0,0.0,-0.6099381
3163124000,-0.0015756735,-0.010894667,0.00036603212,0.0,0.0,-0.5973344
3163144000,-0.005715297,-0.013424858,0.0003401041,0.0,0.0,-0.6038412
3163160000,-0.0021638763,-0.0074114706,0.0003633499,0.0,0.0,-0.6105246
3163180000,0.0025600512,-0.0016563514,0.00026732683,0.0,0.0,-0.5970819
3163204000,-0.0023828577,-0.0015607991,0.0004967451,0.0,0.0,-0.6047177
3163224000,-0.0057164077,-0.0023364814,0.0007118583,0.0,0.0,-0.61109257
3163244000,-0.0047057653,0.008099099,0.0006338954,0.0,0.0,-0.5976626
3163256000,-0.0050584464,0.0106704775,0.0007199049,0.0,0.0,-0.6042365
3163280000,-0.0030061458,0.010114103,0.00040125847,0.0,0.0,-0.61054856
3163304000,0.0034791715,0.014347759,0.00044846535,0.0,0.0,-0.60280454
3163316000,0.0039138403,0.013253753,0.00043666363,0.0,0.0,-0.60280454
3163340000,0.0005007852,0.020894585,0.0001167655,0.0,0.0,-0.58913535
3163360000,0.0016359407,0.011904817,0.00021332502,0.0,0.0,-0.59101397
3163384000,0.0022548968,0.0072609056,-0.00017273426,0.0,0.0,-0.59053016
3163400000,0.00870491,0.006807395,-0.0001296401,0.0,0.0,-0.57229793
3163420000,0.010375525,0.009043708,-0.000114262104,0.0,0.0,-0.5719064
3163440000,0.00526963,0.0061738826,-6.66976e-05,0.0,0.0,-0.572284
3163464000,0.013296653,0.011339237,-0.00018829107,0.0,0.0,-0.5591017
3163476000,0.01753781,0.005958037,-0.00028645992,0.0,0.0,-0.56217134
3163504000,0.014025353,0.009190571,-0.0004207492,0.0,0.0,-0.56724143
3163524000,0.010519157,0.0035547323,-0.00021618605,0.0,0.0,-0.5658797
3163540000,0.009682224,0.002337726,-0.00015503168,0.0,0.0,-0.5658797
3163564000,0.0074292775,-0.004749506,-7.259846e-05,0.0,0.0,-0.56565344
3163584000,0.0055603897,-0.0020393024,-0.000118911266,0.0,0.0,-0.5704708
3163600000,0.0043284106,-0.0038788444,-7.867813e-06,0.0,0.0,-0.5751609
3163624000,0.0032934817,0.00033986033,7.4744225e-05,0.0,0.0,-0.56726736
3163640000,0.00466303,0.00067519513,6.258488e-05,0.0,0.0,-0.5716179
3163660000,0.0070916335,-0.001099587,6.222725e-05,0.0,0.0,-0.57586914
3163680000,0.0112502165,0.0033734827,-3.5583973e-05,0.0,0.0,-0.56717384
3163700000,0.010159479,-0.00039200904,0.00021189451,0.0,0.0,-0.57147384
3163720000,0.007153503,-0.004615794,0.0005310774,0.0,0.0,-0.57518196
3163740000,0.006515748,-0.00016418053,0.00045096874,0.0,0.0,-0.5665141
3163764000,0.008076996,-0.002975401,0.00046384335,0.0,0.0,-0.5701106
3163780000,0.0073930076,-0.0061011496,0.00033062696,0.0,0.0,-0.5735256
3163800000,0.0071434183,-0.0013366621,0.0002630353,0.0,0.0,-0.5652061
3163824000,0.003850814,-0.0038470337,0.00033670664,0.0,0.0,-0.56899923
3163840000,-0.0002495586,-0.0032292567,0.00027894974,0.0,0.0,-0.57321876
3163864000,-0.0014992235,0.0025175011,0.00035637617,0.0,0.0,-0.5692194
3163884000,-0.0051593045,0.0015019316,0.00017470121,0.0,0.0,-0.5726439
3163900000,-0.01175712,0.0024865747,-1.7881393e-05,0.0,0.0,-0.56497604
3163920000,-0.011228211,0.0017489777,-6.043911e-05,0.0,0.0,-0.5686877
3163936000,-0.010152316,0.0045704152,3.8266182e-05,0.0,0.0,-0.57205003
3163956000,-0.012417043,0.006561062,-1.001358e-05,0.0,0.0,-0.56430656
3163980000,-0.011805462,0.0066735465,8.940697e-07,0.0,0.0,-0.5686673
3164004000,-0.005768286,0.0053181173,-0.00011211634,0.0,0.0,-0.57246566
3164020000,-0.0020932853,0.004993676,-6.920099e-05,0.0,0.0,-0.5653215
3164040000,-0.00036541605,0.001780648,1.9490719e-05,0.0,0.0,-0.5686367
3164060000,0.00013994705,0.0006403404,1.5377998e-05,0.0,0.0,-0.57238704
3164076000,0.0035187048,-0.0028144286,-0.00015485287,0.0,0.0,-0.56553644
3164100000,2.9013958e-05,-0.0048500723,-3.3080578e-05,0.0,0.0,-0.5691056
3164120000,0.010243856,-0.0040848283,1.6629696e-05,0.0,0.0,-0.5652838
3164140000,0.009810869,-0.0039524767,0.000341177,0.0,0.0,-0.5652838
3164160000,0.005772565,-0.005525863,0.0005643368,0.0,0.0,-0.57248515
3164180000,0.0069672056,0.0020648064,0.00041270256,0.0,0.0,-0.56585205
3164204000,0.005848177,0.003534791,0.0005734563,0.0,0.0,-0.5687612
3164212000,0.005473778,0.003777939,0.0006020665,0.0,0.0,-0.5687612
3164240000,0.003927155,0.004400852,0.00053840876,0.0,0.0,-0.58491844
3164256000,0.02410217,0.030718217,0.0004093051,0.0,0.0,-0.58964115
3164280000,0.023921974,0.026815377,0.00053071976,0.0,0.0,-0.5924773
3164300000,0.023460506,0.02323041,0.00054341555,0.0,0.0,-0.57980365
3164324000,0.021536607,0.013990164,0.0005825758,0.0,0.0,-0.5777471
3164340000,0.01958145,0.015114877,0.00052911043,0.0,0.0,-0.56646395
3164364000,0.010621553,0.008507299,0.00046563148,0.0,0.0,-0.5668031
3164380000,0.0077992408,0.0074508595,0.0005722046,0.0,0.0,-0.568235
3164396000,0.006208255,0.0096299555,0.00045329332,0.0,0.0,-0.56054056
3164420000,0.0011129491,0.00725232,0.00032526255,0.0,0.0,-0.5635354
3164444000,-0.006011638,0.0067699905,0.0003438592,0.0,0.0,-0.5673739
3164464000,-0.012666651,0.0016121005,0.00023514032,0.0,0.0,-0.5711925
3164484000,-0.012555063,0.0049623395,0.00019401312,0.0,0.0,-0.56860447
3164504000,-0.010004003,0.006555097,0.00026535988,0.0,0.0,-0.5715189
3164524000,-0.0152667565,0.0051185517,0.00032830238,0.0,0.0,-0.5735776
3164544000,-0.016759403,-0.00038612005,0.0004041195,0.0,0.0,-0.5654252
3164564000,-0.018169474,-0.009007333,0.00038266182,0.0,0.0,-0.56646794
3164580000,-0.015053152,-0.0075886887,0.00043469667,0.0,0.0,-0.5682628
3164604000,-0.012459858,-0.008291976,0.00049620867,0.0,0.0,-0.5604866
3164620000,-0.0071635935,-0.010615207,0.00047028065,0.0,0.0,-0.56295455
3164640000,-0.003997757,-0.011473985,0.0005530715,0.0,0.0,-0.56575364
3164664000,-0.005543123,-0.0107864,0.00055110455,0.0,0.0,-0.5602209
3164680000,-0.004815532,-0.0044797864,0.0005630851,0.0,0.0,-0.5634594
3164704000,0.00091904495,-0.0021856392,0.00035601854,0.0,0.0,-0.5619088
3164716000,0.0013673734,-0.0008068343,0.00025731325,0.0,0.0,-0.5619088
3164736000,-0.0038005086,-0.0011436241,0.00030755997,0.0,0.0,-0.56586695
3164760000,-0.0046859924,-0.0029583934,0.00031149387,0.0,0.0,-0.563355
3164780000,-0.0071891807,-0.008124917,0.00028038025,0.0,0.0,-0.56559145
3164804000,-0.010368874,-0.008918779,7.349253e-05,0.0,0.0,-0.5681032
3164820000,-0.008704573,-0.0032365657,9.3877316e-05,0.0,0.0,-0.56157434
3164840000,-0.0057217916,-0.002908605,0.00014305115,0.0,0.0,-0.5640816
3164864000,-0.0035316003,-0.004007205,0.00013107061,0.0,0.0,-0.5672699
3164884000,-0.0040212097,-0.0014276002,-3.361702e-05,0.0,0.0,-0.56167793
3164904000,-0.0006554257,0.0037282482,0.00012624264,0.0,0.0,-0.56502736
3164924000,0.0048245313,0.006313608,0.00020939112,0.0,0.0,-0.5660309
3164944000,0.0050348556,0.00397049,0.00032007694,0.0,0.0,-0.57453346
3164960000,0.013881943,0.0077993944,0.00036996603,0.0,0.0,-0.5688851
3164980000,0.012143436,0.0019446274,0.00037926435,0.0,0.0,-0.57726014
3165000000,0.015317252,0.010292705,0.0005580783,0.0,0.0,-0.57552475
3165020000,0.01613957,0.0024200482,0.00049602985,0.0,0.0,-0.5770429
3165040000,0.0120872855,-0.006202347,0.00061780214,0.0,0.0,-0.568197
3165060000,0.005050932,-0.009651145,0.00047636032,0.0,0.0,-0.56854355
3165076000,0.001024425,-0.010154,0.00056791306,0.0,0.0,-0.56913686
3165104000,0.0032849377,-0.017692415,0.00065517426,0.0,0.0,-0.56074023
3165120000,-0.0032996885,-0.014784595,0.0007093549,0.0,0.0,-0.5624561
3165140000,-0.00021682167,-0.016953208,0.00070363283,0.0,0.0,-0.5650121
3165164000,0.00014050445,-0.008606828,0.00093895197,0.0,0.0,-0.5594012
3165180000,-0.00047932332,-0.009139693,0.0007710457,0.0,0.0,-0.5623367
3165200000,-0.00466949,-0.011994163,0.00059992075,0.0,0.0,-0.5658912
3165220000,0.00037213834,-0.004052628,0.00039839745,0.0,0.0,-0.56086874
3165244000,-0.0036982046,-0.000738899,0.0003799796,0.0,0.0,-0.5669537
3165260000,-0.0036116098,-0.00031674653,0.00030380487,0.0,0.0,-0.5669537
3165284000,-0.0008549555,0.0028250206,0.0002644658,0.0,0.0,-0.5652475
3165304000,-0.0021907557,0.007084392,0.00023281574,0.0,0.0,-0.568032
3165320000,0.008357702,0.009903333,0.00017398596,0.0,0.0,-0.56309927
3165340000,0.0065142936,0.009950487,7.045269e-05,0.0,0.0,-0.5656274
3165360000,0.004754312,0.011410266,6.723404e-05,0.0,0.0,-0.56811374
3165380000,0.0062186206,0.008874787,6.902218e-05,0.0,0.0,-0.5623416
3165400000,0.0048798365,0.0014546667,0.0001090765,0.0,0.0,-0.5648342
3165424000,0.0031418167,-0.0018515498,-5.4001808e-05,0.0,0.0,-0.5672642
3165440000,-0.0032948856,0.00040924712,-3.5762787e-06,0.0,0.0,-0.56127125
3165464000,-0.0008355961,-0.002369015,0.00023496151,0.0,0.0,-0.56312376
3165480000,0.00083767483,-0.005438051,0.00012105703,0.0,0.0,-0.5649343
3165496000,0.0049030334,-0.003845131,2.360344e-05,0.0,0.0,-0.559513
3165516000,0.0015578298,-0.0020420454,0.00016433,0.0,0.0,-0.56189775
3165540000,-0.0061134165,-0.009324774,2.270937e-05,0.0,0.0,-0.56061
3165560000,-0.0029413956,-0.0073056147,9.137392e-05,0.0,0.0,-0.5634719
3165584000,0.0014807847,-0.0058980715,6.54459e-05,0.0,0.0,-0.5663876
3165604000,0.0017894623,-0.004298177,0.00014126301,0.0,0.0,-0.5625329
3165624000,-0.00016307691,-0.0033607709,0.00023138523,0.0,0.0,-0.56597394
3165644000,-0.0076748743,-0.0052216058,0.00021350384,0.0,0.0,-0.5682573
3165660000,-0.0050751586,-0.005718556,-2.360344e-05,0.0,0.0,-0.5641019
3165684000,-0.0053173103,-0.0014291012,2.270937e-05,0.0,0.0,-0.5660302
3165704000,-0.0067070927,-0.0023713277,-4.094839e-05,0.0,0.0,-0.5682588
3165724000,-0.004514423,0.003228494,0.00010317564,0.0,0.0,-0.56309843
3165744000,-0.005727997,0.0053390893,0.0002886057,0.0,0.0,-0.56493014
3165760000,-0.00463214,0.00833538,8.189678e-05,0.0,0.0,-0.5672166
3165780000,-0.004896761,0.016192198,-1.591444e-05,0.0,0.0,-0.5633331
3165800000,-0.00820381,0.012098107,-2.8789043e-05,0.0,0.0,-0.5657809
3165820000,-0.0076149995,0.0066812346,-9.2089176e-05,0.0,0.0,-0.56806034
3165844000,-0.005368859,0.0016449597,9.9778175e-05,0.0,0.0,-0.5661423
3165860000,-0.0049434286,0.00043233088,0.00013393164,0.0,0.0,-0.5661423
3165880000,-0.010305547,0.0033781906,-6.920099e-05,0.0,0.0,-0.5646997
3165904000,-0.010626862,-0.0009178177,-8.2075596e-05,0.0,0.0,-0.56685734
3165920000,-0.008368154,-0.0011985493,-0.000172019,0.0,0.0,-0.56861395
3165944000,-0.004750938,-0.00043872627,-0.00027787685,0.0,0.0,-0.5647592
3165964000,-0.004909296,-0.005154721,-0.00028842688,0.0,0.0,-0.5667038
3165984000,-0.0025196895,-0.0045387964,3.3795834e-05,0.0,0.0,-0.5687458
3166000000,0.009810048,-0.0038168065,0.00036782026,0.0,0.0,-0.56428313
3166024000,0.012131007,-0.0064244336,0.0005418062,0.0,0.0,-0.566504
3166044000,0.008939235,-0.009520373,0.0008407831,0.0,0.0,-0.5684275
3166064000,0.008188242,-0.0051039895,0.0008266568,0.0,0.0,-0.5641153
3166084000,0.0027352734,-0.0050505325,0.000690043,0.0,0.0,-0.56860054
3166104000,0.0028526606,-0.0046134107,0.0006108284,0.0,0.0,-0.56461126
3166124000,-0.0022655963,-0.006216131,0.0005337596,0.0,0.0,-0.5666495
3166140000,-0.002446257,-0.0057211295,0.00027787685,0.0,0.0,-0.5666495
3166164000,-0.004763623,-0.0057052914,2.2888184e-05,0.0,0.0,-0.5670862
3166184000,-0.0048650326,-0.0046884585,-2.0205975e-05,0.0,0.0,-0.56951207
3166196000,-0.0047616153,-0.004056732,-8.994341e-05,0.0,0.0,-0.56951207
3166220000,-0.0008661342,-0.0042023025,-1.23381615e-05,0.0,0.0,-0.56791216
3166244000,-0.0034065284,-0.0034908832,-1.6450882e-05,0.0,0.0,-0.5699873
3166264000,-0.0019952492,-0.008206204,0.00015306473,0.0,0.0,-0.5664077
3166284000,-0.001005521,-0.010148167,0.00043666363,0.0,0.0,-0.56788343
3166304000,-0.004970562,-0.00823988,0.000649631,0.0,0.0,-0.5696058
3166324000,-0.005821775,-0.005695203,0.0005276799,0.0,0.0,-0.56602395
3166344000,-0.009385802,-0.001873729,0.00045132637,0.0,0.0,-0.56729376
3166364000,-0.008179238,-0.000386887,0.00032150745,0.0,0.0,-0.56901884
3166380000,-0.007920164,0.004298414,0.00039857626,0.0,0.0,-0.5649134
3166400000,-0.0061471676,0.005533265,0.0003604889,0.0,0.0,-0.565953
3166420000,-0.004273572,0.0017957424,0.00031793118,0.0,0.0,-0.56727654
3166444000,-0.0086432425,0.0072789015,0.000102460384,0.0,0.0,-0.56582016
3166464000,-0.010116687,0.008307055,4.8995018e-05,0.0,0.0,-0.568423
3166484000,-0.007795163,0.0052278116,-0.00014859438,0.0,0.0,-0.56514984
3166500000,-0.008203897,0.0040719733,-0.0002424717,0.0,0.0,-0.5674769
3166524000,-0.0040600835,0.005157031,-0.0003876686,0.0,0.0,-0.5699532
3166544000,-0.0035648765,0.008186854,-0.00025069714,0.0,0.0,-0.56628186
3166564000,-0.00093382923,-0.0039615026,-0.00017774105,0.0,0.0,-0.5680089
3166584000,-0.007712812,0.002367769,1.7881393e-05,0.0,0.0,-0.5698167
3166600000,-0.004898591,0.008168232,-0.00011962652,0.0,0.0,-0.56654274
3166620000,-0.0028498946,0.009225979,-0.00018686056,0.0,0.0,-0.5679217
3166640000,-0.003463408,0.0060811862,-0.00014144182,0.0,0.0,-0.5698162
3166664000,-0.007440691,0.005876945,-0.0002964735,0.0,0.0,-0.56669474
3166684000,-0.012979493,0.00024219649,-0.00039374828,0.0,0.0,-0.570328
3166704000,-0.014485043,0.0024552962,-0.00044363737,0.0,0.0,-0.5667495
3166720000,-0.012840849,0.0030462607,-0.00044631958,0.0,0.0,-0.56852764
3166744000,-0.01152961,-0.0018812902,-0.00011587143,0.0,0.0,-0.5703309
3166756000,-0.0106772445,-0.0021762317,0.000114798546,0.0,0.0,-0.5703309
3166780000,-0.0041682045,-0.00017128314,0.0003976822,0.0,0.0,-0.56797016
3166800000,-0.0004922133,-0.00088670757,0.00019490719,0.0,0.0,-0.5694667
3166824000,0.00089194346,-0.0028980451,0.00023800135,0.0,0.0,-0.5655217
3166840000,-0.0011250484,-0.0026372392,0.00024980307,0.0,0.0,-0.5670316
3166864000,-0.00029192353,-0.0012860969,0.00012373924,0.0,0.0,-0.56850415
3166880000,-0.0014372463,-0.0027531974,2.8789043e-05,0.0,0.0,-0.5656256
3166900000,0.0022331695,-0.00060451124,2.1278858e-05,0.0,0.0,-0.5669949
3166920000,-0.00010021264,-0.006627138,9.0658665e-05,0.0,0.0,-0.5686005
3166940000,0.003708133,-0.009601602,4.220009e-05,0.0,0.0,-0.565779
3166960000,0.0019090329,-0.0069640176,2.861023e-06,0.0,0.0,-0.56737727
3166984000,0.008861238,-0.0052552205,-0.00012302399,0.0,0.0,-0.56625855
3167000000,0.012441512,-0.0027613726,-0.00021368265,0.0,0.0,-0.567253
3167020000,0.011155838,-0.0024577507,-0.00037318468,0.0,0.0,-0.567253
3167040000,0.004456482,-0.003535746,-0.00023370981,0.0,0.0,-0.5650355
3167060000,0.003766805,-0.0027702847,-1.7881393e-06,0.0,0.0,-0.56638575
3167084000,-0.001471696,-0.0046538804,-5.4180622e-05,0.0,0.0,-0.5681227
3167100000,-0.0011818022,-0.003285727,-0.00022923946,0.0,0.0,-0.5652343
3167124000,-0.0045670783,-0.0005014236,-0.0004028678,0.0,0.0,-0.5667167
3167140000,-0.0066610565,-0.0023359158,-0.0003722906,0.0,0.0,-0.5681168
3167164000,-0.0065330956,0.0035616504,-0.00019294024,0.0,0.0,-0.56519234
3167180000,-0.004128167,0.0061756438,-0.00020939112,0.0,0.0,-0.56659156
3167204000,-0.0026771198,0.0013142824,-0.00012946129,0.0,0.0,-0.56831455
3167220000,-0.0063351067,-0.0031899211,-0.00015592575,0.0,0.0,-0.56579626
3167244000,-0.005556872,-0.006087343,-0.00022298098,0.0,0.0,-0.5665828
3167260000,-0.008996008,-0.008620584,-0.00019687414,0.0,0.0,-0.5676197
3167280000,-0.012363441,-0.0030753252,-1.7881393e-05,0.0,0.0,-0.56578314
3167304000,-0.0091951955,-0.0039634015,-0.00019937754,0.0,0.0,-0.5676355
3167320000,-0.007923437,-0.004674569,-0.00030487776,0.0,0.0,-0.565598
3167340000,-0.0056680106,-0.0074307974,-0.00025355816,0.0,0.0,-0.5667344
3167364000,-0.0051027867,-0.005475872,-2.3245811e-06,0.0,0.0,-0.5680696
3167380000,-0.0007825233,-0.003464227,-7.2062016e-05,0.0,0.0,-0.56537265
3167404000,0.005017508,-0.0013869165,0.00010514259,0.0,0.0,-0.56634194
3167424000,0.002321181,0.00018444937,6.598234e-05,0.0,0.0,-0.5672047
3167444000,-0.0010580211,-0.0015956626,-2.2172928e-05,0.0,0.0,-0.5639075
3167464000,0.0023417906,0.0012885409,-3.7014484e-05,0.0,0.0,-0.5649128
3167480000,0.0016418793,0.00080024335,2.18153e-05,0.0,0.0,-0.56600696
3167500000,-0.00023586955,-0.00019465573,4.2915344e-06,0.0,0.0,-0.56417155
3167520000,-0.0022705067,-0.0030427924,-0.000120699406,0.0,0.0,-0.565121
3167540000,-0.0062662605,-0.0031061873,-0.00016987324,0.0,0.0,-0.5667385
3167560000,-0.006545449,0.004639949,-9.602308e-05,0.0,0.0,-0.56447816
3167580000,-0.0044180215,0.00021756766,-9.441376e-05,0.0,0.0,-0.56581503
3167604000,-0.014039265,-0.00013746094,-1.7344952e-05,0.0,0.0,-0.56507415
3167624000,-0.015193688,0.00030440313,-0.00017076731,0.0,0.0,-0.5664113
3167644000,-0.01330766,-0.004946719,-9.8347664e-05,0.0,0.0,-0.5675619
3167664000,-0.015771305,-0.005740749,-0.0001861453,0.0,0.0,-0.5648104
3167676000,-0.009785969,-0.010960239,-0.00021725893,0.0,0.0,-0.56548464
3167700000,-0.008707004,-0.010463283,-2.3961067e-05,0.0,0.0,-0.5664703
3167720000,-0.0040634978,-0.0026241748,0.00019937754,0.0,0.0,-0.5638027
3167744000,-0.0033060587,-0.0010131123,-7.921457e-05,0.0,0.0,-0.56544006
3167764000,-0.0003419062,3.3188844e-05,-0.00013947487,0.0,0.0,-0.5668319
3167784000,0.001863332,-0.0033348901,-0.00021958351,0.0,0.0,-0.5646687
3167800000,0.0034573171,-0.0029166886,-0.00036227703,0.0,0.0,-0.56554747
3167824000,0.004506431,-0.0027046467,-0.00036156178,0.0,0.0,-0.56537896
3167840000,0.0014013005,-0.005862725,-0.00035887957,0.0,0.0,-0.5660291
3167860000,0.0008712667,-0.0057492056,-0.00039196014,0.0,0.0,-0.5660291
3167884000,0.00027060136,-0.0112026455,-0.00029683113,0.0,0.0,-0.5645473
3167900000,0.0014209435,-0.007264886,-0.00033277273,0.0,0.0,-0.56521124
3167920000,0.0033227568,-0.0063153533,-0.00045204163,0.0,0.0,-0.5661553
3167940000,0.0015379074,-0.0031143273,-0.00014448166,0.0,0.0,-0.56365615
3167964000,-0.0011027358,-0.004275863,-2.592802e-05,0.0,0.0,-0.56467575
3167976000,0.0004483019,-0.0047295378,8.636713e-05,0.0,0.0,-0.5655608
3168000000,-0.0026619374,-0.003181432,2.503395e-06,0.0,0.0,-0.56353015
3168020000,-0.002878833,-0.0013173649,-5.3465366e-05,0.0,0.0,-0.56455374
3168044000,-0.0060531814,-0.0024867395,0.00010514259,0.0,0.0,-0.56579787
3168064000,-0.009151896,-0.00094442745,-0.00024998188,0.0,0.0,-0.5635904
3168080000,-0.011396704,-0.005881675,-0.00020134449,0.0,0.0,-0.5646589
3168100000,-0.009364712,-0.0042801276,0.00023192167,0.0,0.0,-0.56599945
3168120000,-0.0044666925,0.0030227182,0.00034797192,0.0,0.0,-0.5647996
3168140000,-0.0036359536,0.0014166726,0.00023889542,0.0,0.0,-0.56597376
3168160000,-0.0037903092,0.0018286644,0.00021010637,0.0,0.0,-0.56405056
3168176000,-0.004002163,0.0037541455,0.00019043684,0.0,0.0,-0.56487757
3168204000,0.0005332944,0.006274198,3.0219555e-05,0.0,0.0,-0.5659499
3168220000,0.0026259567,0.005050155,3.6120415e-05,0.0,0.0,-0.5636382
3168240000,0.004378062,0.002441024,0.00017791986,0.0,0.0,-0.56455916
3168260000,-0.0022477247,-0.0003946015,8.761883e-06,0.0,0.0,-0.56618685
3168280000,-0.0046999343,-0.00059264735,-5.7935715e-05,0.0,0.0,-0.5650278
3168304000,-0.007728784,0.0001680727,-0.00025427341,0.0,0.0,-0.56593204
3168316000,-0.00842578,0.0039242688,-0.0002669692,0.0,0.0,-0.56723934
3168340000,-0.006051509,-0.0034231357,-0.00032937527,0.0,0.0,-0.5652202
3168360000,-0.0015081293,-0.004449297,-0.00015234947,0.0,0.0,-0.56593204
3168380000,0.00043113856,-0.0025743996,-4.3809414e-05,0.0,0.0,-0.56686944
3168400000,-0.0029788697,-0.0003299772,4.184246e-05,0.0,0.0,-0.5646636
3168420000,0.0027620508,0.00095206336,0.00011372566,0.0,0.0,-0.56604046
3168436000,0.0042818044,0.0019820472,-0.00024014711,0.0,0.0,-0.56484175
3168456000,0.0022215983,0.004489422,-0.00031614304,0.0,0.0,-0.56577843
3168480000,0.0029909788,0.005328461,-0.00021117926,0.0,0.0,-0.5671463
3168500000,0.0030393186,0.008169742,-0.00030058622,0.0,0.0,-0.5657808
3168524000,0.002853306,0.009279222,-0.0003247261,0.0,0.0,-0.56671643
