timestamp,roll_body,pitch_body,yaw_body,yaw_sp_move_rate,q_d[0],q_d[1],q_d[2],q_d[3],thrust_body[0],thrust_body[1],thrust_body[2],q_d_valid,roll_reset_integral,pitch_reset_integral,yaw_reset_integral,fw_control_yaw,apply_flaps
3152284000,-0.094336815,-0.038395364,0.42082596,0.0,0.97686607,-0.0420975,-0.028598543,0.20770784,0.0,0.0,-0.120624855,1,0,0,0,0,0
3152380000,-0.01600942,0.00919727,0.42084938,0.0,0.97789294,-0.008788485,0.0028250897,0.20890231,0.0,0.0,-0.12002046,1,0,0,0,0,0
3152472000,-0.0016892547,0.01004886,0.42084938,0.0,0.9779287,-0.0018754605,0.0047371606,0.20887668,0.0,0.0,-0.15824242,1,0,0,0,0,0
3152584000,-0.0041859862,0.004895588,0.42084938,0.0,0.97793615,-0.0025581012,0.0019566207,0.2088792,0.0,0.0,-0.23670626,1,0,0,0,0,0
3152676000,-0.00173821,0.0045453017,0.42084938,0.0,0.97793895,-0.0013246321,0.0020409846,0.20887655,0.0,0.0,-0.30242413,1,0,0,0,0,0
3152772000,-0.0023428157,0.0058284164,0.42084938,0.0,0.9779368,-0.0017542687,0.0026052445,0.20887756,0.0,0.0,-0.37245733,1,0,0,0,0,0
3152884000,-0.0005140927,0.0045402343,0.42084938,0.0,0.97793967,-0.00072554674,0.002166351,0.20887528,0.0,0.0,-0.45561033,1,0,0,0,0,0
3152976000,-1.9556948e-05,0.003288176,0.42084938,0.0,0.977941,-0.00035297184,0.0016057797,0.208875,0.0,0.0,-0.5269468,1,0,0,0,0,0
3153088000,-0.0005248272,0.0032120957,0.42084938,0.0,0.977941,-0.0005920884,0.0015158094,0.20887536,0.0,0.0,-0.6088793,1,0,0,0,0,0
3153180000,-0.0007963169,0.0028380589,0.42084938,0.0,0.97794116,-0.0006857756,0.0013045629,0.2088756,0.0,0.0,-0.6087069,1,0,0,0,0,0
3153276000,0.0023930373,0.006284153,0.42084938,0.0,0.9779376,0.00051381986,0.0033226837,0.20887038,0.0,0.0,-0.60972995,1,0,0,0,0,0
3153368000,0.0041849664,0.008548068,0.42084938,0.0,0.9779331,0.0011535722,0.0046167998,0.20886415,0.0,0.0,-0.6125555,1,0,0,0,0,0
3153480000,0.009028656,0.011093874,0.42084938,0.0,0.9779225,0.0032560697,0.0063674166,0.20884542,0.0,0.0,-0.61450845,1,0,0,0,0,0
3153572000,0.008995995,0.010850725,0.42084938,0.0,0.9779231,0.0032654952,0.0062451144,0.2088462,0.0,0.0,-0.6120998,1,0,0,0,0,0
3153684000,0.0072521884,0.011141173,0.42084938,0.0,0.97792494,0.0023825038,0.0062050354,0.20885089,0.0,0.0,-0.61584276,1,0,0,0,0,0
3153780000,0.0075086737,0.011918149,0.42084938,0.0,0.97792274,0.002426764,0.0066117267,0.20884818,0.0,0.0,-0.6236443,1,0,0,0,0,0
3153872000,0.0075147157,0.011067937,0.42084938,0.0,0.97792476,0.0025185193,0.0061966414,0.20885025,0.0,0.0,-0.6225171,1,0,0,0,0,0
3153984000,0.0068716826,0.0109053245,0.42084938,0.0,0.97792596,0.002221084,0.0060499804,0.20885257,0.0,0.0,-0.62352264,1,0,0,0,0,0
3154076000,0.007272126,0.00868346,0.42084938,0.0,0.97792995,0.0026489468,0.005005394,0.20885645,0.0,0.0,-0.6220758,1,0,0,0,0,0
3154172000,0.0070497603,0.009339007,0.42084938,0.0,0.977929,0.0024717506,0.0053027105,0.20885558,0.0,0.0,-0.6293918,1,0,0,0,0,0
3154284000,0.0067557776,0.009526165,0.42084938,0.0,0.977929,0.0023084562,0.005363524,0.20885597,0.0,0.0,-0.63065255,1,0,0,0,0,0
3154376000,0.008712865,0.009782946,0.42084938,0.0,0.9779258,0.0032385818,0.005693451,0.20884992,0.0,0.0,-0.63125616,1,0,0,0,0,0
3154468000,0.008862144,0.009029843,0.42084938,0.0,0.9779269,0.0033902314,0.005340803,0.20885152,0.0,0.0,-0.6290193,1,0,0,0,0,0
3154580000,0.009075696,0.008524394,0.42084938,0.0,0.9779274,0.0035474424,0.005115959,0.20885228,0.0,0.0,-0.6323428,1,0,0,0,0,0
3154676000,0.009444752,0.0073475805,0.42084938,0.0,0.9779284,0.003850809,0.0045790835,0.20885456,0.0,0.0,-0.63985276,1,0,0,0,0,0
3154768000,0.009378416,0.00871631,0.42084938,0.0,0.97792655,0.0036754168,0.00524141,0.20885098,0.0,0.0,-0.63798076,1,0,0,0,0,0
3154880000,0.009649992,0.008396997,0.42084938,0.0,0.97792655,0.003841558,0.005113639,0.20885116,0.0,0.0,-0.6424012,1,0,0,0,0,0
3154972000,0.01152579,0.005870149,0.42084938,0.0,0.9779254,0.0050226697,0.0040739956,0.20885436,0.0,0.0,-0.5776535,1,0,0,0,0,0
3155084000,0.013647592,0.00880756,0.42084938,0.0,0.97791636,0.005753346,0.005731826,0.20883897,0.0,0.0,-0.53835714,1,0,0,0,0,0
3155180000,0.012859968,0.009942677,0.42084938,0.0,0.97791666,0.005249667,0.0062046,0.20883709,0.0,0.0,-0.5737299,1,0,0,0,0,0
3155272000,0.013988859,0.00898889,0.42084938,0.0,0.9779151,0.005901271,0.0058561214,0.20883726,0.0,0.0,-0.5686548,1,0,0,0,0,0
3155376000,0.015968015,0.010954556,0.42084938,0.0,0.9779056,0.0066636726,0.007023883,0.20882268,0.0,0.0,-0.57817477,1,0,0,0,0,0
3155484000,0.015690817,0.011110327,0.42084938,0.0,0.9779062,0.0065118643,0.0070711034,0.20882298,0.0,0.0,-0.57220995,1,0,0,0,0,0
3155576000,0.015502938,0.011620448,0.42084938,0.0,0.97790587,0.006366716,0.0073009063,0.2088214,0.0,0.0,-0.56812125,1,0,0,0,0,0
3155668000,0.015055113,0.0121203065,0.42084938,0.0,0.97790617,0.006095538,0.007498552,0.20882088,0.0,0.0,-0.5656943,1,0,0,0,0,0
3155780000,0.015997004,0.011791587,0.42084938,0.0,0.97790384,0.0065904153,0.0074361702,0.20881882,0.0,0.0,-0.56773764,1,0,0,0,0,0
3155876000,0.015155156,0.013286243,0.42084938,0.0,0.9779032,0.006022666,0.008079073,0.20881541,0.0,0.0,-0.57363427,1,0,0,0,0,0
3155968000,0.0140154315,0.013823818,0.42084938,0.0,0.97790504,0.005409242,0.00822292,0.20881777,0.0,0.0,-0.5726905,1,0,0,0,0,0
3156080000,0.013644399,0.016127784,0.42084938,0.0,0.97789925,0.0049871583,0.009310683,0.2088098,0.0,0.0,-0.57406723,1,0,0,0,0,0
3156172000,0.013628254,0.015447816,0.42084938,0.0,0.9779014,0.005050293,0.008976535,0.20881271,0.0,0.0,-0.5723785,1,0,0,0,0,0
3156284000,0.012957023,0.016200904,0.42084938,0.0,0.9779007,0.004643429,0.009274669,0.20881268,0.0,0.0,-0.5726654,1,0,0,0,0,0
3156380000,0.013102669,0.016758788,0.42084938,0.0,0.9778985,0.004656366,0.009562645,0.20880975,0.0,0.0,-0.5785383,1,0,0,0,0,0
3156472000,0.0122221615,0.01724766,0.42084938,0.0,0.97789866,0.004174777,0.009709746,0.20881207,0.0,0.0,-0.57525706,1,0,0,0,0,0
3156584000,0.012852923,0.017129792,0.42084938,0.0,0.97789776,0.004495499,0.009717968,0.20880945,0.0,0.0,-0.5772936,1,0,0,0,0,0
3156676000,0.011438583,0.01748204,0.42084938,0.0,0.9778994,0.003767163,0.009742531,0.20881496,0.0,0.0,-0.57394445,1,0,0,0,0,0
3156772000,0.0118962675,0.01713861,0.42084938,0.0,0.9778998,0.0040268223,0.0096224,0.20881405,0.0,0.0,-0.5823322,1,0,0,0,0,0
3156884000,0.011074013,0.018352825,0.42084938,0.0,0.97789675,0.0034979482,0.010130227,0.20881355,0.0,0.0,-0.58281827,1,0,0,0,0,0
3156976000,0.01183401,0.018409193,0.42084938,0.0,0.97789514,0.0038636588,0.010237136,0.20880948,0.0,0.0,-0.57695526,1,0,0,0,0,0
3157088000,0.011800763,0.018001659,0.42084938,0.0,0.97789675,0.0038899726,0.010034405,0.20881121,0.0,0.0,-0.5798233,1,0,0,0,0,0
3157180000,0.010907793,0.018027646,0.42084938,0.0,0.9778983,0.0034506423,0.00995388,0.2088156,0.0,0.0,-0.57580817,1,0,0,0,0,0
3157276000,0.009670551,0.018643297,0.42084938,0.0,0.97789776,0.002781386,0.010125717,0.20881967,0.0,0.0,-0.5828423,1,0,0,0,0,0
3157384000,0.009743423,0.018403227,0.42084938,0.0,0.97789866,0.0028420934,0.010015946,0.20882012,0.0,0.0,-0.5882184,1,0,0,0,0,0
3157476000,0.008130413,0.018781137,0.42084938,0.0,0.97789913,0.002013939,0.010032304,0.20882697,0.0,0.0,-0.57991886,1,0,0,0,0,0
3157568000,0.0083132675,0.017802622,0.42084938,0.0,0.9779028,0.0022055528,0.009572959,0.20882902,0.0,0.0,-0.576616,1,0,0,0,0,0
3157680000,0.0047242846,0.019126102,0.42084938,0.0,0.97789955,0.00031248212,0.009845314,0.20884304,0.0,0.0,-0.57958573,1,0,0,0,0,0
3157776000,0.006721074,0.01843866,0.42084938,0.0,0.9779017,0.0013606139,0.009717695,0.20883489,0.0,0.0,-0.5852949,1,0,0,0,0,0
3157888000,0.005878796,0.01864601,0.42084938,0.0,0.9779013,0.00092712406,0.009731129,0.2088385,0.0,0.0,-0.5856105,1,0,0,0,0,0
3157980000,0.005925333,0.01832103,0.42084938,0.0,0.97790265,0.0009838215,0.009577092,0.20883906,0.0,0.0,-0.5812809,1,0,0,0,0,0
3158072000,0.006543759,0.019913632,0.42084938,0.0,0.9778954,0.0011198582,0.010420357,0.2088319,0.0,0.0,-0.57859576,1,0,0,0,0,0
3158184000,0.006815951,0.019505065,0.42084938,0.0,0.97789705,0.0012956201,0.010249014,0.20883162,0.0,0.0,-0.57780147,1,0,0,0,0,0
3158280000,0.0066007827,0.019433979,0.42084938,0.0,0.9778975,0.0011978388,0.010191789,0.2088329,0.0,0.0,-0.5859069,1,0,0,0,0,0
3158372000,0.005897728,0.017936606,0.42084938,0.0,0.9779042,0.0010104756,0.009386246,0.20884009,0.0,0.0,-0.58053696,1,0,0,0,0,0
3158484000,0.006862347,0.019639349,0.42084938,0.0,0.97789645,0.0013042794,0.010319514,0.208831,0.0,0.0,-0.58308536,1,0,0,0,0,0
3158576000,0.0071143326,0.01915856,0.42084938,0.0,0.97789836,0.001477705,0.010110749,0.20883103,0.0,0.0,-0.5793682,1,0,0,0,0,0
3158672000,0.007312685,0.018812153,0.42084938,0.0,0.97789973,0.0016108713,0.009962086,0.20883098,0.0,0.0,-0.586695,1,0,0,0,0,0
3158784000,0.0066918433,0.018212304,0.42084938,0.0,0.97790265,0.0013699641,0.009603968,0.20883563,0.0,0.0,-0.58648646,1,0,0,0,0,0
3158876000,0.0053724446,0.018002395,0.42084938,0.0,0.9779042,0.0007467659,0.009363562,0.2088424,0.0,0.0,-0.5825965,1,0,0,0,0,0
3158968000,0.0056612436,0.018862503,0.42084938,0.0,0.97790045,0.0007981401,0.009814266,0.20883901,0.0,0.0,-0.5795877,1,0,0,0,0,0
3159080000,0.005847282,0.01643841,0.42084938,0.0,0.97791016,0.0011422894,0.008648438,0.2088438,0.0,0.0,-0.579677,1,0,0,0,0,0
3159176000,0.005762859,0.016251413,0.42084938,0.0,0.9779108,0.0011205418,0.00854819,0.20884459,0.0,0.0,-0.5872871,1,0,0,0,0,0
3159268000,0.0061203474,0.01694051,0.42084938,0.0,0.9779081,0.0012233639,0.008922453,0.20884146,0.0,0.0,-0.58255726,1,0,0,0,0,0
3159380000,0.005970877,0.01791966,0.42084938,0.0,0.9779043,0.0010480118,0.009385598,0.20883979,0.0,0.0,-0.5836047,1,0,0,0,0,0
3159472000,0.004084136,0.01827683,0.42084938,0.0,0.9779033,8.818196e-05,0.009363218,0.20884784,0.0,0.0,-0.58148474,1,0,0,0,0,0
3159584000,0.0039714715,0.017426655,0.42084938,0.0,0.9779069,0.00012188846,0.008935762,0.20885001,0.0,0.0,-0.5798261,1,0,0,0,0,0
3159680000,0.0032668954,0.016333379,0.42084938,0.0,0.97791123,-0.00010843422,0.008327626,0.20885497,0.0,0.0,-0.59396404,1,0,0,0,0,0
3159772000,0.0027388432,0.015045016,0.42084938,0.0,0.9779159,-0.00023207249,0.0076425327,0.20885907,0.0,0.0,-0.62089056,1,0,0,0,0,0
3159884000,0.0013966601,0.012865604,0.42084938,0.0,0.9779228,-0.00066073105,0.0064367247,0.2088665,0.0,0.0,-0.65088296,1,0,0,0,0,0
3159976000,0.00047369613,0.01078063,0.42084938,0.0,0.97792834,-0.0008942776,0.0053208624,0.20887095,0.0,0.0,-0.6669034,1,0,0,0,0,0
3160072000,0.0010964241,0.010453136,0.42084938,0.0,0.9779294,-0.00055558304,0.0052257646,0.20886958,0.0,0.0,-0.71584386,1,0,0,0,0,0
3160184000,0.0024916704,0.010929157,0.42084938,0.0,0.97792834,7.6927834e-05,0.0056042313,0.20886531,0.0,0.0,-0.7036501,1,0,0,0,0,0
3160276000,0.0018952722,0.011929652,0.42084938,0.0,0.97792566,-0.00031917985,0.0060311523,0.20886593,0.0,0.0,-0.66291904,1,0,0,0,0,0
3160368000,0.0029164345,0.011947391,0.42084938,0.0,0.97792566,0.0001782782,0.0061464678,0.20886278,0.0,0.0,-0.6386436,1,0,0,0,0,0
3160480000,0.004068405,0.01304909,0.42084938,0.0,0.97792226,0.00062648556,0.0068054553,0.2088574,0.0,0.0,-0.5970966,1,0,0,0,0,0
3160576000,0.005383829,0.015104921,0.42084938,0.0,0.9779151,0.0010549576,0.007948031,0.20884866,0.0,0.0,-0.602352,1,0,0,0,0,0
3160668000,0.005303549,0.013980864,0.42084938,0.0,0.97791886,0.001133105,0.0073900344,0.20885126,0.0,0.0,-0.6105587,1,0,0,0,0,0
3160780000,0.006640234,0.014826756,0.42084938,0.0,0.9779152,0.0016983392,0.007943219,0.20884427,0.0,0.0,-0.60724086,1,0,0,0,0,0
3160872000,0.004898815,0.01421612,0.42084938,0.0,0.9779183,0.0009106353,0.0074628,0.2088523,0.0,0.0,-0.6075917,1,0,0,0,0,0
3160984000,0.0030991368,0.014741257,0.42084938,0.0,0.97791696,-2.41793e-05,0.0075316327,0.20885816,0.0,0.0,-0.6074468,1,0,0,0,0,0
3161080000,0.0037535094,0.015080949,0.42084938,0.0,0.97791576,0.00026030376,0.007766062,0.20885512,0.0,0.0,-0.6062525,1,0,0,0,0,0
3161172000,0.0043289233,0.014399725,0.42084938,0.0,0.9779179,0.00061280554,0.007493063,0.20885411,0.0,0.0,-0.60641193,1,0,0,0,0,0
3161284000,0.0058006034,0.014076019,0.42084938,0.0,0.9779182,0.0013662059,0.0074884663,0.20884922,0.0,0.0,-0.6060714,1,0,0,0,0,0
3161376000,0.004464448,0.015338766,0.42084938,0.0,0.97791463,0.00058099575,0.007966365,0.20885187,0.0,0.0,-0.6045632,1,0,0,0,0,0
3161468000,0.005095341,0.017016865,0.42084938,0.0,0.97790825,0.00071420835,0.008852755,0.20884582,0.0,0.0,-0.60781157,1,0,0,0,0,0
3161580000,0.004345292,0.016388657,0.42084938,0.0,0.9779109,0.0004130806,0.008467268,0.20885035,0.0,0.0,-0.6023248,1,0,0,0,0,0
3161676000,0.0052065207,0.016200555,0.42084938,0.0,0.9779113,0.0008538285,0.0084652295,0.20884706,0.0,0.0,-0.60723287,1,0,0,0,0,0
3161788000,0.004693651,0.01559088,0.42084938,0.0,0.97791374,0.00066673465,0.00811357,0.20885043,0.0,0.0,-0.59756464,1,0,0,0,0,0
3161880000,0.0065751746,0.01736736,0.42084938,0.0,0.9779061,0.0014011706,0.009178652,0.20883833,0.0,0.0,-0.6046923,1,0,0,0,0,0
3161976000,0.0056565264,0.01669726,0.42084938,0.0,0.97790927,0.0010219835,0.008755083,0.20884407,0.0,0.0,-0.61197853,1,0,0,0,0,0
3162068000,0.0054543945,0.015406946,0.42084938,0.0,0.97791404,0.0010579162,0.008103076,0.20884773,0.0,0.0,-0.6023545,1,0,0,0,0,0
3162180000,0.0061514755,0.014564266,0.42084938,0.0,0.9779164,0.0014867729,0.007763837,0.20884684,0.0,0.0,-0.6032128,1,0,0,0,0,0
3162272000,0.00741329,0.016257074,0.42084938,0.0,0.97790956,0.0019269371,0.008723298,0.20883745,0.0,0.0,-0.59862715,1,0,0,0,0,0
3162384000,0.009574977,0.016708313,0.42084938,0.0,0.97790533,0.0029367697,0.009169643,0.20882647,0.0,0.0,-0.5968726,1,0,0,0,0,0
3162480000,0.008288322,0.015599683,0.42084938,0.0,0.9779109,0.0024234527,0.008493236,0.20883553,0.0,0.0,-0.61040276,1,0,0,0,0,0
3162572000,0.01021076,0.015052499,0.42084938,0.0,0.9779099,0.003420592,0.008426425,0.20882906,0.0,0.0,-0.605165,1,0,0,0,0,0
3162684000,0.010200896,0.015259175,0.42084938,0.0,0.97790927,0.0033941816,0.008526448,0.2088284,0.0,0.0,-0.60465074,1,0,0,0,0,0
3162776000,0.010626727,0.015128985,0.42084938,0.0,0.9779089,0.0036159926,0.0085072545,0.20882705,0.0,0.0,-0.5951821,1,0,0,0,0,0
3162872000,0.010264149,0.014416354,0.42084938,0.0,0.9779117,0.0035131432,0.008120958,0.2088309,0.0,0.0,-0.6109098,1,0,0,0,0,0
3162984000,0.010872402,0.013753568,0.42084938,0.0,0.9779126,0.0038797816,0.0078604,0.20883065,0.0,0.0,-0.61060137,1,0,0,0,0,0
3163076000,0.011007969,0.012955706,0.42084938,0.0,0.9779144,0.004029406,0.007484442,0.20883283,0.0,0.0,-0.60315716,1,0,0,0,0,0
3163188000,0.01018573,0.013243078,0.42084938,0.0,0.9779152,0.0035973492,0.0075390963,0.20883496,0.0,0.0,-0.6047177,1,0,0,0,0,0
3163280000,0.010587006,0.016023807,0.42084938,0.0,0.9779061,0.0035031028,0.008940626,0.20882413,0.0,0.0,-0.59696984,1,0,0,0,0,0
3163376000,0.010463018,0.015380747,0.42084938,0.0,0.97790843,0.0035096484,0.008613259,0.20882687,0.0,0.0,-0.59053016,1,0,0,0,0,0
3163468000,0.013218264,0.016258832,0.42084938,0.0,0.97789985,0.0047651115,0.009330266,0.20881124,0.0,0.0,-0.56217134,1,0,0,0,0,0
3163580000,0.012391051,0.016001152,0.42084938,0.0,0.97790253,0.0043875617,0.009117912,0.20881608,0.0,0.0,-0.5704708,1,0,0,0,0,0
3163672000,0.0138181895,0.016706161,0.42084938,0.0,0.9778969,0.0050117164,0.009611619,0.20880656,0.0,0.0,-0.56717384,1,0,0,0,0,0
3163784000,0.013874734,0.015587303,0.42084938,0.0,0.9779004,0.0051562395,0.00907047,0.20881101,0.0,0.0,-0.5652061,1,0,0,0,0,0
3163880000,0.012322854,0.015894813,0.42084938,0.0,0.97790307,0.0043653245,0.009058797,0.2088168,0.0,0.0,-0.5726439,1,0,0,0,0,0
3163972000,0.010674545,0.016794704,0.42084938,0.0,0.97790325,0.0034653817,0.009326692,0.20882107,0.0,0.0,-0.5686673,1,0,0,0,0,0
3164084000,0.011791671,0.015450921,0.42084938,0.0,0.97790563,0.0041519683,0.008786298,0.20882083,0.0,0.0,-0.5691056,1,0,0,0,0,0
3164176000,0.013179237,0.016339503,0.42084938,0.0,0.9778997,0.0047376016,0.009365635,0.2088111,0.0,0.0,-0.56585205,1,0,0,0,0,0
3164276000,0.016532708,0.020484561,0.42084938,0.0,0.97787523,0.005944252,0.011742369,0.20877434,0.0,0.0,-0.5924773,1,0,0,0,0,0
3164388000,0.01588714,0.02001376,0.42084938,0.0,0.9778791,0.0056777936,0.011444794,0.20878044,0.0,0.0,-0.56054056,1,0,0,0,0,0
3164476000,0.013325001,0.019989425,0.42084938,0.0,0.97788566,0.0044276,0.011165423,0.20879506,0.0,0.0,-0.56860447,1,0,0,0,0,0
3164572000,0.011829278,0.018305223,0.42084938,0.0,0.97789556,0.003872206,0.010185807,0.20880991,0.0,0.0,-0.5682628,1,0,0,0,0,0
3164684000,0.012065936,0.017667668,0.42084938,0.0,0.97789747,0.0040545175,0.009898791,0.20881116,0.0,0.0,-0.5667174,1,0,0,0,0,0
3164776000,0.011035415,0.01651297,0.42084938,0.0,0.9779036,0.0036712592,0.009226617,0.2088204,0.0,0.0,-0.56559145,1,0,0,0,0,0
3164888000,0.011240681,0.017849535,0.42084938,0.0,0.97789836,0.0036320116,0.009901551,0.20881456,0.0,0.0,-0.56502736,1,0,0,0,0,0
3164980000,0.013853965,0.01926028,0.42084938,0.0,0.97788745,0.0047624023,0.010864146,0.20879531,0.0,0.0,-0.5735288,1,0,0,0,0,0
3165076000,0.0125980405,0.016131734,0.42084938,0.0,0.9779017,0.0044751293,0.009203367,0.20881459,0.0,0.0,-0.56913686,1,0,0,0,0,0
3165168000,0.01276891,0.015454459,0.42084938,0.0,0.9779035,0.004629421,0.00889006,0.2088165,0.0,0.0,-0.5623367,1,0,0,0,0,0
3165280000,0.012542414,0.01622849,0.42084938,0.0,0.97790146,0.0044378224,0.009244868,0.2088145,0.0,0.0,-0.5652475,1,0,0,0,0,0
3165372000,0.013598404,0.01741405,0.42084938,0.0,0.97789496,0.004830307,0.009934782,0.2088046,0.0,0.0,-0.5623416,1,0,0,0,0,0
3165484000,0.013678992,0.015918259,0.42084938,0.0,0.97789985,0.0050259596,0.009211849,0.20881054,0.0,0.0,-0.559513,1,0,0,0,0,0
3165580000,0.013132262,0.015119945,0.42084938,0.0,0.97790366,0.004842026,0.008764439,0.20881625,0.0,0.0,-0.5663876,1,0,0,0,0,0
3165672000,0.011784426,0.015370691,0.42084938,0.0,0.9779059,0.004156806,0.008746313,0.20882118,0.0,0.0,-0.5660302,1,0,0,0,0,0
3165784000,0.010761164,0.01754719,0.42084938,0.0,0.9779004,0.003429134,0.009703657,0.20881803,0.0,0.0,-0.5657809,1,0,0,0,0,0
3165876000,0.009818849,0.016809124,0.42084938,0.0,0.9779046,0.0030454814,0.009244396,0.20882499,0.0,0.0,-0.5646997,1,0,0,0,0,0
3165972000,0.01044401,0.0157599,0.42084938,0.0,0.97790724,0.0034607504,0.008796659,0.20882565,0.0,0.0,-0.5687458,1,0,0,0,0,0
3166084000,0.0114879375,0.0151285585,0.42084938,0.0,0.97790724,0.0040371283,0.008596967,0.20882334,0.0,0.0,-0.56860054,1,0,0,0,0,0
3166180000,0.010639661,0.0146677615,0.42084938,0.0,0.97791034,0.0036704915,0.008283091,0.20882854,0.0,0.0,-0.56951207,1,0,0,0,0,0
3166272000,0.010881856,0.013553814,0.42084938,0.0,0.9779131,0.0039052684,0.007763718,0.2088313,0.0,0.0,-0.56788343,1,0,0,0,0,0
3166384000,0.009647044,0.01526012,0.42084938,0.0,0.97791016,0.0031232736,0.008469081,0.20883074,0.0,0.0,-0.565953,1,0,0,0,0,0
3166476000,0.008743047,0.015538142,0.42084938,0.0,0.9779105,0.0026522202,0.008510628,0.20883374,0.0,0.0,-0.56514984,1,0,0,0,0,0
3166572000,0.008238341,0.0156148765,0.42084938,0.0,0.9779109,0.0023974266,0.008495446,0.20883568,0.0,0.0,-0.5698167,1,0,0,0,0,0
3166684000,0.0070615066,0.015771547,0.42084938,0.0,0.9779116,0.0018056429,0.008449166,0.2088402,0.0,0.0,-0.570328,1,0,0,0,0,0
3166776000,0.007523168,0.015993379,0.42084938,0.0,0.9779104,0.002008205,0.008605838,0.20883767,0.0,0.0,-0.56797016,1,0,0,0,0,0
3166868000,0.0075603216,0.015685106,0.42084938,0.0,0.9779114,0.0020585698,0.008458987,0.20883834,0.0,0.0,-0.5656256,1,0,0,0,0,0
3166980000,0.009237031,0.01484281,0.42084938,0.0,0.97791207,0.0029663844,0.008222225,0.20883374,0.0,0.0,-0.56625855,1,0,0,0,0,0
3167076000,0.008388961,0.014501911,0.42084938,0.0,0.9779144,0.002587322,0.007966989,0.2088382,0.0,0.0,-0.5681227,1,0,0,0,0,0
3167168000,0.008132328,0.016082313,0.42084938,0.0,0.97790945,0.002296768,0.008712929,0.2088348,0.0,0.0,-0.56659156,1,0,0,0,0,0
3167280000,0.0063481047,0.014523187,0.42084938,0.0,0.97791636,0.001587207,0.007764284,0.20884614,0.0,0.0,-0.56578314,1,0,0,0,0,0
3167372000,0.0074753906,0.014122099,0.42084938,0.0,0.9779166,0.0021802944,0.0076858834,0.20884277,0.0,0.0,-0.56537265,1,0,0,0,0,0
3167484000,0.0075220717,0.014273639,0.42084938,0.0,0.97791606,0.002187292,0.007764854,0.20884222,0.0,0.0,-0.56417155,1,0,0,0,0,0
3167580000,0.0062804897,0.014105205,0.42084938,0.0,0.97791785,0.001597802,0.0075528477,0.20884737,0.0,0.0,-0.5671115,1,0,0,0,0,0
3167672000,0.005188942,0.012423594,0.42084938,0.0,0.9779235,0.0012397133,0.006616629,0.20885475,0.0,0.0,-0.56548464,1,0,0,0,0,0
3167784000,0.0064763725,0.0131905805,0.42084938,0.0,0.97792035,0.0017891092,0.007126094,0.20884873,0.0,0.0,-0.56554747,1,0,0,0,0,0
3167876000,0.0062956936,0.011668844,0.42084938,0.0,0.97792464,0.0018597016,0.0063631623,0.20885271,0.0,0.0,-0.5645473,1,0,0,0,0,0
3167972000,0.006593536,0.0120451,0.42084938,0.0,0.9779234,0.0019660373,0.006578238,0.2088509,0.0,0.0,-0.5655608,1,0,0,0,0,0
3168084000,0.004905829,0.011897412,0.42084938,0.0,0.9779251,0.0011562377,0.0063297837,0.20885669,0.0,0.0,-0.56599945,1,0,0,0,0,0
3168176000,0.0052780122,0.0128730945,0.42084938,0.0,0.9779222,0.001236318,0.006845717,0.20885359,0.0,0.0,-0.56487757,1,0,0,0,0,0
3168288000,0.0044892197,0.013017796,0.42084938,0.0,0.97792214,0.00083551585,0.0068340995,0.20885602,0.0,0.0,-0.56593204,1,0,0,0,0,0
3168380000,0.004758717,0.013056585,0.42084938,0.0,0.97792196,0.0009632383,0.006881207,0.20885502,0.0,0.0,-0.5646636,1,0,0,0,0,0
3168476000,0.0058505484,0.013842434,0.42084938,0.0,0.9779189,0.0014150236,0.0073794695,0.20884956,0.0,0.0,-0.5671463,1,0,0,0,0,0
3168580000,0.004880448,0.014551492,0.42084938,0.0,0.9779172,0.00086662726,0.007624864,0.20885174,0.0,0.0,-0.56707877,1,0,0,0,0,0
3168672000,0.005147663,0.014962837,0.42084938,0.0,0.9779157,0.00095432205,0.007853897,0.20884986,0.0,0.0,-0.5648334,1,0,0,0,0,0
3168784000,0.006113086,0.013092981,0.42084938,0.0,0.97792095,0.0016216703,0.0070404354,0.20885022,0.0,0.0,-0.5646053,1,0,0,0,0,0
3168880000,0.0056958213,0.013740851,0.42084938,0.0,0.97791934,0.0013499783,0.0073136427,0.20885032,0.0,0.0,-0.56631905,1,0,0,0,0,0
3168972000,0.0050352532,0.014833837,0.42084938,0.0,0.97791624,0.00091283163,0.0077790823,0.20885058,0.0,0.0,-0.56397253,1,0,0,0,0,0
3169084000,0.00560503,0.014236482,0.42084938,0.0,0.97791785,0.0012538186,0.0075465026,0.2088496,0.0,0.0,-0.5637932,1,0,0,0,0,0
3169176000,0.0059139426,0.014582983,0.42084938,0.0,0.97791654,0.0013686744,0.0077481843,0.2088477,0.0,0.0,-0.5628894,1,0,0,0,0,0
3169272000,0.0052603344,0.014766414,0.42084938,0.0,0.9779163,0.0010299286,0.0077696214,0.20884985,0.0,0.0,-0.56473565,1,0,0,0,0,0
3169384000,0.005624598,0.014119024,0.42084938,0.0,0.9779182,0.0012756545,0.0074911145,0.2088498,0.0,0.0,-0.5647007,1,0,0,0,0,0
3169476000,0.0043599373,0.014568783,0.42084938,0.0,0.9779174,0.0006103132,0.007578964,0.2088537,0.0,0.0,-0.5636707,1,0,0,0,0,0
3169568000,0.0045987396,0.016530791,0.42084938,0.0,0.9779103,0.00052215974,0.008563233,0.20884897,0.0,0.0,-0.5640443,1,0,0,0,0,0
3169680000,0.002916526,0.01529983,0.42084938,0.0,0.977915,-0.00017180562,0.00778568,0.20885798,0.0,0.0,-0.56395566,1,0,0,0,0,0
3169776000,0.005472361,0.015149066,0.42084938,0.0,0.97791487,0.001093635,0.007978861,0.2088482,0.0,0.0,-0.5636598,1,0,0,0,0,0
3169872000,0.00524086,0.015631316,0.42084938,0.0,0.9779133,0.0009300728,0.008190483,0.20884812,0.0,0.0,-0.56358826,1,0,0,0,0,0
3169984000,0.0037317509,0.01480271,0.42084938,0.0,0.9779167,0.00027872427,0.0076277433,0.20885566,0.0,0.0,-0.5637176,1,0,0,0,0,0
3170076000,0.0043600597,0.014095415,0.42084938,0.0,0.9779189,0.0006598126,0.0073475204,0.20885456,0.0,0.0,-0.5636389,1,0,0,0,0,0
3170188000,0.0034145936,0.015340399,0.42084938,0.0,0.9779148,6.749111e-05,0.007857529,0.20885599,0.0,0.0,-0.5643438,1,0,0,0,0,0
3170280000,0.0035455378,0.014690423,0.42084938,0.0,0.9779171,0.00019940147,0.007553394,0.20885657,0.0,0.0,-0.56497055,1,0,0,0,0,0
3170376000,0.0033494825,0.014227111,0.42084938,0.0,0.9779187,0.00015192707,0.007306381,0.20885803,0.0,0.0,-0.56635994,1,0,0,0,0,0
3170468000,0.0029465389,0.01694986,0.42084938,0.0,0.97790873,-0.00032945973,0.008595603,0.2088553,0.0,0.0,-0.56520027,1,0,0,0,0,0
3170580000,0.0030738667,0.015537572,0.42084938,0.0,0.97791415,-0.00011970272,0.007918357,0.20885703,0.0,0.0,-0.5637756,1,0,0,0,0,0
3170672000,0.0034834787,0.017548928,0.42084938,0.0,0.97790635,-0.00012948777,0.008944587,0.20885193,0.0,0.0,-0.5646942,1,0,0,0,0,0
3170784000,0.004177612,0.016680833,0.42084938,0.0,0.9779098,0.0003005764,0.008592618,0.2088505,0.0,0.0,-0.5630109,1,0,0,0,0,0
3170880000,0.0030531303,0.016061267,0.42084938,0.0,0.9779122,-0.00018453658,0.008172253,0.2088563,0.0,0.0,-0.56445736,1,0,0,0,0,0
3170972000,0.0031857793,0.016175725,0.42084938,0.0,0.9779118,-0.00013163089,0.008242071,0.20885554,0.0,0.0,-0.5631027,1,0,0,0,0,0
3171084000,0.0038447215,0.015990421,0.42084938,0.0,0.9779125,0.00020991584,0.008220277,0.20885316,0.0,0.0,-0.5638108,1,0,0,0,0,0
3171176000,0.0015707803,0.015885707,0.42084938,0.0,0.9779125,-0.00089100533,0.007931611,0.20886248,0.0,0.0,-0.56324387,1,0,0,0,0,0
3171272000,0.0013900257,0.015882438,0.42084938,0.0,0.97791237,-0.0009790452,0.007911136,0.2088632,0.0,0.0,-0.56368643,1,0,0,0,0,0
3171384000,0.0007247874,0.015706912,0.42084938,0.0,0.9779127,-0.0012859862,0.007755839,0.208866,0.0,0.0,-0.5657489,1,0,0,0,0,0
3171476000,0.00074111525,0.014554478,0.42084938,0.0,0.9779169,-0.0011576471,0.007194055,0.20886706,0.0,0.0,-0.56338406,1,0,0,0,0,0
3171568000,0.0019566903,0.01285983,0.42084938,0.0,0.9779229,-0.00038629482,0.0064923866,0.20886469,0.0,0.0,-0.5624184,1,0,0,0,0,0
3171680000,0.0010673805,0.01380672,0.42084938,0.0,0.9779196,-0.0009200234,0.006862505,0.20886667,0.0,0.0,-0.5660685,1,0,0,0,0,0
3171776000,0.0028310164,0.01022039,0.42067996,0.0,0.9779478,0.0003173277,0.0052930824,0.2087824,0.0,0.0,-0.5690557,1,0,0,0,0,0
3171872000,0.010660676,-0.004731948,0.42067996,0.0,0.97794074,0.005706808,-0.0012008671,0.2088012,0.0,0.0,-0.56618345,1,0,0,0,0,0
3171984000,0.0072318427,0.009847449,0.3609897,0.0,0.98373985,0.0026732497,0.0054927953,0.17949557,0.0,0.0,-0.5487758,1,0,0,0,0,0
3172076000,-0.019376574,0.06177127,0.28873307,0.0,0.98903584,-0.014025243,0.02916492,0.14408627,0.0,0.0,-0.51613724,1,0,0,0,0,0
3172184000,-0.08690651,0.1689246,0.20391005,0.0,0.9899521,-0.05163808,0.07943916,0.10496554,0.0,0.0,-0.48019752,1,0,0,0,0,0
3172276000,-0.1773492,0.2612217,0.1316534,0.0,0.98468935,-0.09614737,0.12367146,0.07647151,0.0,0.0,-0.4759288,1,0,0,0,0,0
3172372000,-0.30041403,0.3470441,0.056255177,0.0,0.97278017,-0.15213828,0.16649567,0.05321562,0.0,0.0,-0.46932167,1,0,0,0,0,0
3172484000,-0.37404925,0.3476392,-0.031709425,0.0,0.9681441,-0.18041734,0.17281185,0.016809972,0.0,0.0,-0.51946187,1,0,0,0,0,0
3172576000,-0.38804266,0.30519685,-0.10396606,0.0,0.9700471,-0.18255834,0.15885496,-0.021123927,0.0,0.0,-0.5582467,1,0,0,0,0,0
3172688000,-0.3953429,0.25277093,-0.19193067,0.0,0.97060215,-0.18208128,0.1416933,-0.068562336,0.0,0.0,-0.60994625,1,0,0,0,0,0
3172780000,-0.40777934,0.22100134,-0.2641873,0.0,0.96777546,-0.18526828,0.13355687,-0.10606085,0.0,0.0,-0.61237216,1,0,0,0,0,0
3172876000,-0.4746928,0.21015455,-0.33958554,0.0,0.9568716,-0.21323869,0.13998938,-0.13902883,0.0,0.0,-0.62215227,1,0,0,0,0,0
3172968000,-0.50142133,0.1794083,-0.41184217,0.0,0.94900155,-0.22413015,0.13547294,-0.1755245,0.0,0.0,-0.6343571,1,0,0,0,0,0
3173080000,-0.53549784,0.13825566,-0.49980676,0.0,0.9366996,-0.23925701,0.12981491,-0.22022247,0.0,0.0,-0.6407812,1,0,0,0,0,0
3173172000,-0.5470226,0.09561055,-0.57206345,0.0,0.92629635,-0.24586155,0.12026624,-0.25896567,0.0,0.0,-0.64392287,1,0,0,0,0,0
3173284000,-0.5731424,0.042385258,-0.6600281,0.0,0.9091944,-0.26076463,0.11080876,-0.30510435,0.0,0.0,-0.6508952,1,0,0,0,0,0
3173380000,-0.61184645,-0.009536362,-0.73542637,0.0,0.8892986,-0.28267208,0.10402258,-0.34412757,0.0,0.0,-0.66328686,1,0,0,0,0,0
3173472000,-0.61751807,-0.061103094,-0.80768305,0.0,0.87201726,-0.29073763,0.092592455,-0.38273257,0.0,0.0,-0.66626596,1,0,0,0,0,0
3173584000,-0.624639,-0.120950244,-0.8956477,0.0,0.84817606,-0.30136535,0.08096174,-0.4280439,0.0,0.0,-0.67222524,1,0,0,0,0,0
3173676000,-0.60764146,-0.15946092,-0.9679044,0.0,0.8308532,-0.29933184,0.07148424,-0.46365234,0.0,0.0,-0.67062795,1,0,0,0,0,0
3173772000,-0.60284764,-0.21200566,-1.0433027,0.0,0.807609,-0.30629617,0.059512284,-0.50040853,0.0,0.0,-0.6782665,1,0,0,0,0,0
3173884000,-0.5613371,-0.259473,-1.1312672,0.0,0.78519034,-0.29851446,0.042260643,-0.5409059,0.0,0.0,-0.67770195,1,0,0,0,0,0
3173976000,-0.51289356,-0.28614175,-1.2035238,0.0,0.7687613,-0.28502953,0.028427111,-0.57180077,0.0,0.0,-0.6749372,1,0,0,0,0,0
3174068000,-0.4607469,-0.30738968,-1.2757803,0.0,0.7520938,-0.2700336,0.014638001,-0.60101783,0.0,0.0,-0.6720199,1,0,0,0,0,0
3174180000,-0.41671437,-0.34243894,-1.3637449,0.0,0.72628236,-0.26331273,-0.0009618386,-0.63496405,0.0,0.0,-0.6739058,1,0,0,0,0,0
3174276000,-0.39861795,-0.3822463,-1.4391431,0.0,0.6989883,-0.26891428,-0.011926564,-0.6625392,0.0,0.0,-0.66943014,1,0,0,0,0,0
3174368000,-0.36880213,-0.40872258,-1.5113996,0.0,0.6750458,-0.26748693,-0.022065556,-0.6872242,0.0,0.0,-0.6679903,1,0,0,0,0,0
3174480000,-0.33265233,-0.4411481,-1.5993642,0.0,0.6446878,-0.26732567,-0.034525424,-0.715348,0.0,0.0,-0.66623515,1,0,0,0,0,0
3174572000,-0.29711735,-0.45981437,-1.6716207,0.0,0.620718,-0.26383615,-0.0442199,-0.7369832,0.0,0.0,-0.66475075,1,0,0,0,0,0
3174684000,-0.2526525,-0.47961333,-1.7595853,0.0,0.59108037,-0.25956944,-0.05585377,-0.7616614,0.0,0.0,-0.6649371,1,0,0,0,0,0
3174780000,-0.21925713,-0.50494367,-1.8349835,0.0,0.5633094,-0.26156104,-0.06679404,-0.78090143,0.0,0.0,-0.6657482,1,0,0,0,0,0
3174872000,-0.18126166,-0.5130238,-1.90724,0.0,0.5387753,-0.25671947,-0.074832365,-0.7988845,0.0,0.0,-0.66523933,1,0,0,0,0,0
3174984000,-0.13683897,-0.52560174,-1.9952046,0.0,0.5075512,-0.253558,-0.08508997,-0.81906044,0.0,0.0,-0.6643338,1,0,0,0,0,0
3175076000,-0.09742268,-0.5285637,-2.067461,0.0,-0.48233968,0.24822097,0.09309975,0.8349055,0.0,0.0,-0.66340864,1,0,0,0,0,0
3175172000,-0.059535958,-0.5430458,-2.1428592,0.0,-0.45411348,0.24907444,0.10320368,0.8491713,0.0,0.0,-0.6641692,1,0,0,0,0,0
3175284000,-0.010658385,-0.5451624,-2.2308238,0.0,-0.4222751,0.24403659,0.11379318,0.8655524,0.0,0.0,-0.6625081,1,0,0,0,0,0
3175376000,0.012498063,-0.53967524,-2.2697659,0.0,-0.40846163,0.23909833,0.11801566,0.8729624,0.0,0.0,-0.6638396,1,0,0,0,0,0
3175468000,0.015078964,-0.53778154,-2.2697463,0.0,-0.40887845,0.23774174,0.11876076,0.8730367,0.0,0.0,-0.6647898,1,0,0,0,0,0
3175580000,0.013493326,-0.53948265,-2.2697232,0.0,-0.40860945,0.23880829,0.11841612,0.87291837,0.0,0.0,-0.66537535,1,0,0,0,0,0
3175676000,0.013262186,-0.5548677,-2.2697315,0.0,-0.40774512,0.2455754,0.12142905,0.8710291,0.0,0.0,-0.6656288,1,0,0,0,0,0
3175768000,0.014309294,-0.54887664,-2.269742,0.0,-0.40819502,0.24274749,0.120672114,0.87171596,0.0,0.0,-0.66608644,1,0,0,0,0,0
3175880000,0.016379582,-0.55079836,-2.269773,0.0,-0.40832925,0.24316588,0.121959195,0.87135726,0.0,0.0,-0.66662806,1,0,0,0,0,0
3175972000,0.017496258,-0.5462078,-2.2697911,0.0,-0.408702,0.24093385,0.12151551,0.8718644,0.0,0.0,-0.6651096,1,0,0,0,0,0
3176084000,0.017404094,-0.5453167,-2.2698407,0.0,-0.4087166,0.24056628,0.12128917,0.87199056,0.0,0.0,-0.66772515,1,0,0,0,0,0
3176180000,0.018238107,-0.5508994,-2.269871,0.0,-0.408507,0.24283645,0.122777335,0.8712509,0.0,0.0,-0.6681609,1,0,0,0,0,0
3176272000,0.016247563,-0.5474819,-2.2699406,0.0,-0.4084182,0.24175459,0.121210776,0.8718126,0.0,0.0,-0.6684071,1,0,0,0,0,0
3176384000,0.018162686,-0.54777575,-2.2700086,0.0,-0.4086043,0.24149594,0.12209672,0.87167346,0.0,0.0,-0.6684437,1,0,0,0,0,0
3176476000,0.015055501,-0.54426014,-2.2701187,0.0,-0.40836903,0.2406011,0.12001778,0.87231964,0.0,0.0,-0.66870505,1,0,0,0,0,0
3176572000,0.0135127185,-0.5553702,-2.2702072,0.0,-0.4075412,0.2457725,0.121581346,0.8710477,0.0,0.0,-0.667539,1,0,0,0,0,0
3176684000,0.011425542,-0.55578756,-2.270359,0.0,-0.40719524,0.2463889,0.12073795,0.8711527,0.0,0.0,-0.66732585,1,0,0,0,0,0
3176776000,0.014045034,-0.5497328,-2.2704697,0.0,-0.40779933,0.2432191,0.12064165,0.8717739,0.0,0.0,-0.6669974,1,0,0,0,0,0
3176868000,0.0120128095,-0.54786205,-2.2706213,0.0,-0.40758792,0.2428255,0.11935888,0.872159,0.0,0.0,-0.6679777,1,0,0,0,0,0
3176980000,0.010611795,-0.54419124,-2.2707663,0.0,-0.40755472,0.24151593,0.11798717,0.8727246,0.0,0.0,-0.6681652,1,0,0,0,0,0
3177076000,0.0069492212,-0.55724466,-2.2709298,0.0,-0.40631178,0.24796899,0.11901206,0.8713543,0.0,0.0,-0.66820294,1,0,0,0,0,0
3177168000,0.0067843744,-0.5502157,-2.2710783,0.0,-0.4066213,0.24494456,0.11749936,0.87227017,0.0,0.0,-0.66813254,1,0,0,0,0,0
3177280000,0.0040492453,-0.55244946,-2.2712913,0.0,-0.4060669,0.24648759,0.11673272,0.8721967,0.0,0.0,-0.66779214,1,0,0,0,0,0
3177372000,0.0043543647,-0.5466513,-2.2714417,0.0,-0.40636492,0.24390331,0.11567273,0.8729253,0.0,0.0,-0.66673857,1,0,0,0,0,0
3177484000,0.0010105503,-0.5477262,-2.2716727,0.0,-0.40579477,0.24506487,0.11440283,0.87303257,0.0,0.0,-0.66845727,1,0,0,0,0,0
3177580000,0.0006176881,-0.5557488,-2.2718153,0.0,-0.40522513,0.24865328,0.115839675,0.8720925,0.0,0.0,-0.66933024,1,0,0,0,0,0
3177672000,-0.0017262526,-0.55196595,-2.272015,0.0,-0.40506554,0.24748957,0.11402589,0.87273645,0.0,0.0,-0.66791683,1,0,0,0,0,0
3177784000,-0.00036262907,-0.5510774,-2.2721941,0.0,-0.4052071,0.24683589,0.11441872,0.87280446,0.0,0.0,-0.6680161,1,0,0,0,0,0
3177876000,-0.003632699,-0.5485335,-2.272402,0.0,-0.40485963,0.24639969,0.11244975,0.8733447,0.0,0.0,-0.6676991,1,0,0,0,0,0
3177984000,-0.0021773453,-0.55000114,-2.2725608,0.0,-0.40488502,0.2467546,0.11336325,0.8731146,0.0,0.0,-0.6687355,1,0,0,0,0,0
3178080000,-0.0042495993,-0.5601941,-2.272741,0.0,-0.40395325,0.25162897,0.11450187,0.87200576,0.0,0.0,-0.6679535,1,0,0,0,0,0
3178172000,-0.005669645,-0.5518913,-2.272886,0.0,-0.404201,0.24830408,0.11218163,0.87314487,0.0,0.0,-0.6695559,1,0,0,0,0,0
3178284000,-0.009908806,-0.55233693,-2.2731164,0.0,-0.4035467,0.24936733,0.11039246,0.8733725,0.0,0.0,-0.6691041,1,0,0,0,0,0
3178376000,-0.007935678,-0.54490936,-2.273255,0.0,-0.404168,0.24573526,0.109729335,0.87419784,0.0,0.0,-0.66951275,1,0,0,0,0,0
3178472000,-0.010297197,-0.55723435,-2.273433,0.0,-0.40306693,0.2515983,0.111176945,0.87285453,0.0,0.0,-0.66864765,1,0,0,0,0,0
3178584000,-0.0077367835,-0.5555103,-2.2735791,0.0,-0.40342736,0.2503386,0.11192655,0.87295437,0.0,0.0,-0.67069817,1,0,0,0,0,0
3178676000,-0.011251927,-0.5552305,-2.2737541,0.0,-0.4029272,0.25093502,0.11031341,0.8732195,0.0,0.0,-0.66891015,1,0,0,0,0,0
3178788000,-0.010554093,-0.5527225,-2.2738743,0.0,-0.40311217,0.24970739,0.11009431,0.87351364,0.0,0.0,-0.67025155,1,0,0,0,0,0
3178880000,-0.013167552,-0.5487616,-2.274047,0.0,-0.4029478,0.24851553,0.10812695,0.87417483,0.0,0.0,-0.67152596,1,0,0,0,0,0
3178976000,-0.012483723,-0.5577177,-2.2741323,0.0,-0.40245715,0.25228795,0.11023252,0.87305665,0.0,0.0,-0.6700221,1,0,0,0,0,0
3179088000,-0.014080047,-0.5587704,-2.2742968,0.0,-0.40211964,0.25307685,0.109728396,0.8730473,0.0,0.0,-0.67055625,1,0,0,0,0,0
3179180000,-0.011861061,-0.55097395,-2.2743685,0.0,-0.40283763,0.24923503,0.10910696,0.873899,0.0,0.0,-0.67164135,1,0,0,0,0,0
3179272000,-0.0138519155,-0.54981023,-2.2744942,0.0,-0.4026044,0.24913503,0.1079851,0.8741743,0.0,0.0,-0.67115724,1,0,0,0,0,0
3179384000,-0.012817965,-0.55104834,-2.2745547,0.0,-0.40263253,0.24947032,0.10868071,0.8739795,0.0,0.0,-0.66941696,1,0,0,0,0,0
3179480000,-0.016266426,-0.5613884,-2.2746744,0.0,-0.40151662,0.2546772,0.109257065,0.87291855,0.0,0.0,-0.6698146,1,0,0,0,0,0
3179572000,-0.014511102,-0.5537809,-2.2747314,0.0,-0.4021788,0.2510124,0.108473204,0.8737726,0.0,0.0,-0.6704911,1,0,0,0,0,0
3179684000,-0.015556089,-0.5541249,-2.2748437,0.0,-0.40197763,0.25137857,0.108072385,0.8738096,0.0,0.0,-0.6708261,1,0,0,0,0,0
3179776000,-0.013210112,-0.54720175,-2.2748709,0.0,-0.40267545,0.24788778,0.107689396,0.8745325,0.0,0.0,-0.67162514,1,0,0,0,0,0
3179872000,-0.015856065,-0.5589031,-2.2749524,0.0,-0.40160033,0.25352734,0.10889688,0.8732597,0.0,0.0,-0.67068195,1,0,0,0,0,0
3179984000,-0.015776956,-0.5598918,-2.2749865,0.0,-0.4015348,0.2539441,0.10912759,0.8731399,0.0,0.0,-0.66963744,1,0,0,0,0,0
3180076000,-0.016225737,-0.55546016,-2.2750633,0.0,-0.40171602,0.2521071,0.10802309,0.87372607,0.0,0.0,-0.6709962,1,0,0,0,0,0
3180168000,-0.014861785,-0.5498435,-2.2750726,0.0,-0.40222365,0.2493839,0.10747832,0.874341,0.0,0.0,-0.67076916,1,0,0,0,0,0
3180280000,-0.015757356,-0.551826,-2.2751334,0.0,-0.4019654,0.2504321,0.107481584,0.87415975,0.0,0.0,-0.6724334,1,0,0,0,0,0
3180376000,-0.01525207,-0.5616964,-2.2751286,0.0,-0.40142858,0.25463262,0.1097044,0.872916,0.0,0.0,-0.6707311,1,0,0,0,0,0
3180488000,-0.0114119975,-0.5582745,-2.275011,0.0,-0.40217504,0.25236362,0.11070233,0.8731053,0.0,0.0,-0.6710521,1,0,0,0,0,0
3180580000,-0.013173964,-0.5595374,-2.275019,0.0,-0.40187234,0.25326863,0.110187985,0.87304765,0.0,0.0,-0.67278874,1,0,0,0,0,0
3180672000,-0.013640895,-0.55681956,-2.2749865,0.0,-0.40199262,0.2521762,0.109437466,0.87340283,0.0,0.0,-0.6740461,1,0,0,0,0,0
3180784000,-0.016974859,-0.5656691,-2.2750297,0.0,-0.40100563,0.25670257,0.10977037,0.8724957,0.0,0.0,-0.672645,1,0,0,0,0,0
3180880000,-0.016356532,-0.57602364,-2.275024,0.0,-0.4004385,0.2610818,0.11213732,0.87115467,0.0,0.0,-0.67366433,1,0,0,0,0,0
3180972000,-0.017487416,-0.5751644,-2.2750816,0.0,-0.4003202,0.26093802,0.11146327,0.87133867,0.0,0.0,-0.67343205,1,0,0,0,0,0
3181084000,-0.017251357,-0.5753917,-2.275095,0.0,-0.40033078,0.2609903,0.11161038,0.87129927,0.0,0.0,-0.6751904,1,0,0,0,0,0
3181176000,-0.019535929,-0.57107544,-2.2751684,0.0,-0.40027484,0.25957522,0.10973109,0.87198615,0.0,0.0,-0.67516935,1,0,0,0,0,0
3181272000,-0.01836655,-0.58063495,-2.2751832,0.0,-0.39981216,0.2634962,0.11217408,0.8707106,0.0,0.0,-0.6748813,1,0,0,0,0,0
3181384000,-0.019419366,-0.58340687,-2.2752447,0.0,-0.39946803,0.2649134,0.11226836,0.8704263,0.0,0.0,-0.6753287,1,0,0,0,0,0
3181476000,-0.019832505,-0.577011,-2.2752526,0.0,-0.39982137,0.26221904,0.11079309,0.8712686,0.0,0.0,-0.67569053,1,0,0,0,0,0
3181568000,-0.020034319,-0.57326615,-2.275297,0.0,-0.40001485,0.26063442,0.109940946,0.87176305,0.0,0.0,-0.67740494,1,0,0,0,0,0
3181680000,-0.017790323,-0.5697496,-2.2752833,0.0,-0.40053457,0.2586554,0.11020869,0.87207997,0.0,0.0,-0.67811006,1,0,0,0,0,0
3181776000,-0.018946996,-0.5803244,-2.2753158,0.0,-0.39969787,0.26348478,0.11184107,0.8708094,0.0,0.0,-0.67816293,1,0,0,0,0,0
3181868000,-0.019168805,-0.5763811,-2.2753022,0.0,-0.39992705,0.2618154,0.11094822,0.87132174,0.0,0.0,-0.67746073,1,0,0,0,0,0
3181980000,-0.019973818,-0.57739973,-2.275331,0.0,-0.3997438,0.2624205,0.11079995,0.87124264,0.0,0.0,-0.6785121,1,0,0,0,0,0
3182072000,-0.018282682,-0.57230544,-2.2753165,0.0,-0.4002953,0.25986737,0.110507354,0.8717917,0.0,0.0,-0.67881596,1,0,0,0,0,0
3182184000,-0.020592222,-0.57254994,-2.2753267,0.0,-0.39997485,0.2604363,0.10954877,0.87189,0.0,0.0,-0.6801001,1,0,0,0,0,0
3182280000,-0.020646222,-0.5799602,-2.27529,0.0,-0.3995086,0.26366472,0.11103086,0.8709454,0.0,0.0,-0.67972237,1,0,0,0,0,0
3182372000,-0.019987518,-0.5753741,-2.275288,0.0,-0.3998903,0.26154074,0.11038944,0.87149197,0.0,0.0,-0.68095875,1,0,0,0,0,0
3182484000,-0.019197494,-0.5774014,-2.2752318,0.0,-0.39988872,0.26226053,0.11115149,0.8711795,0.0,0.0,-0.679279,1,0,0,0,0,0
3182576000,-0.020864476,-0.57451975,-2.2752404,0.0,-0.39985105,0.2613422,0.10984045,0.87163895,0.0,0.0,-0.67993844,1,0,0,0,0,0
3182672000,-0.020278275,-0.58419025,-2.2752073,0.0,-0.39931974,0.26542282,0.112058006,0.8703663,0.0,0.0,-0.68060887,1,0,0,0,0,0
3182784000,-0.020107463,-0.5838393,-2.2752044,0.0,-0.3993664,0.2652363,0.112061754,0.8704012,0.0,0.0,-0.6796178,1,0,0,0,0,0
3182876000,-0.020062538,-0.58043647,-2.2751644,0.0,-0.3996096,0.26374784,0.11139797,0.8708271,0.0,0.0,-0.67857,1,0,0,0,0,0
3182968000,-0.020396767,-0.5744234,-2.2751534,0.0,-0.3999563,0.261202,0.110036135,0.87160796,0.0,0.0,-0.680211,1,0,0,0,0,0
3183080000,-0.019185841,-0.5724547,-2.2750924,0.0,-0.40026608,0.26010066,0.11017303,0.87177783,0.0,0.0,-0.6815379,1,0,0,0,0,0
3183176000,-0.019812772,-0.5844163,-2.2750793,0.0,-0.39942262,0.26542076,0.11232329,0.8702855,0.0,0.0,-0.6801921,1,0,0,0,0,0
3183288000,-0.01693038,-0.5848943,-2.2750046,0.0,-0.39980653,0.26504812,0.11368394,0.87004614,0.0,0.0,-0.6796363,1,0,0,0,0,0
3183380000,-0.01752844,-0.5813904,-2.274964,0.0,-0.39996967,0.2636443,0.11272057,0.87052286,0.0,0.0,-0.679595,1,0,0,0,0,0
3183472000,-0.017251315,-0.57710016,-2.2748783,0.0,-0.40031683,0.26172057,0.11198449,0.8710386,0.0,0.0,-0.67941296,1,0,0,0,0,0
3183584000,-0.017697863,-0.5780428,-2.2748196,0.0,-0.40022397,0.26221618,0.11198847,0.8709317,0.0,0.0,-0.67796534,1,0,0,0,0,0
3183680000,-0.017380353,-0.5879863,-2.27474,0.0,-0.3996626,0.26646447,0.11414834,0.86961865,0.0,0.0,-0.6785165,1,0,0,0,0,0
3183772000,-0.017585933,-0.5815489,-2.2746973,0.0,-0.40006816,0.26370963,0.11276281,0.87045234,0.0,0.0,-0.68129224,1,0,0,0,0,0
3183884000,-0.017696874,-0.5828159,-2.2746136,0.0,-0.4000086,0.26427707,0.11298189,0.8702792,0.0,0.0,-0.68151456,1,0,0,0,0,0
3183976000,-0.017074805,-0.57873356,-2.274574,0.0,-0.40036872,0.2623778,0.11243182,0.87075937,0.0,0.0,-0.6797286,1,0,0,0,0,0
3184072000,-0.017638054,-0.58827317,-2.2745044,0.0,-0.3997122,0.26662698,0.114125684,0.86954904,0.0,0.0,-0.6811019,1,0,0,0,0,0
3184184000,-0.017666433,-0.58986294,-2.2744539,0.0,-0.3996274,0.2673191,0.11444146,0.869334,0.0,0.0,-0.6814578,1,0,0,0,0,0
3184276000,-0.017564766,-0.58351076,-2.2743871,0.0,-0.40008,0.26453948,0.11320993,0.870137,0.0,0.0,-0.681152,1,0,0,0,0,0
3184368000,-0.018796476,-0.5777894,-2.2743583,0.0,-0.40029702,0.2623002,0.111519255,0.87093306,0.0,0.0,-0.6834515,1,0,0,0,0,0
3184480000,-0.017801467,-0.5794389,-2.2742932,0.0,-0.4003505,0.26281384,0.11229513,0.87065387,0.0,0.0,-0.68270797,1,0,0,0,0,0
3184576000,-0.018628303,-0.59318733,-2.2742712,0.0,-0.39936107,0.2689418,0.11471998,0.8689191,0.0,0.0,-0.6819496,1,0,0,0,0,0
3184668000,-0.01872967,-0.5868301,-2.274217,0.0,-0.39978525,0.2662029,0.113397434,0.86974066,0.0,0.0,-0.68349975,1,0,0,0,0,0
3184780000,-0.018641463,-0.5888058,-2.2741773,0.0,-0.39968592,0.2670398,0.11384079,0.8694717,0.0,0.0,-0.681922,1,0,0,0,0,0
3184872000,-0.019088956,-0.58483887,-2.2741203,0.0,-0.39990845,0.26540554,0.11285097,0.8699987,0.0,0.0,-0.6825963,1,0,0,0,0,0
3184984000,-0.019369442,-0.5858971,-2.2740831,0.0,-0.39981884,0.26591852,0.11294814,0.8698706,0.0,0.0,-0.68187404,1,0,0,0,0,0
3185080000,-0.019441342,-0.59342,-2.2740262,0.0,-0.39934292,0.2691909,0.11444678,0.8688863,0.0,0.0,-0.6838351,1,0,0,0,0,0
3185172000,-0.019202378,-0.5874182,-2.2739937,0.0,-0.3997812,0.26653984,0.113340646,0.8696467,0.0,0.0,-0.6846781,1,0,0,0,0,0
3185284000,-0.018369429,-0.58907586,-2.273924,0.0,-0.3998148,0.26708815,0.1140475,0.8693706,0.0,0.0,-0.6840031,1,0,0,0,0,0
3185376000,-0.0188363,-0.58918685,-2.2738905,0.0,-0.3997598,0.2672277,0.11387153,0.869376,0.0,0.0,-0.68078274,1,0,0,0,0,0
3185472000,-0.017283645,-0.60070115,-2.2738314,0.0,-0.39924034,0.2719018,0.11688141,0.86776453,0.0,0.0,-0.68091244,1,0,0,0,0,0
3185584000,-0.015605459,-0.5866438,-2.2736878,0.0,-0.40044257,0.2654669,0.114788495,0.86948067,0.0,0.0,-0.68333197,1,0,0,0,0,0
3185680000,-0.017290208,-0.6014423,-2.2736278,0.0,-0.39927894,0.27221194,0.11705594,0.867626,0.0,0.0,-0.6847336,1,0,0,0,0,0
3185772000,-0.016919957,-0.59883493,-2.2735395,0.0,-0.39953917,0.2710043,0.11670188,0.8679319,0.0,0.0,-0.6839549,1,0,0,0,0,0
3185884000,-0.015883349,-0.60372084,-2.273481,0.0,-0.39938396,0.27290827,0.11814615,0.86721104,0.0,0.0,-0.6865992,1,0,0,0,0,0
3185976000,-0.018244809,-0.59617656,-2.2734098,0.0,-0.39959085,0.27011046,0.11560702,0.86833316,0.0,0.0,-0.68892634,1,0,0,0,0,0
3186072000,-0.018476939,-0.6076451,-2.273386,0.0,-0.3988091,0.2751172,0.11782701,0.866821,0.0,0.0,-0.6908995,1,0,0,0,0,0
3186184000,-0.017902484,-0.60956854,-2.2733326,0.0,-0.39878252,0.27583078,0.11847158,0.8665185,0.0,0.0,-0.6895203,1,0,0,0,0,0
3186276000,-0.019339707,-0.6072153,-2.2733178,0.0,-0.39874876,0.2750994,0.11737563,0.86691564,0.0,0.0,-0.6892656,1,0,0,0,0,0
3186388000,-0.01794799,-0.60753864,-2.2732627,0.0,-0.39894232,0.27495846,0.11805174,0.86677945,0.0,0.0,-0.6889892,1,0,0,0,0,0
3186480000,-0.018275963,-0.60148805,-2.273235,0.0,-0.39931196,0.27240562,0.11669103,0.8675991,0.0,0.0,-0.6906517,1,0,0,0,0,0
3186576000,-0.018597985,-0.61053836,-2.2731855,0.0,-0.39868516,0.27637976,0.11838634,0.8664,0.0,0.0,-0.68933946,1,0,0,0,0,0
3186688000,-0.017917128,-0.60937023,-2.273129,0.0,-0.39888206,0.27573594,0.11845329,0.8665054,0.0,0.0,-0.68977195,1,0,0,0,0,0
3186780000,-0.017985543,-0.60535645,-2.2730575,0.0,-0.3991717,0.27401042,0.11762289,0.86703235,0.0,0.0,-0.6893457,1,0,0,0,0,0
3186872000,-0.018509276,-0.6031454,-2.2730072,0.0,-0.39926904,0.27315584,0.11695589,0.86734736,0.0,0.0,-0.6883349,1,0,0,0,0,0
3186984000,-0.01652249,-0.6021354,-2.2729225,0.0,-0.39964354,0.27231714,0.11762494,0.86734813,0.0,0.0,-0.68901074,1,0,0,0,0,0
3187080000,-0.017134387,-0.6125095,-2.27287,0.0,-0.3988918,0.27692062,0.11946168,0.86598456,0.0,0.0,-0.689478,1,0,0,0,0,0
3187172000,-0.016362587,-0.6080507,-2.272796,0.0,-0.39932844,0.27483574,0.11890626,0.86652374,0.0,0.0,-0.6882265,1,0,0,0,0,0
3187284000,-0.017474156,-0.6091783,-2.2727408,0.0,-0.3991241,0.27554163,0.11865994,0.8664275,0.0,0.0,-0.68844485,1,0,0,0,0,0
3187380000,-0.017699232,-0.60827076,-2.2726858,0.0,-0.3991777,0.2751911,0.118386716,0.8665516,0.0,0.0,-0.6884809,1,0,0,0,0,0
3187472000,-0.018481134,-0.602649,-2.2726345,0.0,-0.39946747,0.27291366,0.11691859,0.8673373,0.0,0.0,-0.68950284,1,0,0,0,0,0
3187584000,-0.018471405,-0.6023488,-2.2725549,0.0,-0.39952326,0.27277726,0.11687298,0.8673606,0.0,0.0,-0.68900716,1,0,0,0,0,0
3187680000,-0.016055627,-0.6009301,-2.272515,0.0,-0.39996317,0.27167836,0.11763925,0.86739916,0.0,0.0,-0.69144416,1,0,0,0,0,0
3187776000,-0.01630204,-0.6115262,-2.2724586,0.0,-0.39925098,0.27630523,0.11968056,0.86598533,0.0,0.0,-0.69069207,1,0,0,0,0,0
3187868000,-0.0162131,-0.60667586,-2.2723947,0.0,-0.39961413,0.27418768,0.11874844,0.86661893,0.0,0.0,-0.6900275,1,0,0,0,0,0
3187980000,-0.016305955,-0.6095482,-2.2723067,0.0,-0.39944836,0.27544242,0.11930046,0.86622167,0.0,0.0,-0.68900496,1,0,0,0,0,0
3188072000,-0.017416535,-0.60355896,-2.2722483,0.0,-0.39971986,0.27307191,0.11761696,0.8670767,0.0,0.0,-0.6902694,1,0,0,0,0,0
3188184000,-0.016650442,-0.6025362,-2.2721717,0.0,-0.39992526,0.27247187,0.117752716,0.8671524,0.0,0.0,-0.6904703,1,0,0,0,0,0
3188280000,-0.015321715,-0.6132806,-2.2721272,0.0,-0.3994127,0.2768473,0.120504856,0.8656233,0.0,0.0,-0.689932,1,0,0,0,0,0
3188372000,-0.015340526,-0.6088213,-2.272063,0.0,-0.39973506,0.27492085,0.11960531,0.866213,0.0,0.0,-0.68934256,1,0,0,0,0,0
3188484000,-0.016100457,-0.6090101,-2.2719967,0.0,-0.3996468,0.27515036,0.11932344,0.86621976,0.0,0.0,-0.68993664,1,0,0,0,0,0
3188576000,-0.01574061,-0.6021837,-2.271934,0.0,-0.40017536,0.27212346,0.118108295,0.867098,0.0,0.0,-0.69203717,1,0,0,0,0,0
3188672000,-0.016561659,-0.6137847,-2.2718718,0.0,-0.39931768,0.27729723,0.12010535,0.8655786,0.0,0.0,-0.6916197,1,0,0,0,0,0
3188784000,-0.016224915,-0.6164454,-2.2717893,0.0,-0.39922103,0.27837354,0.1207997,0.865181,0.0,0.0,-0.6912589,1,0,0,0,0,0
3188876000,-0.016565626,-0.6130638,-2.2717352,0.0,-0.39942464,0.2769786,0.11997699,0.86564904,0.0,0.0,-0.6897972,1,0,0,0,0,0
3188988000,-0.017055979,-0.61056054,-2.271674,0.0,-0.3995513,0.27599183,0.119267404,0.8660038,0.0,0.0,-0.69211376,1,0,0,0,0,0
3189080000,-0.017805653,-0.6027595,-2.2716298,0.0,-0.39998797,0.27276766,0.11737092,0.8670822,0.0,0.0,-0.6917682,1,0,0,0,0,0
3189176000,-0.015518274,-0.61388224,-2.271583,0.0,-0.39958066,0.2771136,0.1206166,0.86544496,0.0,0.0,-0.6922645,1,0,0,0,0,0
3189268000,-0.015186927,-0.6082965,-2.2715366,0.0,-0.4000191,0.2746319,0.11963815,0.86616904,0.0,0.0,-0.6925465,1,0,0,0,0,0
3189380000,-0.015503406,-0.611282,-2.2714736,0.0,-0.39980403,0.2759812,0.120113,0.8657736,0.0,0.0,-0.6912686,1,0,0,0,0,0
3189472000,-0.0154841645,-0.606756,-2.271408,0.0,-0.4001362,0.27401796,0.11921568,0.8663676,0.0,0.0,-0.69226766,1,0,0,0,0,0
3189584000,-0.01568156,-0.6067562,-2.271327,0.0,-0.40014422,0.27405268,0.11914131,0.8663631,0.0,0.0,-0.690865,1,0,0,0,0,0
3189680000,-0.015064086,-0.6148826,-2.2712944,0.0,-0.39970145,0.2774372,0.12105512,0.86522424,0.0,0.0,-0.69207186,1,0,0,0,0,0
3189772000,-0.015576069,-0.60981154,-2.271259,0.0,-0.399985,0.27534768,0.11981397,0.8659332,0.0,0.0,-0.6922282,1,0,0,0,0,0
3189884000,-0.015970053,-0.610156,-2.2712338,0.0,-0.39991868,0.27557376,0.1197165,0.8659054,0.0,0.0,-0.69150794,1,0,0,0,0,0
3189976000,-0.01576557,-0.60418516,-2.2712102,0.0,-0.40035364,0.27295116,0.118600905,0.8666882,0.0,0.0,-0.6920844,1,0,0,0,0,0
3190072000,-0.015736826,-0.61428547,-2.2711778,0.0,-0.3996987,0.27730685,0.12065963,0.86532253,0.0,0.0,-0.6925805,1,0,0,0,0,0
3190184000,-0.014648346,-0.61638314,-2.2711282,0.0,-0.3997305,0.27799168,0.12156096,0.8649619,0.0,0.0,-0.6918123,1,0,0,0,0,0
3190276000,-0.014473542,-0.61360085,-2.271091,0.0,-0.39995706,0.2767535,0.12107993,0.86532164,0.0,0.0,-0.68992484,1,0,0,0,0,0
3190368000,-0.015031495,-0.60633725,-2.271052,0.0,-0.40038016,0.2737251,0.11937587,0.8663254,0.0,0.0,-0.69063157,1,0,0,0,0,0
3190480000,-0.015450795,-0.60542786,-2.2709918,0.0,-0.4004091,0.27341244,0.11901855,0.8664599,0.0,0.0,-0.6915617,1,0,0,0,0,0
3190576000,-0.015291975,-0.61708343,-2.2709446,0.0,-0.39967325,0.2784113,0.12144955,0.86486906,0.0,0.0,-0.6910571,1,0,0,0,0,0
3190668000,-0.014213668,-0.6114912,-2.2708976,0.0,-0.40021735,0.2757789,0.12079295,0.86555254,0.0,0.0,-0.691793,1,0,0,0,0,0
3190780000,-0.013426458,-0.6156362,-2.270811,0.0,-0.40008727,0.27740568,0.12198264,0.86492574,0.0,0.0,-0.6930925,1,0,0,0,0,0
3190872000,-0.01271696,-0.6109991,-2.2707267,0.0,-0.40053013,0.27525634,0.12136479,0.8654942,0.0,0.0,-0.6956279,1,0,0,0,0,0
3190984000,-0.013333577,-0.6122521,-2.2706304,0.0,-0.40040374,0.27591518,0.12136441,0.8653429,0.0,0.0,-0.6970338,1,0,0,0,0,0
3191080000,-0.012937811,-0.6236137,-2.2705631,0.0,-0.39972696,0.28073364,0.12383809,0.8637541,0.0,0.0,-0.6967468,1,0,0,0,0,0
3191172000,-0.014794068,-0.60928345,-2.2705038,0.0,-0.40045467,0.27491775,0.12014965,0.8658062,0.0,0.0,-0.7075407,1,0,0,0,0,0
3191284000,-0.013637657,-0.60467124,-2.2704535,0.0,-0.40093976,0.2726899,0.11972438,0.866345,0.0,0.0,-0.7089692,1,0,0,0,0,0
3191376000,-0.012650355,-0.6024964,-2.2704475,0.0,-0.40121922,0.27155116,0.11971293,0.8665748,0.0,0.0,-0.7082647,1,0,0,0,0,0
3191472000,-0.013407741,-0.6154431,-2.270442,0.0,-0.4002624,0.27729607,0.122002915,0.86487705,0.0,0.0,-0.7083589,1,0,0,0,0,0
3191584000,-0.015300488,-0.61847055,-2.2704964,0.0,-0.39977235,0.27898416,0.121788494,0.86459094,0.0,0.0,-0.7092045,1,0,0,0,0,0
3191676000,-0.014447433,-0.61297834,-2.270564,0.0,-0.40023023,0.27644765,0.12103833,0.86529887,0.0,0.0,-0.7092628,1,0,0,0,0,0
3191788000,-0.013891989,-0.6125928,-2.2706037,0.0,-0.40031555,0.27617246,0.1211953,0.86532533,0.0,0.0,-0.7098157,1,0,0,0,0,0
3191880000,-0.013150954,-0.60817355,-2.2706022,0.0,-0.4007111,0.27411506,0.120623104,0.8658762,0.0,0.0,-0.70836216,1,0,0,0,0,0
3191976000,-0.012540114,-0.6178571,-2.2706344,0.0,-0.40013838,0.27817592,0.12283865,0.8645335,0.0,0.0,-0.7089866,1,0,0,0,0,0
3192068000,-0.012690585,-0.612372,-2.2706556,0.0,-0.40047354,0.27583975,0.121663325,0.86529267,0.0,0.0,-0.7075368,1,0,0,0,0,0
3192180000,-0.013621943,-0.61050725,-2.2707314,0.0,-0.4004361,0.27522543,0.120873116,0.8656163,0.0,0.0,-0.708711,1,0,0,0,0,0
3192272000,-0.012590712,-0.6054667,-2.2707925,0.0,-0.40088344,0.2728443,0.12029251,0.8662437,0.0,0.0,-0.7075695,1,0,0,0,0,0
3192384000,-0.012709406,-0.606967,-2.2708483,0.0,-0.4007445,0.27352002,0.12053672,0.8660609,0.0,0.0,-0.7064203,1,0,0,0,0,0
3192480000,-0.0117614325,-0.61551034,-2.2708654,0.0,-0.4003029,0.27702153,0.122669734,0.8648519,0.0,0.0,-0.70755506,1,0,0,0,0,0
3192572000,-0.010649521,-0.6092295,-2.2709155,0.0,-0.4008489,0.27408916,0.12187629,0.8656451,0.0,0.0,-0.70746964,1,0,0,0,0,0
3192684000,-0.010798338,-0.6096122,-2.270944,0.0,-0.400791,0.2742861,0.121885225,0.8656083,0.0,0.0,-0.70695406,1,0,0,0,0,0
3192776000,-0.011283756,-0.6068396,-2.27102,0.0,-0.4008734,0.27318957,0.12110487,0.8660263,0.0,0.0,-0.704964,1,0,0,0,0,0
3192872000,-0.010806755,-0.61571026,-2.2710707,0.0,-0.4003331,0.27692932,0.12309442,0.86480707,0.0,0.0,-0.70763546,1,0,0,0,0,0
3192984000,-0.010682533,-0.6146753,-2.2711663,0.0,-0.40037742,0.2764635,0.12292624,0.86495954,0.0,0.0,-0.7087837,1,0,0,0,0,0
3193076000,-0.010349374,-0.60287297,-2.2712336,0.0,-0.40116638,0.27129972,0.12067935,0.866544,0.0,0.0,-0.7039469,1,0,0,0,0,0
3193168000,-0.009424531,-0.56982374,-2.271362,0.0,-0.40331656,0.2567863,0.11437419,0.8708129,0.0,0.0,-0.6959756,1,0,0,0,0,0
3193280000,-0.015268261,-0.5059737,-2.2714834,0.0,-0.40629983,0.23008935,0.09878445,0.87876105,0.0,0.0,-0.6916077,1,0,0,0,0,0
3193376000,-0.014843049,-0.45960486,-2.2716343,0.0,-0.40876934,0.20961298,0.08943066,0.8837263,0.0,0.0,-0.6886443,1,0,0,0,0,0
3193468000,-0.010269046,-0.42339545,-2.271667,0.0,-0.41098583,0.1926676,0.08398604,0.887083,0.0,0.0,-0.68072253,1,0,0,0,0,0
3193580000,-0.0028459805,-0.4006542,-2.2716084,0.0,-0.4127187,0.1810461,0.08259024,0.88885576,0.0,0.0,-0.6673928,1,0,0,0,0,0
3193672000,0.0013536689,-0.38345206,-2.2713418,0.0,-0.4139173,0.17251714,0.08092543,0.89014685,0.0,0.0,-0.6606134,1,0,0,0,0,0
3193784000,0.0024334267,-0.35420182,-2.2713594,0.0,-0.4151171,0.15925564,0.0753473,0.8925459,0.0,0.0,-0.6537036,1,0,0,0,0,0
3193880000,0.0016718105,-0.3280293,-2.2713783,0.0,-0.41597444,0.14771897,0.06957171,0.8945972,0.0,0.0,-0.6464242,1,0,0,0,0,0
3193972000,0.002548563,-0.31102508,-2.2715988,0.0,-0.4165008,0.13993147,0.06641195,0.8958436,0.0,0.0,-0.6408868,1,0,0,0,0,0
3194084000,0.0015527995,-0.28852987,-2.2718258,0.0,-0.41702923,0.13005951,0.061265673,0.8974507,0.0,0.0,-0.63687587,1,0,0,0,0,0
3194176000,0.002547309,-0.27445105,-2.2722306,0.0,-0.41731998,0.12354248,0.05875166,0.8984039,0.0,0.0,-0.63249815,1,0,0,0,0,0
3194272000,0.0017971921,-0.25614542,-2.2724826,0.0,-0.4176627,0.11547672,0.05458058,0.89957994,0.0,0.0,-0.6259164,1,0,0,0,0,0
3194384000,0.0011976571,-0.23552161,-2.2731671,0.0,-0.41784644,0.10633583,0.0499666,0.9008887,0.0,0.0,-0.6227004,1,0,0,0,0,0
3194476000,0.0008726257,-0.22464235,-2.273599,0.0,-0.41789505,0.10151168,0.04752523,0.90155447,0.0,0.0,-0.618838,1,0,0,0,0,0
3194568000,0.0011670849,-0.21442957,-2.2743876,0.0,-0.41778687,0.09686286,0.045485754,0.902221,0.0,0.0,-0.6169648,1,0,0,0,0,0
3194680000,0.0035981184,-0.19827081,-2.2749834,0.0,-0.4179717,0.089074515,0.04318078,0.90305084,0.0,0.0,-0.6132187,1,0,0,0,0,0
3194776000,0.0009884258,-0.18246303,-2.2758846,0.0,-0.41775972,0.08249616,0.03866197,0.90397817,0.0,0.0,-0.60768706,1,0,0,0,0,0
3194888000,0.001223776,-0.17013171,-2.2764661,0.0,-0.41773066,0.076882094,0.036170077,0.9045894,0.0,0.0,-0.6038256,1,0,0,0,0,0
3194980000,0.0009766715,-0.15876308,-2.2775886,0.0,-0.4174064,0.07180919,0.033643413,0.90525323,0.0,0.0,-0.60135704,1,0,0,0,0,0
3195072000,0.0031957356,-0.14780441,-2.2782376,0.0,-0.41735968,0.06639491,0.032339465,0.90573555,0.0,0.0,-0.601765,1,0,0,0,0,0
3195184000,0.006112164,-0.13551976,-2.2795396,0.0,-0.41703093,0.06024109,0.031058725,0.90636176,0.0,0.0,-0.5974663,1,0,0,0,0,0
3195280000,0.00756414,-0.12247294,-2.2777307,0.0,-0.4180478,0.05399701,0.029047206,0.9063535,0.0,0.0,-0.5951473,1,0,0,0,0,0
3195372000,0.004513473,-0.11835652,-2.2777307,0.0,-0.41801256,0.052768707,0.02680488,0.9065111,0.0,0.0,-0.5935065,1,0,0,0,0,0
3195484000,0.0050345855,-0.111588925,-2.2777307,0.0,-0.4181,0.04959164,0.025627319,0.9066842,0.0,0.0,-0.59128606,1,0,0,0,0,0
3195576000,0.0065388633,-0.10497984,-2.2777307,0.0,-0.41820225,0.046280276,0.024928465,0.9068317,0.0,0.0,-0.58952254,1,0,0,0,0,0
3195672000,0.0064324504,-0.09306977,-2.2777307,0.0,-0.41830578,0.040900677,0.022391222,0.9071086,0.0,0.0,-0.58878976,1,0,0,0,0,0
3195784000,0.008795773,-0.08400485,-2.2777307,0.0,-0.4184197,0.036293864,0.02156838,0.90727204,0.0,0.0,-0.5851987,1,0,0,0,0,0
3195876000,0.007953321,-0.07641813,-2.2337484,0.0,-0.43830684,0.032588698,0.020321572,0.89800453,0.0,0.0,-0.5853941,1,0,0,0,0,0
3195968000,0.026133727,-0.056150198,-2.1614919,0.0,-0.47076836,0.018617962,0.024735393,0.88171345,0.0,0.0,-0.5802844,1,0,0,0,0,0
3196080000,0.0759236,-0.018980032,-2.0735273,0.0,0.508929,0.011154742,-0.037493683,-0.85991925,0.0,0.0,-0.5801869,1,0,0,0,0,0
3196176000,0.14513284,0.018471686,-1.9981291,0.0,0.539079,0.04697525,-0.055985488,-0.83907855,0.0,0.0,-0.5821786,1,0,0,0,0,0
3196268000,0.20809485,0.031913538,-1.9258726,0.0,0.5665909,0.0723351,-0.07618131,-0.81727517,0.0,0.0,-0.5810652,1,0,0,0,0,0
3196380000,0.27799577,0.03357417,-1.837908,0.0,0.5988675,0.097256094,-0.10004259,-0.7886003,0.0,0.0,-0.58242196,1,0,0,0,0,0
3196472000,0.28215212,0.016852066,-1.7656515,0.0,0.6277249,0.095723815,-0.10332429,-0.7655863,0.0,0.0,-0.57704014,1,0,0,0,0,0
3196584000,0.21736032,-0.0028053191,-1.6776869,0.0,0.6644931,0.071453296,-0.081616744,-0.73937947,0.0,0.0,-0.5799898,1,0,0,0,0,0
3196680000,0.18758431,-0.01261714,-1.6022887,0.0,0.69323725,0.060661063,-0.07162778,-0.7145711,0.0,0.0,-0.5866289,1,0,0,0,0,0
3196772000,0.1583192,-0.023432415,-1.5300322,0.0,0.7197045,0.048951477,-0.06318595,-0.6896643,0.0,0.0,-0.5825413,1,0,0,0,0,0
3196884000,0.14586833,-0.03200659,-1.4420676,0.0,0.7498007,0.04419079,-0.060087483,-0.65744627,0.0,0.0,-0.58175725,1,0,0,0,0,0
3196976000,0.13600391,-0.037575223,-1.369811,0.0,0.77335995,0.040759332,-0.05749342,-0.6300377,0.0,0.0,-0.5798044,1,0,0,0,0,0
3197072000,0.13479549,-0.04356143,-1.2944129,0.0,0.79665565,0.040612496,-0.05793297,-0.6002784,0.0,0.0,-0.58044696,1,0,0,0,0,0
3197184000,0.12767187,-0.052068144,-1.2064483,0.0,0.82249707,0.03777869,-0.057570558,-0.5645857,0.0,0.0,-0.57997274,1,0,0,0,0,0
3197276000,0.118804365,-0.058151554,-1.1341918,0.0,0.84254813,0.034463692,-0.056355394,-0.5345549,0.0,0.0,-0.5800756,1,0,0,0,0,0
3197368000,0.12799136,-0.074106894,-1.0619352,0.0,0.8611613,0.036389098,-0.06424016,-0.50294167,0.0,0.0,-0.58053076,1,0,0,0,0,0
3197480000,0.11666168,-0.08030968,-0.9739706,0.0,0.8826286,0.032724977,-0.062676124,-0.46472305,0.0,0.0,-0.5774277,1,0,0,0,0,0
3197576000,0.12690188,-0.10032647,-0.8985723,0.0,0.89919484,0.03530965,-0.07258013,-0.4300395,0.0,0.0,-0.577652,1,0,0,0,0,0
3197668000,0.12356815,-0.11257372,-0.82631564,0.0,0.914057,0.03391552,-0.0761767,-0.3969214,0.0,0.0,-0.58092016,1,0,0,0,0,0
3197780000,0.12238413,-0.13335867,-0.738351,0.0,0.93028134,0.03290873,-0.08404259,-0.35557067,0.0,0.0,-0.57986736,1,0,0,0,0,0
3197872000,0.11801893,-0.14891149,-0.6660943,0.0,0.94222605,0.03130358,-0.08940411,-0.32130513,0.0,0.0,-0.5826728,1,0,0,0,0,0
3197984000,0.10915155,-0.16544263,-0.57812965,0.0,0.9550958,0.028588472,-0.09457722,-0.27933806,0.0,0.0,-0.58366436,1,0,0,0,0,0
3198080000,0.10082283,-0.18109581,-0.5027314,0.0,0.9645136,0.026144179,-0.09995328,-0.24298003,0.0,0.0,-0.5829024,1,0,0,0,0,0
3198172000,0.09130192,-0.19402823,-0.43047476,0.0,0.97226316,0.023706308,-0.10422927,-0.20803526,0.0,0.0,-0.5848915,1,0,0,0,0,0
3198284000,0.079915866,-0.22102882,-0.34251016,0.0,0.97932947,0.02034235,-0.115355745,-0.16490303,0.0,0.0,-0.58610475,1,0,0,0,0,0
3198376000,0.069084845,-0.24614662,-0.27025354,0.0,0.98337376,0.017433649,-0.1261885,-0.12941615,0.0,0.0,-0.5884753,1,0,0,0,0,0
3198472000,0.054508,-0.26212567,-0.19485529,0.0,0.9867019,0.014181028,-0.1326479,-0.09285907,0.0,0.0,-0.5885376,1,0,0,0,0,0
3198584000,0.031572133,-0.2687063,-0.10689068,0.0,0.98956287,0.008466152,-0.13457702,-0.050820466,0.0,0.0,-0.587229,1,0,0,0,0,0
3198676000,0.012151291,-0.28754053,-0.034634046,0.0,0.9895313,0.003531088,-0.14335547,-0.016266832,0.0,0.0,-0.59280527,1,0,0,0,0,0
3198768000,-0.010860129,-0.3018599,0.03762259,0.0,0.98845756,-0.002539146,-0.15042973,0.017779771,0.0,0.0,-0.5954393,1,0,0,0,0,0
3198880000,-0.024881123,-0.31955576,0.08239897,0.0,0.9864301,-0.0057189288,-0.15945746,0.038682513,0.0,0.0,-0.5991374,1,0,0,0,0,0
3198976000,-0.026653552,-0.33130342,0.08452745,0.0,0.9854357,-0.0061658313,-0.16528863,0.039473575,0.0,0.0,-0.6016251,1,0,0,0,0,0
3199088000,-0.030716462,-0.37134603,0.08733936,0.0,0.9818832,-0.0070210146,-0.18506922,0.040067956,0.0,0.0,-0.60955685,1,0,0,0,0,0
3199180000,-0.030191284,-0.36890107,0.08988064,0.0,0.9820571,-0.006585401,-0.18386702,0.041392367,0.0,0.0,-0.60722685,1,0,0,0,0,0
3199272000,-0.03282237,-0.37532973,0.09256653,0.0,0.98139995,-0.007474454,-0.18708633,0.04238995,0.0,0.0,-0.61279523,1,0,0,0,0,0
