timestamp,noutputs,output[0],output[1],output[2],output[3],output[4],output[5],output[6],output[7],output[8],output[9],output[10],output[11],output[12],output[13],output[14],output[15]
2564256000,6,900.0,900.0,900.0,900.0,900.0,900.0,nan,nan,nan,nan,nan,nan,nan,nan,nan,nan
2564352000,6,1000.0,1000.0,1000.0,1000.0,1500.0,1500.0,nan,nan,nan,nan,nan,nan,nan,nan,nan,nan
2564456000,6,1000.0,1000.0,1000.0,1000.0,1500.0,1500.0,nan,nan,nan,nan,nan,nan,nan,nan,nan,nan
2564552000,6,1000.0,1000.0,1000.0,1000.0,1500.0,1500.0,nan,nan,nan,nan,nan,nan,nan,nan,nan,nan
2564652000,6,1000.0,1000.0,1000.0,1000.0,1500.0,1500.0,nan,nan,nan,nan,nan,nan,nan,nan,nan,nan
2564756000,6,1000.0,1000.0,1000.0,1000.0,1500.0,1500.0,nan,nan,nan,nan,nan,nan,nan,nan,nan,nan
2564852000,6,1000.0,1000.0,1000.0,1000.0,1500.0,1500.0,nan,nan,nan,nan,nan,nan,nan,nan,nan,nan
2564956000,6,1000.0,1000.0,1000.0,1000.0,1500.0,1500.0,nan,nan,nan,nan,nan,nan,nan,nan,nan,nan
2565052000,6,1000.0,1000.0,1000.0,1000.0,1500.0,1500.0,nan,nan,nan,nan,nan,nan,nan,nan,nan,nan
2565152000,6,1000.0,1000.0,1000.0,1000.0,1500.0,1500.0,nan,nan,nan,nan,nan,nan,nan,nan,nan,nan
2565256000,6,1000.0,1000.0,1000.0,1000.0,1500.0,1500.0,nan,nan,nan,nan,nan,nan,nan,nan,nan,nan
2565356000,6,1193.9702,1046.4265,1178.0518,1062.882,1500.0,1500.0,nan,nan,nan,nan,nan,nan,nan,nan,nan,nan
2565456000,6,1241.8206,1048.4329,1247.2494,1043.7965,1500.0,1500.0,nan,nan,nan,nan,nan,nan,nan,nan,nan,nan
2565556000,6,1280.5833,1128.2192,1284.6051,1126.6359,1500.0,1500.0,nan,nan,nan,nan,nan,nan,nan,nan,nan,nan
2565656000,6,1336.0295,1203.5775,1340.5073,1199.7686,1500.0,1500.0,nan,nan,nan,nan,nan,nan,nan,nan,nan,nan
2565756000,6,1406.4116,1286.4762,1412.1885,1283.7747,1500.0,1500.0,nan,nan,nan,nan,nan,nan,nan,nan,nan,nan
2565852000,6,1472.1165,1356.6304,1477.7645,1353.4717,1500.0,1500.0,nan,nan,nan,nan,nan,nan,nan,nan,nan,nan
2565952000,6,1540.9883,1426.8016,1546.8617,1422.8306,1500.0,1500.0,nan,nan,nan,nan,nan,nan,nan,nan,nan,nan
2566052000,6,1623.1835,1518.1824,1627.3911,1514.3701,1500.0,1500.0,nan,nan,nan,nan,nan,nan,nan,nan,nan,nan
2566152000,6,1589.5721,1620.3765,1593.7771,1622.1365,1500.0,1500.0,nan,nan,nan,nan,nan,nan,nan,nan,nan,nan
2566256000,6,1603.603,1614.898,1604.4834,1614.7885,1500.0,1500.0,nan,nan,nan,nan,nan,nan,nan,nan,nan,nan
2566356000,6,1605.9227,1614.8165,1607.0764,1616.2756,1500.0,1500.0,nan,nan,nan,nan,nan,nan,nan,nan,nan,nan
2566452000,6,1612.0284,1610.7482,1612.3123,1607.8649,1500.0,1500.0,nan,nan,nan,nan,nan,nan,nan,nan,nan,nan
2566556000,6,1615.4911,1607.621,1616.7056,1606.0247,1500.0,1500.0,nan,nan,nan,nan,nan,nan,nan,nan,nan,nan
2566652000,6,1619.5018,1616.3073,1624.5111,1613.7717,1500.0,1500.0,nan,nan,nan,nan,nan,nan,nan,nan,nan,nan
2566752000,6,1623.771,1617.343,1623.9811,1615.254,1500.0,1500.0,nan,nan,nan,nan,nan,nan,nan,nan,nan,nan
2566856000,6,1619.4332,1619.9865,1618.6829,1618.393,1500.0,1500.0,nan,nan,nan,nan,nan,nan,nan,nan,nan,nan
2566952000,6,1621.8986,1619.4053,1624.6267,1618.1243,1500.0,1500.0,nan,nan,nan,nan,nan,nan,nan,nan,nan,nan
2567052000,6,1624.552,1628.2479,1627.852,1626.7848,1500.0,1500.0,nan,nan,nan,nan,nan,nan,nan,nan,nan,nan
2567152000,6,1630.6771,1626.989,1630.6914,1629.68,1500.0,1500.0,nan,nan,nan,nan,nan,nan,nan,nan,nan,nan
2567256000,6,1626.2004,1629.5322,1627.9376,1628.2751,1500.0,1500.0,nan,nan,nan,nan,nan,nan,nan,nan,nan,nan
2567352000,6,1626.9586,1625.9299,1628.242,1624.8655,1500.0,1500.0,nan,nan,nan,nan,nan,nan,nan,nan,nan,nan
2567456000,6,1629.8855,1628.1307,1628.662,1627.9135,1500.0,1500.0,nan,nan,nan,nan,nan,nan,nan,nan,nan,nan
2567552000,6,1636.7074,1636.3939,1636.9244,1639.6584,1500.0,1500.0,nan,nan,nan,nan,nan,nan,nan,nan,nan,nan
2567656000,6,1637.4324,1635.9958,1638.0342,1635.9072,1500.0,1500.0,nan,nan,nan,nan,nan,nan,nan,nan,nan,nan
2567756000,6,1642.713,1636.4435,1641.4568,1637.9425,1500.0,1500.0,nan,nan,nan,nan,nan,nan,nan,nan,nan,nan
2567856000,6,1639.6583,1637.0914,1638.4365,1636.671,1500.0,1500.0,nan,nan,nan,nan,nan,nan,nan,nan,nan,nan
2567952000,6,1645.7839,1644.7905,1645.4819,1644.862,1500.0,1500.0,nan,nan,nan,nan,nan,nan,nan,nan,nan,nan
2568056000,6,1539.493,1542.4404,1538.135,1542.5256,1500.0,1500.0,nan,nan,nan,nan,nan,nan,nan,nan,nan,nan
2568156000,6,1556.8231,1557.5692,1557.6361,1555.3566,1500.0,1500.0,nan,nan,nan,nan,nan,nan,nan,nan,nan,nan
2568252000,6,1573.1067,1571.9917,1574.8041,1571.9326,1500.0,1500.0,nan,nan,nan,nan,nan,nan,nan,nan,nan,nan
2568356000,6,1561.4895,1566.4165,1558.7761,1566.9395,1500.0,1500.0,nan,nan,nan,nan,nan,nan,nan,nan,nan,nan
2568452000,6,1564.6041,1569.2782,1564.4535,1564.7095,1500.0,1500.0,nan,nan,nan,nan,nan,nan,nan,nan,nan,nan
2568552000,6,1576.2131,1577.4733,1576.4003,1577.3948,1500.0,1500.0,nan,nan,nan,nan,nan,nan,nan,nan,nan,nan
2568652000,6,1574.1826,1573.5999,1572.096,1574.9305,1500.0,1500.0,nan,nan,nan,nan,nan,nan,nan,nan,nan,nan
2568752000,6,1571.8538,1574.7434,1572.9447,1575.5083,1500.0,1500.0,nan,nan,nan,nan,nan,nan,nan,nan,nan,nan
2568856000,6,1576.0223,1571.5789,1575.0354,1574.672,1500.0,1500.0,nan,nan,nan,nan,nan,nan,nan,nan,nan,nan
2568952000,6,1572.8724,1572.362,1571.9352,1571.2947,1500.0,1500.0,nan,nan,nan,nan,nan,nan,nan,nan,nan,nan
2569052000,6,1580.633,1578.1681,1578.5938,1580.2593,1500.0,1500.0,nan,nan,nan,nan,nan,nan,nan,nan,nan,nan
2569156000,6,1580.4486,1581.8574,1580.8118,1581.7236,1500.0,1500.0,nan,nan,nan,nan,nan,nan,nan,nan,nan,nan
2569256000,6,1579.9031,1576.1195,1575.9678,1579.0944,1500.0,1500.0,nan,nan,nan,nan,nan,nan,nan,nan,nan,nan
2569356000,6,1577.3678,1575.2661,1574.0784,1577.1506,1500.0,1500.0,nan,nan,nan,nan,nan,nan,nan,nan,nan,nan
2569456000,6,1574.9563,1578.5155,1576.0223,1577.8064,1500.0,1500.0,nan,nan,nan,nan,nan,nan,nan,nan,nan,nan
2569556000,6,1579.7526,1583.0756,1584.5515,1580.9932,1500.0,1500.0,nan,nan,nan,nan,nan,nan,nan,nan,nan,nan
2569656000,6,1576.9943,1579.184,1579.2103,1578.7114,1500.0,1500.0,nan,nan,nan,nan,nan,nan,nan,nan,nan,nan
2569756000,6,1578.0234,1581.3906,1578.8738,1578.883,1500.0,1500.0,nan,nan,nan,nan,nan,nan,nan,nan,nan,nan
2569856000,6,1577.1943,1576.5446,1577.257,1578.2206,1500.0,1500.0,nan,nan,nan,nan,nan,nan,nan,nan,nan,nan
2569952000,6,1583.2289,1584.7866,1585.1746,1586.7412,1500.0,1500.0,nan,nan,nan,nan,nan,nan,nan,nan,nan,nan
2570056000,6,1585.9169,1583.4443,1589.5759,1582.9543,1500.0,1500.0,nan,nan,nan,nan,nan,nan,nan,nan,nan,nan
2570152000,6,1577.7112,1582.1544,1580.5181,1581.7655,1500.0,1500.0,nan,nan,nan,nan,nan,nan,nan,nan,nan,nan
2570252000,6,1583.7494,1580.8721,1583.0962,1579.3898,1500.0,1500.0,nan,nan,nan,nan,nan,nan,nan,nan,nan,nan
2570352000,6,1579.6456,1578.831,1580.1042,1579.7765,1500.0,1500.0,nan,nan,nan,nan,nan,nan,nan,nan,nan,nan
2570456000,6,1585.5311,1589.8698,1586.0255,1586.0996,1500.0,1500.0,nan,nan,nan,nan,nan,nan,nan,nan,nan,nan
2570556000,6,1584.268,1588.1213,1585.688,1585.5264,1500.0,1500.0,nan,nan,nan,nan,nan,nan,nan,nan,nan,nan
2570652000,6,1578.8333,1585.3412,1579.4369,1585.9913,1500.0,1500.0,nan,nan,nan,nan,nan,nan,nan,nan,nan,nan
2570756000,6,1579.4315,1580.2601,1581.9413,1577.9718,1500.0,1500.0,nan,nan,nan,nan,nan,nan,nan,nan,nan,nan
2570852000,6,1577.597,1579.6216,1577.2343,1577.416,1500.0,1500.0,nan,nan,nan,nan,nan,nan,nan,nan,nan,nan
2570956000,6,1585.0342,1583.9227,1583.5728,1584.8036,1500.0,1500.0,nan,nan,nan,nan,nan,nan,nan,nan,nan,nan
2571056000,6,1584.271,1582.3694,1582.4705,1586.0931,1500.0,1500.0,nan,nan,nan,nan,nan,nan,nan,nan,nan,nan
2571152000,6,1583.9049,1582.4708,1584.85,1583.958,1500.0,1500.0,nan,nan,nan,nan,nan,nan,nan,nan,nan,nan
2571252000,6,1581.1425,1580.8307,1580.5536,1578.7411,1500.0,1500.0,nan,nan,nan,nan,nan,nan,nan,nan,nan,nan
2571356000,6,1577.3799,1580.9707,1581.999,1579.2653,1500.0,1500.0,nan,nan,nan,nan,nan,nan,nan,nan,nan,nan
2571452000,6,1583.1353,1588.5227,1582.9392,1588.1575,1500.0,1500.0,nan,nan,nan,nan,nan,nan,nan,nan,nan,nan
2571552000,6,1581.5243,1580.634,1582.6328,1581.0901,1500.0,1500.0,nan,nan,nan,nan,nan,nan,nan,nan,nan,nan
2571652000,6,1582.2012,1581.4037,1583.1299,1580.5966,1500.0,1500.0,nan,nan,nan,nan,nan,nan,nan,nan,nan,nan
2571756000,6,1577.2438,1580.1698,1578.3971,1576.1779,1500.0,1500.0,nan,nan,nan,nan,nan,nan,nan,nan,nan,nan
2571856000,6,1582.1771,1588.8236,1585.0396,1586.0479,1500.0,1500.0,nan,nan,nan,nan,nan,nan,nan,nan,nan,nan
2571956000,6,1588.8727,1585.686,1587.0105,1585.9711,1500.0,1500.0,nan,nan,nan,nan,nan,nan,nan,nan,nan,nan
2572056000,6,1580.3475,1583.9252,1581.6528,1586.8741,1500.0,1500.0,nan,nan,nan,nan,nan,nan,nan,nan,nan,nan
2572156000,6,1582.2833,1582.9539,1581.5637,1584.8674,1500.0,1500.0,nan,nan,nan,nan,nan,nan,nan,nan,nan,nan
2572256000,6,1578.2485,1582.1929,1578.7367,1580.8807,1500.0,1500.0,nan,nan,nan,nan,nan,nan,nan,nan,nan,nan
2572356000,6,1587.9583,1586.0925,1587.7383,1585.2607,1500.0,1500.0,nan,nan,nan,nan,nan,nan,nan,nan,nan,nan
2572452000,6,1584.7075,1582.8351,1583.7247,1585.7338,1500.0,1500.0,nan,nan,nan,nan,nan,nan,nan,nan,nan,nan
2572556000,6,1567.5508,1565.5583,1567.0664,1568.1028,1500.0,1500.0,nan,nan,nan,nan,nan,nan,nan,nan,nan,nan
2572652000,6,1555.9238,1558.9288,1556.9762,1559.9058,1500.0,1500.0,nan,nan,nan,nan,nan,nan,nan,nan,nan,nan
2572756000,6,1568.9508,1565.7418,1566.2513,1567.7378,1500.0,1500.0,nan,nan,nan,nan,nan,nan,nan,nan,nan,nan
2572852000,6,1568.3993,1571.5758,1569.2706,1570.0406,1500.0,1500.0,nan,nan,nan,nan,nan,nan,nan,nan,nan,nan
2572952000,6,1562.8811,1568.4174,1565.4519,1567.0487,1500.0,1500.0,nan,nan,nan,nan,nan,nan,nan,nan,nan,nan
2573056000,6,1564.0536,1566.5776,1566.0027,1567.5234,1500.0,1500.0,nan,nan,nan,nan,nan,nan,nan,nan,nan,nan
2573152000,6,1560.7148,1564.6619,1562.5702,1564.6359,1500.0,1500.0,nan,nan,nan,nan,nan,nan,nan,nan,nan,nan
2573252000,6,1568.3827,1569.6803,1566.3053,1570.4381,1500.0,1500.0,nan,nan,nan,nan,nan,nan,nan,nan,nan,nan
2573356000,6,1565.005,1569.0012,1567.0961,1566.08,1500.0,1500.0,nan,nan,nan,nan,nan,nan,nan,nan,nan,nan
2573452000,6,1565.1252,1564.3849,1566.7157,1565.516,1500.0,1500.0,nan,nan,nan,nan,nan,nan,nan,nan,nan,nan
2573552000,6,1563.1804,1564.4418,1563.4952,1564.937,1500.0,1500.0,nan,nan,nan,nan,nan,nan,nan,nan,nan,nan
2573656000,6,1565.1257,1563.2333,1562.8878,1566.2946,1500.0,1500.0,nan,nan,nan,nan,nan,nan,nan,nan,nan,nan
2573756000,6,1566.3518,1571.7269,1569.4323,1569.4193,1500.0,1500.0,nan,nan,nan,nan,nan,nan,nan,nan,nan,nan
2573856000,6,1566.0986,1564.9088,1566.2021,1563.7269,1500.0,1500.0,nan,nan,nan,nan,nan,nan,nan,nan,nan,nan
2573956000,6,1564.5851,1564.6521,1566.2275,1566.9382,1500.0,1500.0,nan,nan,nan,nan,nan,nan,nan,nan,nan,nan
2574056000,6,1562.9006,1564.632,1563.8417,1565.7075,1500.0,1500.0,nan,nan,nan,nan,nan,nan,nan,nan,nan,nan
2574156000,6,1562.3053,1564.8958,1563.7766,1563.0917,1500.0,1500.0,nan,nan,nan,nan,nan,nan,nan,nan,nan,nan
2574252000,6,1567.9426,1566.1084,1568.8071,1566.2704,1500.0,1500.0,nan,nan,nan,nan,nan,nan,nan,nan,nan,nan
2574352000,6,1566.0325,1564.5717,1563.5847,1564.7386,1500.0,1500.0,nan,nan,nan,nan,nan,nan,nan,nan,nan,nan
2574456000,6,1563.5121,1565.7723,1564.6837,1565.2981,1500.0,1500.0,nan,nan,nan,nan,nan,nan,nan,nan,nan,nan
2574552000,6,1562.928,1565.632,1563.1562,1566.2465,1500.0,1500.0,nan,nan,nan,nan,nan,nan,nan,nan,nan,nan
2574652000,6,1565.2794,1567.5148,1568.7742,1565.6174,1500.0,1500.0,nan,nan,nan,nan,nan,nan,nan,nan,nan,nan
2574756000,6,1563.8981,1568.0188,1564.7029,1568.912,1500.0,1500.0,nan,nan,nan,nan,nan,nan,nan,nan,nan,nan
2574856000,6,1563.213,1563.305,1564.5201,1562.3422,1500.0,1500.0,nan,nan,nan,nan,nan,nan,nan,nan,nan,nan
2574952000,6,1566.4158,1563.4537,1563.5013,1565.0813,1500.0,1500.0,nan,nan,nan,nan,nan,nan,nan,nan,nan,nan
2575056000,6,1564.9939,1563.6616,1565.092,1563.3813,1500.0,1500.0,nan,nan,nan,nan,nan,nan,nan,nan,nan,nan
2575156000,6,1562.692,1569.2631,1565.0977,1565.8975,1500.0,1500.0,nan,nan,nan,nan,nan,nan,nan,nan,nan,nan
2575252000,6,1564.6501,1566.5571,1567.5853,1564.0262,1500.0,1500.0,nan,nan,nan,nan,nan,nan,nan,nan,nan,nan
2575352000,6,1562.7227,1568.1321,1562.7339,1565.6305,1500.0,1500.0,nan,nan,nan,nan,nan,nan,nan,nan,nan,nan
2575452000,6,1565.5217,1563.1445,1565.2833,1564.0491,1500.0,1500.0,nan,nan,nan,nan,nan,nan,nan,nan,nan,nan
2575556000,6,1563.783,1566.7017,1566.0021,1564.6124,1500.0,1500.0,nan,nan,nan,nan,nan,nan,nan,nan,nan,nan
2575656000,6,1568.509,1567.7179,1568.0084,1565.386,1500.0,1500.0,nan,nan,nan,nan,nan,nan,nan,nan,nan,nan
2575756000,6,1565.5645,1563.625,1566.1748,1564.8949,1500.0,1500.0,nan,nan,nan,nan,nan,nan,nan,nan,nan,nan
2575852000,6,1564.4082,1564.7484,1565.5399,1564.315,1500.0,1500.0,nan,nan,nan,nan,nan,nan,nan,nan,nan,nan
2575956000,6,1562.0775,1567.0337,1563.6212,1566.7676,1500.0,1500.0,nan,nan,nan,nan,nan,nan,nan,nan,nan,nan
2576052000,6,1566.666,1565.6913,1566.3114,1565.4197,1500.0,1500.0,nan,nan,nan,nan,nan,nan,nan,nan,nan,nan
2576152000,6,1563.506,1565.5546,1561.6256,1566.4412,1500.0,1500.0,nan,nan,nan,nan,nan,nan,nan,nan,nan,nan
2576252000,6,1565.9006,1561.3875,1565.4236,1560.5857,1500.0,1500.0,nan,nan,nan,nan,nan,nan,nan,nan,nan,nan
2576356000,6,1563.9292,1560.4083,1562.9773,1565.3488,1500.0,1500.0,nan,nan,nan,nan,nan,nan,nan,nan,nan,nan
2576456000,6,1565.9099,1565.3405,1566.6997,1559.3743,1500.0,1500.0,nan,nan,nan,nan,nan,nan,nan,nan,nan,nan
2576556000,6,1564.2179,1561.5594,1564.0436,1562.0857,1500.0,1500.0,nan,nan,nan,nan,nan,nan,nan,nan,nan,nan
2576652000,6,1565.186,1562.9088,1564.0558,1563.0679,1500.0,1500.0,nan,nan,nan,nan,nan,nan,nan,nan,nan,nan
2576752000,6,1563.733,1563.9542,1563.4353,1564.3018,1500.0,1500.0,nan,nan,nan,nan,nan,nan,nan,nan,nan,nan
2576856000,6,1565.0645,1564.0356,1562.5309,1564.9119,1500.0,1500.0,nan,nan,nan,nan,nan,nan,nan,nan,nan,nan
2576952000,6,1565.2026,1567.0657,1567.5435,1565.6552,1500.0,1500.0,nan,nan,nan,nan,nan,nan,nan,nan,nan,nan
2577052000,6,1566.0319,1565.5961,1569.3118,1564.8639,1500.0,1500.0,nan,nan,nan,nan,nan,nan,nan,nan,nan,nan
2577152000,6,1563.8486,1566.1527,1564.4841,1565.3663,1500.0,1500.0,nan,nan,nan,nan,nan,nan,nan,nan,nan,nan
2577252000,6,1565.8453,1564.0724,1565.9774,1566.2332,1500.0,1500.0,nan,nan,nan,nan,nan,nan,nan,nan,nan,nan
2577356000,6,1563.5236,1565.9242,1562.4922,1567.5825,1500.0,1500.0,nan,nan,nan,nan,nan,nan,nan,nan,nan,nan
2577456000,6,1564.6434,1565.2017,1565.6653,1564.5803,1500.0,1500.0,nan,nan,nan,nan,nan,nan,nan,nan,nan,nan
2577552000,6,1568.4097,1560.2451,1565.4297,1562.1626,1500.0,1500.0,nan,nan,nan,nan,nan,nan,nan,nan,nan,nan
2577652000,6,1564.7554,1564.3882,1565.3865,1563.338,1500.0,1500.0,nan,nan,nan,nan,nan,nan,nan,nan,nan,nan
2577752000,6,1563.0007,1561.1504,1563.9918,1562.7991,1500.0,1500.0,nan,nan,nan,nan,nan,nan,nan,nan,nan,nan
2577856000,6,1565.246,1565.7728,1564.6699,1566.5144,1500.0,1500.0,nan,nan,nan,nan,nan,nan,nan,nan,nan,nan
2577952000,6,1567.3655,1564.6819,1565.1982,1564.2556,1500.0,1500.0,nan,nan,nan,nan,nan,nan,nan,nan,nan,nan
2578052000,6,1567.589,1562.9594,1567.3063,1562.9694,1500.0,1500.0,nan,nan,nan,nan,nan,nan,nan,nan,nan,nan
2578156000,6,1564.251,1564.2606,1563.562,1566.7009,1500.0,1500.0,nan,nan,nan,nan,nan,nan,nan,nan,nan,nan
2578252000,6,1567.5459,1563.3336,1564.0973,1565.4038,1500.0,1500.0,nan,nan,nan,nan,nan,nan,nan,nan,nan,nan
2578356000,6,1564.4769,1564.7115,1564.8668,1564.7083,1500.0,1500.0,nan,nan,nan,nan,nan,nan,nan,nan,nan,nan
2578456000,6,1565.8318,1565.225,1564.392,1566.3129,1500.0,1500.0,nan,nan,nan,nan,nan,nan,nan,nan,nan,nan
2578556000,6,1566.3964,1566.5714,1566.0978,1567.763,1500.0,1500.0,nan,nan,nan,nan,nan,nan,nan,nan,nan,nan
2578656000,6,1566.2756,1567.5099,1560.5477,1565.6858,1500.0,1500.0,nan,nan,nan,nan,nan,nan,nan,nan,nan,nan
2578756000,6,1548.2738,1554.8949,1555.0786,1573.2439,1500.0,1500.0,nan,nan,nan,nan,nan,nan,nan,nan,nan,nan
2578852000,6,1541.5707,1511.288,1599.4414,1597.1224,1500.0,1500.0,nan,nan,nan,nan,nan,nan,nan,nan,nan,nan
2578952000,6,1552.5195,1483.2363,1624.3545,1599.6038,1500.0,1500.0,nan,nan,nan,nan,nan,nan,nan,nan,nan,nan
2579056000,6,1548.0813,1503.7241,1611.0878,1603.4501,1500.0,1500.0,nan,nan,nan,nan,nan,nan,nan,nan,nan,nan
2579156000,6,1548.3328,1511.6436,1607.8076,1617.6782,1500.0,1500.0,nan,nan,nan,nan,nan,nan,nan,nan,nan,nan
2579252000,6,1531.2203,1540.7952,1604.7626,1623.2635,1500.0,1500.0,nan,nan,nan,nan,nan,nan,nan,nan,nan,nan
2579356000,6,1551.0048,1553.241,1616.0889,1621.3181,1500.0,1500.0,nan,nan,nan,nan,nan,nan,nan,nan,nan,nan
2579452000,6,1554.9048,1559.3706,1625.7928,1627.8822,1500.0,1500.0,nan,nan,nan,nan,nan,nan,nan,nan,nan,nan
2579552000,6,1568.3075,1559.0715,1639.8677,1640.6705,1500.0,1500.0,nan,nan,nan,nan,nan,nan,nan,nan,nan,nan
2579652000,6,1566.804,1569.4259,1649.0575,1642.9633,1500.0,1500.0,nan,nan,nan,nan,nan,nan,nan,nan,nan,nan
2579752000,6,1603.9103,1560.8882,1652.6903,1656.6902,1500.0,1500.0,nan,nan,nan,nan,nan,nan,nan,nan,nan,nan
2579856000,6,1611.0496,1562.458,1663.9202,1672.6194,1500.0,1500.0,nan,nan,nan,nan,nan,nan,nan,nan,nan,nan
2579956000,6,1610.155,1575.5244,1664.4801,1672.8307,1500.0,1500.0,nan,nan,nan,nan,nan,nan,nan,nan,nan,nan
2580052000,6,1612.6783,1574.8737,1678.4462,1690.1375,1500.0,1500.0,nan,nan,nan,nan,nan,nan,nan,nan,nan,nan
2580156000,6,1613.9469,1591.084,1678.8976,1687.723,1500.0,1500.0,nan,nan,nan,nan,nan,nan,nan,nan,nan,nan
2580252000,6,1639.9379,1587.1044,1681.192,1713.7705,1500.0,1500.0,nan,nan,nan,nan,nan,nan,nan,nan,nan,nan
2580352000,6,1641.8097,1606.5122,1684.0366,1709.5397,1500.0,1500.0,nan,nan,nan,nan,nan,nan,nan,nan,nan,nan
2580456000,6,1653.5255,1606.1887,1690.0154,1741.4895,1500.0,1500.0,nan,nan,nan,nan,nan,nan,nan,nan,nan,nan
2580552000,6,1650.1527,1620.7262,1692.8641,1734.2438,1500.0,1500.0,nan,nan,nan,nan,nan,nan,nan,nan,nan,nan
2580652000,6,1656.281,1634.2777,1696.9795,1715.1199,1500.0,1500.0,nan,nan,nan,nan,nan,nan,nan,nan,nan,nan
2580752000,6,1660.4247,1634.0209,1700.9001,1729.992,1500.0,1500.0,nan,nan,nan,nan,nan,nan,nan,nan,nan,nan
2580856000,6,1666.6951,1649.662,1686.8118,1756.8591,1500.0,1500.0,nan,nan,nan,nan,nan,nan,nan,nan,nan,nan
2580952000,6,1661.1353,1652.0084,1690.5444,1758.6008,1500.0,1500.0,nan,nan,nan,nan,nan,nan,nan,nan,nan,nan
2581056000,6,1659.3644,1661.4026,1681.2109,1740.9088,1500.0,1500.0,nan,nan,nan,nan,nan,nan,nan,nan,nan,nan
2581152000,6,1660.7126,1660.6167,1677.6945,1742.3893,1500.0,1500.0,nan,nan,nan,nan,nan,nan,nan,nan,nan,nan
2581252000,6,1649.533,1658.0315,1672.2445,1758.4927,1500.0,1500.0,nan,nan,nan,nan,nan,nan,nan,nan,nan,nan
2581352000,6,1648.9559,1661.7837,1666.1421,1765.4265,1500.0,1500.0,nan,nan,nan,nan,nan,nan,nan,nan,nan,nan
2581456000,6,1644.006,1665.4904,1663.7719,1752.3616,1500.0,1500.0,nan,nan,nan,nan,nan,nan,nan,nan,nan,nan
2581556000,6,1645.7738,1662.2914,1674.2449,1749.3678,1500.0,1500.0,nan,nan,nan,nan,nan,nan,nan,nan,nan,nan
2581652000,6,1643.6638,1666.4288,1667.2982,1746.8997,1500.0,1500.0,nan,nan,nan,nan,nan,nan,nan,nan,nan,nan
2581756000,6,1636.0841,1670.697,1670.7333,1755.8087,1500.0,1500.0,nan,nan,nan,nan,nan,nan,nan,nan,nan,nan
2581852000,6,1634.916,1672.3007,1667.7504,1753.4745,1500.0,1500.0,nan,nan,nan,nan,nan,nan,nan,nan,nan,nan
2581956000,6,1638.7637,1684.5342,1665.3652,1753.1458,1500.0,1500.0,nan,nan,nan,nan,nan,nan,nan,nan,nan,nan
2582052000,6,1655.3087,1708.9221,1647.0792,1730.6733,1500.0,1500.0,nan,nan,nan,nan,nan,nan,nan,nan,nan,nan
2582152000,6,1666.0901,1716.219,1635.2397,1720.9895,1500.0,1500.0,nan,nan,nan,nan,nan,nan,nan,nan,nan,nan
2582256000,6,1659.5273,1715.4849,1642.011,1716.3497,1500.0,1500.0,nan,nan,nan,nan,nan,nan,nan,nan,nan,nan
2582352000,6,1653.4911,1725.3672,1643.6973,1724.0896,1500.0,1500.0,nan,nan,nan,nan,nan,nan,nan,nan,nan,nan
2582452000,6,1654.1625,1725.0077,1647.0763,1723.2886,1500.0,1500.0,nan,nan,nan,nan,nan,nan,nan,nan,nan,nan
2582556000,6,1656.1478,1720.4128,1648.5077,1719.2738,1500.0,1500.0,nan,nan,nan,nan,nan,nan,nan,nan,nan,nan
2582656000,6,1656.7343,1723.7865,1651.5714,1720.7423,1500.0,1500.0,nan,nan,nan,nan,nan,nan,nan,nan,nan,nan
2582756000,6,1651.3579,1719.0223,1650.6399,1715.8618,1500.0,1500.0,nan,nan,nan,nan,nan,nan,nan,nan,nan,nan
2582856000,6,1648.4617,1727.5161,1650.395,1725.1498,1500.0,1500.0,nan,nan,nan,nan,nan,nan,nan,nan,nan,nan
2582956000,6,1652.5996,1725.5295,1651.6499,1725.7789,1500.0,1500.0,nan,nan,nan,nan,nan,nan,nan,nan,nan,nan
2583056000,6,1651.622,1722.8972,1656.4459,1723.3911,1500.0,1500.0,nan,nan,nan,nan,nan,nan,nan,nan,nan,nan
2583152000,6,1654.3402,1718.4031,1654.0825,1718.6652,1500.0,1500.0,nan,nan,nan,nan,nan,nan,nan,nan,nan,nan
2583252000,6,1653.3965,1717.7816,1655.7045,1719.0082,1500.0,1500.0,nan,nan,nan,nan,nan,nan,nan,nan,nan,nan
2583356000,6,1651.7377,1729.253,1653.675,1728.439,1500.0,1500.0,nan,nan,nan,nan,nan,nan,nan,nan,nan,nan
2583452000,6,1653.3386,1722.0823,1652.2632,1724.3862,1500.0,1500.0,nan,nan,nan,nan,nan,nan,nan,nan,nan,nan
2583556000,6,1651.2319,1724.9457,1654.7268,1724.5432,1500.0,1500.0,nan,nan,nan,nan,nan,nan,nan,nan,nan,nan
2583652000,6,1656.3671,1720.5767,1658.8391,1720.8472,1500.0,1500.0,nan,nan,nan,nan,nan,nan,nan,nan,nan,nan
2583756000,6,1655.7693,1722.4878,1657.26,1722.9434,1500.0,1500.0,nan,nan,nan,nan,nan,nan,nan,nan,nan,nan
2583852000,6,1653.491,1733.812,1658.2014,1730.4894,1500.0,1500.0,nan,nan,nan,nan,nan,nan,nan,nan,nan,nan
2583952000,6,1654.9984,1728.4368,1656.4329,1729.4001,1500.0,1500.0,nan,nan,nan,nan,nan,nan,nan,nan,nan,nan
2584052000,6,1658.7673,1723.9725,1659.507,1726.1125,1500.0,1500.0,nan,nan,nan,nan,nan,nan,nan,nan,nan,nan
2584152000,6,1658.3165,1726.0117,1660.1816,1726.0208,1500.0,1500.0,nan,nan,nan,nan,nan,nan,nan,nan,nan,nan
2584252000,6,1655.6212,1733.3062,1656.1418,1731.9795,1500.0,1500.0,nan,nan,nan,nan,nan,nan,nan,nan,nan,nan
2584352000,6,1656.0231,1726.8068,1652.8944,1731.6154,1500.0,1500.0,nan,nan,nan,nan,nan,nan,nan,nan,nan,nan
2584452000,6,1657.1014,1725.8871,1659.179,1726.7802,1500.0,1500.0,nan,nan,nan,nan,nan,nan,nan,nan,nan,nan
2584552000,6,1658.4482,1722.2186,1660.911,1724.2002,1500.0,1500.0,nan,nan,nan,nan,nan,nan,nan,nan,nan,nan
2584656000,6,1658.5239,1723.9496,1659.6453,1724.9371,1500.0,1500.0,nan,nan,nan,nan,nan,nan,nan,nan,nan,nan
2584752000,6,1651.556,1737.725,1654.1019,1737.4261,1500.0,1500.0,nan,nan,nan,nan,nan,nan,nan,nan,nan,nan
2584856000,6,1657.5587,1728.957,1659.9913,1730.3716,1500.0,1500.0,nan,nan,nan,nan,nan,nan,nan,nan,nan,nan
2584956000,6,1655.228,1730.8641,1657.198,1732.2228,1500.0,1500.0,nan,nan,nan,nan,nan,nan,nan,nan,nan,nan
2585056000,6,1659.0103,1722.4792,1664.5535,1724.0066,1500.0,1500.0,nan,nan,nan,nan,nan,nan,nan,nan,nan,nan
2585156000,6,1657.0117,1724.6211,1656.6766,1728.9034,1500.0,1500.0,nan,nan,nan,nan,nan,nan,nan,nan,nan,nan
2585252000,6,1656.447,1729.8943,1658.2855,1734.193,1500.0,1500.0,nan,nan,nan,nan,nan,nan,nan,nan,nan,nan
2585356000,6,1656.6287,1726.7706,1660.0707,1729.5763,1500.0,1500.0,nan,nan,nan,nan,nan,nan,nan,nan,nan,nan
2585456000,6,1657.7637,1727.964,1661.5104,1726.5764,1500.0,1500.0,nan,nan,nan,nan,nan,nan,nan,nan,nan,nan
2585552000,6,1657.4108,1725.8976,1658.6217,1728.2229,1500.0,1500.0,nan,nan,nan,nan,nan,nan,nan,nan,nan,nan
2585652000,6,1655.7935,1732.1688,1658.5146,1737.2062,1500.0,1500.0,nan,nan,nan,nan,nan,nan,nan,nan,nan,nan
2585752000,6,1656.1515,1729.781,1658.2666,1732.1704,1500.0,1500.0,nan,nan,nan,nan,nan,nan,nan,nan,nan,nan
2585852000,6,1657.7726,1729.116,1662.7576,1728.6274,1500.0,1500.0,nan,nan,nan,nan,nan,nan,nan,nan,nan,nan
2585952000,6,1657.6001,1727.3801,1660.2307,1725.4039,1500.0,1500.0,nan,nan,nan,nan,nan,nan,nan,nan,nan,nan
2586052000,6,1658.0408,1722.3103,1659.7057,1724.9357,1500.0,1500.0,nan,nan,nan,nan,nan,nan,nan,nan,nan,nan
2586152000,6,1655.6212,1732.7782,1657.4358,1735.0093,1500.0,1500.0,nan,nan,nan,nan,nan,nan,nan,nan,nan,nan
2586256000,6,1656.4795,1730.9636,1660.0967,1733.5771,1500.0,1500.0,nan,nan,nan,nan,nan,nan,nan,nan,nan,nan
2586352000,6,1659.0659,1729.2904,1659.0764,1728.3722,1500.0,1500.0,nan,nan,nan,nan,nan,nan,nan,nan,nan,nan
2586456000,6,1659.7228,1724.9442,1660.2166,1724.9105,1500.0,1500.0,nan,nan,nan,nan,nan,nan,nan,nan,nan,nan
2586552000,6,1653.2218,1736.7356,1656.8337,1737.3688,1500.0,1500.0,nan,nan,nan,nan,nan,nan,nan,nan,nan,nan
2586656000,6,1655.1611,1736.478,1657.1506,1738.4469,1500.0,1500.0,nan,nan,nan,nan,nan,nan,nan,nan,nan,nan
2586752000,6,1658.5767,1731.8605,1659.2507,1733.2843,1500.0,1500.0,nan,nan,nan,nan,nan,nan,nan,nan,nan,nan
2586856000,6,1658.1265,1729.6229,1660.8221,1731.9175,1500.0,1500.0,nan,nan,nan,nan,nan,nan,nan,nan,nan,nan
2586952000,6,1657.1768,1728.2557,1659.8851,1726.7594,1500.0,1500.0,nan,nan,nan,nan,nan,nan,nan,nan,nan,nan
2587052000,6,1655.7279,1732.7812,1656.9393,1735.0604,1500.0,1500.0,nan,nan,nan,nan,nan,nan,nan,nan,nan,nan
2587156000,6,1656.2517,1732.2874,1659.203,1735.7966,1500.0,1500.0,nan,nan,nan,nan,nan,nan,nan,nan,nan,nan
2587256000,6,1657.1194,1728.0769,1660.0701,1729.713,1500.0,1500.0,nan,nan,nan,nan,nan,nan,nan,nan,nan,nan
2587356000,6,1658.6697,1724.7441,1659.6261,1728.6163,1500.0,1500.0,nan,nan,nan,nan,nan,nan,nan,nan,nan,nan
2587452000,6,1654.9629,1728.9368,1661.591,1727.0454,1500.0,1500.0,nan,nan,nan,nan,nan,nan,nan,nan,nan,nan
2587552000,6,1657.0402,1734.7333,1659.5687,1735.0928,1500.0,1500.0,nan,nan,nan,nan,nan,nan,nan,nan,nan,nan
2587652000,6,1658.6488,1727.8239,1662.8516,1730.599,1500.0,1500.0,nan,nan,nan,nan,nan,nan,nan,nan,nan,nan
2587756000,6,1657.3221,1729.068,1659.0635,1730.7344,1500.0,1500.0,nan,nan,nan,nan,nan,nan,nan,nan,nan,nan
2587856000,6,1660.1335,1726.9794,1661.6161,1727.868,1500.0,1500.0,nan,nan,nan,nan,nan,nan,nan,nan,nan,nan
2587956000,6,1659.3292,1724.7891,1660.6156,1729.341,1500.0,1500.0,nan,nan,nan,nan,nan,nan,nan,nan,nan,nan
2588056000,6,1653.3203,1735.6635,1659.4376,1737.015,1500.0,1500.0,nan,nan,nan,nan,nan,nan,nan,nan,nan,nan
2588152000,6,1658.967,1730.4094,1658.3037,1732.3215,1500.0,1500.0,nan,nan,nan,nan,nan,nan,nan,nan,nan,nan
2588256000,6,1657.0673,1729.0554,1660.9236,1732.2594,1500.0,1500.0,nan,nan,nan,nan,nan,nan,nan,nan,nan,nan
2588356000,6,1660.1509,1725.9459,1659.9683,1726.4888,1500.0,1500.0,nan,nan,nan,nan,nan,nan,nan,nan,nan,nan
2588456000,6,1654.0089,1736.5015,1657.8265,1737.5305,1500.0,1500.0,nan,nan,nan,nan,nan,nan,nan,nan,nan,nan
2588556000,6,1654.7998,1736.626,1657.5487,1739.282,1500.0,1500.0,nan,nan,nan,nan,nan,nan,nan,nan,nan,nan
2588656000,6,1655.5781,1732.377,1658.6685,1732.5388,1500.0,1500.0,nan,nan,nan,nan,nan,nan,nan,nan,nan,nan
2588756000,6,1661.0728,1727.5895,1663.7803,1728.7899,1500.0,1500.0,nan,nan,nan,nan,nan,nan,nan,nan,nan,nan
2588852000,6,1659.7249,1730.4872,1663.7395,1730.3867,1500.0,1500.0,nan,nan,nan,nan,nan,nan,nan,nan,nan,nan
2588956000,6,1655.946,1738.5537,1658.1436,1739.4636,1500.0,1500.0,nan,nan,nan,nan,nan,nan,nan,nan,nan,nan
2589052000,6,1660.98,1733.165,1662.8667,1735.4375,1500.0,1500.0,nan,nan,nan,nan,nan,nan,nan,nan,nan,nan
2589156000,6,1662.6489,1732.3501,1664.2286,1734.5427,1500.0,1500.0,nan,nan,nan,nan,nan,nan,nan,nan,nan,nan
2589252000,6,1663.7715,1727.6843,1666.7991,1731.4805,1500.0,1500.0,nan,nan,nan,nan,nan,nan,nan,nan,nan,nan
2589356000,6,1661.4446,1732.9551,1664.5894,1734.2102,1500.0,1500.0,nan,nan,nan,nan,nan,nan,nan,nan,nan,nan
2589456000,6,1658.6068,1740.9198,1661.6278,1743.268,1500.0,1500.0,nan,nan,nan,nan,nan,nan,nan,nan,nan,nan
2589556000,6,1660.9265,1735.3821,1663.1295,1735.9235,1500.0,1500.0,nan,nan,nan,nan,nan,nan,nan,nan,nan,nan
2589652000,6,1662.1686,1729.4329,1666.7618,1731.6782,1500.0,1500.0,nan,nan,nan,nan,nan,nan,nan,nan,nan,nan
2589756000,6,1664.2164,1730.9856,1664.6548,1733.8257,1500.0,1500.0,nan,nan,nan,nan,nan,nan,nan,nan,nan,nan
2589856000,6,1659.6215,1743.3564,1663.4447,1745.2518,1500.0,1500.0,nan,nan,nan,nan,nan,nan,nan,nan,nan,nan
2589952000,6,1662.1213,1737.2567,1662.3892,1739.9037,1500.0,1500.0,nan,nan,nan,nan,nan,nan,nan,nan,nan,nan
2590052000,6,1663.2191,1733.9209,1665.7805,1737.0818,1500.0,1500.0,nan,nan,nan,nan,nan,nan,nan,nan,nan,nan
2590156000,6,1659.3008,1738.5989,1662.5137,1740.0015,1500.0,1500.0,nan,nan,nan,nan,nan,nan,nan,nan,nan,nan
2590256000,6,1661.2968,1733.9521,1666.7811,1737.6106,1500.0,1500.0,nan,nan,nan,nan,nan,nan,nan,nan,nan,nan
2590356000,6,1661.0093,1741.5553,1664.372,1741.2235,1500.0,1500.0,nan,nan,nan,nan,nan,nan,nan,nan,nan,nan
2590452000,6,1665.9495,1734.4788,1666.2723,1739.4966,1500.0,1500.0,nan,nan,nan,nan,nan,nan,nan,nan,nan,nan
2590552000,6,1665.6617,1736.7588,1664.9095,1739.425,1500.0,1500.0,nan,nan,nan,nan,nan,nan,nan,nan,nan,nan
2590652000,6,1666.6354,1729.7174,1667.3203,1736.7308,1500.0,1500.0,nan,nan,nan,nan,nan,nan,nan,nan,nan,nan
2590756000,6,1659.9045,1741.8419,1663.8278,1742.8551,1500.0,1500.0,nan,nan,nan,nan,nan,nan,nan,nan,nan,nan
2590856000,6,1663.5557,1740.6278,1666.5181,1744.52,1500.0,1500.0,nan,nan,nan,nan,nan,nan,nan,nan,nan,nan
2590952000,6,1664.4928,1737.3887,1665.3014,1738.0728,1500.0,1500.0,nan,nan,nan,nan,nan,nan,nan,nan,nan,nan
2591052000,6,1666.8562,1734.8824,1668.9719,1736.7092,1500.0,1500.0,nan,nan,nan,nan,nan,nan,nan,nan,nan,nan
2591152000,6,1662.2809,1736.4226,1668.1794,1736.6176,1500.0,1500.0,nan,nan,nan,nan,nan,nan,nan,nan,nan,nan
2591256000,6,1659.1586,1747.5029,1661.7964,1748.6929,1500.0,1500.0,nan,nan,nan,nan,nan,nan,nan,nan,nan,nan
2591352000,6,1660.9482,1741.9285,1667.323,1742.3687,1500.0,1500.0,nan,nan,nan,nan,nan,nan,nan,nan,nan,nan
2591452000,6,1667.2017,1738.0776,1670.1338,1737.8362,1500.0,1500.0,nan,nan,nan,nan,nan,nan,nan,nan,nan,nan
2591556000,6,1661.186,1739.3431,1664.3176,1742.3921,1500.0,1500.0,nan,nan,nan,nan,nan,nan,nan,nan,nan,nan
2591656000,6,1663.8839,1734.1656,1666.3334,1733.4397,1500.0,1500.0,nan,nan,nan,nan,nan,nan,nan,nan,nan,nan
2591756000,6,1661.5498,1744.7676,1662.7786,1744.3829,1500.0,1500.0,nan,nan,nan,nan,nan,nan,nan,nan,nan,nan
2591856000,6,1664.7113,1740.9434,1666.2734,1741.4622,1500.0,1500.0,nan,nan,nan,nan,nan,nan,nan,nan,nan,nan
2591952000,6,1664.0237,1738.0366,1667.1927,1743.3254,1500.0,1500.0,nan,nan,nan,nan,nan,nan,nan,nan,nan,nan
2592056000,6,1663.1661,1735.6833,1668.4525,1736.032,1500.0,1500.0,nan,nan,nan,nan,nan,nan,nan,nan,nan,nan
2592152000,6,1659.5007,1745.3785,1663.106,1746.0852,1500.0,1500.0,nan,nan,nan,nan,nan,nan,nan,nan,nan,nan
2592252000,6,1661.667,1743.3892,1666.5648,1745.5442,1500.0,1500.0,nan,nan,nan,nan,nan,nan,nan,nan,nan,nan
2592352000,6,1662.8148,1740.1877,1665.804,1741.6255,1500.0,1500.0,nan,nan,nan,nan,nan,nan,nan,nan,nan,nan
2592452000,6,1664.0647,1735.4514,1666.355,1737.9401,1500.0,1500.0,nan,nan,nan,nan,nan,nan,nan,nan,nan,nan
2592552000,6,1663.9979,1735.5414,1670.3612,1736.1232,1500.0,1500.0,nan,nan,nan,nan,nan,nan,nan,nan,nan,nan
2592656000,6,1664.3217,1745.6343,1665.9319,1745.5048,1500.0,1500.0,nan,nan,nan,nan,nan,nan,nan,nan,nan,nan
2592752000,6,1661.0468,1744.9309,1665.6606,1745.0398,1500.0,1500.0,nan,nan,nan,nan,nan,nan,nan,nan,nan,nan
2592852000,6,1667.2549,1735.8921,1668.0574,1739.4244,1500.0,1500.0,nan,nan,nan,nan,nan,nan,nan,nan,nan,nan
2592952000,6,1668.7314,1732.8108,1668.9902,1735.3132,1500.0,1500.0,nan,nan,nan,nan,nan,nan,nan,nan,nan,nan
2593052000,6,1667.044,1734.3518,1668.7053,1738.2264,1500.0,1500.0,nan,nan,nan,nan,nan,nan,nan,nan,nan,nan
2593152000,6,1662.4918,1745.3114,1663.8801,1747.8562,1500.0,1500.0,nan,nan,nan,nan,nan,nan,nan,nan,nan,nan
2593252000,6,1664.4683,1738.8281,1665.996,1741.0016,1500.0,1500.0,nan,nan,nan,nan,nan,nan,nan,nan,nan,nan
2593356000,6,1662.8733,1741.3676,1664.3981,1743.5884,1500.0,1500.0,nan,nan,nan,nan,nan,nan,nan,nan,nan,nan
2593456000,6,1667.3666,1733.4277,1669.6987,1735.6078,1500.0,1500.0,nan,nan,nan,nan,nan,nan,nan,nan,nan,nan
2593552000,6,1665.2881,1741.1938,1664.7239,1747.9556,1500.0,1500.0,nan,nan,nan,nan,nan,nan,nan,nan,nan,nan
2593652000,6,1662.0813,1745.5647,1667.0557,1748.6041,1500.0,1500.0,nan,nan,nan,nan,nan,nan,nan,nan,nan,nan
2593752000,6,1662.4226,1744.0361,1667.3174,1746.4718,1500.0,1500.0,nan,nan,nan,nan,nan,nan,nan,nan,nan,nan
2593852000,6,1667.8254,1736.4359,1671.0432,1737.9431,1500.0,1500.0,nan,nan,nan,nan,nan,nan,nan,nan,nan,nan
2593952000,6,1668.1923,1739.4501,1671.8871,1742.6952,1500.0,1500.0,nan,nan,nan,nan,nan,nan,nan,nan,nan,nan
2594052000,6,1667.1979,1747.2883,1668.4578,1751.5051,1500.0,1500.0,nan,nan,nan,nan,nan,nan,nan,nan,nan,nan
2594152000,6,1665.4963,1750.2465,1670.2603,1753.0044,1500.0,1500.0,nan,nan,nan,nan,nan,nan,nan,nan,nan,nan
2594256000,6,1669.8749,1745.0889,1670.6633,1747.8774,1500.0,1500.0,nan,nan,nan,nan,nan,nan,nan,nan,nan,nan
2594356000,6,1667.9487,1742.2673,1674.535,1738.6924,1500.0,1500.0,nan,nan,nan,nan,nan,nan,nan,nan,nan,nan
2594452000,6,1673.2948,1740.1918,1675.8839,1739.4247,1500.0,1500.0,nan,nan,nan,nan,nan,nan,nan,nan,nan,nan
2594552000,6,1668.6536,1750.1418,1671.8873,1750.593,1500.0,1500.0,nan,nan,nan,nan,nan,nan,nan,nan,nan,nan
2594656000,6,1668.9592,1746.094,1669.1741,1748.3496,1500.0,1500.0,nan,nan,nan,nan,nan,nan,nan,nan,nan,nan
2594756000,6,1667.718,1745.5872,1671.5437,1749.0577,1500.0,1500.0,nan,nan,nan,nan,nan,nan,nan,nan,nan,nan
2594856000,6,1670.1677,1740.9469,1673.2589,1742.873,1500.0,1500.0,nan,nan,nan,nan,nan,nan,nan,nan,nan,nan
2594952000,6,1667.1516,1749.9984,1668.0498,1753.2072,1500.0,1500.0,nan,nan,nan,nan,nan,nan,nan,nan,nan,nan
2595052000,6,1666.256,1749.1506,1669.919,1751.7224,1500.0,1500.0,nan,nan,nan,nan,nan,nan,nan,nan,nan,nan
2595152000,6,1670.4857,1742.9569,1675.2876,1746.6171,1500.0,1500.0,nan,nan,nan,nan,nan,nan,nan,nan,nan,nan
2595256000,6,1668.0708,1744.75,1669.977,1749.7966,1500.0,1500.0,nan,nan,nan,nan,nan,nan,nan,nan,nan,nan
2595356000,6,1670.797,1738.7444,1670.1433,1743.3455,1500.0,1500.0,nan,nan,nan,nan,nan,nan,nan,nan,nan,nan
2595452000,6,1667.595,1747.7229,1670.4788,1748.397,1500.0,1500.0,nan,nan,nan,nan,nan,nan,nan,nan,nan,nan
2595552000,6,1663.3966,1750.3956,1668.9974,1752.196,1500.0,1500.0,nan,nan,nan,nan,nan,nan,nan,nan,nan,nan
2595652000,6,1669.2925,1743.0896,1671.6003,1745.5448,1500.0,1500.0,nan,nan,nan,nan,nan,nan,nan,nan,nan,nan
2595756000,6,1666.3618,1748.9829,1667.8939,1752.1011,1500.0,1500.0,nan,nan,nan,nan,nan,nan,nan,nan,nan,nan
2595852000,6,1667.5288,1742.2717,1671.4995,1743.4075,1500.0,1500.0,nan,nan,nan,nan,nan,nan,nan,nan,nan,nan
2595952000,6,1666.8451,1752.2153,1667.3589,1753.0988,1500.0,1500.0,nan,nan,nan,nan,nan,nan,nan,nan,nan,nan
2596052000,6,1666.8512,1743.9258,1669.1173,1749.0984,1500.0,1500.0,nan,nan,nan,nan,nan,nan,nan,nan,nan,nan
2596152000,6,1666.8951,1745.7556,1670.26,1747.5798,1500.0,1500.0,nan,nan,nan,nan,nan,nan,nan,nan,nan,nan
2596252000,6,1666.6569,1741.6475,1670.1788,1742.062,1500.0,1500.0,nan,nan,nan,nan,nan,nan,nan,nan,nan,nan
2596352000,6,1665.341,1750.4736,1669.377,1755.3546,1500.0,1500.0,nan,nan,nan,nan,nan,nan,nan,nan,nan,nan
2596456000,6,1662.4427,1753.0945,1668.1033,1753.6128,1500.0,1500.0,nan,nan,nan,nan,nan,nan,nan,nan,nan,nan
2596552000,6,1667.0468,1746.5682,1670.1987,1748.3801,1500.0,1500.0,nan,nan,nan,nan,nan,nan,nan,nan,nan,nan
2596656000,6,1667.5996,1742.3958,1667.9177,1745.8845,1500.0,1500.0,nan,nan,nan,nan,nan,nan,nan,nan,nan,nan
2596756000,6,1672.7374,1737.4426,1675.1082,1740.4647,1500.0,1500.0,nan,nan,nan,nan,nan,nan,nan,nan,nan,nan
2596852000,6,1663.8837,1750.7917,1667.497,1750.5508,1500.0,1500.0,nan,nan,nan,nan,nan,nan,nan,nan,nan,nan
2596952000,6,1666.6343,1749.8472,1670.1511,1750.3868,1500.0,1500.0,nan,nan,nan,nan,nan,nan,nan,nan,nan,nan
2597052000,6,1665.6597,1746.502,1667.3646,1746.8207,1500.0,1500.0,nan,nan,nan,nan,nan,nan,nan,nan,nan,nan
2597156000,6,1670.0265,1739.5887,1672.5791,1740.9934,1500.0,1500.0,nan,nan,nan,nan,nan,nan,nan,nan,nan,nan
2597252000,6,1666.2332,1739.027,1667.5328,1743.9043,1500.0,1500.0,nan,nan,nan,nan,nan,nan,nan,nan,nan,nan
2597356000,6,1659.6637,1748.3953,1661.9993,1753.6753,1500.0,1500.0,nan,nan,nan,nan,nan,nan,nan,nan,nan,nan
2597452000,6,1668.3947,1740.5828,1668.9508,1740.6263,1500.0,1500.0,nan,nan,nan,nan,nan,nan,nan,nan,nan,nan
2597552000,6,1666.9382,1743.4342,1672.955,1744.9519,1500.0,1500.0,nan,nan,nan,nan,nan,nan,nan,nan,nan,nan
2597656000,6,1668.2524,1739.6912,1667.9167,1743.8081,1500.0,1500.0,nan,nan,nan,nan,nan,nan,nan,nan,nan,nan
2597752000,6,1664.4407,1751.2708,1668.6648,1751.9407,1500.0,1500.0,nan,nan,nan,nan,nan,nan,nan,nan,nan,nan
2597856000,6,1665.2385,1751.3696,1668.993,1752.809,1500.0,1500.0,nan,nan,nan,nan,nan,nan,nan,nan,nan,nan
2597956000,6,1665.8677,1745.4658,1671.3898,1742.4749,1500.0,1500.0,nan,nan,nan,nan,nan,nan,nan,nan,nan,nan
2598056000,6,1665.4147,1748.3708,1665.702,1750.3578,1500.0,1500.0,nan,nan,nan,nan,nan,nan,nan,nan,nan,nan
2598156000,6,1669.232,1741.4216,1670.6791,1744.1279,1500.0,1500.0,nan,nan,nan,nan,nan,nan,nan,nan,nan,nan
2598252000,6,1667.6284,1739.2842,1670.7845,1742.3741,1500.0,1500.0,nan,nan,nan,nan,nan,nan,nan,nan,nan,nan
2598356000,6,1665.9058,1739.4203,1666.3613,1745.2167,1500.0,1500.0,nan,nan,nan,nan,nan,nan,nan,nan,nan,nan
2598452000,6,1662.5825,1751.2787,1665.9945,1751.4376,1500.0,1500.0,nan,nan,nan,nan,nan,nan,nan,nan,nan,nan
2598552000,6,1666.1772,1744.2908,1668.6515,1746.5775,1500.0,1500.0,nan,nan,nan,nan,nan,nan,nan,nan,nan,nan
2598656000,6,1669.6105,1739.2908,1670.6483,1744.1248,1500.0,1500.0,nan,nan,nan,nan,nan,nan,nan,nan,nan,nan
2598752000,6,1668.046,1738.6566,1671.5659,1738.8113,1500.0,1500.0,nan,nan,nan,nan,nan,nan,nan,nan,nan,nan
2598856000,6,1664.9792,1750.4524,1668.3096,1752.0131,1500.0,1500.0,nan,nan,nan,nan,nan,nan,nan,nan,nan,nan
2598956000,6,1663.2437,1753.4855,1671.3975,1753.1943,1500.0,1500.0,nan,nan,nan,nan,nan,nan,nan,nan,nan,nan
2599052000,6,1665.9766,1746.941,1671.29,1749.0831,1500.0,1500.0,nan,nan,nan,nan,nan,nan,nan,nan,nan,nan
2599152000,6,1667.3226,1741.5759,1669.6123,1746.1637,1500.0,1500.0,nan,nan,nan,nan,nan,nan,nan,nan,nan,nan
2599252000,6,1674.3242,1739.5212,1676.0862,1744.9258,1500.0,1500.0,nan,nan,nan,nan,nan,nan,nan,nan,nan,nan
2599356000,6,1671.5754,1751.5529,1671.7214,1757.133,1500.0,1500.0,nan,nan,nan,nan,nan,nan,nan,nan,nan,nan
2599452000,6,1670.2014,1754.4365,1673.1342,1757.623,1500.0,1500.0,nan,nan,nan,nan,nan,nan,nan,nan,nan,nan
2599556000,6,1669.589,1753.0193,1673.3752,1753.1012,1500.0,1500.0,nan,nan,nan,nan,nan,nan,nan,nan,nan,nan
2599652000,6,1670.7264,1734.5159,1675.5593,1735.7743,1500.0,1500.0,nan,nan,nan,nan,nan,nan,nan,nan,nan,nan
2599756000,6,1670.9635,1725.5646,1670.4238,1727.9653,1500.0,1500.0,nan,nan,nan,nan,nan,nan,nan,nan,nan,nan
2599856000,6,1663.4543,1714.533,1665.1782,1720.2767,1500.0,1500.0,nan,nan,nan,nan,nan,nan,nan,nan,nan,nan
2599952000,6,1639.2247,1729.0858,1648.4232,1724.6752,1500.0,1500.0,nan,nan,nan,nan,nan,nan,nan,nan,nan,nan
2600052000,6,1626.8405,1725.3737,1629.5647,1722.5806,1500.0,1500.0,nan,nan,nan,nan,nan,nan,nan,nan,nan,nan
2600152000,6,1621.4395,1706.6636,1621.6462,1704.2405,1500.0,1500.0,nan,nan,nan,nan,nan,nan,nan,nan,nan,nan
2600252000,6,1621.7281,1693.5719,1624.1376,1689.9788,1500.0,1500.0,nan,nan,nan,nan,nan,nan,nan,nan,nan,nan
2600352000,6,1613.3674,1692.6195,1617.3792,1690.867,1500.0,1500.0,nan,nan,nan,nan,nan,nan,nan,nan,nan,nan
2600452000,6,1610.4099,1682.5706,1613.6248,1679.6537,1500.0,1500.0,nan,nan,nan,nan,nan,nan,nan,nan,nan,nan
2600552000,6,1606.0042,1674.0095,1605.5394,1672.173,1500.0,1500.0,nan,nan,nan,nan,nan,nan,nan,nan,nan,nan
2600656000,6,1603.9421,1661.7036,1605.0897,1661.1348,1500.0,1500.0,nan,nan,nan,nan,nan,nan,nan,nan,nan,nan
2600752000,6,1597.1019,1660.8866,1596.98,1659.344,1500.0,1500.0,nan,nan,nan,nan,nan,nan,nan,nan,nan,nan
2600856000,6,1590.2933,1659.4325,1589.7517,1659.2498,1500.0,1500.0,nan,nan,nan,nan,nan,nan,nan,nan,nan,nan
2600952000,6,1593.7168,1644.6064,1595.6731,1644.4921,1500.0,1500.0,nan,nan,nan,nan,nan,nan,nan,nan,nan,nan
2601056000,6,1591.0483,1639.0945,1591.4364,1640.2131,1500.0,1500.0,nan,nan,nan,nan,nan,nan,nan,nan,nan,nan
2601156000,6,1587.9346,1638.2238,1586.5023,1637.8939,1500.0,1500.0,nan,nan,nan,nan,nan,nan,nan,nan,nan,nan
2601252000,6,1585.2642,1632.5898,1587.6289,1629.5771,1500.0,1500.0,nan,nan,nan,nan,nan,nan,nan,nan,nan,nan
2601352000,6,1583.9529,1627.0216,1581.9473,1626.779,1500.0,1500.0,nan,nan,nan,nan,nan,nan,nan,nan,nan,nan
2601452000,6,1585.1815,1620.1223,1582.2463,1619.9266,1500.0,1500.0,nan,nan,nan,nan,nan,nan,nan,nan,nan,nan
2601552000,6,1582.12,1613.7737,1582.3162,1615.3159,1500.0,1500.0,nan,nan,nan,nan,nan,nan,nan,nan,nan,nan
2601652000,6,1577.4902,1616.001,1579.198,1613.2606,1500.0,1500.0,nan,nan,nan,nan,nan,nan,nan,nan,nan,nan
2601756000,6,1577.8785,1612.2123,1580.313,1608.0497,1500.0,1500.0,nan,nan,nan,nan,nan,nan,nan,nan,nan,nan
2601852000,6,1576.5498,1608.7362,1580.4178,1607.4688,1500.0,1500.0,nan,nan,nan,nan,nan,nan,nan,nan,nan,nan
2601952000,6,1581.0151,1613.9333,1569.3427,1592.2598,1500.0,1500.0,nan,nan,nan,nan,nan,nan,nan,nan,nan,nan
2602052000,6,1603.7056,1633.5177,1545.0591,1553.3579,1500.0,1500.0,nan,nan,nan,nan,nan,nan,nan,nan,nan,nan
2602152000,6,1619.6837,1647.5743,1544.1172,1529.4286,1500.0,1500.0,nan,nan,nan,nan,nan,nan,nan,nan,nan,nan
2602252000,6,1609.2054,1647.5063,1534.4994,1541.8693,1500.0,1500.0,nan,nan,nan,nan,nan,nan,nan,nan,nan,nan
2602356000,6,1607.0336,1651.457,1527.2673,1540.5612,1500.0,1500.0,nan,nan,nan,nan,nan,nan,nan,nan,nan,nan
2602452000,6,1611.8236,1645.4489,1540.7401,1539.3387,1500.0,1500.0,nan,nan,nan,nan,nan,nan,nan,nan,nan,nan
2602556000,6,1608.9327,1641.5251,1529.9944,1561.0826,1500.0,1500.0,nan,nan,nan,nan,nan,nan,nan,nan,nan,nan
2602656000,6,1617.4241,1633.4307,1519.7708,1563.2168,1500.0,1500.0,nan,nan,nan,nan,nan,nan,nan,nan,nan,nan
2602756000,6,1617.3406,1605.0269,1509.2064,1567.7256,1500.0,1500.0,nan,nan,nan,nan,nan,nan,nan,nan,nan,nan
2602856000,6,1606.4674,1629.8842,1562.0709,1540.9733,1500.0,1500.0,nan,nan,nan,nan,nan,nan,nan,nan,nan,nan
2602952000,6,1614.5631,1636.543,1559.8323,1529.805,1500.0,1500.0,nan,nan,nan,nan,nan,nan,nan,nan,nan,nan
2603056000,6,1603.1367,1637.397,1551.9197,1534.8628,1500.0,1500.0,nan,nan,nan,nan,nan,nan,nan,nan,nan,nan
2603152000,6,1602.9653,1635.7665,1549.8463,1545.968,1500.0,1500.0,nan,nan,nan,nan,nan,nan,nan,nan,nan,nan
2603256000,6,1596.4011,1649.4883,1550.5198,1531.9503,1500.0,1500.0,nan,nan,nan,nan,nan,nan,nan,nan,nan,nan
2603356000,6,1595.7385,1647.8062,1554.7574,1533.1365,1500.0,1500.0,nan,nan,nan,nan,nan,nan,nan,nan,nan,nan
2603456000,6,1593.2291,1645.9688,1553.3351,1545.1953,1500.0,1500.0,nan,nan,nan,nan,nan,nan,nan,nan,nan,nan
2603552000,6,1605.3163,1639.954,1547.2378,1534.6995,1500.0,1500.0,nan,nan,nan,nan,nan,nan,nan,nan,nan,nan
2603652000,6,1621.308,1620.3406,1547.058,1545.7639,1500.0,1500.0,nan,nan,nan,nan,nan,nan,nan,nan,nan,nan
2603752000,6,1589.1115,1653.9474,1552.3964,1549.875,1500.0,1500.0,nan,nan,nan,nan,nan,nan,nan,nan,nan,nan
2603856000,6,1612.6971,1634.3007,1551.9788,1547.9609,1500.0,1500.0,nan,nan,nan,nan,nan,nan,nan,nan,nan,nan
2603952000,6,1607.0638,1641.3629,1555.656,1552.0686,1500.0,1500.0,nan,nan,nan,nan,nan,nan,nan,nan,nan,nan
2604056000,6,1609.8647,1646.6523,1553.968,1552.4513,1500.0,1500.0,nan,nan,nan,nan,nan,nan,nan,nan,nan,nan
2604152000,6,1606.6191,1657.7795,1553.3364,1560.3982,1500.0,1500.0,nan,nan,nan,nan,nan,nan,nan,nan,nan,nan
2604256000,6,1588.0659,1671.8248,1550.5548,1574.936,1500.0,1500.0,nan,nan,nan,nan,nan,nan,nan,nan,nan,nan
2604352000,6,1607.3204,1640.8706,1562.628,1561.9319,1500.0,1500.0,nan,nan,nan,nan,nan,nan,nan,nan,nan,nan
2604452000,6,1627.4901,1638.2877,1568.8065,1562.3243,1500.0,1500.0,nan,nan,nan,nan,nan,nan,nan,nan,nan,nan
2604552000,6,1614.9154,1647.9802,1566.068,1574.1581,1500.0,1500.0,nan,nan,nan,nan,nan,nan,nan,nan,nan,nan
2604656000,6,1617.7465,1654.4146,1564.5645,1578.52,1500.0,1500.0,nan,nan,nan,nan,nan,nan,nan,nan,nan,nan
2604756000,6,1599.4186,1664.3295,1570.1532,1612.8165,1500.0,1500.0,nan,nan,nan,nan,nan,nan,nan,nan,nan,nan
2604852000,6,1581.4498,1645.3168,1594.4137,1639.5421,1500.0,1500.0,nan,nan,nan,nan,nan,nan,nan,nan,nan,nan
2604952000,6,1583.6837,1632.6548,1606.7988,1636.38,1500.0,1500.0,nan,nan,nan,nan,nan,nan,nan,nan,nan,nan
2605052000,6,1593.6049,1634.902,1607.0776,1642.5256,1500.0,1500.0,nan,nan,nan,nan,nan,nan,nan,nan,nan,nan
2605152000,6,1588.3285,1656.8252,1599.1127,1667.4983,1500.0,1500.0,nan,nan,nan,nan,nan,nan,nan,nan,nan,nan
2605256000,6,1601.0131,1649.2372,1609.3859,1657.2144,1500.0,1500.0,nan,nan,nan,nan,nan,nan,nan,nan,nan,nan
2605352000,6,1609.1666,1642.5411,1613.0509,1649.8812,1500.0,1500.0,nan,nan,nan,nan,nan,nan,nan,nan,nan,nan
2605452000,6,1615.7544,1660.8649,1619.2599,1667.2982,1500.0,1500.0,nan,nan,nan,nan,nan,nan,nan,nan,nan,nan
2605552000,6,1615.3522,1663.2031,1617.0953,1662.665,1500.0,1500.0,nan,nan,nan,nan,nan,nan,nan,nan,nan,nan
2605652000,6,1619.6188,1674.4713,1619.6608,1681.9854,1500.0,1500.0,nan,nan,nan,nan,nan,nan,nan,nan,nan,nan
2605756000,6,1630.6394,1657.3585,1632.6056,1656.4614,1500.0,1500.0,nan,nan,nan,nan,nan,nan,nan,nan,nan,nan
2605856000,6,1639.4395,1666.0132,1635.0111,1666.6498,1500.0,1500.0,nan,nan,nan,nan,nan,nan,nan,nan,nan,nan
2605952000,6,1637.8741,1658.7754,1639.0365,1655.2587,1500.0,1500.0,nan,nan,nan,nan,nan,nan,nan,nan,nan,nan
2606052000,6,1635.6265,1671.6465,1631.6096,1665.095,1500.0,1500.0,nan,nan,nan,nan,nan,nan,nan,nan,nan,nan
2606152000,6,1636.4146,1670.8474,1632.7502,1659.781,1500.0,1500.0,nan,nan,nan,nan,nan,nan,nan,nan,nan,nan
2606252000,6,1636.6094,1678.2001,1624.6626,1672.6636,1500.0,1500.0,nan,nan,nan,nan,nan,nan,nan,nan,nan,nan
2606352000,6,1635.2388,1682.5245,1619.9775,1672.4934,1500.0,1500.0,nan,nan,nan,nan,nan,nan,nan,nan,nan,nan
2606456000,6,1633.549,1685.7643,1616.8108,1674.1232,1500.0,1500.0,nan,nan,nan,nan,nan,nan,nan,nan,nan,nan
2606556000,6,1636.4066,1689.1091,1613.6805,1667.6927,1500.0,1500.0,nan,nan,nan,nan,nan,nan,nan,nan,nan,nan
2606656000,6,1640.3386,1694.2501,1610.8429,1669.5369,1500.0,1500.0,nan,nan,nan,nan,nan,nan,nan,nan,nan,nan
2606756000,6,1633.1522,1688.5183,1615.7743,1680.8269,1500.0,1500.0,nan,nan,nan,nan,nan,nan,nan,nan,nan,nan
2606856000,6,1626.1648,1673.6971,1627.2666,1678.736,1500.0,1500.0,nan,nan,nan,nan,nan,nan,nan,nan,nan,nan
2606956000,6,1598.0989,1650.9514,1654.4678,1709.9933,1500.0,1500.0,nan,nan,nan,nan,nan,nan,nan,nan,nan,nan
2607052000,6,1583.3881,1651.625,1656.355,1722.8905,1500.0,1500.0,nan,nan,nan,nan,nan,nan,nan,nan,nan,nan
2607152000,6,1585.5009,1651.7244,1657.7681,1726.9048,1500.0,1500.0,nan,nan,nan,nan,nan,nan,nan,nan,nan,nan
2607256000,6,1618.4348,1669.752,1624.3771,1704.4857,1500.0,1500.0,nan,nan,nan,nan,nan,nan,nan,nan,nan,nan
2607352000,6,1638.0305,1666.9442,1615.8806,1683.9581,1500.0,1500.0,nan,nan,nan,nan,nan,nan,nan,nan,nan,nan
2607456000,6,1627.2576,1681.1328,1614.7241,1695.5958,1500.0,1500.0,nan,nan,nan,nan,nan,nan,nan,nan,nan,nan
2607552000,6,1622.5403,1682.5693,1622.4921,1685.4669,1500.0,1500.0,nan,nan,nan,nan,nan,nan,nan,nan,nan,nan
2607656000,6,1627.5028,1683.231,1627.9825,1680.7324,1500.0,1500.0,nan,nan,nan,nan,nan,nan,nan,nan,nan,nan
2607756000,6,1629.3026,1683.3447,1632.8215,1678.716,1500.0,1500.0,nan,nan,nan,nan,nan,nan,nan,nan,nan,nan
2607852000,6,1630.9072,1677.9154,1634.7686,1676.2776,1500.0,1500.0,nan,nan,nan,nan,nan,nan,nan,nan,nan,nan
2607952000,6,1621.351,1695.1617,1623.5507,1694.4379,1500.0,1500.0,nan,nan,nan,nan,nan,nan,nan,nan,nan,nan
2608056000,6,1620.3613,1693.2651,1624.3876,1693.2404,1500.0,1500.0,nan,nan,nan,nan,nan,nan,nan,nan,nan,nan
2608152000,6,1626.5675,1681.5198,1630.2107,1678.9008,1500.0,1500.0,nan,nan,nan,nan,nan,nan,nan,nan,nan,nan
2608256000,6,1631.2717,1680.1758,1633.8298,1678.2926,1500.0,1500.0,nan,nan,nan,nan,nan,nan,nan,nan,nan,nan
2608352000,6,1630.4712,1683.7395,1633.9111,1683.4609,1500.0,1500.0,nan,nan,nan,nan,nan,nan,nan,nan,nan,nan
2608456000,6,1624.8774,1687.4359,1629.7349,1687.1108,1500.0,1500.0,nan,nan,nan,nan,nan,nan,nan,nan,nan,nan
2608552000,6,1621.9447,1691.998,1626.7866,1688.6124,1500.0,1500.0,nan,nan,nan,nan,nan,nan,nan,nan,nan,nan
2608656000,6,1627.5844,1689.8243,1634.2028,1687.2736,1500.0,1500.0,nan,nan,nan,nan,nan,nan,nan,nan,nan,nan
2608756000,6,1626.7383,1690.8599,1630.1934,1690.5492,1500.0,1500.0,nan,nan,nan,nan,nan,nan,nan,nan,nan,nan
2608856000,6,1631.9698,1680.502,1636.1284,1679.3606,1500.0,1500.0,nan,nan,nan,nan,nan,nan,nan,nan,nan,nan
2608956000,6,1628.5325,1686.3855,1631.9639,1684.4518,1500.0,1500.0,nan,nan,nan,nan,nan,nan,nan,nan,nan,nan
2609052000,6,1625.4019,1692.2262,1629.086,1693.0676,1500.0,1500.0,nan,nan,nan,nan,nan,nan,nan,nan,nan,nan
2609152000,6,1631.6332,1684.0596,1632.4028,1686.1705,1500.0,1500.0,nan,nan,nan,nan,nan,nan,nan,nan,nan,nan
2609252000,6,1633.3052,1687.8408,1634.8663,1689.875,1500.0,1500.0,nan,nan,nan,nan,nan,nan,nan,nan,nan,nan
2609356000,6,1631.212,1683.6978,1638.7264,1681.8096,1500.0,1500.0,nan,nan,nan,nan,nan,nan,nan,nan,nan,nan
2609456000,6,1631.666,1692.0685,1633.6936,1692.2826,1500.0,1500.0,nan,nan,nan,nan,nan,nan,nan,nan,nan,nan
2609556000,6,1632.3365,1688.645,1635.8569,1689.1816,1500.0,1500.0,nan,nan,nan,nan,nan,nan,nan,nan,nan,nan
2609652000,6,1632.2089,1691.9246,1632.9342,1695.3203,1500.0,1500.0,nan,nan,nan,nan,nan,nan,nan,nan,nan,nan
2609752000,6,1630.4006,1691.2582,1636.7437,1687.5535,1500.0,1500.0,nan,nan,nan,nan,nan,nan,nan,nan,nan,nan
2609856000,6,1634.1531,1692.9877,1637.7385,1691.7688,1500.0,1500.0,nan,nan,nan,nan,nan,nan,nan,nan,nan,nan
2609956000,6,1633.6826,1687.3438,1633.7723,1687.3191,1500.0,1500.0,nan,nan,nan,nan,nan,nan,nan,nan,nan,nan
2610056000,6,1635.7363,1693.2457,1639.9933,1690.4265,1500.0,1500.0,nan,nan,nan,nan,nan,nan,nan,nan,nan,nan
2610152000,6,1628.8923,1696.7422,1632.2107,1698.5836,1500.0,1500.0,nan,nan,nan,nan,nan,nan,nan,nan,nan,nan
2610252000,6,1634.3085,1688.1705,1639.4797,1687.0848,1500.0,1500.0,nan,nan,nan,nan,nan,nan,nan,nan,nan,nan
2610352000,6,1634.7246,1686.8041,1637.3778,1683.954,1500.0,1500.0,nan,nan,nan,nan,nan,nan,nan,nan,nan,nan
2610456000,6,1632.1615,1692.4164,1636.0897,1691.981,1500.0,1500.0,nan,nan,nan,nan,nan,nan,nan,nan,nan,nan
2610552000,6,1629.4186,1700.334,1634.7292,1696.7722,1500.0,1500.0,nan,nan,nan,nan,nan,nan,nan,nan,nan,nan
2610652000,6,1633.1031,1690.2483,1637.1066,1688.8379,1500.0,1500.0,nan,nan,nan,nan,nan,nan,nan,nan,nan,nan
2610756000,6,1635.196,1693.6934,1639.1141,1697.0709,1500.0,1500.0,nan,nan,nan,nan,nan,nan,nan,nan,nan,nan
2610852000,6,1633.2057,1698.4529,1637.914,1696.957,1500.0,1500.0,nan,nan,nan,nan,nan,nan,nan,nan,nan,nan
2610956000,6,1630.9883,1695.6223,1637.0839,1694.083,1500.0,1500.0,nan,nan,nan,nan,nan,nan,nan,nan,nan,nan
2611056000,6,1636.3685,1696.0328,1640.8147,1695.6174,1500.0,1500.0,nan,nan,nan,nan,nan,nan,nan,nan,nan,nan
2611156000,6,1638.9932,1692.4332,1641.7084,1692.6038,1500.0,1500.0,nan,nan,nan,nan,nan,nan,nan,nan,nan,nan
2611252000,6,1641.5381,1685.5576,1644.768,1687.1196,1500.0,1500.0,nan,nan,nan,nan,nan,nan,nan,nan,nan,nan
2611356000,6,1637.9515,1691.3416,1642.0505,1692.3125,1500.0,1500.0,nan,nan,nan,nan,nan,nan,nan,nan,nan,nan
2611456000,6,1631.8694,1701.842,1634.9421,1704.007,1500.0,1500.0,nan,nan,nan,nan,nan,nan,nan,nan,nan,nan
2611552000,6,1632.4591,1704.6802,1635.7638,1702.4738,1500.0,1500.0,nan,nan,nan,nan,nan,nan,nan,nan,nan,nan
2611656000,6,1634.5217,1701.2653,1638.4867,1702.8983,1500.0,1500.0,nan,nan,nan,nan,nan,nan,nan,nan,nan,nan
2611756000,6,1636.611,1692.8805,1640.0537,1695.6769,1500.0,1500.0,nan,nan,nan,nan,nan,nan,nan,nan,nan,nan
2611852000,6,1633.4518,1704.6146,1638.1947,1701.0184,1500.0,1500.0,nan,nan,nan,nan,nan,nan,nan,nan,nan,nan
2611952000,6,1634.4175,1703.926,1638.9639,1705.0736,1500.0,1500.0,nan,nan,nan,nan,nan,nan,nan,nan,nan,nan
2612052000,6,1639.5522,1702.0448,1639.5048,1705.849,1500.0,1500.0,nan,nan,nan,nan,nan,nan,nan,nan,nan,nan
2612152000,6,1638.2722,1696.185,1640.3176,1698.4146,1500.0,1500.0,nan,nan,nan,nan,nan,nan,nan,nan,nan,nan
2612252000,6,1637.993,1700.2599,1641.0239,1700.4746,1500.0,1500.0,nan,nan,nan,nan,nan,nan,nan,nan,nan,nan
2612352000,6,1634.1971,1706.223,1638.7147,1706.1133,1500.0,1500.0,nan,nan,nan,nan,nan,nan,nan,nan,nan,nan
2612452000,6,1636.3884,1699.4731,1641.7316,1699.0874,1500.0,1500.0,nan,nan,nan,nan,nan,nan,nan,nan,nan,nan
2612556000,6,1635.6609,1702.5853,1642.0833,1701.7927,1500.0,1500.0,nan,nan,nan,nan,nan,nan,nan,nan,nan,nan
2612652000,6,1643.4362,1693.0194,1644.5828,1694.8556,1500.0,1500.0,nan,nan,nan,nan,nan,nan,nan,nan,nan,nan
2612756000,6,1638.7339,1697.2896,1644.4888,1696.4766,1500.0,1500.0,nan,nan,nan,nan,nan,nan,nan,nan,nan,nan
2612856000,6,1635.0657,1707.4329,1638.2339,1705.935,1500.0,1500.0,nan,nan,nan,nan,nan,nan,nan,nan,nan,nan
2612952000,6,1634.6001,1709.0446,1635.6326,1706.7288,1500.0,1500.0,nan,nan,nan,nan,nan,nan,nan,nan,nan,nan
2613052000,6,1635.66,1705.5326,1642.5442,1704.1455,1500.0,1500.0,nan,nan,nan,nan,nan,nan,nan,nan,nan,nan
2613156000,6,1640.8352,1699.3197,1642.2323,1700.4631,1500.0,1500.0,nan,nan,nan,nan,nan,nan,nan,nan,nan,nan
2613252000,6,1635.0448,1713.1455,1638.009,1709.794,1500.0,1500.0,nan,nan,nan,nan,nan,nan,nan,nan,nan,nan
2613356000,6,1637.851,1701.5992,1644.8331,1701.6467,1500.0,1500.0,nan,nan,nan,nan,nan,nan,nan,nan,nan,nan
2613456000,6,1639.4003,1704.3013,1642.8314,1702.5116,1500.0,1500.0,nan,nan,nan,nan,nan,nan,nan,nan,nan,nan
2613552000,6,1644.7046,1695.01,1646.6719,1698.6804,1500.0,1500.0,nan,nan,nan,nan,nan,nan,nan,nan,nan,nan
2613652000,6,1643.0358,1700.0146,1647.3965,1696.8322,1500.0,1500.0,nan,nan,nan,nan,nan,nan,nan,nan,nan,nan
2613752000,6,1634.6266,1711.9993,1638.8705,1712.1093,1500.0,1500.0,nan,nan,nan,nan,nan,nan,nan,nan,nan,nan
2613852000,6,1637.3562,1708.9701,1641.6455,1708.301,1500.0,1500.0,nan,nan,nan,nan,nan,nan,nan,nan,nan,nan
2613956000,6,1636.3506,1703.0522,1645.0101,1699.4072,1500.0,1500.0,nan,nan,nan,nan,nan,nan,nan,nan,nan,nan
2614052000,6,1641.4526,1703.024,1644.8896,1703.6165,1500.0,1500.0,nan,nan,nan,nan,nan,nan,nan,nan,nan,nan
2614156000,6,1642.3868,1699.4358,1648.0398,1697.3231,1500.0,1500.0,nan,nan,nan,nan,nan,nan,nan,nan,nan,nan
2614256000,6,1633.2509,1712.5293,1639.3165,1710.4371,1500.0,1500.0,nan,nan,nan,nan,nan,nan,nan,nan,nan,nan
2614356000,6,1639.4811,1705.8419,1643.2957,1707.8683,1500.0,1500.0,nan,nan,nan,nan,nan,nan,nan,nan,nan,nan
2614452000,6,1642.3344,1699.9369,1643.2456,1698.4941,1500.0,1500.0,nan,nan,nan,nan,nan,nan,nan,nan,nan,nan
2614552000,6,1642.0629,1700.9083,1644.0288,1703.0319,1500.0,1500.0,nan,nan,nan,nan,nan,nan,nan,nan,nan,nan
2614652000,6,1640.0092,1710.2795,1644.486,1708.1378,1500.0,1500.0,nan,nan,nan,nan,nan,nan,nan,nan,nan,nan
2614756000,6,1641.7705,1710.1436,1642.8265,1711.2406,1500.0,1500.0,nan,nan,nan,nan,nan,nan,nan,nan,nan,nan
2614852000,6,1641.2788,1706.8914,1644.2559,1711.3071,1500.0,1500.0,nan,nan,nan,nan,nan,nan,nan,nan,nan,nan
2614952000,6,1645.3414,1701.6926,1647.4957,1702.8949,1500.0,1500.0,nan,nan,nan,nan,nan,nan,nan,nan,nan,nan
2615056000,6,1641.5172,1706.0962,1648.1132,1704.6604,1500.0,1500.0,nan,nan,nan,nan,nan,nan,nan,nan,nan,nan
2615152000,6,1642.3096,1717.1902,1644.6077,1717.896,1500.0,1500.0,nan,nan,nan,nan,nan,nan,nan,nan,nan,nan
2615256000,6,1639.9395,1713.5088,1642.5514,1713.5228,1500.0,1500.0,nan,nan,nan,nan,nan,nan,nan,nan,nan,nan
2615352000,6,1643.3815,1708.6954,1647.7186,1707.0618,1500.0,1500.0,nan,nan,nan,nan,nan,nan,nan,nan,nan,nan
2615452000,6,1642.1954,1708.7307,1650.6631,1705.3802,1500.0,1500.0,nan,nan,nan,nan,nan,nan,nan,nan,nan,nan
2615556000,6,1641.1793,1714.171,1644.536,1714.2045,1500.0,1500.0,nan,nan,nan,nan,nan,nan,nan,nan,nan,nan
2615652000,6,1641.7488,1711.7715,1643.6327,1713.9237,1500.0,1500.0,nan,nan,nan,nan,nan,nan,nan,nan,nan,nan
2615752000,6,1642.3953,1713.8232,1644.9796,1715.8896,1500.0,1500.0,nan,nan,nan,nan,nan,nan,nan,nan,nan,nan
2615852000,6,1644.9292,1707.5125,1651.4397,1706.0648,1500.0,1500.0,nan,nan,nan,nan,nan,nan,nan,nan,nan,nan
2615956000,6,1646.9067,1705.4373,1651.1345,1702.8541,1500.0,1500.0,nan,nan,nan,nan,nan,nan,nan,nan,nan,nan
2616052000,6,1641.4778,1714.0262,1646.7706,1714.0172,1500.0,1500.0,nan,nan,nan,nan,nan,nan,nan,nan,nan,nan
2616156000,6,1645.8135,1708.3704,1648.6759,1707.0018,1500.0,1500.0,nan,nan,nan,nan,nan,nan,nan,nan,nan,nan
2616256000,6,1644.7065,1710.4689,1650.9548,1711.2766,1500.0,1500.0,nan,nan,nan,nan,nan,nan,nan,nan,nan,nan
2616356000,6,1647.1857,1705.694,1649.6492,1706.2922,1500.0,1500.0,nan,nan,nan,nan,nan,nan,nan,nan,nan,nan
2616456000,6,1645.0472,1705.5442,1650.1803,1704.905,1500.0,1500.0,nan,nan,nan,nan,nan,nan,nan,nan,nan,nan
2616556000,6,1643.7311,1714.7344,1645.2056,1714.1829,1500.0,1500.0,nan,nan,nan,nan,nan,nan,nan,nan,nan,nan
2616652000,6,1648.2649,1712.9958,1648.0037,1712.7739,1500.0,1500.0,nan,nan,nan,nan,nan,nan,nan,nan,nan,nan
2616756000,6,1640.2747,1712.7369,1647.6057,1712.9757,1500.0,1500.0,nan,nan,nan,nan,nan,nan,nan,nan,nan,nan
2616852000,6,1648.0066,1708.0626,1650.417,1706.5203,1500.0,1500.0,nan,nan,nan,nan,nan,nan,nan,nan,nan,nan
2616952000,6,1640.5724,1717.9417,1647.0288,1716.1736,1500.0,1500.0,nan,nan,nan,nan,nan,nan,nan,nan,nan,nan
2617052000,6,1643.4286,1715.9503,1647.9008,1715.4897,1500.0,1500.0,nan,nan,nan,nan,nan,nan,nan,nan,nan,nan
2617152000,6,1643.5018,1716.797,1649.8104,1715.846,1500.0,1500.0,nan,nan,nan,nan,nan,nan,nan,nan,nan,nan
2617252000,6,1647.8816,1711.113,1649.5184,1711.1984,1500.0,1500.0,nan,nan,nan,nan,nan,nan,nan,nan,nan,nan
2617352000,6,1648.9648,1707.74,1651.9806,1704.1152,1500.0,1500.0,nan,nan,nan,nan,nan,nan,nan,nan,nan,nan
2617452000,6,1642.2617,1719.7032,1647.2236,1718.6152,1500.0,1500.0,nan,nan,nan,nan,nan,nan,nan,nan,nan,nan
2617552000,6,1645.1401,1716.3959,1647.9656,1715.6006,1500.0,1500.0,nan,nan,nan,nan,nan,nan,nan,nan,nan,nan
2617652000,6,1645.9248,1712.9246,1647.8052,1715.9553,1500.0,1500.0,nan,nan,nan,nan,nan,nan,nan,nan,nan,nan
2617756000,6,1646.146,1712.407,1654.7471,1709.2885,1500.0,1500.0,nan,nan,nan,nan,nan,nan,nan,nan,nan,nan
2617856000,6,1647.2301,1709.5791,1653.2279,1709.883,1500.0,1500.0,nan,nan,nan,nan,nan,nan,nan,nan,nan,nan
2617956000,6,1645.5743,1719.6191,1653.2997,1713.1268,1500.0,1500.0,nan,nan,nan,nan,nan,nan,nan,nan,nan,nan
2618052000,6,1649.1633,1716.6398,1650.0591,1715.9268,1500.0,1500.0,nan,nan,nan,nan,nan,nan,nan,nan,nan,nan
2618152000,6,1648.6248,1716.5077,1651.9769,1715.6597,1500.0,1500.0,nan,nan,nan,nan,nan,nan,nan,nan,nan,nan
2618256000,6,1649.7977,1707.5594,1653.9304,1708.437,1500.0,1500.0,nan,nan,nan,nan,nan,nan,nan,nan,nan,nan
2618356000,6,1649.3683,1712.1991,1654.6129,1711.4031,1500.0,1500.0,nan,nan,nan,nan,nan,nan,nan,nan,nan,nan
2618456000,6,1646.9218,1718.4738,1649.5763,1719.7231,1500.0,1500.0,nan,nan,nan,nan,nan,nan,nan,nan,nan,nan
2618556000,6,1650.4673,1714.7137,1651.5244,1719.244,1500.0,1500.0,nan,nan,nan,nan,nan,nan,nan,nan,nan,nan
2618652000,6,1651.2673,1711.236,1656.4062,1710.3646,1500.0,1500.0,nan,nan,nan,nan,nan,nan,nan,nan,nan,nan
2618752000,6,1649.6234,1712.5314,1652.4514,1712.9292,1500.0,1500.0,nan,nan,nan,nan,nan,nan,nan,nan,nan,nan
2618856000,6,1648.2976,1722.0708,1649.9321,1722.5591,1500.0,1500.0,nan,nan,nan,nan,nan,nan,nan,nan,nan,nan
2618956000,6,1649.1257,1719.997,1650.2245,1720.0707,1500.0,1500.0,nan,nan,nan,nan,nan,nan,nan,nan,nan,nan
2619052000,6,1650.9089,1717.6067,1654.4253,1715.3267,1500.0,1500.0,nan,nan,nan,nan,nan,nan,nan,nan,nan,nan
2619156000,6,1650.741,1711.8102,1654.218,1712.8318,1500.0,1500.0,nan,nan,nan,nan,nan,nan,nan,nan,nan,nan
2619252000,6,1647.4272,1714.1582,1654.9794,1710.6727,1500.0,1500.0,nan,nan,nan,nan,nan,nan,nan,nan,nan,nan
2619352000,6,1649.1233,1722.2533,1650.9784,1720.9231,1500.0,1500.0,nan,nan,nan,nan,nan,nan,nan,nan,nan,nan
2619452000,6,1651.0033,1716.9056,1657.9752,1715.1614,1500.0,1500.0,nan,nan,nan,nan,nan,nan,nan,nan,nan,nan
2619556000,6,1653.0679,1721.9021,1654.7065,1721.6199,1500.0,1500.0,nan,nan,nan,nan,nan,nan,nan,nan,nan,nan
2619652000,6,1650.8933,1713.9861,1657.2534,1714.028,1500.0,1500.0,nan,nan,nan,nan,nan,nan,nan,nan,nan,nan
2619756000,6,1650.6345,1715.6521,1656.8312,1714.2036,1500.0,1500.0,nan,nan,nan,nan,nan,nan,nan,nan,nan,nan
2619856000,6,1650.916,1724.8422,1651.1855,1724.7162,1500.0,1500.0,nan,nan,nan,nan,nan,nan,nan,nan,nan,nan
2619952000,6,1655.4338,1719.6382,1655.8872,1723.2767,1500.0,1500.0,nan,nan,nan,nan,nan,nan,nan,nan,nan,nan
2620056000,6,1653.7788,1720.0034,1658.7083,1720.0355,1500.0,1500.0,nan,nan,nan,nan,nan,nan,nan,nan,nan,nan
2620152000,6,1653.818,1719.0709,1654.0679,1719.2048,1500.0,1500.0,nan,nan,nan,nan,nan,nan,nan,nan,nan,nan
2620256000,6,1647.4531,1726.1617,1649.8611,1727.1205,1500.0,1500.0,nan,nan,nan,nan,nan,nan,nan,nan,nan,nan
2620356000,6,1649.0525,1727.0536,1650.622,1726.3682,1500.0,1500.0,nan,nan,nan,nan,nan,nan,nan,nan,nan,nan
