timestamp,timestamp_sample,control[0],control[1],control[2],control[3],control[4],control[5],control[6],control[7]
2564256000,2564256000,0.0005775071,0.0066636107,-0.23314865,-0.0,0.0,0.0,0.0,-1.0
2564356000,2564356000,0.00135399,0.007525807,-0.23236708,-0.0,0.0,0.0,0.0,-1.0
2564456000,2564456000,0.0016488908,0.0062371655,-0.23261967,-0.0,0.0,0.0,0.0,-1.0
2564556000,2564556000,6.711326e-05,0.004745801,-0.23337197,-0.0,0.0,0.0,0.0,-1.0
2564652000,2564652000,-0.0007539602,0.007813937,-0.2326721,-0.0,0.0,0.0,0.0,-1.0
2564752000,2564752000,0.0012828114,0.006764154,-0.23232742,-0.0,0.0,0.0,0.0,-1.0
2564856000,2564856000,0.0009822651,0.0074276645,-0.23355475,-0.0,0.0,0.0,0.0,-1.0
2564956000,2564956000,0.0005608433,0.008282258,-0.23291123,-0.0,0.0,0.0,0.0,-1.0
2565052000,2565052000,0.0029694866,0.0076530464,-0.23265398,-0.0,0.0,0.0,0.0,-1.0
2565156000,2565156000,2.5093352e-05,0.0047967625,-0.2319914,-0.0,0.0,0.0,0.0,-1.0
2565256000,2565256000,0.0024619845,0.0052888463,-0.23281775,-0.0,0.0,0.0,0.0,-1.0
2565356000,2565356000,-0.016301716,0.09288321,-0.00015210953,0.12033259,0.0,0.0,0.0,-1.0
2565452000,2565452000,0.005732238,0.14108807,-5.63405e-05,0.14532486,0.0,0.0,0.0,-1.0
2565556000,2565556000,0.0029922908,0.10971932,-0.00069066015,0.2050109,0.0,0.0,0.0,-1.0
2565656000,2565656000,0.0042268876,0.09658752,-0.00018943669,0.26997074,0.0,0.0,0.0,-1.0
2565756000,2565756000,0.00448507,0.08780471,-0.000871058,0.34721273,0.0,0.0,0.0,-1.0
2565852000,2565852000,0.0046114894,0.08477461,-0.0007050821,0.41499573,0.0,0.0,0.0,-1.0
2565956000,2565956000,0.0033626128,0.08184491,-0.0007908019,0.49966553,0.0,0.0,0.0,-1.0
2566056000,2566056000,0.0062255966,0.075956285,-0.00029005425,0.57078177,0.0,0.0,0.0,-1.0
2566152000,2566152000,0.00163411,-0.020917464,-0.0016895016,0.6064655,0.0,0.0,0.0,-1.0
2566256000,2566256000,0.0005512998,-0.007636737,-0.00021833189,0.6094432,0.0,0.0,0.0,-1.0
2566356000,2566356000,2.1269778e-05,-0.0063968394,-0.0007400641,0.61102283,0.0,0.0,0.0,-1.0
2566452000,2566452000,0.0014239381,0.0020250361,0.00073622813,0.61073846,0.0,0.0,0.0,-1.0
2566556000,2566556000,0.0013928952,0.0065587945,0.00010810218,0.61146057,0.0,0.0,0.0,-1.0
2566656000,2566656000,0.002110697,0.003716547,-0.0006283628,0.61852294,0.0,0.0,0.0,-1.0
2566752000,2566752000,0.0010342433,0.005358114,0.00053214235,0.62008727,0.0,0.0,0.0,-1.0
2566856000,2566856000,0.00026816456,-9.3039125e-05,0.0006638544,0.6191239,0.0,0.0,0.0,-1.0
2566952000,2566952000,0.0021204043,0.0031805262,-0.00040988412,0.6210137,0.0,0.0,0.0,-1.0
2567056000,2567056000,0.000499265,-0.0006473204,-0.00039075606,0.6268592,0.0,0.0,0.0,-1.0
2567156000,2567156000,-0.0007939431,0.0022963285,-0.0006522993,0.6295094,0.0,0.0,0.0,-1.0
2567256000,2567256000,0.0015433035,-0.0012972998,-0.00013596589,0.6279864,0.0,0.0,0.0,-1.0
2567356000,2567356000,0.0014794737,0.0014553508,-3.710502e-05,0.626499,0.0,0.0,0.0,-1.0
2567456000,2567456000,-0.0006044817,0.0008850591,0.00040813704,0.6286479,0.0,0.0,0.0,-1.0
2567552000,2567552000,-0.001304367,-0.00085577555,-0.0009860997,0.637421,0.0,0.0,0.0,-1.0
2567656000,2567656000,0.0003828142,0.0012598629,-0.00014538762,0.6368424,0.0,0.0,0.0,-1.0
2567756000,2567756000,-0.0013741422,0.0034591374,-6.875979e-05,0.63963896,0.0,0.0,0.0,-1.0
2567856000,2567856000,-0.0005145951,0.0015316983,0.0004651314,0.6379643,0.0,0.0,0.0,1.0
2567956000,2567956000,-0.0008731339,0.0005804091,1.1360462e-06,0.6223342,0.0,0.0,0.0,1.0
2568056000,2568056000,-0.0008136622,-0.002594375,0.0003605092,0.5406485,0.0,0.0,0.0,1.0
2568156000,2568156000,0.0014331262,0.0005421387,0.00039642223,0.55684626,0.0,0.0,0.0,1.0
2568256000,2568256000,0.0022434406,-8.75378e-05,-0.000100563084,0.57295877,0.0,0.0,0.0,1.0
2568352000,2568352000,-0.0011581207,-0.0034733983,0.0006525507,0.5634054,0.0,0.0,0.0,1.0
2568456000,2568456000,0.0008536682,-0.000998962,0.0013123881,0.5657613,0.0,0.0,0.0,1.0
2568556000,2568556000,0.0018148464,-0.0005194782,-0.0003206238,0.5693287,0.0,0.0,0.0,1.0
2568656000,2568656000,-0.0037666638,-0.0013484494,0.00024923755,0.5737022,0.0,0.0,0.0,1.0
2568756000,2568756000,-0.00034591605,0.00081815757,-0.00032878967,0.57376254,0.0,0.0,0.0,1.0
2568856000,2568856000,-0.0019177543,0.0016994328,-0.00059655,0.5743272,0.0,0.0,0.0,1.0
2568952000,2568952000,-6.8780915e-05,0.00040690298,0.00056773535,0.5721161,0.0,0.0,0.0,1.0
2569052000,2569052000,-0.00208097,0.00028269878,-1.4732957e-05,0.57941353,0.0,0.0,0.0,1.0
2569156000,2569156000,0.00026618122,-0.0008204919,-6.496743e-05,0.5812104,0.0,0.0,0.0,1.0
2569256000,2569256000,-0.0035516687,0.0002322977,0.00027203656,0.5777712,0.0,0.0,0.0,1.0
2569356000,2569356000,-0.002705278,-0.00034315418,0.00039794922,0.5759657,0.0,0.0,0.0,1.0
2569456000,2569456000,0.0009197468,-0.0018890881,-0.00010110691,0.57682514,0.0,0.0,0.0,1.0
2569556000,2569556000,0.0036549214,8.319237e-05,-0.00076938845,0.5820932,0.0,0.0,0.0,1.0
2569656000,2569656000,0.0014738207,-0.00059783726,-0.0004938264,0.578525,0.0,0.0,0.0,1.0
2569756000,2569756000,0.0015835005,-0.0011937197,0.0004693838,0.5792927,0.0,0.0,0.0,1.0
2569856000,2569856000,-0.0006976084,-0.00011097151,-0.00049243233,0.57730407,0.0,0.0,0.0,1.0
2569952000,2569952000,0.00025715702,-0.0011046131,-0.001104669,0.5849828,0.0,0.0,0.0,1.0
2570056000,2570056000,0.002306546,0.0032152059,-0.0008976284,0.5854729,0.0,0.0,0.0,1.0
2570156000,2570156000,0.0020975713,2.8198032e-05,-0.0007188171,0.5805373,0.0,0.0,0.0,1.0
2570256000,2570256000,-0.00028193704,0.002178313,0.0013920357,0.58177686,0.0,0.0,0.0,1.0
2570356000,2570356000,0.0013704643,-0.00081479,-0.00078424887,0.57958937,0.0,0.0,0.0,1.0
2570456000,2570456000,0.0019323108,-0.0015601257,0.0009278208,0.5868815,0.0,0.0,0.0,1.0
2570556000,2570556000,0.0019474371,-0.0013052395,0.00033279578,0.5859009,0.0,0.0,0.0,1.0
2570656000,2570656000,0.0024089306,-0.0023371214,-3.1137504e-05,0.5824007,0.0,0.0,0.0,1.0
2570756000,2570756000,0.0024362288,0.0011104977,-6.268702e-05,0.57990116,0.0,0.0,0.0,1.0
2570856000,2570856000,0.0003522209,0.00046709334,0.0003360221,0.5779672,0.0,0.0,0.0,1.0
2570956000,2570956000,-0.0012210135,-4.224061e-05,0.00016445041,0.5843333,0.0,0.0,0.0,1.0
2571052000,2571052000,-0.0019459219,-7.421194e-05,-0.0003567887,0.583801,0.0,0.0,0.0,1.0
2571156000,2571156000,-0.0011211933,-0.0008919381,-0.00077280175,0.5837959,0.0,0.0,0.0,1.0
2571256000,2571256000,-0.0004971383,0.00018590485,0.00057025824,0.58031696,0.0,0.0,0.0,1.0
2571356000,2571356000,0.0033872216,-0.00030300207,-0.0008252601,0.5799037,0.0,0.0,0.0,1.0
2571456000,2571456000,0.00044775815,-0.0040829913,5.1698273e-05,0.58568865,0.0,0.0,0.0,1.0
2571552000,2571552000,0.0004342828,0.000860163,-0.0004431812,0.5814703,0.0,0.0,0.0,1.0
2571656000,2571656000,-0.0005389358,0.0006801891,-0.0006741381,0.5818328,0.0,0.0,0.0,1.0
2571756000,2571756000,0.0024061152,-0.00024985857,0.00080400554,0.57799715,0.0,0.0,0.0,1.0
2571856000,2571856000,0.0028511437,-0.0027063957,-2.4531271e-05,0.585522,0.0,0.0,0.0,1.0
2571956000,2571956000,-0.0011894822,0.0014941408,0.00044672115,0.5868851,0.0,0.0,0.0,1.0
2572056000,2572056000,-0.0005440465,-0.003110879,-0.0012049725,0.5831999,0.0,0.0,0.0,1.0
2572156000,2572156000,-0.0012487862,-0.001405143,-0.00033819125,0.5829171,0.0,0.0,0.0,1.0
2572256000,2572256000,0.0008533313,-0.0021526278,0.00023338136,0.5800147,0.0,0.0,0.0,1.0
2572356000,2572356000,0.00023821488,0.0015355841,0.00029791988,0.5867625,0.0,0.0,0.0,1.0
2572452000,2572452000,-0.0018302364,-4.8322458e-05,-0.00054262485,0.5842503,0.0,0.0,0.0,1.0
2572556000,2572556000,-0.0013904222,0.00033800676,-0.00058347936,0.5670696,0.0,0.0,0.0,1.0
2572652000,2572652000,0.00017420249,-0.0020982013,-0.0005747538,0.5579336,0.0,0.0,0.0,1.0
2572756000,2572756000,-0.0024167171,0.000609027,0.00019922027,0.56717044,0.0,0.0,0.0,1.0
2572856000,2572856000,-2.535092e-05,-0.0015958999,-7.0371025e-05,0.5698216,0.0,0.0,0.0,1.0
2572956000,2572956000,0.0017610476,-0.0030226002,6.719396e-05,0.56594974,0.0,0.0,0.0,1.0
2573056000,2573056000,0.0007005878,-0.0014300542,-0.00081998,0.5660393,0.0,0.0,0.0,1.0
2573152000,2573152000,0.0010721578,-0.0021258222,-0.00051816297,0.5631457,0.0,0.0,0.0,1.0
2573256000,2573256000,-0.0020541667,-0.0005671358,-0.00022313163,0.5687016,0.0,0.0,0.0,1.0
2573356000,2573356000,0.0024738389,-0.0010536177,0.00023513581,0.5667956,0.0,0.0,0.0,1.0
2573452000,2573452000,0.0004143342,0.0006858963,-0.0007708201,0.56543547,0.0,0.0,0.0,1.0
2573552000,2573552000,-3.67061e-05,-0.0009556938,-0.00022946429,0.5640136,0.0,0.0,0.0,1.0
2573656000,2573656000,-0.0026190719,-0.00053538,-0.00023321871,0.56438535,0.0,0.0,0.0,1.0
2573752000,2573752000,0.0028444622,-0.0007311565,-5.5373504e-05,0.5692326,0.0,0.0,0.0,1.0
2573856000,2573856000,0.00057633,0.0012957405,0.00030539813,0.5652341,0.0,0.0,0.0,1.0
2573956000,2573956000,-6.1173654e-05,-0.00027499106,-0.0011127531,0.56560075,0.0,0.0,0.0,1.0
2574056000,2574056000,6.735655e-05,-0.0012718212,-0.0005711925,0.56427044,0.0,0.0,0.0,1.0
2574156000,2574156000,0.0016306501,-0.00067364704,9.423343e-05,0.56351733,0.0,0.0,0.0,1.0
2574256000,2574256000,-0.0033607418,0.0012882747,-0.00074039353,0.56728214,0.0,0.0,0.0,1.0
2574356000,2574356000,-0.00046713,0.0011833915,0.00019728729,0.5647319,0.0,0.0,0.0,1.0
2574456000,2574456000,0.00087737996,-0.0010163488,-0.00019755427,0.56481653,0.0,0.0,0.0,1.0
2574552000,2574552000,-0.00013846807,-0.0020485579,-0.00023869026,0.5644907,0.0,0.0,0.0,1.0
2574652000,2574652000,0.002828443,0.00032574512,-0.00045243336,0.5667964,0.0,0.0,0.0,1.0
2574756000,2574756000,6.9334004e-05,-0.0029450466,-0.0004809708,0.56638294,0.0,0.0,0.0,1.0
2574856000,2574856000,0.0011686437,0.0007374844,-9.75092e-05,0.5633451,0.0,0.0,0.0,1.0
2574952000,2574952000,-0.0023785136,0.00048866554,0.0003645185,0.56461304,0.0,0.0,0.0,1.0
2575056000,2575056000,0.00017880906,0.0010758466,5.1534575e-05,0.56428224,0.0,0.0,0.0,1.0
2575156000,2575156000,0.002848172,-0.0026059982,0.00027192448,0.56573755,0.0,0.0,0.0,1.0
2575256000,2575256000,0.0007808768,0.0014439324,-0.00034325145,0.56677854,0.0,0.0,0.0,1.0
2575352000,2575352000,0.0011010511,-0.0029366557,0.00070534216,0.5648048,0.0,0.0,0.0,1.0
2575456000,2575456000,-0.0018231111,1.057316e-05,-0.00030169665,0.5644997,0.0,0.0,0.0,1.0
2575556000,2575556000,0.0021829992,-0.00054058613,-3.679841e-05,0.5652748,0.0,0.0,0.0,1.0
2575656000,2575656000,0.0007340932,0.0012068616,0.0008022944,0.56740534,0.0,0.0,0.0,1.0
2575756000,2575756000,-0.00020664456,0.0011382918,-0.0005325972,0.5650648,0.0,0.0,0.0,1.0
2575852000,2575852000,0.00083678897,0.00031283518,-0.00019777339,0.5647529,0.0,0.0,0.0,1.0
2575956000,2575956000,0.0009989935,-0.002864743,-0.00036183526,0.564875,0.0,0.0,0.0,1.0
2576056000,2576056000,0.00071914424,-9.1104535e-05,-7.4685275e-05,0.5660221,0.0,0.0,0.0,1.0
2576156000,2576156000,-0.0005924116,-0.0026581604,0.00019289202,0.5642818,0.0,0.0,0.0,1.0
2576252000,2576252000,7.8075755e-05,0.003306102,0.0003622051,0.56332433,0.0,0.0,0.0,1.0
2576356000,2576356000,-0.0027060264,0.00040635874,-0.0011297305,0.5631659,0.0,0.0,0.0,1.0
2576456000,2576456000,0.0030621567,0.002791299,0.0014661844,0.56433105,0.0,0.0,0.0,1.0
2576556000,2576556000,-0.00032998453,0.0016321247,-9.967851e-05,0.56297666,0.0,0.0,0.0,1.0
2576652000,2576652000,-0.00071582117,0.0011543572,0.00027505588,0.5638046,0.0,0.0,0.0,1.0
2576752000,2576752000,-0.00032226692,-0.00038451483,-1.4101178e-05,0.56385607,0.0,0.0,0.0,1.0
2576856000,2576856000,-0.0018319786,-0.0004780523,0.00046944176,0.56413573,0.0,0.0,0.0,1.0
2576956000,2576956000,0.0026911015,-0.0010705083,-0.00024612638,0.56523716,0.0,0.0,0.0,1.0
2577052000,2577052000,0.002195689,0.0017266284,-0.0007216599,0.5664509,0.0,0.0,0.0,1.0
2577156000,2577156000,-0.0017783557,-0.0014724294,0.0005342524,0.564963,0.0,0.0,0.0,1.0
2577256000,2577256000,0.0010261005,0.0006074718,-0.0003242147,0.5655321,0.0,0.0,0.0,1.0
2577356000,2577356000,-0.0013153327,-0.002648419,-0.00017754523,0.5648806,0.0,0.0,0.0,1.0
2577456000,2577456000,0.00085610524,0.00018619368,-0.00011343733,0.5650227,0.0,0.0,0.0,1.0
2577552000,2577552000,-0.0025428575,0.00404172,0.00030095142,0.56406176,0.0,0.0,0.0,1.0
2577652000,2577652000,0.00082046865,0.0008540592,0.00011869164,0.564467,0.0,0.0,0.0,1.0
2577756000,2577756000,-0.0004787632,0.0017456913,-0.0009169479,0.5627355,0.0,0.0,0.0,1.0
2577856000,2577856000,-0.0006538603,-0.00083838456,-4.690081e-05,0.5655508,0.0,0.0,0.0,1.0
2577952000,2577952000,-0.0010525958,0.0012820347,0.0007345707,0.5653753,0.0,0.0,0.0,1.0
2578052000,2578052000,-0.00016612501,0.0031701485,7.72574e-05,0.565206,0.0,0.0,0.0,1.0
2578156000,2578156000,-0.0014617608,-0.0011132229,-0.0004960088,0.5646936,0.0,0.0,0.0,1.0
2578256000,2578256000,-0.00051535305,0.0018023576,0.00013615389,0.5650951,0.0,0.0,0.0,1.0
2578356000,2578356000,0.00022438806,-2.6932132e-05,-0.00010946514,0.5646909,0.0,0.0,0.0,1.0
2578456000,2578456000,-0.0012992382,-0.00046463532,9.96699e-05,0.5654404,0.0,0.0,0.0,1.0
2578556000,2578556000,-0.000692171,-0.0006506101,-0.00025287928,0.56670713,0.0,0.0,0.0,1.0
2578656000,2578656000,-0.0024766978,-0.002252964,0.002138997,0.56500477,0.0,0.0,0.0,1.0
2578756000,2578756000,-0.0041382443,-0.008763312,-0.0071244594,0.55787283,0.0,0.0,0.0,1.0
2578852000,2578852000,-0.0044705607,0.011526419,-0.04070266,0.56235564,0.0,0.0,0.0,1.0
2578952000,2578952000,-0.009846638,0.03324603,-0.05330587,0.56492853,0.0,0.0,0.0,1.0
2579056000,2579056000,-0.0076125883,0.018382942,-0.04609188,0.56658584,0.0,0.0,0.0,1.0
2579156000,2579156000,-0.012392232,0.009481784,-0.04687839,0.57136554,0.0,0.0,0.0,1.0
2579252000,2579252000,0.0059626037,-0.009926295,-0.044188,0.5750104,0.0,0.0,0.0,1.0
2579356000,2579356000,0.0074237585,-0.0026395058,-0.037716217,0.58541316,0.0,0.0,0.0,1.0
2579456000,2579456000,-0.0024825262,0.0072708772,-0.045908466,0.5964969,0.0,0.0,0.0,1.0
2579556000,2579556000,0.006217956,0.0021453206,-0.042901628,0.6019793,0.0,0.0,0.0,1.0
2579652000,2579652000,0.014851284,0.0012276269,-0.044125747,0.60706264,0.0,0.0,0.0,1.0
2579752000,2579752000,-0.014029549,0.01379644,-0.040950943,0.61854476,0.0,0.0,0.0,1.0
2579856000,2579856000,-0.01797391,0.014104105,-0.046176665,0.6275118,0.0,0.0,0.0,1.0
2579956000,2579956000,-0.011517432,0.009291355,-0.042947605,0.63074756,0.0,0.0,0.0,1.0
2580056000,2580056000,-0.010933254,0.0092076305,-0.048673246,0.6390339,0.0,0.0,0.0,1.0
2580156000,2580156000,-0.0051501337,0.0049629635,-0.04576819,0.64291286,0.0,0.0,0.0,1.0
2580252000,2580252000,-0.031837605,0.007161231,-0.047561258,0.6555012,0.0,0.0,0.0,1.0
2580356000,2580356000,-0.03309122,0.0013203484,-0.049620688,0.6646363,0.0,0.0,0.0,1.0
2580456000,2580456000,-0.038339935,-0.0014628009,-0.0486575,0.6728048,0.0,0.0,0.0,1.0
2580552000,2580552000,-0.025251094,-0.004226029,-0.044249825,0.6744967,0.0,0.0,0.0,1.0
2580656000,2580656000,-0.021702461,-0.0008746013,-0.04141569,0.6808134,0.0,0.0,0.0,1.0
2580756000,2580756000,-0.018018894,-0.0008311402,-0.036855,0.68133444,0.0,0.0,0.0,1.0
2580856000,2580856000,-0.035404038,-0.018743334,-0.03605997,0.690007,0.0,0.0,0.0,1.0
2580952000,2580952000,-0.02982645,-0.020834684,-0.038520657,0.69057226,0.0,0.0,0.0,1.0
2581056000,2581056000,-0.022298418,-0.021826934,-0.028706864,0.6857217,0.0,0.0,0.0,1.0
2581156000,2581156000,-0.026820604,-0.024334485,-0.035223953,0.68688875,0.0,0.0,0.0,1.0
2581252000,2581252000,-0.030973049,-0.03349801,-0.03488709,0.68457544,0.0,0.0,0.0,1.0
2581356000,2581356000,-0.03523501,-0.03806676,-0.03236995,0.68557703,0.0,0.0,0.0,1.0
2581456000,2581456000,-0.026710702,-0.038917113,-0.03020358,0.68140745,0.0,0.0,0.0,1.0
2581556000,2581556000,-0.021823363,-0.03239979,-0.032727305,0.68291944,0.0,0.0,0.0,1.0
2581656000,2581656000,-0.022167005,-0.03670886,-0.028454596,0.68107265,0.0,0.0,0.0,1.0
2581756000,2581756000,-0.017431315,-0.042316183,-0.033920724,0.6833308,0.0,0.0,0.0,1.0
2581852000,2581852000,-0.016745746,-0.04352551,-0.03229135,0.6821104,0.0,0.0,0.0,1.0
2581956000,2581956000,-0.01481258,-0.047217377,-0.026967881,0.6854522,0.0,0.0,0.0,1.0
2582056000,2582056000,-0.014364179,-0.0531038,-0.0018858612,0.68718195,0.0,0.0,0.0,1.0
2582152000,2582152000,-0.019726194,-0.048040353,0.0073867533,0.68463457,0.0,0.0,0.0,1.0
2582256000,2582256000,-0.010393374,-0.046066664,0.004716307,0.68334323,0.0,0.0,0.0,1.0
2582352000,2582352000,-0.005040653,-0.053834975,0.003135832,0.6866613,0.0,0.0,0.0,1.0
2582456000,2582456000,-0.0028915796,-0.051230542,0.002381049,0.6873838,0.0,0.0,0.0,1.0
2582556000,2582556000,-0.0038698222,-0.047740746,0.002486594,0.6860855,0.0,0.0,0.0,1.0
2582656000,2582656000,-0.001619868,-0.048162095,0.0023245066,0.68820864,0.0,0.0,0.0,1.0
2582756000,2582756000,0.0009724377,-0.0469824,0.0010985378,0.6842205,0.0,0.0,0.0,1.0
2582856000,2582856000,0.0021407772,-0.054379757,0.00012262538,0.68788064,0.0,0.0,0.0,1.0
2582956000,2582956000,-0.0006520711,-0.05199313,0.00019836985,0.6888895,0.0,0.0,0.0,1.0
2583056000,2583056000,0.0025420282,-0.04886829,-0.0015061926,0.68858904,0.0,0.0,0.0,1.0
2583156000,2583156000,0.0009793229,-0.0468644,0.00039504282,0.6877427,0.0,0.0,0.0,1.0
2583256000,2583256000,0.0025665616,-0.044880457,-0.0013415664,0.6864727,0.0,0.0,0.0,1.0
2583356000,2583356000,0.0014639106,-0.053838853,-0.00031815097,0.69077617,0.0,0.0,0.0,1.0
2583456000,2583456000,-0.00054121576,-0.053680062,-0.0004219031,0.68968606,0.0,0.0,0.0,1.0
2583556000,2583556000,0.0021742936,-0.050745554,-0.0008758921,0.6888619,0.0,0.0,0.0,1.0
2583652000,2583652000,0.0012949705,-0.044624697,-0.00077678356,0.6891575,0.0,0.0,0.0,1.0
2583756000,2583756000,0.000652991,-0.0468111,-0.00055129174,0.6896151,0.0,0.0,0.0,1.0
2583856000,2583856000,0.0042215656,-0.053418368,-0.00039509125,0.69399846,0.0,0.0,0.0,1.0
2583952000,2583952000,0.0003985595,-0.051762216,-0.00067915116,0.69231707,0.0,0.0,0.0,1.0
2584056000,2584056000,0.0008918678,-0.045863263,-0.000873236,0.69208986,0.0,0.0,0.0,1.0
2584156000,2584156000,-0.0009510082,-0.046449196,-0.00025784876,0.6926327,0.0,0.0,0.0,1.0
2584252000,2584252000,0.00087811565,-0.05427843,0.00022828858,0.69426215,0.0,0.0,0.0,1.0
2584356000,2584356000,-0.0045408094,-0.05713625,-0.00098099,0.69331366,0.0,0.0,0.0,1.0
2584456000,2584456000,1.003989e-05,-0.046159577,-0.0005392488,0.6922369,0.0,0.0,0.0,1.0
2584556000,2584556000,0.00034363905,-0.04519241,-0.0013256632,0.6914445,0.0,0.0,0.0,1.0
2584656000,2584656000,0.000209008,-0.046215616,-0.0005973093,0.691764,0.0,0.0,0.0,1.0
2584756000,2584756000,0.0009863416,-0.058667883,-0.00024956418,0.6952023,0.0,0.0,0.0,1.0
2584856000,2584856000,0.000771995,-0.050126247,-0.0010896917,0.69421965,0.0,0.0,0.0,1.0
2584956000,2584956000,0.0005318492,-0.053266656,-0.0009427788,0.69387823,0.0,0.0,0.0,1.0
2585056000,2585056000,0.0025011813,-0.043459497,-0.0020026327,0.6925124,0.0,0.0,0.0,1.0
2585156000,2585156000,-0.0020653838,-0.049439505,-0.0011180127,0.6918032,0.0,0.0,0.0,1.0
2585252000,2585252000,-0.0008298056,-0.052804835,-0.0017383168,0.69470495,0.0,0.0,0.0,1.0
2585356000,2585356000,0.0007404393,-0.04937287,-0.0017695911,0.69326156,0.0,0.0,0.0,1.0
2585456000,2585456000,0.0027493425,-0.047823846,-0.00066815736,0.6934536,0.0,0.0,0.0,1.0
2585556000,2585556000,-0.00012548328,-0.0492108,-0.001041899,0.6925382,0.0,0.0,0.0,1.0
2585652000,2585652000,-0.0006483861,-0.054824375,-0.002197484,0.69592077,0.0,0.0,0.0,1.0
2585756000,2585756000,0.001193121,-0.058497615,-0.001972641,0.69511205,0.0,0.0,0.0,1.0
2585852000,2585852000,0.0030639614,-0.048512217,-0.0012736258,0.6945684,0.0,0.0,0.0,1.0
2585956000,2585956000,0.0009213828,-0.047379117,-0.00048549334,0.6926537,0.0,0.0,0.0,1.0
2586056000,2586056000,0.0014386382,-0.045074306,-0.00095013576,0.6912481,0.0,0.0,0.0,1.0
2586152000,2586152000,6.123427e-05,-0.05470547,-0.0011458725,0.6952111,0.0,0.0,0.0,1.0
2586256000,2586256000,0.0009245331,-0.05231343,-0.0017647475,0.69527924,0.0,0.0,0.0,1.0
2586356000,2586356000,0.0009032645,-0.04999633,0.00057832757,0.69395125,0.0,0.0,0.0,1.0
2586456000,2586456000,0.00029701393,-0.045932025,-0.00013026875,0.6924485,0.0,0.0,0.0,1.0
2586556000,2586556000,-0.0028031315,-0.047116663,-0.0011666571,0.69324666,0.0,0.0,0.0,1.0
2586652000,2586652000,0.00046056107,-0.057635013,-0.0010016062,0.6968092,0.0,0.0,0.0,1.0
2586756000,2586756000,0.00094054604,-0.052815884,-0.00013259752,0.695743,0.0,0.0,0.0,1.0
2586856000,2586856000,0.000537222,-0.050413843,-0.0014134337,0.69512224,0.0,0.0,0.0,1.0
2586956000,2586956000,0.0008475486,-0.049218286,-0.0004328983,0.6930193,0.0,0.0,0.0,1.0
2587052000,2587052000,-0.00030464795,-0.054862462,-0.0009886601,0.69512725,0.0,0.0,0.0,1.0
2587156000,2587156000,0.00015188419,-0.053962592,-0.0018298908,0.6958847,0.0,0.0,0.0,1.0
2587256000,2587256000,0.0009711428,-0.049709793,-0.0012991385,0.69374484,0.0,0.0,0.0,1.0
2587356000,2587356000,-0.0011474886,-0.04775265,-0.0013676179,0.69291407,0.0,0.0,0.0,1.0
2587456000,2587456000,0.0012801203,-0.050555073,-0.0015337736,0.693134,0.0,0.0,0.0,1.0
2587552000,2587552000,0.0012883635,-0.054170392,-0.0008180026,0.6966087,0.0,0.0,0.0,1.0
2587652000,2587652000,0.0011886024,-0.04840939,-0.001976376,0.6949808,0.0,0.0,0.0,1.0
2587756000,2587756000,0.00026643684,-0.050705455,-0.0009651786,0.69404703,0.0,0.0,0.0,1.0
2587856000,2587856000,0.00045880518,-0.04705721,-0.0006716299,0.69414926,0.0,0.0,0.0,1.0
2587956000,2587956000,-0.0012563007,-0.047441635,-0.001653597,0.6935187,0.0,0.0,0.0,1.0
2588056000,2588056000,0.0029062072,-0.05654042,-0.002115473,0.6963591,0.0,0.0,0.0,1.0
2588156000,2588156000,-0.00040349207,-0.051037546,-0.00078640913,0.6950004,0.0,0.0,0.0,1.0
2588256000,2588256000,0.0008029472,-0.050672717,-0.0019997486,0.6948264,0.0,0.0,0.0,1.0
2588356000,2588356000,-0.00034194606,-0.046780515,-0.000102039194,0.6931385,0.0,0.0,0.0,1.0
2588456000,2588456000,0.0017325454,-0.05734515,-0.0013727385,0.69646686,0.0,0.0,0.0,1.0
2588556000,2588556000,0.0004094785,-0.057827026,-0.0015308779,0.6970641,0.0,0.0,0.0,1.0
2588656000,2588656000,0.0016961076,-0.053269576,-0.0009211467,0.6947906,0.0,0.0,0.0,1.0
2588756000,2588756000,0.0010227932,-0.04650159,-0.0011068787,0.6953081,0.0,0.0,0.0,1.0
2588856000,2588856000,0.0015727298,-0.048229415,-0.0009781785,0.69608456,0.0,0.0,0.0,1.0
2588956000,2588956000,0.00085819163,-0.05795718,-0.0008801379,0.6980267,0.0,0.0,0.0,1.0
2589052000,2589052000,8.445239e-05,-0.051178925,-0.0011780101,0.6981123,0.0,0.0,0.0,1.0
2589156000,2589156000,-5.6246296e-05,-0.049502872,-0.0010684873,0.6984426,0.0,0.0,0.0,1.0
2589252000,2589252000,6.9952046e-05,-0.045464855,-0.001932764,0.6974338,0.0,0.0,0.0,1.0
2589352000,2589352000,0.0013186716,-0.057490394,-0.0011445924,0.70081973,0.0,0.0,0.0,1.0
2589452000,2589452000,0.00055245607,-0.058948424,-0.0013983395,0.7011056,0.0,0.0,0.0,1.0
2589556000,2589556000,0.0010226801,-0.052060522,-0.0007773489,0.6988404,0.0,0.0,0.0,1.0
2589656000,2589656000,0.0013389887,-0.05049085,-0.0020393208,0.69929045,0.0,0.0,0.0,1.0
2589756000,2589756000,-0.0009920759,-0.04806209,-0.0009286104,0.69842064,0.0,0.0,0.0,1.0
2589856000,2589856000,0.0013566246,-0.058527928,-0.0016197579,0.7029186,0.0,0.0,0.0,1.0
2589956000,2589956000,0.0010736316,-0.05970217,-0.0012327987,0.7015966,0.0,0.0,0.0,1.0
2590056000,2590056000,0.0012873512,-0.048773505,-0.0016266528,0.7000006,0.0,0.0,0.0,1.0
2590156000,2590156000,0.0012232985,-0.055432234,-0.0013072713,0.7001037,0.0,0.0,0.0,1.0
2590256000,2590256000,0.0015349283,-0.050729528,-0.0025895557,0.69991016,0.0,0.0,0.0,1.0
2590356000,2590356000,0.002067816,-0.055648435,-0.0008584561,0.70204,0.0,0.0,0.0,1.0
2590456000,2590456000,0.0013630989,-0.05598191,-0.0012958327,0.7036194,0.0,0.0,0.0,1.0
2590552000,2590552000,-0.0015966917,-0.0514818,-0.0005421209,0.70168877,0.0,0.0,0.0,1.0
2590652000,2590652000,-0.0026772444,-0.046843164,-0.0021804841,0.700101,0.0,0.0,0.0,1.0
2590756000,2590756000,0.0017997738,-0.056909617,-0.0013981493,0.7021073,0.0,0.0,0.0,1.0
2590856000,2590856000,-9.318697e-06,-0.054826953,-0.0019414895,0.7038054,0.0,0.0,0.0,1.0
2590952000,2590952000,0.00016294915,-0.051501095,-0.00042273093,0.7013139,0.0,0.0,0.0,1.0
2591056000,2591056000,-0.0002918414,-0.048127156,-0.000922998,0.70185494,0.0,0.0,0.0,1.0
2591152000,2591152000,0.00328723,-0.05040949,-0.0017259077,0.7008751,0.0,0.0,0.0,1.0
2591256000,2591256000,0.000987465,-0.06195697,-0.0010842086,0.7042877,0.0,0.0,0.0,1.0
2591352000,2591352000,0.0034522195,-0.055163465,-0.001930283,0.7031421,0.0,0.0,0.0,1.0
2591452000,2591452000,0.0017820034,-0.04899484,-0.0007621288,0.70331234,0.0,0.0,0.0,1.0
2591556000,2591556000,0.0004564495,-0.055236146,-0.0017505861,0.7018097,0.0,0.0,0.0,1.0
2591656000,2591656000,0.00171813,-0.04857403,-0.0004881794,0.6994557,0.0,0.0,0.0,1.0
2591752000,2591752000,0.00028213378,-0.057965785,-0.0004070372,0.70336974,0.0,0.0,0.0,1.0
2591856000,2591856000,0.0006661471,-0.053535286,-0.00058945286,0.70334756,0.0,0.0,0.0,1.0
2591956000,2591956000,-7.001334e-05,-0.05359876,-0.0021489211,0.7031446,0.0,0.0,0.0,1.0
2592056000,2592056000,0.0028699052,-0.04953165,-0.0015960597,0.7008335,0.0,0.0,0.0,1.0
2592156000,2592156000,0.0009900182,-0.05075755,-0.00060045795,0.70021933,0.0,0.0,0.0,1.0
2592256000,2592256000,0.0019512775,-0.057360433,-0.0020842478,0.7042913,0.0,0.0,0.0,1.0
2592352000,2592352000,0.0010799215,-0.054162446,-0.0012538361,0.702608,0.0,0.0,0.0,1.0
2592452000,2592452000,0.00022057968,-0.050548125,-0.0013535323,0.7009528,0.0,0.0,0.0,1.0
2592556000,2592556000,0.003037768,-0.047710724,-0.0018815437,0.7015059,0.0,0.0,0.0,1.0
2592656000,2592656000,0.0009772815,-0.05688167,-0.00041936326,0.70534813,0.0,0.0,0.0,1.0
2592756000,2592756000,0.002638597,-0.059637874,-0.0010831837,0.7041695,0.0,0.0,0.0,1.0
2592856000,2592856000,-5.8545673e-05,-0.052156806,-0.00089933974,0.7026572,0.0,0.0,0.0,1.0
2592956000,2592956000,-0.00066229474,-0.04973861,-0.00089425634,0.70297986,0.0,0.0,0.0,1.0
2593056000,2593056000,-0.0029238863,-0.051973946,-0.0017242065,0.70208186,0.0,0.0,0.0,1.0
2593152000,2593152000,-0.00031977642,-0.058971163,-0.0011140197,0.7048849,0.0,0.0,0.0,1.0
2593256000,2593256000,-0.0017550152,-0.05288051,-0.0009746599,0.7025735,0.0,0.0,0.0,1.0
2593356000,2593356000,-9.9897035e-05,-0.055749882,-0.001060883,0.7030568,0.0,0.0,0.0,1.0
2593456000,2593456000,0.00037950312,-0.046658497,-0.0012780649,0.7015252,0.0,0.0,0.0,1.0
2593556000,2593556000,-0.0027389568,-0.048218098,-0.0014482393,0.7013529,0.0,0.0,0.0,1.0
2593652000,2593652000,0.0015141377,-0.058347538,-0.0022698021,0.70582646,0.0,0.0,0.0,1.0
2593752000,2593752000,0.0017328782,-0.056839965,-0.0020762477,0.705062,0.0,0.0,0.0,1.0
2593852000,2593852000,0.0011802184,-0.047910128,-0.001338235,0.7033119,0.0,0.0,0.0,1.0
2593952000,2593952000,0.00069253275,-0.05022788,-0.001965649,0.70555615,0.0,0.0,0.0,1.0
2594056000,2594056000,0.0024822056,-0.056828357,-0.0016516073,0.70861226,0.0,0.0,0.0,1.0
2594152000,2594152000,0.0015169823,-0.059218183,-0.0021304372,0.70975184,0.0,0.0,0.0,1.0
2594256000,2594256000,-0.00076931564,-0.053891454,-0.0010131331,0.70837617,0.0,0.0,0.0,1.0
2594356000,2594356000,0.0053300625,-0.04895862,-0.00085293676,0.70586085,0.0,0.0,0.0,1.0
2594456000,2594456000,0.0030559676,-0.047380466,-0.00017368945,0.7071988,0.0,0.0,0.0,1.0
2594556000,2594556000,3.060908e-05,-0.057159964,-0.0014382863,0.7103189,0.0,0.0,0.0,1.0
2594656000,2594656000,-0.0008641946,-0.055263974,-0.000699718,0.7081442,0.0,0.0,0.0,1.0
2594756000,2594756000,0.00066871766,-0.0549362,-0.0020665592,0.70847666,0.0,0.0,0.0,1.0
2594852000,2594852000,0.0007248509,-0.051052306,-0.0013258819,0.70681167,0.0,0.0,0.0,1.0
2594952000,2594952000,-0.0008904733,-0.059398375,-0.0011632678,0.70960176,0.0,0.0,0.0,1.0
2595056000,2595056000,0.0009258869,-0.05776104,-0.0017159877,0.709262,0.0,0.0,0.0,1.0
2595156000,2595156000,0.0020695142,-0.050774537,-0.0018037219,0.7088368,0.0,0.0,0.0,1.0
2595256000,2595256000,-0.0011183482,-0.055330615,-0.0019692564,0.7081486,0.0,0.0,0.0,1.0
2595356000,2595356000,-0.00238701,-0.049903862,-0.0011180677,0.70575756,0.0,0.0,0.0,1.0
2595456000,2595456000,0.001796393,-0.056778,-0.0012264779,0.7085484,0.0,0.0,0.0,1.0
2595556000,2595556000,0.0002974365,-0.059528463,-0.0018818744,0.70874643,0.0,0.0,0.0,1.0
2595652000,2595652000,0.0002451889,-0.052234504,-0.0013491195,0.70738184,0.0,0.0,0.0,1.0
2595756000,2595756000,-0.0004884433,-0.05898266,-0.0013170579,0.70883495,0.0,0.0,0.0,1.0
2595856000,2595856000,0.002541592,-0.053681932,-0.0010545456,0.7061769,0.0,0.0,0.0,1.0
2595956000,2595956000,1.8869527e-05,-0.059766386,-0.0009897993,0.7098795,0.0,0.0,0.0,1.0
2596052000,2596052000,-0.00096772297,-0.055527553,-0.0021069339,0.70724815,0.0,0.0,0.0,1.0
2596156000,2596156000,0.0010545083,-0.0543864,-0.0013141838,0.70762265,0.0,0.0,0.0,1.0
2596256000,2596256000,0.0020960514,-0.053405713,-0.0009531793,0.7051363,0.0,0.0,0.0,1.0
2596356000,2596356000,-0.0003868427,-0.050097484,-0.002048171,0.7073929,0.0,0.0,0.0,1.0
2596456000,2596456000,0.0030096434,-0.06228234,-0.0017501132,0.70931333,0.0,0.0,0.0,1.0
2596556000,2596556000,0.0006611448,-0.054755397,-0.0017204034,0.70804846,0.0,0.0,0.0,1.0
2596656000,2596656000,-0.0013447825,-0.054009788,-0.0010782728,0.7059494,0.0,0.0,0.0,1.0
2596756000,2596756000,3.3100718e-05,-0.045983776,-0.0015274291,0.70643824,0.0,0.0,0.0,1.0
2596856000,2596856000,0.00209135,-0.05939907,-0.00083819334,0.7081808,0.0,0.0,0.0,1.0
2596956000,2596956000,0.0010881559,-0.0579162,-0.0015520627,0.70925486,0.0,0.0,0.0,1.0
2597052000,2597052000,0.00083532836,-0.05667399,-0.0005731574,0.7065867,0.0,0.0,0.0,1.0
2597156000,2597156000,0.0008449387,-0.04878205,-0.0011208543,0.70579696,0.0,0.0,0.0,1.0
2597256000,2597256000,-0.00074883155,-0.05290533,-0.0016299329,0.70417434,0.0,0.0,0.0,1.0
2597356000,2597356000,-0.0009749538,-0.063783646,-0.0021570195,0.7059334,0.0,0.0,0.0,1.0
2597452000,2597452000,0.00029895088,-0.0508635,-0.00016988826,0.70463866,0.0,0.0,0.0,1.0
2597556000,2597556000,0.002138129,-0.052644175,-0.0022135838,0.7070698,0.0,0.0,0.0,1.0
2597656000,2597656000,-0.001993428,-0.05208904,-0.001071004,0.70491713,0.0,0.0,0.0,1.0
2597752000,2597752000,0.0021221018,-0.06014148,-0.001386178,0.7090792,0.0,0.0,0.0,1.0
2597856000,2597856000,0.0015168015,-0.060085334,-0.0014710341,0.70960253,0.0,0.0,0.0,1.0
2597956000,2597956000,0.0044661006,-0.05327454,-0.0007169433,0.70629954,0.0,0.0,0.0,1.0
2598056000,2598056000,-0.000705163,-0.059259746,-0.0006441637,0.70746136,0.0,0.0,0.0,1.0
2598156000,2598156000,-0.0003568923,-0.051490955,-0.0011763328,0.70636517,0.0,0.0,0.0,1.0
2598252000,2598252000,0.0004524598,-0.05064484,-0.0017691001,0.7050178,0.0,0.0,0.0,1.0
2598356000,2598356000,-0.0022758292,-0.053870894,-0.0017707888,0.704226,0.0,0.0,0.0,1.0
2598452000,2598452000,0.0018812306,-0.061567552,-0.0010114601,0.70782334,0.0,0.0,0.0,1.0
2598556000,2598556000,-6.5070344e-07,-0.054423586,-0.0017127693,0.70642424,0.0,0.0,0.0,1.0
2598656000,2598656000,-0.0015217654,-0.05061348,-0.0016631568,0.70591855,0.0,0.0,0.0,1.0
2598756000,2598756000,0.0035987087,-0.049369164,-0.0010245994,0.70426995,0.0,0.0,0.0,1.0
2598856000,2598856000,0.0012212489,-0.05981293,-0.001385314,0.7089386,0.0,0.0,0.0,1.0
2598956000,2598956000,0.00478942,-0.06082483,-0.0022270088,0.7103302,0.0,0.0,0.0,1.0
2599056000,2599056000,0.0010237283,-0.05563343,-0.0017947749,0.7083227,0.0,0.0,0.0,1.0
2599156000,2599156000,-0.00080796407,-0.049588017,-0.0013775027,0.70616865,0.0,0.0,0.0,1.0
2599252000,2599252000,-0.0013574273,-0.047389098,-0.0020298245,0.70871437,0.0,0.0,0.0,1.0
2599356000,2599356000,-0.0023582722,-0.058473874,-0.0016218275,0.7129957,0.0,0.0,0.0,1.0
2599452000,2599452000,0.00028248923,-0.059652932,-0.0017332139,0.71384877,0.0,0.0,0.0,1.0
2599552000,2599552000,0.00093587657,-0.05847503,-0.00119525,0.71227115,0.0,0.0,0.0,1.0
2599656000,2599656000,0.0019616256,-0.044358112,-0.0018740321,0.704144,0.0,0.0,0.0,1.0
2599756000,2599756000,-0.0013590386,-0.039648358,-0.00052714016,0.69872934,0.0,0.0,0.0,1.0
2599856000,2599856000,-0.0015276368,-0.037539296,-0.0021151025,0.69086057,0.0,0.0,0.0,1.0
2599956000,2599956000,0.007425205,-0.062965915,-0.0013175813,0.6853522,0.0,0.0,0.0,1.0
2600056000,2600056000,0.002480084,-0.06986567,-9.0717454e-05,0.6760899,0.0,0.0,0.0,1.0
2600156000,2600156000,0.002168445,-0.059350006,0.00010682468,0.66349745,0.0,0.0,0.0,1.0
2600252000,2600252000,0.0029498073,-0.048678946,0.00033525017,0.6573541,0.0,0.0,0.0,1.0
2600356000,2600356000,0.0022206616,-0.04611203,-0.00034660968,0.65177226,0.0,0.0,0.0,1.0
2600452000,2600452000,0.0031144344,-0.048857447,-8.4403786e-05,0.6465647,0.0,0.0,0.0,1.0
2600552000,2600552000,0.00053782295,-0.04760203,0.00065183,0.63943154,0.0,0.0,0.0,1.0
2600656000,2600656000,0.00090503506,-0.04023667,-0.00016393542,0.63296753,0.0,0.0,0.0,1.0
2600756000,2600756000,-0.00027598278,-0.045006283,0.0001653774,0.6285781,0.0,0.0,0.0,1.0
2600856000,2600856000,-0.00022972492,-0.04901565,0.00020513195,0.62468183,0.0,0.0,0.0,1.0
2600952000,2600952000,0.0011685874,-0.035252348,-0.00052173133,0.6196221,0.0,0.0,0.0,1.0
2601056000,2601056000,-0.00026750867,-0.034232046,-0.00042674819,0.61544806,0.0,0.0,0.0,1.0
2601156000,2601156000,-0.00067453366,-0.035949513,0.00049909134,0.61263865,0.0,0.0,0.0,1.0
2601256000,2601256000,0.0021890467,-0.03166188,-0.000103969185,0.608765,0.0,0.0,0.0,1.0
2601352000,2601352000,-0.0010405799,-0.031077547,0.00063678325,0.6049252,0.0,0.0,0.0,1.0
2601452000,2601452000,-0.001592523,-0.025675418,0.0008867985,0.6018692,0.0,0.0,0.0,1.0
2601556000,2601556000,-0.00063652056,-0.024942074,-0.00046383878,0.59838146,0.0,0.0,0.0,1.0
2601656000,2601656000,0.003978788,-0.02592364,-0.00015812466,0.59648746,0.0,0.0,0.0,1.0
2601756000,2601756000,0.0032133302,-0.021945205,0.00048948167,0.5946134,0.0,0.0,0.0,1.0
2601856000,2601856000,0.0022305935,-0.023021549,-0.0010380672,0.59329313,0.0,0.0,0.0,1.0
2601952000,2601952000,0.0028098556,-0.019740768,0.009444837,0.58913773,0.0,0.0,0.0,1.0
2602056000,2602056000,-0.000490183,-0.01382138,0.037969913,0.5839101,0.0,0.0,0.0,1.0
2602156000,2602156000,0.0069098775,-0.0067801103,0.052960724,0.58520097,0.0,0.0,0.0,1.0
2602256000,2602256000,0.00070203375,-0.018445147,0.049324658,0.58327013,0.0,0.0,0.0,1.0
2602352000,2602352000,0.00092941546,-0.014729891,0.048753895,0.58251804,0.0,0.0,0.0,1.0
2602452000,2602452000,0.005787963,-0.011392836,0.050187763,0.58433783,0.0,0.0,0.0,1.0
2602552000,2602552000,-0.008912467,-0.02055189,0.04689952,0.5853837,0.0,0.0,0.0,1.0
2602656000,2602656000,-0.025110403,-0.021019675,0.047546208,0.58346057,0.0,0.0,0.0,1.0
2602756000,2602756000,-0.045504283,-0.016336128,0.041192707,0.57482487,0.0,0.0,0.0,1.0
2602856000,2602856000,0.013520589,-0.0008198526,0.037757598,0.58484894,0.0,0.0,0.0,1.0
2602952000,2602952000,0.015412364,0.0028452165,0.04573393,0.5851858,0.0,0.0,0.0,1.0
2603056000,2603056000,0.015581973,-0.006082285,0.043548074,0.5818291,0.0,0.0,0.0,1.0
2603156000,2603156000,0.004382816,-0.010877751,0.039949093,0.5836365,0.0,0.0,0.0,1.0
2603256000,2603256000,0.025197858,-0.012203874,0.046286374,0.5820899,0.0,0.0,0.0,1.0
2603356000,2603356000,0.0267446,-0.010764471,0.044086047,0.58285964,0.0,0.0,0.0,1.0
2603456000,2603456000,0.021285588,-0.015768455,0.039842248,0.58443207,0.0,0.0,0.0,1.0
2603552000,2603552000,0.012849326,-0.007813286,0.046261966,0.5818019,0.0,0.0,0.0,1.0
2603652000,2603652000,-0.009820485,0.000799546,0.042153202,0.5836176,0.0,0.0,0.0,1.0
2603752000,2603752000,0.024546534,-0.022031508,0.03987623,0.58633256,0.0,0.0,0.0,1.0
2603856000,2603856000,0.0030633493,-0.0062175007,0.041652307,0.5867344,0.0,0.0,0.0,1.0
2603956000,2603956000,0.008761453,-0.011122437,0.036538724,0.58903784,0.0,0.0,0.0,1.0
2604056000,2604056000,0.0092601385,-0.012470128,0.042513266,0.5907341,0.0,0.0,0.0,1.0
2604156000,2604156000,0.0097187525,-0.017624907,0.040339697,0.5945333,0.0,0.0,0.0,1.0
2604256000,2604256000,0.020948194,-0.038233295,0.038067043,0.5963454,0.0,0.0,0.0,1.0
2604352000,2604352000,0.008987922,-0.011615602,0.03501691,0.59318775,0.0,0.0,0.0,1.0
2604456000,2604456000,-0.0012490586,0.00026247185,0.036456417,0.5992272,0.0,0.0,0.0,1.0
2604556000,2604556000,0.005969949,-0.0100957975,0.0413834,0.60038376,0.0,0.0,0.0,1.0
2604656000,2604656000,0.0028019168,-0.017898172,0.036559287,0.6038114,0.0,0.0,0.0,1.0
2604756000,2604756000,0.0058077625,-0.038033195,0.022879407,0.61167943,0.0,0.0,0.0,1.0
2604856000,2604856000,0.012027737,-0.03874469,-0.0029096324,0.6151806,0.0,0.0,0.0,1.0
2604956000,2604956000,0.0113251675,-0.028096106,-0.007674381,0.6148793,0.0,0.0,0.0,1.0
2605052000,2605052000,0.0043672984,-0.027133547,-0.005975293,0.6195275,0.0,0.0,0.0,1.0
2605156000,2605156000,0.0021138059,-0.02625384,-0.0050238054,0.6242899,0.0,0.0,0.0,1.0
2605256000,2605256000,0.0012966515,-0.03395977,-0.004630912,0.6292126,0.0,0.0,0.0,1.0
2605352000,2605352000,-0.0009908881,-0.024821177,-0.0031791069,0.62865996,0.0,0.0,0.0,1.0
2605452000,2605452000,-0.000810802,-0.03293305,-0.0028150547,0.64079434,0.0,0.0,0.0,1.0
2605552000,2605552000,0.0012321137,-0.03302921,-0.00034129806,0.63957894,0.0,0.0,0.0,1.0
2605652000,2605652000,-0.0032638665,-0.041428395,-0.002140155,0.64893407,0.0,0.0,0.0,1.0
2605756000,2605756000,0.0015166616,-0.01788096,-0.00030279718,0.64426625,0.0,0.0,0.0,1.0
2605856000,2605856000,-0.0028105273,-0.020581186,0.0010739677,0.6517784,0.0,0.0,0.0,1.0
2605952000,2605952000,0.0022033686,-0.013125074,0.0006668279,0.6477362,0.0,0.0,0.0,1.0
2606056000,2606056000,-0.0005926909,-0.023302924,0.002979761,0.6509944,0.0,0.0,0.0,1.0
2606156000,2606156000,0.0038487138,-0.026451254,0.0038976008,0.6499483,0.0,0.0,0.0,1.0
2606252000,2606252000,-0.004408061,-0.031675432,0.0049518663,0.6530339,0.0,0.0,0.0,1.0
2606356000,2606356000,-0.0038607975,-0.034841437,0.0065161567,0.65255857,0.0,0.0,0.0,1.0
2606456000,2606456000,-0.0044763675,-0.038723864,0.008038029,0.6525618,0.0,0.0,0.0,1.0
2606556000,2606556000,-0.0036225698,-0.037729338,0.012502771,0.65172225,0.0,0.0,0.0,1.0
2606656000,2606656000,-0.006050511,-0.03981207,0.015354002,0.65374213,0.0,0.0,0.0,1.0
2606756000,2606756000,-0.0065703774,-0.0425744,0.0071005886,0.65456796,0.0,0.0,0.0,1.0
2606856000,2606856000,-0.0015748441,-0.035002388,-0.0017392514,0.65146613,0.0,0.0,0.0,1.0
2606956000,2606956000,0.006394487,-0.038317423,-0.03268859,0.65337783,0.0,0.0,0.0,1.0
2607056000,2607056000,0.010058794,-0.046722427,-0.039433688,0.65356463,0.0,0.0,0.0,1.0
2607156000,2607156000,0.0073745605,-0.04796359,-0.039632186,0.6554745,0.0,0.0,0.0,1.0
2607256000,2607256000,-0.011800835,-0.04646601,-0.011520948,0.6542624,0.0,0.0,0.0,1.0
2607356000,2607356000,-0.020181807,-0.035037052,0.0011440262,0.6512034,0.0,0.0,0.0,1.0
2607456000,2607456000,-0.013494523,-0.047640283,-0.000546522,0.65467757,0.0,0.0,0.0,1.0
2607552000,2607552000,-0.0012954662,-0.04348845,-0.00080705574,0.65326715,0.0,0.0,0.0,1.0
2607652000,2607652000,-0.00058966153,-0.040081836,0.0010090123,0.6559409,0.0,0.0,0.0,1.0
2607756000,2607756000,0.0040373867,-0.03533294,0.0003143635,0.6560462,0.0,0.0,0.0,1.0
2607852000,2607852000,0.0029244032,-0.03129563,-0.0006297771,0.6549672,0.0,0.0,0.0,1.0
2607952000,2607952000,0.0015743509,-0.051158413,-0.0004180139,0.6586253,0.0,0.0,0.0,1.0
2608056000,2608056000,0.0023129233,-0.05011847,-0.0011333867,0.6578136,0.0,0.0,0.0,1.0
2608156000,2608156000,0.004388553,-0.036285345,-0.00065689743,0.6542997,0.0,0.0,0.0,1.0
2608256000,2608256000,0.0022864963,-0.033010118,-0.00019118143,0.6558925,0.0,0.0,0.0,1.0
2608356000,2608356000,0.0025778795,-0.0377155,-0.00075999764,0.6578957,0.0,0.0,0.0,1.0
2608456000,2608456000,0.0029193768,-0.042403225,-0.0012837343,0.65728974,0.0,0.0,0.0,1.0
2608556000,2608556000,0.0032350568,-0.047043476,-0.0007068149,0.65733546,0.0,0.0,0.0,1.0
2608656000,2608656000,0.004900253,-0.040768508,-0.0011521215,0.65972126,0.0,0.0,0.0,1.0
2608756000,2608756000,0.0021114473,-0.044009432,-0.0008905836,0.6595852,0.0,0.0,0.0,1.0
2608856000,2608856000,0.0028771127,-0.03244355,-0.00085458683,0.65699023,0.0,0.0,0.0,1.0
2608956000,2608956000,0.0028081236,-0.039011393,-0.00042423792,0.6578334,0.0,0.0,0.0,1.0
2609052000,2609052000,0.0017382945,-0.046246856,-0.0012818846,0.6599454,0.0,0.0,0.0,1.0
2609152000,2609152000,-0.00048364908,-0.037545286,-0.0008158542,0.65856653,0.0,0.0,0.0,1.0
2609252000,2609252000,2.54123e-06,-0.03872974,-0.0010183459,0.6614718,0.0,0.0,0.0,1.0
2609356000,2609356000,0.0051225,-0.03378869,-0.001593535,0.65886146,0.0,0.0,0.0,1.0
2609456000,2609456000,0.0010656216,-0.042069815,-0.0006348855,0.66242766,0.0,0.0,0.0,1.0
2609556000,2609556000,0.0017780504,-0.038761128,-0.0011490901,0.66150504,0.0,0.0,0.0,1.0
2609652000,2609652000,-0.0010712412,-0.043169502,-0.0011672549,0.66309696,0.0,0.0,0.0,1.0
2609756000,2609756000,0.005065543,-0.038934596,-0.0006037119,0.66148895,0.0,0.0,0.0,1.0
2609856000,2609856000,0.002583276,-0.03990366,-0.00067033403,0.66416204,0.0,0.0,0.0,1.0
2609956000,2609956000,6.214436e-05,-0.037903693,-1.8400606e-05,0.66052943,0.0,0.0,0.0,1.0
2610056000,2610056000,0.0036675069,-0.03816349,-0.0004071897,0.6648505,0.0,0.0,0.0,1.0
2610152000,2610152000,0.0010915428,-0.047454882,-0.0014614589,0.6641072,0.0,0.0,0.0,1.0
2610256000,2610256000,0.0032846911,-0.03531248,-0.0011104412,0.6622253,0.0,0.0,0.0,1.0
2610356000,2610356000,0.004376688,-0.034551203,-0.00024330744,0.6607151,0.0,0.0,0.0,1.0
2610456000,2610456000,0.00243647,-0.041063823,-0.0009892676,0.6631621,0.0,0.0,0.0,1.0
2610552000,2610552000,0.0045949183,-0.04700785,-0.00049536594,0.6653135,0.0,0.0,0.0,1.0
2610652000,2610652000,0.0029061092,-0.03849358,-0.00073447666,0.66232395,0.0,0.0,0.0,1.0
2610756000,2610756000,0.0007622738,-0.04117274,-0.0020663922,0.66626865,0.0,0.0,0.0,1.0
2610852000,2610852000,0.0033465743,-0.043943252,-0.00090984907,0.6666324,0.0,0.0,0.0,1.0
2610956000,2610956000,0.004158662,-0.0430038,-0.0012904895,0.6644443,0.0,0.0,0.0,1.0
2611056000,2611056000,0.0027238033,-0.040470213,-0.0011416596,0.6672084,0.0,0.0,0.0,1.0
2611156000,2611156000,0.0014777022,-0.036888152,-0.0008173588,0.66643465,0.0,0.0,0.0,1.0
2611256000,2611256000,0.0025708317,-0.03273002,-0.0010271695,0.6647458,0.0,0.0,0.0,1.0
2611356000,2611356000,0.0019187417,-0.036646478,-0.0014359975,0.66591406,0.0,0.0,0.0,1.0
2611456000,2611456000,0.000809505,-0.04915709,-0.0014835028,0.66816515,0.0,0.0,0.0,1.0
2611556000,2611556000,0.00306631,-0.049204692,-0.0007950183,0.6688442,0.0,0.0,0.0,1.0
2611656000,2611656000,0.0015523299,-0.046370283,-0.001585525,0.669293,0.0,0.0,0.0,1.0
2611756000,2611756000,0.00074482826,-0.039560024,-0.0017671809,0.6663055,0.0,0.0,0.0,1.0
2611852000,2611852000,0.004285371,-0.047371417,-0.00032478236,0.66931987,0.0,0.0,0.0,1.0
2611956000,2611956000,0.00087739364,-0.048337948,-0.0012725465,0.6705952,0.0,0.0,0.0,1.0
2612052000,2612052000,-0.0016916841,-0.04555068,-0.0010640607,0.67173773,0.0,0.0,0.0,1.0
2612156000,2612156000,0.00078096427,-0.049273904,-0.0014227114,0.6704742,0.0,0.0,0.0,1.0
2612252000,2612252000,0.0016389058,-0.04303363,-0.00091923366,0.66993785,0.0,0.0,0.0,1.0
2612356000,2612356000,0.0035931207,-0.050727617,-0.0009769279,0.67131203,0.0,0.0,0.0,1.0
2612452000,2612452000,0.0032237228,-0.042582136,-0.0014041231,0.66917014,0.0,0.0,0.0,1.0
2612556000,2612556000,0.0040188604,-0.044771783,-0.0015945304,0.67053056,0.0,0.0,0.0,1.0
2612656000,2612656000,0.0027868166,-0.034397226,-0.00074780046,0.6689735,0.0,0.0,0.0,1.0
2612756000,2612756000,0.003646172,-0.039082978,-0.0013997254,0.6692472,0.0,0.0,0.0,1.0
2612856000,2612856000,0.0024668586,-0.049521692,-0.00047312025,0.67166686,0.0,0.0,0.0,1.0
2612956000,2612956000,0.001793405,-0.050623287,4.686945e-05,0.6715015,0.0,0.0,0.0,1.0
2613052000,2613052000,0.0045429636,-0.046483025,-0.001556999,0.6719706,0.0,0.0,0.0,1.0
2613156000,2613156000,0.00029850565,-0.04126514,-0.00071960274,0.6707126,0.0,0.0,0.0,1.0
2613256000,2613256000,0.0038053868,-0.05162047,0.00023437262,0.6739983,0.0,0.0,0.0,1.0
2613356000,2613356000,0.0039711925,-0.042625066,-0.001991052,0.6714825,0.0,0.0,0.0,1.0
2613456000,2613456000,0.0027449587,-0.04404611,-0.00046489234,0.6722611,0.0,0.0,0.0,1.0
2613556000,2613556000,0.0006034111,-0.037108295,-0.0015033821,0.67126673,0.0,0.0,0.0,1.0
2613656000,2613656000,0.0032732612,-0.0362949,-0.0008612841,0.67181975,0.0,0.0,0.0,1.0
2613752000,2613752000,0.0023783108,-0.0532492,-0.0012331824,0.6744014,0.0,0.0,0.0,1.0
2613856000,2613856000,0.0023065167,-0.0494582,-0.0013638488,0.6740682,0.0,0.0,0.0,1.0
2613956000,2613956000,0.0065461244,-0.04281481,-0.0014203045,0.67095506,0.0,0.0,0.0,1.0
2614052000,2614052000,0.0017058881,-0.042531826,-0.0011413288,0.6732457,0.0,0.0,0.0,1.0
2614156000,2614156000,0.004156526,-0.037594184,-0.0010027112,0.6717964,0.0,0.0,0.0,1.0
2614256000,2614256000,0.0043834443,-0.0531741,-0.0011254817,0.67388344,0.0,0.0,0.0,1.0
2614356000,2614356000,0.0012943748,-0.046291932,-0.0016543745,0.67412174,0.0,0.0,0.0,1.0
2614456000,2614456000,0.0021571156,-0.04412821,-0.00015541242,0.67184544,0.0,0.0,0.0,1.0
2614556000,2614556000,0.001735006,-0.04088195,-0.0012551341,0.672508,0.0,0.0,0.0,1.0
2614652000,2614652000,0.0034968697,-0.047348656,-0.00066141476,0.67572814,0.0,0.0,0.0,1.0
2614756000,2614756000,0.00012370315,-0.04836154,-0.0006098136,0.6764953,0.0,0.0,0.0,1.0
2614856000,2614856000,0.0002657976,-0.047798272,-0.00209655,0.6759333,0.0,0.0,0.0,1.0
2614956000,2614956000,0.0012599296,-0.040262297,-0.0012021111,0.67435616,0.0,0.0,0.0,1.0
2615056000,2615056000,0.00439959,-0.04282459,-0.0014615805,0.67509675,0.0,0.0,0.0,1.0
2615152000,2615152000,0.0010051158,-0.052385584,-0.00085086987,0.68050086,0.0,0.0,0.0,1.0
2615256000,2615256000,0.0014872823,-0.051102847,-0.0007437748,0.6773806,0.0,0.0,0.0,1.0
2615356000,2615356000,0.0027318746,-0.0447349,-0.001112916,0.6767143,0.0,0.0,0.0,1.0
2615452000,2615452000,0.0063074287,-0.04286927,-0.0014493347,0.6767424,0.0,0.0,0.0,1.0
2615556000,2615556000,0.0019045428,-0.050437957,-0.00096019433,0.6785227,0.0,0.0,0.0,1.0
2615652000,2615652000,0.00013533514,-0.049608402,-0.0011431857,0.6777692,0.0,0.0,0.0,1.0
2615752000,2615752000,0.00057347375,-0.050324067,-0.0013172925,0.67927194,0.0,0.0,0.0,1.0
2615852000,2615852000,0.004355881,-0.041439407,-0.0014340022,0.67748654,0.0,0.0,0.0,1.0
2615956000,2615956000,0.0035475485,-0.03897929,-0.00046583725,0.6765832,0.0,0.0,0.0,1.0
2616056000,2616056000,0.0018984161,-0.048189025,-0.001493014,0.679073,0.0,0.0,0.0,1.0
2616156000,2616156000,0.0022353455,-0.04273853,-0.0004231598,0.6774654,0.0,0.0,0.0,1.0
2616256000,2616256000,0.0032190154,-0.044577427,-0.0019985628,0.67935175,0.0,0.0,0.0,1.0
2616356000,2616356000,0.0011466494,-0.04071219,-0.0008672049,0.67720526,0.0,0.0,0.0,1.0
2616456000,2616456000,0.0032144752,-0.040737048,-0.0012728658,0.6764192,0.0,0.0,0.0,1.0
2616556000,2616556000,0.0010844546,-0.049490564,-0.00026139984,0.6794635,0.0,0.0,0.0,1.0
2616656000,2616656000,0.0008966767,-0.047068655,-0.00016261678,0.68050957,0.0,0.0,0.0,1.0
2616756000,2616756000,0.0040870276,-0.048731085,-0.0021440666,0.67839825,0.0,0.0,0.0,1.0
2616856000,2616856000,0.001804518,-0.040123824,0.00020228268,0.6782516,0.0,0.0,0.0,1.0
2616956000,2616956000,0.004749818,-0.0450042,-0.0013636253,0.6778451,0.0,0.0,0.0,1.0
2617052000,2617052000,0.002758577,-0.049536653,-0.001136215,0.6806924,0.0,0.0,0.0,1.0
2617156000,2617156000,0.0066475887,-0.048503783,-0.0019490168,0.6814888,0.0,0.0,0.0,1.0
2617256000,2617256000,0.0032747658,-0.043708313,-0.0011914454,0.6799278,0.0,0.0,0.0,1.0
2617356000,2617356000,0.0045355745,-0.0369682,-0.0004002612,0.6782002,0.0,0.0,0.0,1.0
2617456000,2617456000,0.0019872603,-0.051888794,-0.0011422017,0.6819509,0.0,0.0,0.0,1.0
2617556000,2617556000,0.0011190495,-0.04961394,-0.00064250804,0.68127555,0.0,0.0,0.0,1.0
2617652000,2617652000,-0.00025105872,-0.047782667,-0.0013909754,0.68065244,0.0,0.0,0.0,1.0
2617756000,2617756000,0.0062822727,-0.0427101,-0.0015528856,0.68064713,0.0,0.0,0.0,1.0
2617856000,2617856000,0.0032962437,-0.04207428,-0.0017849009,0.67998004,0.0,0.0,0.0,1.0
2617956000,2617956000,0.0072577614,-0.047330856,-0.00034921983,0.682905,0.0,0.0,0.0,1.0
2618056000,2618056000,0.0017300787,-0.046858564,-0.00028808456,0.6829472,0.0,0.0,0.0,1.0
2618156000,2618156000,0.0027934927,-0.04955086,-0.0006921161,0.68319225,0.0,0.0,0.0,1.0
2618256000,2618256000,0.0019789068,-0.039692774,-0.0014191165,0.67993116,0.0,0.0,0.0,1.0
2618356000,2618356000,0.0033469861,-0.042292383,-0.0012600217,0.68189585,0.0,0.0,0.0,1.0
2618456000,2618456000,0.0009710357,-0.050098132,-0.0011056978,0.68367374,0.0,0.0,0.0,1.0
2618556000,2618556000,-0.0013778917,-0.046657085,-0.0015825828,0.6839874,0.0,0.0,0.0,1.0
2618656000,2618656000,0.0019125396,-0.04555107,-0.0012784974,0.6845781,0.0,0.0,0.0,1.0
2618752000,2618752000,0.0014428513,-0.04362347,-0.0009136854,0.6818839,0.0,0.0,0.0,1.0
2618856000,2618856000,0.00072082225,-0.051760297,-0.0006012453,0.6857149,0.0,0.0,0.0,1.0
2618956000,2618956000,0.00059594493,-0.049751103,-0.0003321104,0.68485445,0.0,0.0,0.0,1.0
2619052000,2619052000,0.0030082297,-0.04511308,-0.00035016128,0.6845669,0.0,0.0,0.0,1.0
2619156000,2619156000,0.001541155,-0.04231428,-0.0012742057,0.6824002,0.0,0.0,0.0,1.0
2619256000,2619256000,0.003646513,-0.043213315,-0.0011055651,0.68180937,0.0,0.0,0.0,1.0
2619352000,2619352000,0.0016427834,-0.050584495,-0.00014870678,0.6858195,0.0,0.0,0.0,1.0
2619456000,2619456000,0.003961409,-0.049689714,-0.0018146086,0.6863746,0.0,0.0,0.0,1.0
2619556000,2619556000,0.0010602943,-0.047993995,-0.00038416672,0.6878241,0.0,0.0,0.0,1.0
2619652000,2619652000,0.0036180867,-0.04237948,-0.0018132704,0.6840402,0.0,0.0,0.0,1.0
2619756000,2619756000,0.0041767117,-0.043271378,-0.0013448696,0.68433034,0.0,0.0,0.0,1.0
2619856000,2619856000,0.00020921836,-0.052133888,-4.0661485e-05,0.68791497,0.0,0.0,0.0,1.0
2619952000,2619952000,-0.001332762,-0.046525467,-0.0011589947,0.688559,0.0,0.0,0.0,1.0
2620056000,2620056000,0.0028044577,-0.04509642,-0.0014052803,0.6881315,0.0,0.0,0.0,1.0
2620156000,2620156000,0.0005180519,-0.04529623,-2.3504079e-05,0.6865404,0.0,0.0,0.0,1.0
2620256000,2620256000,0.0009572167,-0.055142984,-0.00095358095,0.68764913,0.0,0.0,0.0,1.0
2620356000,2620356000,0.0011973174,-0.054357857,-0.00025041553,0.688274,0.0,0.0,0.0,1.0
2620456000,2620456000,-0.0005569486,-0.046826847,-0.0005154359,0.6886509,0.0,0.0,0.0,1.0
2620556000,2620556000,0.0046902085,-0.042649116,-0.00031197252,0.6880283,0.0,0.0,0.0,1.0
2620656000,2620656000,0.0034088003,-0.045128353,-0.0013193127,0.68752176,0.0,0.0,0.0,1.0
2620752000,2620752000,0.0033753235,-0.056735672,-0.0012177859,0.6897576,0.0,0.0,0.0,1.0
2620856000,2620856000,0.003023732,-0.04910967,-0.000943657,0.6883757,0.0,0.0,0.0,1.0
2620956000,2620956000,0.0013813905,-0.04482946,-0.0016919144,0.6893756,0.0,0.0,0.0,1.0
2621056000,2621056000,0.0017520207,-0.04778609,0.0002771314,0.6859287,0.0,0.0,0.0,1.0
2621156000,2621156000,-0.002289492,-0.041997228,-0.00019420986,0.68834454,0.0,0.0,0.0,1.0
2621256000,2621256000,-0.00014929264,-0.05198983,-0.0012980093,0.6902943,0.0,0.0,0.0,1.0
2621356000,2621356000,0.0025109532,-0.04909894,0.0005263984,0.68902296,0.0,0.0,0.0,1.0
2621456000,2621456000,0.0029920791,-0.04840376,-0.00066833984,0.68799686,0.0,0.0,0.0,1.0
2621556000,2621556000,0.0016271706,-0.041862343,0.0004315307,0.6895361,0.0,0.0,0.0,1.0
2621656000,2621656000,0.0013737864,-0.052292123,-0.000718615,0.6917534,0.0,0.0,0.0,1.0
2621756000,2621756000,-0.00014036847,-0.05398099,-0.00026961733,0.6913507,0.0,0.0,0.0,1.0
2621856000,2621856000,0.0029157116,-0.050758373,0.0008350834,0.6913261,0.0,0.0,0.0,1.0
2621956000,2621956000,0.0044395383,-0.04074619,0.00012333045,0.68836886,0.0,0.0,0.0,1.0
2622056000,2622056000,0.0014523965,-0.045144778,0.00097505597,0.6870951,0.0,0.0,0.0,1.0
2622156000,2622156000,0.0036624433,-0.05177154,0.0019861686,0.6921614,0.0,0.0,0.0,1.0
2622252000,2622252000,0.0025774455,-0.049520068,0.0016080639,0.6910658,0.0,0.0,0.0,1.0
2622356000,2622356000,-0.00051892945,-0.04604667,0.0035603128,0.6905986,0.0,0.0,0.0,1.0
2622456000,2622456000,0.0012810153,-0.042252377,0.004807296,0.6886745,0.0,0.0,0.0,1.0
2622556000,2622556000,0.0056773894,-0.04457098,-0.017705105,0.68857914,0.0,0.0,0.0,1.0
2622652000,2622652000,0.007822863,-0.04940995,-0.019263947,0.6916972,0.0,0.0,0.0,1.0
2622752000,2622752000,0.0006410845,-0.049763292,-0.00030161894,0.69021595,0.0,0.0,0.0,1.0
2622856000,2622856000,-0.0014449198,-0.048356783,0.0013222991,0.6896838,0.0,0.0,0.0,1.0
2622956000,2622956000,0.001060215,-0.04193534,-0.00038614625,0.6908898,0.0,0.0,0.0,1.0
2623056000,2623056000,-0.000717654,-0.048437048,-0.0010557423,0.691798,0.0,0.0,0.0,1.0
2623156000,2623156000,-0.00086169015,-0.03822083,-0.00021202245,0.6842969,0.0,0.0,0.0,1.0
2623256000,2623256000,0.0017188197,-0.032626048,-0.0003761553,0.68005407,0.0,0.0,0.0,1.0
2623356000,2623356000,-0.00056086655,-0.04160653,-0.00032523664,0.673226,0.0,0.0,0.0,1.0
2623456000,2623456000,0.005411412,-0.0627457,0.00021458836,0.66645384,0.0,0.0,0.0,1.0
2623556000,2623556000,-0.0014350796,-0.0606274,0.00026075356,0.6583402,0.0,0.0,0.0,1.0
2623656000,2623656000,-7.413805e-05,-0.04994026,0.00015496078,0.6472723,0.0,0.0,0.0,1.0
2623756000,2623756000,0.003403536,-0.0480125,0.0007146652,0.6427642,0.0,0.0,0.0,1.0
2623856000,2623856000,0.0022133817,-0.05154443,0.00084679585,0.6387225,0.0,0.0,0.0,1.0
2623956000,2623956000,0.0011291602,-0.04391094,0.0007103011,0.6323229,0.0,0.0,0.0,1.0
2624052000,2624052000,-0.00072256615,-0.03627112,0.0010734207,0.62585104,0.0,0.0,0.0,1.0
2624156000,2624156000,0.00035425823,-0.036782146,0.0011006928,0.6227148,0.0,0.0,0.0,1.0
2624252000,2624252000,0.0024853304,-0.030493122,0.0013107008,0.6185152,0.0,0.0,0.0,1.0
2624356000,2624356000,0.0003553764,-0.043787107,0.00019752624,0.61583716,0.0,0.0,0.0,1.0
2624452000,2624452000,0.0022281255,-0.030953085,0.00049921504,0.6112471,0.0,0.0,0.0,1.0
2624556000,2624556000,0.0012009058,-0.02930624,0.0015939723,0.6078467,0.0,0.0,0.0,1.0
2624652000,2624652000,-0.00016917952,-0.024997318,0.00034323966,0.6046376,0.0,0.0,0.0,1.0
2624752000,2624752000,0.0016772355,-0.028923742,0.0021348533,0.6008983,0.0,0.0,0.0,1.0
2624856000,2624856000,0.0013734483,-0.02813141,0.0019848011,0.5978818,0.0,0.0,0.0,1.0
2624956000,2624956000,0.0009118412,-0.029254742,0.003123233,0.5964853,0.0,0.0,0.0,1.0
2625056000,2625056000,-0.0003158074,-0.019826258,0.00084665196,0.5937123,0.0,0.0,0.0,1.0
2625156000,2625156000,0.0019236007,-0.021643333,0.001889383,0.59196705,0.0,0.0,0.0,1.0
2625256000,2625256000,-0.0033429116,-0.018547826,0.0011966764,0.58999205,0.0,0.0,0.0,1.0
2625356000,2625356000,0.0032146396,-0.021223173,-0.0058351764,0.5884436,0.0,0.0,0.0,1.0
2625456000,2625456000,0.0010894871,-0.03014902,0.028041149,0.58568066,0.0,0.0,0.0,1.0
2625556000,2625556000,0.0008994321,-0.034359068,0.047626566,0.5848042,0.0,0.0,0.0,1.0
2625652000,2625652000,-0.00914005,-0.027358638,0.04985708,0.5859876,0.0,0.0,0.0,1.0
2625756000,2625756000,-0.012804724,-0.029412583,0.051143035,0.59201765,0.0,0.0,0.0,1.0
2625856000,2625856000,-0.01498695,-0.02039771,0.033224538,0.5973956,0.0,0.0,0.0,1.0
2625952000,2625952000,0.0021387094,-0.02203885,0.002524118,0.60752046,0.0,0.0,0.0,1.0
2626056000,2626056000,0.0025824278,-0.015217198,-0.0063914116,0.62322074,0.0,0.0,0.0,1.0
2626152000,2626152000,0.005346537,-0.0031692442,-0.006967487,0.63277584,0.0,0.0,0.0,1.0
2626256000,2626256000,0.003487981,-0.017225016,-0.0053884024,0.64866096,0.0,0.0,0.0,1.0
2626356000,2626356000,0.0019366539,-0.006878767,-0.0044040605,0.65623003,0.0,0.0,0.0,1.0
2626456000,2626456000,0.0017550846,-0.042231526,-0.0031159334,0.6815703,0.0,0.0,0.0,1.0
2626556000,2626556000,0.0019528698,-0.033883717,-0.001737664,0.6916545,0.0,0.0,0.0,1.0
2626652000,2626652000,0.005710385,-0.0005304273,-0.0008333996,0.68204117,0.0,0.0,0.0,1.0
2626756000,2626756000,0.0050756987,-0.011911647,-0.0014180723,0.690886,0.0,0.0,0.0,1.0
2626852000,2626852000,0.0048565576,-0.05288369,-0.0005858196,0.7033792,0.0,0.0,0.0,1.0
2626952000,2626952000,0.00018356834,-0.057789117,0.00044759386,0.6984582,0.0,0.0,0.0,1.0
2627056000,2627056000,-0.004966974,-0.053706948,-0.0014629434,0.6949152,0.0,0.0,0.0,1.0
2627156000,2627156000,-0.0017207938,-0.046510495,-0.0035516943,0.6914049,0.0,0.0,0.0,1.0
2627256000,2627256000,0.004688509,-0.045536473,-0.0036417523,0.69082415,0.0,0.0,0.0,1.0
2627356000,2627356000,0.007626185,-0.040956464,-0.0017753313,0.6885444,0.0,0.0,0.0,1.0
2627456000,2627456000,0.0078613525,-0.056716934,-0.0011462399,0.6921989,0.0,0.0,0.0,1.0
2627556000,2627556000,0.004315771,-0.056263324,-0.0015969807,0.6915021,0.0,0.0,0.0,1.0
2627656000,2627656000,0.004032974,-0.052500036,-0.0013878713,0.68935204,0.0,0.0,0.0,1.0
2627756000,2627756000,0.0041734567,-0.043931015,-0.0010068181,0.690401,0.0,0.0,0.0,1.0
2627856000,2627856000,0.004176297,-0.049030762,-0.0022194977,0.6912315,0.0,0.0,0.0,1.0
2627956000,2627956000,0.006207592,-0.049739577,-0.0009272278,0.69107896,0.0,0.0,0.0,1.0
2628056000,2628056000,0.0035218773,-0.051427882,-0.0013439037,0.69281167,0.0,0.0,0.0,1.0
2628156000,2628156000,0.0037321635,-0.059684068,-0.0009112038,0.6947808,0.0,0.0,0.0,1.0
2628256000,2628256000,0.004526535,-0.042718455,-0.0010965378,0.6880377,0.0,0.0,0.0,1.0
2628352000,2628352000,0.004861767,-0.04893147,-0.0015585021,0.6907476,0.0,0.0,0.0,1.0
2628456000,2628456000,0.0039598155,-0.053745728,-0.001024369,0.69478554,0.0,0.0,0.0,1.0
2628556000,2628556000,0.0056882557,-0.050457053,-0.0019824356,0.69280636,0.0,0.0,0.0,1.0
2628652000,2628652000,0.0044683544,-0.050158814,-0.00033074815,0.6935373,0.0,0.0,0.0,1.0
2628756000,2628756000,0.0044625406,-0.04399767,-0.0014673923,0.6890883,0.0,0.0,0.0,1.0
2628856000,2628856000,0.0059091114,-0.05991343,-0.00018237892,0.69422936,0.0,0.0,0.0,1.0
2628956000,2628956000,0.0028508801,-0.05132935,-0.0014020416,0.6947077,0.0,0.0,0.0,1.0
2629052000,2629052000,0.0062887343,-0.046489563,-0.0017898588,0.68964154,0.0,0.0,0.0,1.0
2629152000,2629152000,0.0046350625,-0.042595986,-0.0013880305,0.6897786,0.0,0.0,0.0,1.0
2629256000,2629256000,0.0037518388,-0.046419963,-0.0010305555,0.6925232,0.0,0.0,0.0,1.0
2629356000,2629356000,0.0059684915,-0.053674575,-0.0012260495,0.6942161,0.0,0.0,0.0,1.0
2629456000,2629456000,0.0071234857,-0.053032298,-0.00095039373,0.69262284,0.0,0.0,0.0,1.0
2629556000,2629556000,0.004438918,-0.04343193,-0.0009113881,0.69329935,0.0,0.0,0.0,1.0
2629652000,2629652000,0.006594274,-0.045309126,-0.0016797739,0.69169223,0.0,0.0,0.0,1.0
2629756000,2629756000,0.00436532,-0.05099345,-0.0017873892,0.6958024,0.0,0.0,0.0,1.0
2629856000,2629856000,0.0047771456,-0.05276516,-0.0012968108,0.6958864,0.0,0.0,0.0,1.0
2629956000,2629956000,0.004383892,-0.05566398,-0.0011041409,0.6967271,0.0,0.0,0.0,1.0
2630056000,2630056000,0.005166395,-0.047559682,-0.0016193446,0.6943302,0.0,0.0,0.0,1.0
2630156000,2630156000,0.004186092,-0.045908116,-0.001701161,0.6933546,0.0,0.0,0.0,1.0
2630256000,2630256000,0.0038499548,-0.054761913,-0.00076849817,0.69552714,0.0,0.0,0.0,1.0
2630356000,2630356000,0.002731219,-0.051107995,-0.000688027,0.6969809,0.0,0.0,0.0,1.0
2630456000,2630456000,0.0046986905,-0.0520988,-0.002078225,0.6981331,0.0,0.0,0.0,1.0
2630556000,2630556000,0.006947047,-0.045505263,-0.0014891352,0.69656616,0.0,0.0,0.0,1.0
2630656000,2630656000,0.005799019,-0.05575866,-0.0021966682,0.6985544,0.0,0.0,0.0,1.0
2630752000,2630752000,0.0056496104,-0.05504815,-0.0008020826,0.69719243,0.0,0.0,0.0,1.0
2630856000,2630856000,0.0065550096,-0.050546758,-0.0011423198,0.6972984,0.0,0.0,0.0,1.0
2630956000,2630956000,0.00697274,-0.05095051,-0.0019681377,0.69762266,0.0,0.0,0.0,1.0
2631052000,2631052000,0.006456013,-0.044653844,-0.0014509617,0.6968154,0.0,0.0,0.0,1.0
2631152000,2631152000,0.005445879,-0.052326452,-0.0021045334,0.69752896,0.0,0.0,0.0,1.0
2631256000,2631256000,0.003948087,-0.05918792,-0.00096692384,0.6999561,0.0,0.0,0.0,1.0
2631352000,2631352000,0.0065497058,-0.05033187,-0.0011518471,0.69920015,0.0,0.0,0.0,1.0
2631456000,2631456000,0.0048493445,-0.04482177,-0.0014750876,0.6954177,0.0,0.0,0.0,1.0
2631556000,2631556000,0.0064159357,-0.050454155,-0.0013079257,0.6987982,0.0,0.0,0.0,1.0
2631652000,2631652000,0.006320549,-0.055050172,-0.0023506978,0.69939303,0.0,0.0,0.0,1.0
2631756000,2631756000,0.008446181,-0.051349808,-0.0017196338,0.69953233,0.0,0.0,0.0,1.0
2631856000,2631856000,0.0065074265,-0.05411044,-0.0011363815,0.7003157,0.0,0.0,0.0,1.0
2631956000,2631956000,0.0068397815,-0.046666663,-0.0012243516,0.69637936,0.0,0.0,0.0,1.0
2632056000,2632056000,0.006706316,-0.054945055,-0.0010173916,0.70008534,0.0,0.0,0.0,1.0
2632156000,2632156000,0.004313231,-0.052295234,-0.00073878246,0.6985497,0.0,0.0,0.0,1.0
