timestamp,timestamp_sample,xyz[0],xyz[1],xyz[2]
2564256000,2564256000,0.0038268538,-0.0026493445,0.0031465318
2564268000,2564268000,0.00013954565,0.0008113468,0.0023015824
2564276000,2564276000,-5.4456526e-05,0.0007867289,0.0022770385
2564292000,2564292000,0.0026454488,0.0026117656,-0.0024491367
2564304000,2564304000,-0.0009474759,0.0050712666,-0.00249175
2564316000,2564316000,-0.0002501856,-0.0007243054,0.0010386854
2564328000,2564328000,-0.0003881096,-0.0024136747,0.0016399783
2564340000,2564340000,-0.0023628357,-0.0010789498,0.004504976
2564352000,2564352000,-0.0029119395,-0.001870763,-0.00017852629
2564364000,2564364000,-0.0028713162,-0.0022568624,0.000104442646
2564376000,2564376000,0.0012115833,-0.00426202,-0.00014312983
2564388000,2564388000,0.0038729683,0.0016990458,0.00017249932
2564400000,2564400000,0.0032607135,0.0039997566,-0.0021694696
2564412000,2564412000,-0.0012573786,0.0011137773,0.0017078915
2564424000,2564424000,-0.002460536,-0.0049182298,0.00037933697
2564432000,2564432000,-0.0006740582,-0.0026831627,0.0025463477
2564448000,2564448000,1.2993813e-05,-9.647943e-05,0.000488942
2564460000,2564460000,-0.0007261513,0.0010493579,0.00072359777
2564468000,2564468000,1.1567026e-05,0.00037942175,0.0032546504
2564484000,2564484000,0.0015250811,-0.00026129652,0.0057713846
2564496000,2564496000,-0.001655204,1.1594966e-06,0.0016586154
2564508000,2564508000,-0.00017015077,-0.0030075973,0.0058086286
2564520000,2564520000,0.0020272122,-7.00932e-05,0.00047259612
2564532000,2564532000,-0.0031018213,0.0027555483,-0.0035378311
2564544000,2564544000,-0.002995792,-0.0006180969,0.0025253969
2564556000,2564556000,0.0035148233,0.00076600607,0.0029859943
2564568000,2564568000,0.001983276,-0.0022107074,-0.0028543836
2564580000,2564580000,0.00051984855,0.001759578,-0.00040354047
2564588000,2564588000,0.0017840207,0.004716392,-0.00044421473
2564600000,2564600000,-0.0005667249,0.001545361,-0.0063740676
2564616000,2564616000,0.0011431639,-0.0035029594,0.0042487946
2564628000,2564628000,-0.001834522,-0.0007289639,-0.004643891
2564636000,2564636000,-0.0010919189,0.0036854607,-0.0061844997
2564648000,2564648000,-0.0019566033,-0.0018898165,-0.0003881445
2564664000,2564664000,0.0028231856,0.002964056,0.0037282123
2564676000,2564676000,0.0015085125,-6.792229e-05,0.0047391574
2564684000,2564684000,-0.00078058033,-0.00263051,-2.0735964e-05
2564700000,2564700000,-0.0024187646,0.0018296533,-0.002319312
2564712000,2564712000,0.0019626697,0.00081508746,-0.0067923167
2564724000,2564724000,0.0011845969,-0.0024022288,-0.0031504738
2564736000,2564736000,-0.0015205473,-0.0039109457,0.0038774125
2564748000,2564748000,-0.0042928816,-0.0008456153,-0.0008145683
2564760000,2564760000,0.00031048292,-0.0031566392,-0.0024931892
2564772000,2564772000,0.0007034489,-0.0019289833,0.00034056147
2564784000,2564784000,0.0037400387,-0.0020420686,0.0017022992
2564796000,2564796000,-0.00327624,-0.003286614,-0.002558986
2564808000,2564808000,0.0029172844,0.0020405657,-0.0016677695
2564820000,2564820000,0.0052635632,0.0048023076,0.0012199791
2564832000,2564832000,-0.00020109792,-0.0005553649,-0.003197572
2564844000,2564844000,-0.0009794878,0.0017220248,0.0012039188
2564856000,2564856000,0.00034710718,-0.000984665,0.004317801
2564868000,2564868000,0.00016762852,0.001152298,0.0037605134
2564880000,2564880000,2.7763192e-05,-0.00075338315,0.003887225
2564892000,2564892000,0.0016811249,0.00028794538,0.0019701358
2564904000,2564904000,-0.0021718577,0.0020262138,0.0015965487
2564916000,2564916000,-0.0026879944,-0.000740828,0.002862926
2564928000,2564928000,-0.00084813987,-0.0016827681,-0.00398541
2564936000,2564936000,0.0015084847,-0.0007176013,-0.0026545126
2564952000,2564952000,0.0027162505,-0.0039608562,0.0011821216
2564964000,2564964000,0.0043885903,-0.0018427661,-0.0030701954
2564976000,2564976000,-0.0010706561,-0.0022518951,0.00057351455
2564988000,2564988000,-0.0006567477,-0.0019758842,-0.0007756268
2565000000,2565000000,0.0034746367,0.0018923406,-0.0013619303
2565012000,2565012000,-0.001805309,0.0031079766,-0.0013880298
2565020000,2565020000,-0.0033386478,0.0019031246,0.0005432754
2565036000,2565036000,0.005511216,-0.0047791894,-0.0019189871
2565044000,2565044000,0.0040334444,-0.0024128864,-0.0012823597
2565060000,2565060000,-8.706516e-05,-0.0029535624,0.004036722
2565072000,2565072000,-0.0013329629,0.0021576744,0.0038445503
2565084000,2565084000,0.0030279025,0.0021664149,0.0025407881
2565096000,2565096000,-0.0009922204,0.0021190462,0.0019548093
2565108000,2565108000,-0.0009006772,0.00032861857,0.0016554737
2565120000,2565120000,-0.0029704606,0.0023198396,0.003268674
2565132000,2565132000,-0.00089430436,0.0033297953,-0.001404943
2565144000,2565144000,0.0019311612,0.0019632701,-0.0019963442
2565156000,2565156000,0.0037514465,0.00252641,-0.0040181284
2565164000,2565164000,0.0031153427,0.000432231,-0.007014445
2565180000,2565180000,1.5072525e-05,0.0013686102,-0.006937461
2565192000,2565192000,-0.0033110701,-0.0020530275,-0.001847213
2565204000,2565204000,-0.0037703095,-0.00063928775,0.0004630311
2565216000,2565216000,-0.0025422955,0.0031403713,0.00048420063
2565228000,2565228000,-0.0017693467,0.0018263867,0.0020724824
2565240000,2565240000,-0.0007894465,-0.0011491561,0.0052645714
2565252000,2565252000,-0.0072847866,0.0016031091,-0.00010492962
2565264000,2565264000,-0.00032552308,0.0006623606,-0.0004225739
2565272000,2565272000,0.0027594073,0.0023786463,-0.0028903517
2565284000,2565284000,0.0006599636,-6.4414926e-06,-0.0005308548
2565300000,2565300000,0.0013807927,0.00017462391,-0.00022931324
2565312000,2565312000,0.0017320323,0.002481295,0.0009091108
2565324000,2565324000,0.0016524133,0.00492864,0.0009332887
2565332000,2565332000,-0.001904207,-0.0025757928,0.00036609368
2565348000,2565348000,0.0025685942,-0.0010652402,-0.00017851406
2565360000,2565360000,0.004800625,-0.00028386526,0.0015809414
2565372000,2565372000,0.0023381205,-0.0022717756,0.0025421283
2565384000,2565384000,0.0028501414,0.0004339642,0.0025799768
2565396000,2565396000,-0.0020363058,0.0028027215,0.00059394084
2565408000,2565408000,-0.0053661647,-0.0022672429,-1.8143433e-05
2565420000,2565420000,0.0035731718,-1.2106728e-05,0.00088747795
2565432000,2565432000,0.00074902445,-0.0009850804,0.0033496765
2565444000,2565444000,-0.0022321814,0.0017708223,-0.001071413
2565456000,2565456000,-0.0010634302,-0.001576975,-0.001185058
2565468000,2565468000,-0.002813504,0.0049500973,0.00025778983
2565480000,2565480000,-0.006695412,0.0009400868,0.0010033929
2565492000,2565492000,-0.0026565793,-0.0013323929,0.0036756922
2565504000,2565504000,-0.0018115272,-0.0018597911,0.0013530385
2565516000,2565516000,-0.0012404243,0.0010911687,0.00097040285
2565528000,2565528000,0.0007464932,-0.0019514258,-0.0021690947
2565540000,2565540000,0.0015066132,-0.0023918678,0.0042635193
2565552000,2565552000,0.003151779,-0.00015907828,0.0030288268
2565560000,2565560000,0.001759189,-0.0021886798,-0.00024034662
2565576000,2565576000,-0.00045421463,-0.0012997207,-0.0013373275
2565584000,2565584000,-0.00063477363,-0.002352524,-0.002226712
2565596000,2565596000,0.0017880187,0.00046513835,-0.0036029567
2565608000,2565608000,-0.0016850799,0.00032461993,-0.00039525892
2565624000,2565624000,0.0058125546,-0.002892979,0.0021282288
2565636000,2565636000,0.0029867198,-0.00025862828,0.0008058579
2565648000,2565648000,-0.000101746526,-0.0024397331,0.0020367934
2565660000,2565660000,-0.00089953304,-0.002095074,-0.0034188703
2565668000,2565668000,-0.0028249228,0.00083017955,-0.000594191
2565684000,2565684000,-0.002472458,0.0033909823,0.003783647
2565696000,2565696000,0.0036657287,-0.010540306,0.0032842946
2565708000,2565708000,-0.0027978502,0.00083559914,0.005088272
2565720000,2565720000,-0.0007953162,-0.00025997916,0.00055609207
2565732000,2565732000,-0.0016410719,-0.004687832,0.0041969516
2565744000,2565744000,0.00078759657,-0.0030761766,-2.1073261e-05
2565756000,2565756000,0.0007698885,-0.0019369707,0.000609884
2565764000,2565764000,0.0012345251,0.0003101984,0.00041914397
2565780000,2565780000,-0.0014148625,0.0028405203,0.0033780748
2565792000,2565792000,-0.0083314385,-0.0010554101,-0.00023909307
2565800000,2565800000,-0.0064799283,-0.0040152855,0.00046171897
2565816000,2565816000,-0.0030019146,-0.006590559,-6.453636e-05
2565828000,2565828000,-0.0033833978,-0.0028847745,-0.0014441165
2565836000,2565836000,0.00040364964,-0.0050773653,0.0009257891
2565848000,2565848000,-0.0008922685,1.919642e-05,3.5357913e-05
2565860000,2565860000,8.8231405e-05,0.0010062899,-0.00018409059
2565876000,2565876000,-0.0038295393,-0.0021154648,-0.0021119358
2565884000,2565884000,-0.0004901865,-0.0061003976,-0.0017715462
2565900000,2565900000,0.0037808553,-0.0034167017,-0.0006483479
2565912000,2565912000,0.002676739,-0.0042121597,-0.00016979277
2565924000,2565924000,0.00070397113,0.003151413,-0.002161863
2565932000,2565932000,0.0018530712,0.001841411,-0.0029172204
2565944000,2565944000,-0.003127288,4.5121647e-05,-0.0037574018
2565960000,2565960000,0.00057083473,-0.0005920236,0.0015456602
2565972000,2565972000,0.0010126213,0.0013511963,0.00026862093
2565984000,2565984000,0.0038895009,-0.002024889,-0.0013825491
2565992000,2565992000,0.0008079534,-0.0012444868,-0.0022736297
2566008000,2566008000,0.0015407646,-0.0004944047,0.0023736726
2566020000,2566020000,0.0043249587,-0.000586065,-0.001130819
2566032000,2566032000,-0.002326608,-0.0028320854,-0.0002739318
2566044000,2566044000,-0.0011169089,0.0016964576,-0.0018097734
2566056000,2566056000,0.0015003007,0.011990607,-0.002485145
2566068000,2566068000,0.0012973057,0.03502068,0.00013859717
2566080000,2566080000,0.0025852495,0.061596613,-0.0008996846
2566092000,2566092000,-0.0026176744,0.09923267,-0.004801321
2566104000,2566104000,0.00075921183,0.15234956,-0.0036085455
2566116000,2566116000,0.0024649377,0.1922028,-0.0013877662
2566128000,2566128000,0.0041145966,0.24071415,0.0031337026
2566140000,2566140000,0.0045514954,0.29127327,0.005391387
2566148000,2566148000,0.0039317366,0.3151809,0.0047435374
2566164000,2566164000,0.0059426078,0.33275038,0.0021639292
2566172000,2566172000,0.008369779,0.32850218,0.0044074315
2566188000,2566188000,0.019791704,0.30085403,0.0037531436
2566196000,2566196000,0.02157937,0.27724713,0.0033739407
2566212000,2566212000,0.015704382,0.22573143,-0.00084165833
2566224000,2566224000,0.013492526,0.19091022,-0.002526109
2566236000,2566236000,0.006344542,0.16121228,-0.007490347
2566248000,2566248000,0.00073676975,0.12859693,-0.00201951
2566260000,2566260000,0.002986942,0.09342812,-0.0036727646
2566268000,2566268000,0.007087457,0.0799265,-0.0048758956
2566284000,2566284000,0.0066330107,0.053905502,-0.0030011723
2566296000,2566296000,0.006423812,0.031787552,-0.0048606535
2566308000,2566308000,-0.0013582355,0.0040948214,-0.01002828
2566320000,2566320000,-0.0014188299,-0.022298275,-0.004334715
2566332000,2566332000,0.0036111223,-0.049440205,-0.0035677815
2566344000,2566344000,0.0037955127,-0.06230396,-0.0036946468
2566356000,2566356000,-0.0023791562,-0.069890805,0.0004088575
2566368000,2566368000,-0.0037448788,-0.086335234,-0.0040253117
2566380000,2566380000,0.0009955096,-0.10013806,-0.008063911
2566392000,2566392000,-0.0033889452,-0.1126405,0.0012560486
2566400000,2566400000,-0.005010222,-0.11417413,0.0020369051
2566416000,2566416000,-0.008519174,-0.115939066,-0.001495824
2566424000,2566424000,-0.0061189923,-0.11645738,-0.0024875146
2566440000,2566440000,-0.0029842476,-0.124767646,-0.0010548957
2566448000,2566448000,-0.0072512017,-0.12761815,-0.0064156246
2566464000,2566464000,-0.008147605,-0.12320444,-0.0020670826
2566476000,2566476000,-0.0069377297,-0.11730708,0.0023492326
2566488000,2566488000,-0.0062908484,-0.111627266,-0.0037594077
2566500000,2566500000,-0.006861669,-0.11512079,-0.00041805688
2566512000,2566512000,-0.006002106,-0.11288153,-0.0028132643
2566524000,2566524000,-0.007566329,-0.11413367,-0.0022307578
2566536000,2566536000,-0.003925643,-0.10584511,-0.002288473
2566548000,2566548000,-0.007344877,-0.105323784,-0.0017763439
2566560000,2566560000,-0.012625593,-0.10578545,-0.003353231
2566572000,2566572000,-0.011447659,-0.09898497,-0.002596817
2566580000,2566580000,-0.014174791,-0.0936013,-0.0019625616
2566596000,2566596000,-0.017474772,-0.0857037,-0.0027828459
2566608000,2566608000,-0.009927822,-0.08168866,4.85841e-05
2566620000,2566620000,-0.0081513915,-0.076953515,0.00042800227
2566632000,2566632000,-0.006350444,-0.07038502,-0.0069018467
2566640000,2566640000,-0.0032997306,-0.061180126,-0.006370752
2566656000,2566656000,-0.012999037,-0.054469887,0.0009407514
2566668000,2566668000,-0.008692363,-0.05061725,-0.0016028171
2566676000,2566676000,-0.00634177,-0.0509816,-0.00207453
2566692000,2566692000,-0.0038384676,-0.045940235,-0.0018889209
2566704000,2566704000,-0.0042608967,-0.037306704,0.0015761441
2566716000,2566716000,-0.0034481222,-0.027320785,-0.003065913
2566728000,2566728000,-0.0038918818,-0.024810214,-0.005281035
2566740000,2566740000,-0.004592628,-0.023087714,-0.0018095328
2566748000,2566748000,-0.008066366,-0.023670336,-0.0033886458
2566764000,2566764000,-0.005830809,-0.02468647,-0.0005445698
2566776000,2566776000,-0.006450164,-0.019381868,0.00039618602
2566784000,2566784000,-0.00512354,-0.01241711,-0.0032911198
2566800000,2566800000,-0.0049841087,-0.008704956,-0.0037270167
2566812000,2566812000,-0.0034552482,-0.010392015,-0.009823976
2566824000,2566824000,-0.0040102853,-0.009782454,-0.0017082511
2566836000,2566836000,-0.0046559162,-0.011960369,-0.005330333
2566848000,2566848000,0.0025011422,-0.009333255,-0.0036603122
2566860000,2566860000,0.0018798223,-0.008155717,-0.001721716
2566872000,2566872000,0.0026206467,-0.012568963,0.001658515
2566884000,2566884000,0.005289541,-0.0123411175,-0.0003957173
2566896000,2566896000,0.002838258,-0.014941616,0.0034959496
2566908000,2566908000,-0.0012256731,-0.012020994,0.0012954841
2566920000,2566920000,-0.0034695228,-0.013443708,-6.498726e-05
2566932000,2566932000,-0.0025153367,-0.01647323,0.008496128
2566944000,2566944000,-0.005705091,-0.017376669,0.0009146749
2566956000,2566956000,-0.008346322,-0.01811336,0.0010175196
2566968000,2566968000,-0.0112556,-0.013642009,0.0011328692
2566980000,2566980000,-0.00872786,-0.01392233,-0.0051475316
2566992000,2566992000,-0.00037993002,-0.014393099,-0.0030596536
2567004000,2567004000,0.0027726092,-0.013450725,-0.0015662415
2567016000,2567016000,0.0102959005,-0.010184972,0.00015500197
2567028000,2567028000,0.007437066,-0.007970063,-0.00065334147
2567040000,2567040000,0.006935509,-0.002022219,-0.00062766264
2567052000,2567052000,-0.0005896285,-1.942832e-05,0.0015710418
2567064000,2567064000,0.0015223997,0.00017016707,-0.0021482017
2567072000,2567072000,0.000115818344,-0.0016245558,-0.0005485785
2567088000,2567088000,-0.0022979493,-0.0028524469,-0.0052393964
2567100000,2567100000,0.0008050187,-0.0071755196,-0.00076982647
2567112000,2567112000,0.0010953106,-0.011286601,-0.0016426108
2567124000,2567124000,-0.0012890755,-0.009753412,-0.0027145226
2567136000,2567136000,-0.0010110557,-0.013256915,-0.0018491641
2567144000,2567144000,-0.00070741284,-0.009628244,-0.001248329
2567160000,2567160000,-0.00075282785,-0.010038712,0.0012569351
2567172000,2567172000,0.00031958008,-0.013801567,-0.00061247597
2567184000,2567184000,-0.004271033,-0.007153325,0.005042208
2567196000,2567196000,-0.002730281,-0.0022618826,0.002923822
2567208000,2567208000,-0.0040758317,0.0024031822,-0.0016154455
2567220000,2567220000,-0.009363202,0.0030248854,-0.00044947927
2567232000,2567232000,-0.0057195597,0.00071937544,-0.004246154
2567244000,2567244000,-0.007886337,-0.002847495,-0.00031958942
2567256000,2567256000,-0.004784963,-0.00130051,-4.1939307e-05
2567268000,2567268000,-0.008434061,-0.004189765,-0.0035350102
2567280000,2567280000,-0.0049761157,-0.0021067113,-0.005607895
2567292000,2567292000,0.008402049,-0.008970014,-0.005504729
2567304000,2567304000,0.008548311,-0.011325904,-0.0040392857
2567316000,2567316000,0.010619148,-0.015940227,-0.0011580104
2567328000,2567328000,0.013474572,-0.010592032,0.001051525
2567340000,2567340000,0.008759322,-0.016197344,-9.260847e-05
2567352000,2567352000,0.0057161027,-0.015183055,0.00035418867
2567360000,2567360000,0.0026684245,-0.013695241,0.0004904461
2567376000,2567376000,0.007281279,-0.008332783,0.0023458635
2567388000,2567388000,0.00816598,-0.009711003,0.0017484982
2567400000,2567400000,0.009691542,-0.011608563,-0.0017226255
2567412000,2567412000,0.0046155713,-0.013734546,0.0011907258
2567424000,2567424000,0.004980888,-0.014092088,-0.00043109537
2567436000,2567436000,0.0073651015,-0.009870885,-0.000509769
2567444000,2567444000,0.0060529695,-0.0061057596,0.0007429253
2567456000,2567456000,0.010339,-0.0041350056,-0.0021183502
2567472000,2567472000,0.004187123,0.00056983856,-0.0034183376
2567480000,2567480000,0.0042442856,-0.0042467467,-0.00047735954
2567496000,2567496000,0.009278369,-0.007748975,-7.979993e-05
2567508000,2567508000,0.007418721,-0.009420203,0.0032853982
2567520000,2567520000,0.0057718577,-0.002565668,-0.0007242015
2567532000,2567532000,0.0034997026,-0.002786499,0.0015181821
2567544000,2567544000,0.0018559191,-0.00199869,0.00092699507
2567552000,2567552000,0.0036622998,-0.0013613547,0.005020871
2567568000,2567568000,0.010757428,-0.004852631,-0.00061323354
2567580000,2567580000,0.0032641345,-0.0064858384,-0.0006272111
2567592000,2567592000,-0.0016427266,-0.006131309,0.0009444371
2567604000,2567604000,0.0044630244,-0.004629585,-0.0016565989
2567612000,2567612000,0.0024548376,-0.012608303,0.00011735122
2567628000,2567628000,0.0011775497,-0.0030614045,-0.0026873872
2567640000,2567640000,0.004775838,-0.0062332605,0.00086044666
2567652000,2567652000,-0.00026986678,-0.009384615,-0.00014549398
2567664000,2567664000,0.00076358544,-0.0066745006,0.0022622833
2567676000,2567676000,-0.005462427,-0.008650731,-0.00060046365
2567688000,2567688000,-0.0007408778,0.00030712644,0.0035996207
2567700000,2567700000,0.0020851244,0.0064903777,0.003940154
2567712000,2567712000,0.0011716516,0.0013135795,-0.0018514281
2567724000,2567724000,0.008020407,0.003954318,-0.00646609
2567736000,2567736000,0.0062552313,-0.0013968442,-0.0055691027
2567744000,2567744000,0.008914743,-0.0047178804,-0.004782158
2567760000,2567760000,0.009376418,-0.012836883,-0.0010801661
2567772000,2567772000,-0.00023581996,-0.012319287,0.005414596
2567780000,2567780000,-0.003295687,-0.009609359,0.002615867
2567796000,2567796000,0.003264087,-0.010500476,-0.0007381261
2567808000,2567808000,0.004927747,-0.005719682,-0.005517924
2567816000,2567816000,0.0039153625,-0.003990613,-0.00366141
2567832000,2567832000,0.00057102495,-0.0052030045,0.00053562486
2567844000,2567844000,-0.0024167178,-0.007253163,-0.0047241123
2567856000,2567856000,0.00025118375,-0.003827576,-0.0046591633
2567868000,2567868000,-0.0037863231,-0.0032323278,-0.003995435
2567880000,2567880000,0.001086751,-0.00065898756,0.00025393072
2567892000,2567892000,-0.0015384082,-0.0005006436,0.00050508283
2567904000,2567904000,-0.0009972895,0.000933897,-0.00013994143
2567916000,2567916000,0.0022976517,0.0031242487,-0.0028507053
2567928000,2567928000,0.0029568276,0.0021958123,-0.0029290162
2567940000,2567940000,0.010635324,0.0023003577,0.00031930752
2567952000,2567952000,0.007093141,0.005477133,-0.00238211
2567964000,2567964000,0.008164324,0.0033760723,0.00057618914
2567976000,2567976000,0.0050877854,0.00079987897,0.0016708227
2567984000,2567984000,0.0017153039,0.0045478516,-0.005255656
2568000000,2568000000,0.002566903,0.010303758,-0.007975467
2568012000,2568012000,0.003585421,0.005336033,-0.00021349531
2568024000,2568024000,0.0037492113,0.0050373203,-0.0006281647
2568036000,2568036000,0.0028708011,0.0051252316,-0.0002953821
2568044000,2568044000,-0.0013053815,0.0012054648,-0.00094700034
2568060000,2568060000,-0.008190665,0.0020652602,-0.0018621396
2568072000,2568072000,-0.00932426,0.0007222956,-0.0010511653
2568084000,2568084000,-0.014662845,-0.0024438268,-0.0012145741
2568096000,2568096000,-0.015918951,-0.0045809112,-0.0038577304
2568108000,2568108000,-0.017553108,-0.009561665,-0.0016064275
2568120000,2568120000,-0.015270635,-0.01082824,-0.0031602208
2568132000,2568132000,-0.009481926,-0.012195906,-0.0024549486
2568144000,2568144000,-0.007085504,-0.016446285,0.0002795431
2568156000,2568156000,-0.010272749,-0.009553526,-0.0045551434
2568168000,2568168000,-0.010288451,-0.00558681,-0.0070103174
2568180000,2568180000,-0.012025174,-0.0058024665,-0.0040255017
2568192000,2568192000,-0.003411793,-0.005894373,-0.0032386908
2568204000,2568204000,-0.0033222844,0.0015319046,0.0037032962
2568216000,2568216000,-0.0026588251,-0.0032533426,0.008380267
2568224000,2568224000,-0.004789715,-0.0012952243,0.0047987
2568240000,2568240000,-0.0053488566,-0.008449312,0.0024902334
2568252000,2568252000,-0.0062899143,-0.0092793275,-0.00054407807
2568260000,2568260000,-0.00847007,-0.003782263,-0.0035286986
2568272000,2568272000,-0.0045315986,-0.003670629,-0.0033891378
2568288000,2568288000,-0.0022624328,-0.0028058938,-0.003251299
2568300000,2568300000,-0.00036884146,-0.0010796925,0.0052488013
2568312000,2568312000,-0.00093818596,0.0007982827,-0.0036688244
2568324000,2568324000,-0.00020889263,0.004260712,-0.0032010083
2568336000,2568336000,-0.0018750275,0.0043563503,-0.004628941
2568348000,2568348000,0.0006237328,0.0049541,-0.0058333767
2568360000,2568360000,-0.00033109146,0.010994077,-0.0043697804
2568372000,2568372000,-0.00019604038,0.00709071,-0.0022734457
2568380000,2568380000,-0.0068977145,0.008122126,-0.0032453549
2568396000,2568396000,-0.008936567,0.0014751835,0.0008212416
2568408000,2568408000,-0.008261122,-0.005568744,-0.0066438313
2568420000,2568420000,-0.011268432,-0.0063809366,-0.0027289987
2568432000,2568432000,-0.011229762,-0.011036586,-0.0024667615
2568444000,2568444000,-0.011735686,-0.016697923,-0.0054469462
2568456000,2568456000,-0.008353821,-0.014232574,-0.008672636
2568468000,2568468000,-0.00704455,-0.010211587,-0.0021964624
2568480000,2568480000,-0.005259849,-0.01615825,-9.065067e-05
2568492000,2568492000,0.0028144417,-0.018341888,-0.0012601498
2568504000,2568504000,0.0061462596,-0.020438131,0.0002910778
2568512000,2568512000,0.0038015218,-0.017529707,-0.00419304
2568528000,2568528000,0.0042293277,-0.016503043,-0.005256966
2568540000,2568540000,0.0001823355,-0.00876586,-7.331979e-05
2568552000,2568552000,-0.004346745,-0.0023422712,-0.00080401177
2568564000,2568564000,-0.008447095,-0.0034134355,-0.0006188432
2568576000,2568576000,0.0016840575,-0.0047972943,-0.0038215362
2568588000,2568588000,-6.073853e-05,-0.0044158925,-0.00048268607
2568600000,2568600000,-0.0016231905,-0.0080558695,0.0017623833
2568612000,2568612000,0.001914595,-0.010105016,-0.0034031156
2568624000,2568624000,0.004948401,-0.008117648,0.00023652508
2568636000,2568636000,0.008501193,-0.009602759,0.0028321038
2568644000,2568644000,0.010895447,-0.0070121214,0.0007711448
2568660000,2568660000,0.016096544,-0.003237756,-7.965792e-06
2568672000,2568672000,0.013894775,-0.005287803,0.002561488
2568684000,2568684000,0.005056876,-0.006321887,0.0037352839
2568696000,2568696000,0.0054735104,-0.007935267,0.0046040956
2568708000,2568708000,0.0049698697,-0.009493732,-0.0013435377
2568720000,2568720000,0.0003819794,-0.0035427394,-0.0072074067
2568732000,2568732000,-0.0027260934,-0.0058346028,-0.006519004
2568744000,2568744000,0.0049304906,-0.003655226,0.00079284544
2568756000,2568756000,0.00054321554,-0.0028033042,0.0013703355
2568768000,2568768000,-0.0034511238,-0.0071132155,0.0031558957
2568780000,2568780000,-0.008172146,-0.0051488755,-0.0005005614
2568792000,2568792000,-0.0050453437,-0.0064316234,0.0003395879
2568800000,2568800000,-0.0041542426,-0.009697944,0.0006964651
2568816000,2568816000,0.0014922081,-0.003665755,-0.0023781764
2568828000,2568828000,0.0036828385,-0.0017798413,-0.0038586366
2568840000,2568840000,0.0044305874,-0.0053690276,0.00039526809
2568852000,2568852000,0.0048305215,-0.0018881462,0.0043535414
2568864000,2568864000,0.0031116107,-0.0011126185,-0.00046972922
2568872000,2568872000,-0.00093281106,-0.0009987974,-0.00086635136
2568888000,2568888000,-0.0017089671,-0.00036308728,-0.00042902096
2568900000,2568900000,-0.0014594824,0.0031645517,0.00018874113
2568912000,2568912000,-0.004731208,0.00668255,-0.0060922354
2568920000,2568920000,-0.005014063,0.008603543,-0.0036968186
2568932000,2568932000,-0.005857107,0.0063035544,0.0030550149
2568948000,2568948000,-0.0072144372,0.0067956056,-0.0018130488
2568960000,2568960000,-0.006872177,0.002073917,-0.0011039379
2568972000,2568972000,-0.012470135,0.0018219748,-0.004618228
2568984000,2568984000,-0.0053777397,-0.0022904645,-0.0006276719
2568996000,2568996000,-0.006480867,-0.007417142,-0.0011256711
2569008000,2569008000,-0.0020289277,-0.002671604,-0.007256626
2569020000,2569020000,-0.0026421277,-0.0017151698,-0.004306095
2569032000,2569032000,0.004340588,-0.00045494735,-0.0030761412
2569040000,2569040000,0.007941516,0.00044873077,-0.0030670739
2569056000,2569056000,0.010322723,0.002777752,0.0030640068
2569068000,2569068000,0.007488015,0.0027414865,0.0003831979
2569080000,2569080000,0.0077568935,0.0030842084,0.0014814131
2569092000,2569092000,0.005312538,0.00057350216,0.0015847392
2569104000,2569104000,0.0060517667,0.0029254435,0.006281122
2569116000,2569116000,0.006946816,0.004428988,-0.0015457915
2569128000,2569128000,0.004730801,0.0072318525,0.0007143472
2569140000,2569140000,0.005959589,0.00661979,0.005171581
2569148000,2569148000,0.0004797388,0.0073133856,0.0038084558
2569164000,2569164000,0.00089473184,0.0042920206,0.0071030436
2569176000,2569176000,-0.0035846161,0.0045890496,-0.00028468462
2569188000,2569188000,0.0015993954,0.0005343845,0.0034500954
2569200000,2569200000,0.007428311,-0.009060413,0.005444017
2569208000,2569208000,0.008737521,-0.00829874,0.007830075
2569224000,2569224000,0.004674359,-0.0044397707,-0.0013887396
2569236000,2569236000,0.00037730904,-0.003964096,0.0027045363
2569248000,2569248000,0.0033374932,-0.0009941473,0.0015916124
2569260000,2569260000,0.011500175,2.0548236e-05,0.0015179645
2569272000,2569272000,0.012103171,-0.004284152,0.0005232712
2569284000,2569284000,0.00973091,-0.0010516215,0.0003712111
2569292000,2569292000,0.008010749,-0.00038829772,-0.00063055183
2569308000,2569308000,0.00027284445,0.0020185877,0.0015160742
2569320000,2569320000,0.0033525466,-0.0034513255,0.007463442
2569332000,2569332000,0.008343805,0.0002853945,0.0025820592
2569344000,2569344000,0.0068722875,-0.0033223708,-0.0033692638
2569356000,2569356000,0.008074528,-0.007669269,-7.2505274e-05
2569368000,2569368000,0.0050092726,-0.00047715288,-0.002142365
2569380000,2569380000,-0.0024977534,-0.0048325732,0.0007663092
2569392000,2569392000,-0.004214027,-0.008133262,0.002532003
2569404000,2569404000,0.0047037536,-0.006043856,-0.0006416502
2569416000,2569416000,-0.0009866641,-0.0067505375,-0.0013854303
2569428000,2569428000,-0.006608649,-0.0046534487,0.0045920117
2569440000,2569440000,-0.0047259554,-0.0022751903,0.005505614
2569452000,2569452000,-0.002074531,0.0015909271,0.0012959547
2569460000,2569460000,-0.0061569177,0.0050671347,0.0038578787
2569472000,2569472000,-0.0072411792,0.005303312,-0.0010521674
2569488000,2569488000,-0.00767697,0.0034531765,0.0044534924
2569500000,2569500000,-0.005718385,-0.0068949102,0.0028225076
2569512000,2569512000,-0.012671313,0.0015411854,-0.001878231
2569524000,2569524000,-0.010919146,0.0018611869,0.001928129
2569536000,2569536000,-0.0021935285,0.0063856132,-0.00086569175
2569544000,2569544000,-0.0011028612,0.008206066,0.003266341
2569560000,2569560000,-0.008971096,0.0021228225,0.0029310908
2569572000,2569572000,-0.009624244,0.001573584,0.0020775655
2569584000,2569584000,-0.0022254281,0.0023946255,0.0016626223
2569596000,2569596000,0.0022861972,0.0041026645,-0.0033534737
2569608000,2569608000,-0.0046197847,-0.0001314301,-0.008898605
2569620000,2569620000,-0.0008514337,0.0017336591,0.0006682094
2569628000,2569628000,-0.0032377634,0.0001527709,0.0045961556
2569644000,2569644000,0.0023806791,0.00012390781,0.0027913665
2569656000,2569656000,0.004463534,0.0026200546,0.001767418
2569668000,2569668000,0.004697441,0.0042725513,0.0026257813
2569680000,2569680000,0.0041661793,-0.0006913729,-0.0015305971
2569692000,2569692000,0.0011132606,-0.0007389388,0.0011055832
2569704000,2569704000,-0.0002429185,-0.0025815982,-0.00069843937
2569716000,2569716000,0.0033183182,-0.0046814685,-0.0016379532
2569728000,2569728000,-0.0003080482,-0.0037794109,-0.0011398119
2569740000,2569740000,0.0093666585,-0.008676026,-0.0034030047
2569752000,2569752000,0.0090911975,-0.0062316,-0.0039105495
2569764000,2569764000,0.007882316,-0.0016424796,-0.0035689035
2569776000,2569776000,0.007896015,0.0012687449,-0.0062175905
2569788000,2569788000,0.0074732723,0.0035012998,-0.0040391483
2569800000,2569800000,0.007083137,-0.0062407204,0.0008508408
2569812000,2569812000,0.0034978555,-0.0040957737,0.0003996823
2569824000,2569824000,0.004218367,-0.0027692905,0.0020339242
2569836000,2569836000,0.009819477,-0.00085550547,-0.00021476045
2569848000,2569848000,0.0010039144,0.0067652566,0.00030533024
2569860000,2569860000,0.0058932784,0.006258945,0.0007432522
2569872000,2569872000,0.008480668,0.009317314,-0.0027359126
2569884000,2569884000,0.0075113624,0.0030119536,-0.0029240493
2569896000,2569896000,0.01179716,0.0048113535,0.002346532
2569908000,2569908000,0.009604448,0.0062752003,0.0008946754
2569920000,2569920000,0.008668897,0.007137918,0.00062559533
2569928000,2569928000,0.009528768,0.007871885,-0.00079782424
2569944000,2569944000,0.01298626,0.0039182906,0.002581859
2569952000,2569952000,0.010143805,0.0038355074,0.0028761555
2569964000,2569964000,0.0074378154,0.0024129637,-0.0034269535
2569980000,2569980000,0.009429826,0.0027097655,-0.0020889745
2569992000,2569992000,0.006559004,0.0015175375,-0.003116082
2570004000,2570004000,0.0009340162,0.00405067,-0.0014194228
2570016000,2570016000,-0.002114294,0.00068885856,-0.001738809
2570028000,2570028000,-0.0005186903,-0.0034620934,0.0011919922
2570040000,2570040000,-0.0028856483,0.0014382172,-0.0026080282
2570052000,2570052000,-0.004059787,-0.002995831,0.001269213
2570064000,2570064000,-0.0047118524,-0.008506836,0.0007897818
2570076000,2570076000,0.0005987872,-0.0060160323,-0.0061462084
2570088000,2570088000,-0.00070103887,-0.0040316586,-0.0035124111
2570100000,2570100000,-0.00335373,-0.00010071881,-0.0014247271
2570112000,2570112000,-0.003777599,-0.0021006712,-0.007069961
2570124000,2570124000,0.004635854,-0.0015824628,-0.0022321455
2570136000,2570136000,0.0028703974,-0.0009352779,-0.0023636497
2570148000,2570148000,0.0007462185,-0.0007153,-9.420096e-05
2570160000,2570160000,-0.0011677572,-0.0074944017,0.0017748593
2570172000,2570172000,0.0029575676,-0.0078436155,0.0030581225
2570184000,2570184000,-0.0015829813,-0.008422878,0.002745603
2570192000,2570192000,-0.0037458367,-0.007249015,8.897846e-05
2570208000,2570208000,-0.004118578,-0.011663137,-0.0028389324
2570220000,2570220000,0.0035519744,-0.013066532,-0.003612951
2570232000,2570232000,0.004163438,-0.016871426,-0.0060245655
2570244000,2570244000,0.007060876,-0.015974486,-0.0020653978
2570256000,2570256000,0.0037414408,-0.013208898,-0.010010659
2570268000,2570268000,0.0012847331,-0.011226308,-0.009224012
2570280000,2570280000,0.004533386,-0.0034585912,-0.0053101764
2570288000,2570288000,0.0042196745,0.0015759422,0.0024048642
2570304000,2570304000,0.0044242004,0.004001552,-0.002022772
2570316000,2570316000,-0.00039912947,0.008635929,-0.00336024
2570328000,2570328000,-0.0015170285,0.004557512,4.101528e-05
2570340000,2570340000,-0.0020776761,-0.0010049045,-0.0025086198
2570352000,2570352000,0.0024177213,-0.0064653023,-0.00022370582
2570364000,2570364000,0.00021875463,-0.002365238,-0.0021487684
2570376000,2570376000,0.0014737798,-0.0016898327,-0.0027968644
2570388000,2570388000,0.009003492,-0.0036214818,0.003035373
2570400000,2570400000,0.0072129536,-0.008156685,-0.00056851
2570412000,2570412000,0.004008081,-0.0074866503,-0.0028951557
2570424000,2570424000,-0.0005557828,-0.0013594497,-0.0015604835
2570432000,2570432000,-0.0032766676,-0.00022577122,-0.0023543919
2570448000,2570448000,-0.0033771046,0.00030500581,-0.0070107174
2570460000,2570460000,-0.003830831,0.0016809255,-0.005831887
2570468000,2570468000,-0.00017783022,-0.00074705575,-0.0042425864
2570480000,2570480000,-0.0006011168,-0.0014707875,-0.0069224476
2570496000,2570496000,0.010543976,-0.0044598696,-0.005235184
2570504000,2570504000,0.006369372,-0.0067735384,-0.0023854391
2570520000,2570520000,0.011752799,-0.0022046184,0.0015430157
2570532000,2570532000,0.011435177,-0.0014523119,-0.00035817598
2570544000,2570544000,0.014421503,-0.004867201,-0.003939949
2570556000,2570556000,0.008142574,-0.0022747153,-0.0017974986
2570564000,2570564000,0.0040575797,0.0010288213,0.004755801
2570580000,2570580000,0.001530146,0.0008572957,0.0049376856
2570592000,2570592000,0.0044248207,0.0004445347,0.0021541507
2570604000,2570604000,0.0038657961,-0.0040251934,-0.001089771
2570616000,2570616000,0.00014422438,0.0010255389,-0.0019784044
2570628000,2570628000,0.0029248244,-0.0016971468,-0.0021600102
2570640000,2570640000,0.0022854954,-0.004836173,-0.0018860586
2570652000,2570652000,0.0012578942,0.0005832624,0.0014179666
2570664000,2570664000,-0.0034483317,-0.0038181636,-0.002619868
2570672000,2570672000,0.00041902508,-0.00696114,-0.0040480313
2570688000,2570688000,-3.4790486e-05,-0.013556017,0.00073460664
2570700000,2570700000,-0.0019563974,-0.017544238,0.0049421
2570712000,2570712000,-0.003572822,-0.009712188,0.0018069453
2570724000,2570724000,-0.0017672791,-0.009276038,0.0013647866
2570736000,2570736000,-0.0021028281,-0.0034540445,0.0050497716
2570744000,2570744000,-0.00085879234,-0.004282831,0.00493599
2570756000,2570756000,-0.0010636994,-0.007503097,-0.00046433974
2570772000,2570772000,-0.0011963707,-0.004411643,0.0023222659
2570784000,2570784000,-0.0024658327,0.00072829844,-0.0025281047
2570796000,2570796000,-0.0026768732,-0.0011505038,-0.0041406844
2570808000,2570808000,0.0021475586,-0.0009166901,-0.0004765838
2570820000,2570820000,0.0035760775,-0.0026632552,0.0037412096
2570828000,2570828000,0.008689547,-0.005050504,0.0075230836
2570840000,2570840000,0.01158702,-0.002002635,-0.008060207
2570856000,2570856000,0.0070916647,0.002844479,-0.0023121962
2570864000,2570864000,0.009032804,0.002527436,0.0007381762
2570880000,2570880000,0.0058848206,0.011623904,0.0011449156
2570892000,2570892000,0.0021947809,0.012830073,0.00065183645
2570904000,2570904000,0.0054184543,0.0051831305,-0.0027978146
2570916000,2570916000,0.00788145,0.0050893137,-0.002901363
2570928000,2570928000,-0.001015187,0.005012472,-0.0011576454
2570940000,2570940000,-0.0041425154,0.004054997,-0.0039452426
2570952000,2570952000,-0.0029973676,0.002257057,-0.0007734212
2570964000,2570964000,0.00039420684,0.0062438245,-0.00014761674
2570976000,2570976000,-0.0004883106,0.008094829,-0.0035096654
2570988000,2570988000,0.00014202786,0.01028903,-0.002311077
2571000000,2571000000,-0.002848551,0.0121308705,-0.00064431183
2571012000,2571012000,-0.0007080729,0.012346998,0.0022811347
2571024000,2571024000,-0.0062047783,0.013953729,0.0012333826
2571036000,2571036000,-0.012627898,0.00855997,0.0015735448
2571048000,2571048000,-0.004136769,0.0077183777,-0.00058027264
2571060000,2571060000,0.0019854654,0.0034997482,0.0008961347
2571072000,2571072000,0.0007334467,0.0068462407,-0.0009711442
2571084000,2571084000,-0.00474276,0.0046021887,-0.004036266
2571096000,2571096000,-0.008437287,0.0014090273,-3.32343e-06
2571104000,2571104000,-0.0067413505,0.0033744697,-0.00030605047
2571120000,2571120000,-0.0090425955,-0.0023440057,0.0035245912
2571132000,2571132000,-0.00933629,-0.0028989566,0.0006508172
2571140000,2571140000,-0.0076860795,-0.0037466977,0.0016685223
2571156000,2571156000,-0.007966624,-0.007230008,0.0033960897
2571168000,2571168000,-0.007053619,-0.0071150255,0.0032032833
2571180000,2571180000,-0.0019170721,-0.009487078,0.0024521216
2571192000,2571192000,-0.008818644,-0.004445038,-0.000775636
2571204000,2571204000,-0.008289234,-0.0013159937,-0.00043051707
2571216000,2571216000,-0.008606241,-0.0045852764,-0.0002997965
2571228000,2571228000,-0.011174158,-0.0031716744,0.0023834794
2571240000,2571240000,-0.011783495,-0.0069053504,-0.0016234736
2571252000,2571252000,-0.009497416,-0.00883181,-0.004467738
2571264000,2571264000,-0.008449313,-0.005695604,-0.0027216559
2571272000,2571272000,-0.0075268503,-0.0042946357,-0.0028781488
2571288000,2571288000,-0.008246774,-0.009173194,-0.005465826
2571300000,2571300000,-0.0055325013,-0.0040647914,-0.004433773
2571308000,2571308000,-0.006807899,-0.0011307034,-0.008341513
2571324000,2571324000,-0.0017078668,0.0018745086,-0.002892111
2571332000,2571332000,0.00030875858,0.0063202335,-0.0019153508
2571348000,2571348000,-0.002813239,-0.010134155,-3.6540296e-05
2571360000,2571360000,-0.005386482,-0.010430995,0.006186795
2571372000,2571372000,-0.0026242894,-0.010404028,0.003628911
2571384000,2571384000,0.0032134685,-0.009522263,0.0013807189
2571396000,2571396000,0.005387392,-0.006573321,-0.0011194688
2571408000,2571408000,0.00755934,-0.009179087,0.0042776354
2571420000,2571420000,0.006692487,-0.00731321,0.0032558765
2571432000,2571432000,0.0048042885,0.0023798156,0.0011378812
2571444000,2571444000,0.009664992,0.0034029675,-0.0025024915
2571456000,2571456000,0.011695443,0.011718826,-0.0002576172
2571468000,2571468000,0.008367686,0.0113305915,-0.0038089803
2571480000,2571480000,0.01066768,0.010612644,-0.0006012653
2571492000,2571492000,0.010840375,0.0036572914,-9.002574e-05
2571504000,2571504000,0.012586778,0.0077126008,-0.009034241
2571516000,2571516000,0.014827612,0.011460559,0.0037352808
2571528000,2571528000,0.015576297,0.0040926076,3.702884e-05
2571540000,2571540000,0.011351767,0.00023730239,0.0002076564
2571548000,2571548000,0.0050006285,-0.0014818818,0.0016734436
2571564000,2571564000,0.0033467629,-0.0010670968,0.003208554
2571576000,2571576000,0.003540385,-0.0033262037,0.00042595863
2571588000,2571588000,-0.0012618781,-0.0010625529,0.0010539192
2571600000,2571600000,-0.0030803864,-0.002031412,-4.5902885e-05
2571608000,2571608000,-0.0030925223,-0.0018264488,0.00065849535
2571624000,2571624000,-0.0071723945,-0.0020827334,0.0011183901
2571636000,2571636000,-0.002770818,-0.007010198,-0.0052742134
2571644000,2571644000,-0.0049903365,-0.0052843364,-0.004553353
2571660000,2571660000,-0.0016841013,-0.00820858,0.0045589553
2571672000,2571672000,0.0058578323,-0.002828895,-0.003028503
2571680000,2571680000,0.0033929585,-0.0034046853,-0.00812848
2571696000,2571696000,-0.0011800209,-0.008653171,-0.003104399
2571708000,2571708000,0.004243944,-0.006994493,0.004279085
2571720000,2571720000,0.0025040475,-0.0059285657,0.0016738287
2571732000,2571732000,0.0037866342,-0.0027416376,0.0039478755
2571744000,2571744000,-0.001976449,-0.001330961,0.003023116
2571756000,2571756000,-0.010156155,0.0025857831,-0.005070857
2571768000,2571768000,-0.0070389314,0.00032493472,-0.0011348379
2571780000,2571780000,-0.005410347,0.0036558444,0.004520283
2571792000,2571792000,-0.0052421866,0.0069037266,0.00038358412
2571804000,2571804000,-0.0030766444,0.0064140577,-0.0012251552
2571816000,2571816000,-0.0073099546,0.011911115,0.0018629681
2571828000,2571828000,-0.0032269391,0.008031984,-0.00068191794
2571840000,2571840000,-0.008238625,0.009550512,0.0016535074
2571852000,2571852000,-0.006606516,0.007194859,7.075784e-05
2571864000,2571864000,-0.010043217,0.0077802143,-0.002914759
2571876000,2571876000,-0.00662396,0.0019990962,-0.00014602771
2571888000,2571888000,-0.002796464,-0.002995213,0.0020909812
2571900000,2571900000,-5.2838586e-06,-0.0043758955,-0.004477524
2571912000,2571912000,0.0047334936,-0.007718648,-0.005611247
2571924000,2571924000,0.0016244225,-0.006014712,-0.0019041881
2571932000,2571932000,-0.0012775238,-0.00358323,0.0023978255
2571948000,2571948000,-0.0021373767,-0.00032085227,-0.002243045
2571960000,2571960000,-0.001723168,-0.0014776322,-0.0035468547
2571972000,2571972000,-0.0025322717,-0.0012991643,-0.0027927912
2571984000,2571984000,-0.007379962,0.0016196563,0.00061352307
2571996000,2571996000,-0.0032009652,0.0030927754,0.0003192002
2572008000,2572008000,-0.008713981,0.009211453,0.002447496
2572020000,2572020000,-0.012619612,0.0037814274,-0.0024921969
2572032000,2572032000,-0.00866778,0.0073026773,-0.005401393
2572044000,2572044000,-0.011641683,0.0043343273,0.0026415153
2572056000,2572056000,-0.0061347364,0.011041505,0.004297915
2572068000,2572068000,-0.00058579026,0.015200881,-0.00398502
2572080000,2572080000,0.0005342163,0.012565404,0.00037006222
2572092000,2572092000,-0.0036420631,0.010907754,-0.002501635
2572104000,2572104000,-0.0011460949,0.0042428654,-0.0023991936
2572112000,2572112000,-0.0053290697,0.006092184,-0.0013819259
2572128000,2572128000,-0.008163461,0.004870396,0.000100626006
2572140000,2572140000,-0.000874833,0.010121699,-0.005331862
2572152000,2572152000,0.00043212622,0.006610754,0.0001381462
2572164000,2572164000,0.003487093,0.003746815,0.00022784696
2572176000,2572176000,-0.0041871667,0.0025894793,0.0021888334
2572188000,2572188000,0.0014601616,0.0060295276,-0.0016240292
2572200000,2572200000,0.0037927877,-0.00072189467,-0.0020240932
2572212000,2572212000,0.0099394545,-0.00038667722,-0.004351843
2572224000,2572224000,0.009219609,-0.0017526895,-0.0016626407
2572236000,2572236000,0.0043424456,0.0039376537,0.0021926838
2572248000,2572248000,0.008406082,0.002435241,-0.0012728055
2572260000,2572260000,0.0052809482,0.0059545333,-0.002352637
2572272000,2572272000,0.002247597,0.0038481413,0.0030960145
2572284000,2572284000,0.0074389204,0.004879529,0.002404756
2572296000,2572296000,0.0047077164,0.0111747105,0.004533412
2572308000,2572308000,0.0005849453,0.009039281,-0.0050892807
2572320000,2572320000,-0.0031203916,0.003948833,-0.0043821093
2572332000,2572332000,0.004555824,-0.0031625829,-0.0016885472
2572344000,2572344000,0.0013710398,-0.0070829294,-0.0011300583
2572356000,2572356000,-0.003558384,-0.010005286,-0.0032724699
2572368000,2572368000,-0.0032171078,-0.009658068,-0.002834916
2572380000,2572380000,-0.005197396,-0.004870015,-0.006085237
2572392000,2572392000,-0.0045632455,-0.0035087876,-0.010553843
2572404000,2572404000,-0.013510259,-0.002364342,-0.0029286675
2572416000,2572416000,-0.0041946587,0.005982449,-0.007805628
2572428000,2572428000,-0.004524705,0.008961041,-0.0076430384
2572440000,2572440000,-0.0030850873,0.0060406164,-0.008171978
2572452000,2572452000,0.0016407111,-0.0008763275,0.0025340114
2572464000,2572464000,0.0026722911,0.0013598625,-0.00024887032
2572476000,2572476000,-0.0013821388,-0.000802794,0.0014351998
2572488000,2572488000,-0.0007739272,-0.00021774229,0.007938065
2572496000,2572496000,-0.0020476768,0.0014659981,0.0044616982
2572512000,2572512000,0.0010677374,-0.00021484913,-0.0037237185
2572520000,2572520000,0.0016466132,0.0029685374,0.00061776006
2572532000,2572532000,0.007000854,0.0011989421,0.0019193244
2572548000,2572548000,-0.0023256107,-0.0030760244,0.0024512587
2572560000,2572560000,-0.0021854953,-0.0017709504,0.0014375304
2572572000,2572572000,-0.0047775405,-0.0007635369,0.0024505348
2572580000,2572580000,-0.005952473,-0.00060359715,0.00073925464
2572596000,2572596000,-0.0052703293,0.00016223267,-0.001231053
2572608000,2572608000,-0.0077246213,0.0006241582,0.0024032712
2572620000,2572620000,-0.010547419,-0.0017640479,-0.0025581317
2572632000,2572632000,-0.0110391965,0.004895706,0.0027576212
2572644000,2572644000,-0.014890124,0.0054227384,0.00040180748
2572652000,2572652000,-0.014412974,0.006878934,0.001459761
2572668000,2572668000,-0.0128898285,0.0063749673,-0.003201675
2572680000,2572680000,-0.0110325925,0.0032371155,-0.008677205
2572692000,2572692000,-0.011464464,0.0032358305,-0.007995175
2572700000,2572700000,-0.007952249,0.0034205504,0.00020608962
2572716000,2572716000,-0.0038639202,-0.0006939019,0.00163873
2572728000,2572728000,-0.0050754407,-0.0027292646,0.0003452477
2572740000,2572740000,-0.0025540907,-0.00057411287,0.002033921
2572752000,2572752000,0.0021694691,-0.004101359,-0.0008544117
2572760000,2572760000,0.004482273,-0.0046748337,-0.0026291371
2572776000,2572776000,0.00038532296,-0.0036441144,-0.0031661396
2572788000,2572788000,0.0045408616,-0.0017981711,0.002101787
2572800000,2572800000,-0.0022130043,-0.0049644364,0.0012678236
2572812000,2572812000,-0.0055763833,-0.0033734497,-0.002480914
2572824000,2572824000,-0.004990681,0.0033473913,-0.0010274542
2572836000,2572836000,0.0008109659,0.0004596361,0.0011233974
2572848000,2572848000,-0.0044602947,0.0020017386,-0.0020201278
2572860000,2572860000,-0.0049061673,0.004076074,0.0005252032
2572872000,2572872000,-0.0036213172,0.0037447975,-0.002158055
2572880000,2572880000,-0.0041260384,0.007445257,-0.00080254703
2572896000,2572896000,-0.0022795815,0.00837489,-7.481819e-05
2572908000,2572908000,-0.009183956,0.009758301,-8.4316795e-05
2572920000,2572920000,-0.004933061,0.0048555546,0.00075194397
2572932000,2572932000,-0.008077341,0.0054540723,0.0029784397
2572944000,2572944000,-0.0025364498,0.0029547843,0.0041666464
2572956000,2572956000,-0.004511611,0.008996529,-0.0015918205
2572968000,2572968000,0.00010908162,0.0019274473,-0.0021362556
2572980000,2572980000,-0.0024450729,0.004105539,-0.0022481969
2572992000,2572992000,0.0024464263,0.0010769938,0.0007078498
2573004000,2573004000,0.0053216238,0.0075861206,-0.0013711444
2573016000,2573016000,0.00625534,0.0078947125,-0.0029648982
2573028000,2573028000,0.0014365881,0.016753292,-0.0018308978
2573040000,2573040000,-0.0012898201,0.0150958635,0.000373413
2573052000,2573052000,-0.0014001655,0.008289549,0.0038390548
2573064000,2573064000,-0.0015470269,0.0063414075,-0.0026254344
2573076000,2573076000,-0.0064519867,0.004635684,-0.0051786015
2573088000,2573088000,-0.00014010188,0.008381147,-0.0075989845
2573100000,2573100000,0.004258292,0.007278921,0.0022162122
2573112000,2573112000,0.006441186,0.0050077713,0.001491551
2573124000,2573124000,-0.001368488,-0.0013447027,-0.0016765832
2573136000,2573136000,-0.004205809,0.00087365834,0.0028230436
2573148000,2573148000,-0.0034413086,0.00052009337,0.002479877
2573160000,2573160000,-0.002055115,0.0038802999,0.0030845704
2573168000,2573168000,-0.00202549,0.002058856,0.003618485
2573184000,2573184000,-0.005826463,0.0051335273,-0.0008063627
2573196000,2573196000,-0.003076405,0.0019194663,0.00062155316
2573208000,2573208000,-0.0029050084,-0.0011227932,0.002628567
2573216000,2573216000,0.003151323,-0.0017869654,0.0018152166
2573232000,2573232000,-0.000121850986,-0.0066463235,0.000819389
2573244000,2573244000,0.00064056646,-0.009520432,-0.002193654
2573256000,2573256000,0.0063605774,-0.001825979,3.941679e-05
2573268000,2573268000,0.002147279,-0.0031250305,0.0030805846
2573280000,2573280000,0.0041884826,-0.00032056402,-0.006444508
2573292000,2573292000,0.0038059456,0.00047308346,-0.002064324
2573304000,2573304000,0.008403758,0.0021295093,-0.00504632
2573316000,2573316000,0.008662879,0.0044237445,-0.0047354233
2573328000,2573328000,0.008385456,0.007898619,-0.00493427
2573340000,2573340000,0.0038714893,0.012066172,-0.002600393
2573352000,2573352000,0.00032263785,0.011458722,0.00028704613
2573364000,2573364000,-0.005928415,0.012006168,-0.0017126692
2573372000,2573372000,-0.0063196775,0.013932066,0.004434379
2573388000,2573388000,0.0025294116,0.014623137,0.0018565862
2573400000,2573400000,0.0005583598,0.0073365304,-0.0003662463
2573412000,2573412000,-0.0018079376,0.00060066395,0.0018169692
2573424000,2573424000,-0.0009216636,0.0009852289,0.0027583032
2573432000,2573432000,-0.0006341394,0.0019655246,-0.0007246844
2573448000,2573448000,0.0009651978,-0.0062051457,0.004441886
2573460000,2573460000,-0.00064593344,-0.004717391,0.004190492
2573472000,2573472000,-0.0030118611,-0.002371823,0.0013876137
2573484000,2573484000,-0.0039660456,0.0028204643,-0.003933383
2573496000,2573496000,-2.3876783e-06,0.004027766,-0.0051446287
2573508000,2573508000,0.004093603,-0.002699796,-0.0031066071
2573516000,2573516000,-0.00070775906,-0.0009938194,-0.0032709334
2573528000,2573528000,-0.001017845,0.002303803,-0.0063365395
2573544000,2573544000,-0.0016142421,0.0067620147,-0.001488104
2573552000,2573552000,-7.222127e-05,0.008775305,0.0008848305
2573568000,2573568000,0.0028328623,0.009285148,0.0013380403
2573580000,2573580000,0.0025948384,0.011860322,0.002808988
2573592000,2573592000,0.0050578048,0.0069611785,-0.0020986227
2573600000,2573600000,0.00431061,0.004306411,-0.0031736444
2573612000,2573612000,0.0050665326,0.0010416456,-0.0022064014
2573628000,2573628000,0.005446652,0.010296987,-0.0059488914
2573636000,2573636000,0.0040760804,0.010503247,-0.002391136
2573648000,2573648000,0.0069711623,0.0064893747,0.004181029
2573664000,2573664000,0.01106239,0.0037721454,0.00058622437
2573676000,2573676000,0.0051257764,0.0029054324,0.0029231387
2573688000,2573688000,0.0048255967,0.0048626233,0.007897322
2573700000,2573700000,0.003808204,0.007183713,0.0031460023
2573712000,2573712000,-0.0031904848,0.011708045,-0.00045489948
2573724000,2573724000,-0.004006195,0.0041321437,-0.0003470559
2573736000,2573736000,0.0001250552,0.004009832,-0.0009516803
2573748000,2573748000,-0.00018411851,0.006008959,-0.0015475804
2573760000,2573760000,-0.0016001053,0.011468462,0.0013739064
2573772000,2573772000,0.0036323052,0.01173153,-0.004994451
2573784000,2573784000,0.004076285,0.014301769,0.0009527561
2573796000,2573796000,0.0064684735,0.008788846,0.003491107
2573808000,2573808000,0.011378127,0.005243728,-0.0022569387
2573820000,2573820000,0.010733278,0.0029741633,0.0013150839
2573832000,2573832000,0.00821504,0.0014980203,0.0018917517
2573844000,2573844000,0.008008787,0.001879008,-0.0023622843
2573856000,2573856000,0.0063565,-0.0024836087,-0.0020405955
2573868000,2573868000,0.0071808323,0.0003858395,-0.0011068148
2573880000,2573880000,0.011105574,0.0058568404,-8.911733e-05
2573888000,2573888000,0.012926682,0.0044511557,-0.001345169
2573904000,2573904000,0.006566656,0.0016319049,-0.0010160828
2573916000,2573916000,0.0041933022,0.0011318449,-0.00076079037
2573928000,2573928000,0.008514392,-0.003728806,0.0025616963
2573940000,2573940000,0.004233623,-0.0076760235,-3.4773544e-05
2573952000,2573952000,-0.00077482546,0.0028497726,0.0045303046
2573964000,2573964000,0.00065574155,0.00017973874,0.0058272704
2573976000,2573976000,0.004280161,0.0037951896,0.0033606216
2573984000,2573984000,0.0042759385,0.008358637,-0.004645973
2574000000,2574000000,-0.0022996725,0.008691696,-0.0018504121
2574012000,2574012000,-0.0056979093,0.0036127074,0.0025880437
2574024000,2574024000,-0.005351495,0.0073052123,0.0010036174
2574036000,2574036000,-0.0011190621,0.0068351785,-0.0026464816
2574048000,2574048000,-0.002610291,0.003183955,-0.00055789604
2574060000,2574060000,-0.0045833,0.0047522667,0.0018386645
2574072000,2574072000,-0.008964359,0.008946855,0.0018815665
2574084000,2574084000,-0.008326467,0.0025503486,0.0012859784
2574096000,2574096000,-0.005628176,-0.00055248337,-0.0047575273
2574108000,2574108000,-0.0015389153,0.0021178196,-0.002861883
2574120000,2574120000,-0.0066551017,0.007996913,0.004261751
2574128000,2574128000,-0.010861993,0.010604336,0.0008316398
2574144000,2574144000,-0.010373754,0.004172342,-0.0033728997
2574156000,2574156000,-0.008465065,0.001479408,-0.0013628881
2574164000,2574164000,-0.0067414735,0.0034509504,-0.003007378
2574180000,2574180000,-0.0022890705,0.0015212665,-0.00096553745
2574192000,2574192000,-0.0026212272,-0.0011451496,-0.0040947148
2574204000,2574204000,-0.00069893966,0.00079640746,-0.0037242626
2574216000,2574216000,-0.0003914386,0.0040246733,-5.713746e-05
2574228000,2574228000,-0.00285845,-0.000119912904,-0.0012855753
2574240000,2574240000,-0.0029067372,-0.0053830333,0.0011429527
2574252000,2574252000,-0.002878126,-0.0076463744,0.001005072
2574264000,2574264000,0.012204517,-0.010018082,0.0027871348
2574276000,2574276000,0.01222098,-0.005565962,0.001099998
2574288000,2574288000,0.008248061,-0.0018828958,-0.0013012185
2574296000,2574296000,0.011521945,0.0021346249,-0.0013284031
2574308000,2574308000,0.0060682157,0.00026775477,0.00052592007
2574324000,2574324000,0.0017535973,-0.006457034,-0.00053726305
2574336000,2574336000,-0.001003897,-0.0030778293,-0.0013545093
2574344000,2574344000,-0.0014064817,-0.0042342525,-0.0061684996
2574360000,2574360000,0.0018803615,-0.009527121,-0.001606697
2574372000,2574372000,0.0036567769,-0.01267105,-0.0022727356
2574380000,2574380000,0.007870024,-0.0110192895,0.00050988945
2574392000,2574392000,0.004184449,-0.006031353,0.002201485
2574408000,2574408000,-0.0022287215,-0.0074350485,-0.005229645
2574420000,2574420000,-0.005374517,-0.005112319,-0.0014804864
2574432000,2574432000,-0.004270876,0.0006549009,0.0023531653
2574444000,2574444000,-0.0055607967,-0.001403077,0.0034191823
2574456000,2574456000,-0.0071707983,0.00068803225,0.00047917967
2574468000,2574468000,-0.0040478124,-0.0015450832,-0.0028539551
2574480000,2574480000,-0.001884128,-0.0014214059,0.0016339705
2574492000,2574492000,-0.003979356,-0.004459129,0.004683308
2574504000,2574504000,-0.0034808756,-0.0001140642,0.0037152495
2574512000,2574512000,-0.0045403927,0.0013718721,0.00055741484
2574528000,2574528000,0.0015553379,-0.0011287797,0.0041626897
2574540000,2574540000,-0.00034053205,-0.0026106406,0.004543001
2574552000,2574552000,-0.0019850517,0.0011522276,3.6193414e-05
2574564000,2574564000,-0.0023049777,-0.0013744547,0.0009924306
2574572000,2574572000,-0.005859377,-0.0033789729,0.00018915877
2574588000,2574588000,0.0015318808,-0.0041640685,-0.00057110464
2574600000,2574600000,-0.0026803196,-0.004230023,-0.0035936611
2574612000,2574612000,0.0033382522,-0.005100362,-0.0042051473
2574624000,2574624000,-0.0032758242,-0.004462068,-0.0035519989
2574636000,2574636000,-0.002804033,0.0019109764,-0.0023972807
2574648000,2574648000,-0.005331424,0.005718127,0.0020403874
2574656000,2574656000,-0.007581872,0.0076136114,0.0011401442
2574672000,2574672000,-0.0057683606,0.006297309,-0.0020144999
2574684000,2574684000,-0.005895909,0.0042377952,-0.00604703
2574696000,2574696000,0.0031807558,0.009338392,-0.007344057
2574708000,2574708000,-0.002649381,0.009796584,-0.0039170114
2574720000,2574720000,0.002074025,0.01618549,0.0025338235
2574728000,2574728000,0.0041278247,0.018868377,0.0013245982
2574740000,2574740000,0.0014641314,0.017001543,-0.0013495056
2574756000,2574756000,-3.6186073e-05,0.01569464,0.0023152307
2574768000,2574768000,-0.0027793837,0.011791281,0.0018666771
2574780000,2574780000,-0.0008052208,0.009606016,-2.0157611e-05
2574792000,2574792000,0.006418784,0.0059649535,0.0019876335
2574804000,2574804000,0.0064407205,0.0040476415,-0.0016103656
2574816000,2574816000,0.0039491947,0.0026159834,-0.0037656864
2574828000,2574828000,0.0011431597,0.0023950562,-0.0014368446
2574836000,2574836000,0.0016090786,0.0028184503,-0.00063431705
2574852000,2574852000,-0.0017719811,-0.0014701118,-0.001699648
2574860000,2574860000,-0.00073623774,-0.0021202709,0.0010102015
2574876000,2574876000,0.013018883,-0.0013203314,0.003056869
2574884000,2574884000,0.008272547,-0.0010567647,0.002876897
2574900000,2574900000,0.0008784174,0.008388982,0.0025374838
2574912000,2574912000,-0.00046879821,0.004964771,-0.002232261
2574924000,2574924000,0.0053855143,-0.0032797847,0.001949218
2574936000,2574936000,0.0010551371,-0.0043125735,-0.00081041385
2574948000,2574948000,-0.004996891,-0.0043020244,-0.0024024036
2574956000,2574956000,-0.0013107543,-0.0032268972,-0.00084991084
2574972000,2574972000,-0.0034241423,-0.0033018128,-0.00024328161
2574984000,2574984000,-0.005852964,0.000525502,0.00085402216
2574996000,2574996000,-0.010024888,0.0061713527,0.0035877565
2575008000,2575008000,-0.014839734,0.0045175254,0.0010155923
2575020000,2575020000,-0.015851177,0.00030838,0.000532103
2575032000,2575032000,-0.013806491,-0.007610568,-0.0043687643
2575044000,2575044000,-0.009488257,-0.0015906286,-0.005033814
2575056000,2575056000,-0.0077768154,-0.0035251356,-0.00044789395
2575064000,2575064000,-0.007656105,-0.009641159,0.002589973
2575080000,2575080000,-0.0065797837,-0.008851311,-0.0036262767
2575092000,2575092000,-0.0069718137,-0.0047044074,-0.0018030012
2575104000,2575104000,-0.0048534973,-0.005503456,-0.0021894136
2575116000,2575116000,-0.0034315328,-0.0026167482,0.0009460652
2575128000,2575128000,-0.001883317,-0.000304888,0.0014241496
2575140000,2575140000,-0.0002933701,0.0046382393,-0.0006856293
2575152000,2575152000,-0.004773738,0.0062391357,-0.00061257975
2575164000,2575164000,-0.00871868,0.0034131054,-0.0009936881
2575176000,2575176000,-0.009612785,-0.00024714042,-0.006291308
2575188000,2575188000,-0.0061140545,-0.0071118088,-0.00024827104
2575200000,2575200000,-0.0029812322,-0.010863775,0.0055443845
2575212000,2575212000,0.0003225056,-0.01019864,0.0023432188
2575220000,2575220000,0.0014859146,-0.010509731,-0.0010574833
2575236000,2575236000,0.0042059906,-0.014309661,-0.00342614
2575248000,2575248000,0.01029246,-0.0060486477,0.00023292683
2575260000,2575260000,0.0068012574,-0.0048549483,0.0030719566
2575272000,2575272000,0.005120026,0.0013762168,0.00078827207
2575284000,2575284000,0.005110374,-0.0033221412,0.0011019796
2575292000,2575292000,0.0035335894,-0.010402178,-0.00049180066
2575308000,2575308000,0.005463697,-0.007116265,-0.00035395738
2575320000,2575320000,0.00507667,-0.0070342827,-0.0019362007
2575332000,2575332000,0.0019198363,-0.0014539482,0.0036623466
2575344000,2575344000,0.008100124,-0.0014091958,-0.00074795575
2575352000,2575352000,0.008646633,0.003576186,-0.0036437637
2575368000,2575368000,0.009442751,0.008782923,-0.0016104354
2575380000,2575380000,0.012497967,0.0006888737,-0.005379823
2575392000,2575392000,0.00546242,-0.001628472,-0.003671541
2575404000,2575404000,0.0057813935,-0.006915636,-0.0013863043
2575416000,2575416000,0.007282831,-0.0056438786,0.0034318366
2575428000,2575428000,0.006387556,-0.0039688474,0.0020679478
2575440000,2575440000,0.008468156,-0.007511988,-0.0026033092
2575452000,2575452000,0.005930871,-0.0081385765,0.001301149
2575464000,2575464000,0.007864157,-0.0042356304,0.00041344034
2575476000,2575476000,0.0063179573,-0.007494629,0.0024004711
2575488000,2575488000,0.00016262755,-0.0042514685,0.00024214997
2575500000,2575500000,-0.00042947056,0.004615958,0.0056205248
2575508000,2575508000,0.0006420241,0.0021788143,0.0042954907
2575524000,2575524000,0.008380977,0.0009853737,0.0017653547
2575532000,2575532000,0.008912814,-0.0015581399,0.0011662202
2575548000,2575548000,0.0059047407,-0.0058840704,0.0020695978
2575560000,2575560000,-0.0012206365,-0.0022724862,-0.0013511118
2575572000,2575572000,-0.005546474,-0.0008685016,-0.0030486165
2575584000,2575584000,-0.0044085113,-0.0028572772,-0.0019440944
2575596000,2575596000,-0.0034885716,-0.0027326094,0.0025614481
2575608000,2575608000,0.0055588903,-0.0066526057,0.002309393
2575620000,2575620000,0.0066146795,-0.0064371238,-0.00053381454
2575632000,2575632000,0.004307758,-0.007362404,-0.0024481725
2575644000,2575644000,0.0015984289,-0.002945514,-0.0008312451
2575656000,2575656000,-0.0017161181,-0.0008335039,-0.0040365583
2575668000,2575668000,-0.0019115296,0.0031791113,0.00025815924
2575680000,2575680000,0.0020286283,-0.0018921494,3.7640577e-05
2575692000,2575692000,0.0031825886,0.0004661586,-0.003212403
2575700000,2575700000,0.0039375154,0.0054270886,-0.00050943857
2575716000,2575716000,-0.0015327826,0.009392034,0.00438102
2575728000,2575728000,-0.001076556,0.011780793,0.0010535553
2575736000,2575736000,-0.0020830107,0.011721642,-0.003406776
2575752000,2575752000,-0.0038604368,0.01245471,-0.0007963451
2575764000,2575764000,-0.0057050176,0.009807147,0.0027840838
2575776000,2575776000,-0.009300257,0.015252305,0.004824317
2575788000,2575788000,-0.011238378,0.013439773,-0.0015055237
2575800000,2575800000,-0.01223787,0.010838587,-0.00029270456
2575812000,2575812000,-0.014505514,0.011835087,0.0033820262
2575824000,2575824000,-0.0063943835,0.0071468987,0.0021458624
2575836000,2575836000,-0.007346944,0.0047415635,0.0003325023
2575848000,2575848000,-0.00801013,-0.002781937,0.0027684981
2575860000,2575860000,-0.011901655,-0.0034185648,-0.0021335364
2575868000,2575868000,-0.009771361,-0.003801193,-0.0036163959
2575884000,2575884000,-0.004067567,-0.008243088,0.00046751057
2575896000,2575896000,-0.0075472957,-0.008183322,0.0017183145
