timestamp,roll,pitch,yaw,thrust_body[0],thrust_body[1],thrust_body[2]
2564256000,0.005948698,0.031488337,-1.1626439,0.0,0.0,0.0
2564272000,0.0060133506,0.031351123,-1.1627501,0.0,0.0,0.0
2564296000,0.005818786,0.031068932,-1.1627456,0.0,0.0,0.0
2564316000,0.005995311,0.030742284,-1.1627452,0.0,0.0,0.0
2564332000,0.006024329,0.030921863,-1.1628574,0.0,0.0,0.0
2564356000,0.0064468747,0.031174853,-1.162996,0.0,0.0,0.0
2564372000,0.0066683753,0.031388894,-1.1629837,0.0,0.0,0.0
2564392000,0.006144245,0.031214826,-1.1630365,0.0,0.0,0.0
2564416000,0.0063031223,0.031011261,-1.1630619,0.0,0.0,0.0
2564432000,0.0064525306,0.03139408,-1.1631109,0.0,0.0,0.0
2564456000,0.0064524184,0.031471357,-1.1631763,0.0,0.0,0.0
2564472000,0.006489272,0.03143514,-1.1633973,0.0,0.0,0.0
2564496000,0.0065636407,0.03135182,-1.1636242,0.0,0.0,0.0
2564516000,0.006390634,0.03160921,-1.1638529,0.0,0.0,0.0
2564532000,0.006517021,0.03141111,-1.1637596,0.0,0.0,0.0
2564556000,0.0067106914,0.03139598,-1.1639104,0.0,0.0,0.0
2564576000,0.006441854,0.03156793,-1.1638627,0.0,0.0,0.0
2564596000,0.006375759,0.030972064,-1.1638317,0.0,0.0,0.0
2564612000,0.0065336414,0.03135186,-1.1637163,0.0,0.0,0.0
2564636000,0.006640395,0.03121709,-1.1635512,0.0,0.0,0.0
2564652000,0.0066882344,0.03142026,-1.163544,0.0,0.0,0.0
2564676000,0.0062879147,0.031005282,-1.1638443,0.0,0.0,0.0
2564692000,0.006291545,0.031134706,-1.1637919,0.0,0.0,0.0
2564716000,0.006338114,0.030932613,-1.1635025,0.0,0.0,0.0
2564732000,0.006245015,0.031041168,-1.1635107,0.0,0.0,0.0
2564752000,0.006669666,0.031563424,-1.1635195,0.0,0.0,0.0
2564776000,0.0065384395,0.031709787,-1.1635149,0.0,0.0,0.0
2564796000,0.006517059,0.031958513,-1.1635306,0.0,0.0,0.0
2564816000,0.006190664,0.031553246,-1.163489,0.0,0.0,0.0
2564836000,0.0061108945,0.031369604,-1.1633703,0.0,0.0,0.0
2564856000,0.006136449,0.031302765,-1.1635027,0.0,0.0,0.0
2564872000,0.006080092,0.031046964,-1.1637201,0.0,0.0,0.0
2564896000,0.0060150283,0.031047624,-1.1638496,0.0,0.0,0.0
2564916000,0.006378784,0.031036347,-1.1640491,0.0,0.0,0.0
2564936000,0.006371745,0.031108782,-1.1638116,0.0,0.0,0.0
2564952000,0.0062005706,0.03137516,-1.1638763,0.0,0.0,0.0
2564976000,0.005966128,0.03159137,-1.1638126,0.0,0.0,0.0
2564992000,0.0058990316,0.031637292,-1.1637228,0.0,0.0,0.0
2565012000,0.005893413,0.03133051,-1.1636498,0.0,0.0,0.0
2565036000,0.005605827,0.03153885,-1.1635904,0.0,0.0,0.0
2565052000,0.0054037613,0.03166924,-1.1635567,0.0,0.0,0.0
2565072000,0.0055726245,0.03162363,-1.1638204,0.0,0.0,0.0
2565096000,0.005454922,0.031317584,-1.1639287,0.0,0.0,0.0
2565116000,0.005581172,0.031214157,-1.16408,0.0,0.0,0.0
2565136000,0.0058409707,0.03075748,-1.1640525,0.0,0.0,0.0
2565156000,0.0055502304,0.030472191,-1.1639061,0.0,0.0,0.0
2565176000,0.0056193867,0.0300798,-1.1635365,0.0,0.0,0.0
2565196000,0.005827463,0.030336238,-1.1633611,0.0,0.0,0.0
2565216000,0.0062620863,0.03014687,-1.1634002,0.0,0.0,0.0
2565236000,0.0064475765,0.030030116,-1.1635833,0.0,0.0,0.0
2565256000,0.0071590953,0.029908683,-1.163652,0.0,0.0,0.0
2565272000,0.00698817,0.029728293,-1.1635835,0.0,0.0,0.0
2565296000,-0.25034678,1.1195831,0.011716962,0.0,0.0,-0.12213327
2565312000,-0.15613946,0.70935965,0.003333807,0.0,0.0,-0.12082347
2565332000,-0.09106019,0.5892743,0.00092321634,0.0,0.0,-0.12054353
2565356000,-0.0441624,0.4551386,-0.0005046129,0.0,0.0,-0.120308764
2565376000,-0.023665812,0.509413,-0.000952363,0.0,0.0,-0.12038794
2565392000,-0.023773212,0.5092395,-0.0010455251,0.0,0.0,-0.12038794
2565416000,0.041056875,0.70145726,-0.002563119,0.0,0.0,-0.121019244
2565436000,0.024023384,0.70442134,-0.002242148,0.0,0.0,-0.13153322
2565452000,0.028161697,0.6976825,-0.002307415,0.0,0.0,-0.14532486
2565476000,0.016862132,0.6694955,-0.0019694567,0.0,0.0,-0.15838437
2565496000,0.0013641492,0.6283917,-0.0018092394,0.0,0.0,-0.1688144
2565516000,0.010894798,0.58546567,-0.0021207333,0.0,0.0,-0.18172118
2565532000,0.023189155,0.5564764,-0.0023878813,0.0,0.0,-0.19470344
2565556000,0.0174972,0.5148651,-0.0025683045,0.0,0.0,-0.2050109
2565576000,0.029069457,0.49909338,-0.0027989745,0.0,0.0,-0.21852082
2565592000,0.023079699,0.46680677,-0.0025432706,0.0,0.0,-0.23225257
2565616000,0.03137672,0.434716,-0.0026814938,0.0,0.0,-0.25659525
2565636000,0.022335978,0.41287512,-0.002613902,0.0,0.0,-0.26997074
2565656000,0.018883025,0.39155504,-0.0026857853,0.0,0.0,-0.2802978
2565668000,0.019185087,0.39138496,-0.0026775599,0.0,0.0,-0.2802978
2565696000,0.026589926,0.36483508,-0.0029969215,0.0,0.0,-0.30741927
2565716000,0.026186325,0.35102382,-0.0032154322,0.0,0.0,-0.31836534
2565732000,0.021039097,0.3384446,-0.0032805204,0.0,0.0,-0.33288944
2565756000,0.017838512,0.3353069,-0.0033080578,0.0,0.0,-0.34721273
2565776000,0.018480258,0.33299953,-0.0035138726,0.0,0.0,-0.3587412
2565792000,0.014043583,0.31620008,-0.0034353733,0.0,0.0,-0.37379596
2565816000,0.016901083,0.3066584,-0.003489375,0.0,0.0,-0.38830575
2565832000,0.014325469,0.29781657,-0.0034541488,0.0,0.0,-0.39972323
2565852000,0.017098809,0.2884438,-0.0034834743,0.0,0.0,-0.41499573
2565876000,0.019128079,0.28164083,-0.0034489632,0.0,0.0,-0.4302826
2565888000,0.015220206,0.2754156,-0.003325224,0.0,0.0,-0.44211045
2565916000,0.015986443,0.2684736,-0.0033291578,0.0,0.0,-0.4571786
2565932000,0.015254483,0.2631786,-0.0032254457,0.0,0.0,-0.4723244
2565956000,0.016881606,0.24308753,-0.0031490922,0.0,0.0,-0.49966553
2565976000,0.018405676,0.2385051,-0.0032392144,0.0,0.0,-0.5152731
2565992000,0.015145898,0.2347436,-0.0031365752,0.0,0.0,-0.5278065
2566012000,0.018736687,0.22923629,-0.0032229424,0.0,0.0,-0.5434031
2566036000,0.0139649855,0.22005454,-0.0031591058,0.0,0.0,-0.5588303
2566056000,0.016789963,0.21647117,-0.0030511022,0.0,0.0,-0.57078177
2566076000,0.018434132,0.20258102,-0.003076136,0.0,0.0,-0.5835065
2566088000,0.014442747,0.18067807,-0.0029062629,0.0,0.0,-0.5932831
2566112000,0.01000462,0.13777572,-0.002679348,0.0,0.0,-0.59342766
2566132000,0.005187342,0.09410125,-0.0028204322,0.0,0.0,-0.60005474
2566152000,0.0027620438,0.050606012,-0.0031371117,0.0,0.0,-0.6064655
2566168000,0.0030606994,0.0067404695,-0.0032951832,0.0,0.0,-0.604922
2566196000,-0.0021186573,-0.042674903,-0.0035524964,0.0,0.0,-0.6122018
2566216000,-0.0063441535,-0.098244354,-0.003596127,0.0,0.0,-0.6064992
2566236000,-0.0066294177,-0.12841073,-0.0032628179,0.0,0.0,-0.6094432
2566256000,-0.0062096086,-0.1615774,-0.0031557083,0.0,0.0,-0.61235523
2566272000,-0.0059097544,-0.20196235,-0.0029518604,0.0,0.0,-0.6064282
2566296000,-0.005977262,-0.21733493,-0.002721548,0.0,0.0,-0.60949916
2566316000,-0.008245738,-0.22284225,-0.0023537278,0.0,0.0,-0.61280566
2566336000,-0.012677494,-0.25054574,-0.0022197962,0.0,0.0,-0.6073792
2566356000,-0.016364463,-0.24603307,-0.0022060275,0.0,0.0,-0.61102283
2566376000,-0.017718736,-0.2416449,-0.0019099116,0.0,0.0,-0.614812
2566396000,-0.015943654,-0.25808477,-0.0019022226,0.0,0.0,-0.6096427
2566408000,-0.012563905,-0.24891439,-0.0018988252,0.0,0.0,-0.61285704
2566432000,-0.007965069,-0.23610064,-0.0018142462,0.0,0.0,-0.61601275
2566452000,-0.014439608,-0.24272227,-0.0016998053,0.0,0.0,-0.61073846
2566472000,-0.018443746,-0.2269516,-0.0017158985,0.0,0.0,-0.6138834
2566496000,-0.016724227,-0.22496092,-0.0016770959,0.0,0.0,-0.6109681
2566516000,-0.0168907,-0.21198387,-0.0016064644,0.0,0.0,-0.61411816
2566536000,-0.01971932,-0.19473341,-0.0015506744,0.0,0.0,-0.61712265
2566556000,-0.019943906,-0.1877233,-0.0014882684,0.0,0.0,-0.61146057
2566576000,-0.015888885,-0.17520866,-0.0013648868,0.0,0.0,-0.61459655
2566596000,-0.01701742,-0.16488518,-0.0013273358,0.0,0.0,-0.61744374
2566616000,-0.014007853,-0.15401337,-0.0014485717,0.0,0.0,-0.61185676
2566636000,-0.016258001,-0.1421862,-0.001196444,0.0,0.0,-0.61514807
2566656000,-0.012616918,-0.13175526,-0.0011769533,0.0,0.0,-0.61852294
2566676000,-0.0105918115,-0.12777126,-0.0011383295,0.0,0.0,-0.61409205
2566696000,-0.011027839,-0.12261626,-0.0010837913,0.0,0.0,-0.61792237
2566716000,-0.012167721,-0.11075288,-0.0010691285,0.0,0.0,-0.6219588
2566736000,-0.011873852,-0.10541102,-0.00088226795,0.0,0.0,-0.62008727
2566748000,-0.011143306,-0.10307315,-0.00076049566,0.0,0.0,-0.62008727
2566772000,-0.010232335,-0.10021587,-0.0007840991,0.0,0.0,-0.62289333
2566792000,-0.0042421874,-0.09657177,-0.0005559325,0.0,0.0,-0.619908
2566816000,-0.0058483738,-0.09519209,-0.00017237663,0.0,0.0,-0.6222691
2566836000,-0.0046247123,-0.09766457,-1.3589859e-05,0.0,0.0,-0.61606944
2566856000,-0.006691536,-0.09446161,0.0002194047,0.0,0.0,-0.6191239
2566876000,-0.011926528,-0.09893107,9.638071e-05,0.0,0.0,-0.6225281
2566896000,-0.011600757,-0.09360249,-6.6161156e-06,0.0,0.0,-0.6175551
2566916000,-0.008897619,-0.095901564,-6.920099e-05,0.0,0.0,-0.6214372
2566936000,-0.00859103,-0.0917458,-0.00043183565,0.0,0.0,-0.6257335
2566956000,-0.002522362,-0.08582255,-0.00044363737,0.0,0.0,-0.6210137
2566972000,0.00037584174,-0.08601287,-0.00045114756,0.0,0.0,-0.62460595
2566996000,-0.00030713528,-0.08217168,-0.00027698278,0.0,0.0,-0.6276267
2567016000,-0.006301407,-0.06996222,-0.00022816658,0.0,0.0,-0.6211934
2567032000,-0.008324211,-0.06925052,-0.00017541647,0.0,0.0,-0.6241771
2567056000,-0.0033732634,-0.07494599,-0.00023174286,0.0,0.0,-0.6217308
2567072000,-0.006731353,-0.07860064,-0.00016897917,0.0,0.0,-0.62537205
2567092000,-0.004706211,-0.07791561,0.0,0.0,0.0,-0.6289596
2567116000,-0.005302614,-0.06954501,6.258488e-05,0.0,0.0,-0.6231522
2567136000,-0.0066801547,-0.07102349,0.00017917156,0.0,0.0,-0.6264519
2567156000,-0.008105699,-0.06773009,9.7990036e-05,0.0,0.0,-0.6295094
2567176000,-0.012425962,-0.060229145,0.00011354685,0.0,0.0,-0.62405854
2567196000,-0.010081521,-0.060697652,-9.548664e-05,0.0,0.0,-0.62745804
2567212000,-0.006970476,-0.06091199,-5.4359436e-05,0.0,0.0,-0.6304122
2567236000,-0.0024994262,-0.06454725,9.36985e-05,0.0,0.0,-0.624596
2567256000,-0.0012644646,-0.06799957,7.0273876e-05,0.0,0.0,-0.6279864
2567268000,-0.00014475686,-0.07131425,0.00020223856,0.0,0.0,-0.63066465
2567296000,0.003252923,-0.06446375,0.00057041645,0.0,0.0,-0.62509435
2567312000,0.0006477912,-0.062758416,0.00071901083,0.0,0.0,-0.62859875
2567336000,0.0072288522,-0.06660556,0.0007215142,0.0,0.0,-0.626499
2567356000,0.0032905592,-0.066255875,0.000688076,0.0,0.0,-0.6301817
2567376000,0.005114868,-0.05991037,0.0005879402,0.0,0.0,-0.63405967
2567396000,0.003848935,-0.056339353,0.00062030554,0.0,0.0,-0.6290371
2567412000,0.004426581,-0.055139832,0.00058972836,0.0,0.0,-0.6318048
2567432000,0.006044108,-0.053029068,0.0005915165,0.0,0.0,-0.63428324
2567456000,0.005301048,-0.051308237,0.0006351471,0.0,0.0,-0.6286479
2567476000,0.0010179039,-0.05220084,0.0008484721,0.0,0.0,-0.6320456
2567492000,0.002567303,-0.05181048,0.00086957216,0.0,0.0,-0.63530576
2567516000,-0.000919017,-0.050475486,0.00081038475,0.0,0.0,-0.6297493
2567536000,0.0013498804,-0.049139805,0.00076049566,0.0,0.0,-0.63381225
2567552000,-0.0011760942,-0.051981494,0.00060224533,0.0,0.0,-0.637421
2567576000,-0.0032990584,-0.049058184,0.000649631,0.0,0.0,-0.6323398
2567592000,-6.74855e-05,-0.048726317,0.0006560683,0.0,0.0,-0.63552827
2567608000,-0.0027135615,-0.04563582,0.00071400404,0.0,0.0,-0.6386971
2567632000,-0.0041836984,-0.046936683,0.0008087754,0.0,0.0,-0.63356245
2567656000,-0.0006047948,-0.04085266,0.00079375505,0.0,0.0,-0.6397956
2567676000,0.0015464611,-0.04448215,0.00073456764,0.0,0.0,-0.63440067
2567696000,0.0025098617,-0.04695997,0.00044095516,0.0,0.0,-0.6379786
2567712000,0.006162596,-0.045216274,0.000513196,0.0,0.0,-0.6414273
2567732000,0.0038621128,-0.045641087,-0.002942562,0.0,0.0,-0.635964
2567756000,0.0012022443,-0.040517136,-0.0025223494,0.0,0.0,-0.63963896
2567772000,-0.0025489563,-0.039326094,-0.0025961995,0.0,0.0,-0.6427495
2567796000,-0.0050613927,-0.040567007,-0.0024347305,0.0,0.0,-0.63709116
2567808000,-0.00540407,-0.041708518,-0.002118051,0.0,0.0,-0.6398977
2567836000,-0.004764891,-0.037935965,-0.0020300746,0.0,0.0,-0.6435164
2567856000,-0.00084989285,-0.030268874,-0.0017033815,0.0,0.0,-0.6379643
2567872000,0.0018933434,-0.03052436,-0.001496315,0.0,0.0,-0.64065075
2567892000,0.004027098,-0.030006595,-0.0015283227,0.0,0.0,-0.6439428
2567916000,0.0033072797,-0.028428033,-0.0014932752,0.0,0.0,-0.6417861
2567936000,0.0034953724,-0.024467725,-0.0014643073,0.0,0.0,-0.6452296
2567956000,0.0011381493,-0.022438703,-0.0015063286,0.0,0.0,-0.6223342
2567976000,-0.0022906219,-0.02518642,-0.001834631,0.0,0.0,-0.6050469
2567992000,-0.0040219957,-0.03035399,-0.0017332435,0.0,0.0,-0.5881983
2568016000,-0.0107532125,-0.03375039,-0.0017614961,0.0,0.0,-0.5544464
2568036000,-0.011670999,-0.034012638,-0.0018424988,0.0,0.0,-0.5451691
2568056000,-0.017487608,-0.036850028,-0.0017945766,0.0,0.0,-0.5406485
2568072000,-0.019322395,-0.039467853,-0.0019279718,0.0,0.0,-0.52945375
2568092000,-0.012316592,-0.035454247,-0.00198555,0.0,0.0,-0.5347328
2568116000,-0.006728619,-0.035660855,-0.0020352602,0.0,0.0,-0.5428104
2568136000,-0.0064676735,-0.03058825,-0.0019497871,0.0,0.0,-0.54574525
2568156000,-0.00616639,-0.028010309,-0.001906693,0.0,0.0,-0.55684626
2568176000,-0.0051761735,-0.027304793,-0.0016815662,0.0,0.0,-0.566701
2568196000,-0.0009195367,-0.025683224,-0.0015571117,0.0,0.0,-0.573217
2568216000,-0.0011059139,-0.02432204,-0.0019149184,0.0,0.0,-0.57786345
2568236000,-0.0037736068,-0.02441752,-0.0021598935,0.0,0.0,-0.5705321
2568256000,-0.0030743207,-0.023023399,-0.0021829605,0.0,0.0,-0.57295877
2568272000,-0.0039615333,-0.020708432,-0.0021218061,0.0,0.0,-0.57485986
2568292000,-0.004823315,-0.01594195,-0.002044022,0.0,0.0,-0.5663482
2568316000,-0.007438387,-0.014962511,-0.0022830963,0.0,0.0,-0.56896913
2568332000,-0.008734133,-0.015613735,-0.002288103,0.0,0.0,-0.5710453
2568356000,-0.009936128,-0.027488485,-0.0021965504,0.0,0.0,-0.5634054
2568372000,-0.010914939,-0.030678973,-0.002243936,0.0,0.0,-0.5665141
2568396000,-0.010268879,-0.036442388,-0.0023211837,0.0,0.0,-0.5699688
2568412000,-0.0076166587,-0.03572183,-0.0020685196,0.0,0.0,-0.5638189
2568436000,-0.00040029036,-0.035186097,-0.001907587,0.0,0.0,-0.568402
2568456000,0.0035663615,-0.03679872,-0.0014560819,0.0,0.0,-0.5657613
2568472000,0.0036177677,-0.03627979,-0.0013098121,0.0,0.0,-0.5702192
2568496000,-0.003961092,-0.0273464,-0.0011401176,0.0,0.0,-0.5691678
2568512000,-0.0066916603,-0.02448202,-0.000952363,0.0,0.0,-0.57328594
2568532000,-0.0048746318,-0.019400846,-0.0005745292,0.0,0.0,-0.5768703
2568556000,0.002570456,-0.024484947,-0.00048530102,0.0,0.0,-0.5693287
2568576000,0.008247709,-0.025673406,-0.00026267767,0.0,0.0,-0.572007
2568592000,0.008967936,-0.019236263,-0.0001578927,0.0,0.0,-0.57488596
2568612000,0.007808493,-0.020545213,5.185604e-06,0.0,0.0,-0.5669097
2568636000,0.007820984,-0.01963783,-8.940697e-07,0.0,0.0,-0.57014704
2568656000,0.002964411,-0.02229681,0.0001269579,0.0,0.0,-0.5737022
2568672000,0.005474299,-0.025526606,5.185604e-05,0.0,0.0,-0.5678877
2568696000,0.001959249,-0.019565765,-0.00024336576,0.0,0.0,-0.57166785
2568716000,-0.0028457008,-0.018862763,-0.00011533499,0.0,0.0,-0.57561743
2568736000,-0.0068135527,-0.021818966,0.00022941828,0.0,0.0,-0.57376254
2568752000,-0.0071079307,-0.021586131,0.0001861453,0.0,0.0,-0.57376254
2568776000,0.005253753,-0.018853702,0.00015646219,0.0,0.0,-0.5712422
2568792000,0.005725766,-0.017280873,0.00017219782,0.0,0.0,-0.5746369
2568812000,0.0037155412,-0.014561548,0.00017362833,0.0,0.0,-0.5777154
2568836000,-0.007245958,-0.007382902,0.0005443096,0.0,0.0,-0.5709003
2568856000,-0.007742973,-0.0068813623,0.0003592372,0.0,0.0,-0.5743272
2568872000,-0.006026864,-0.0078191925,0.00044113398,0.0,0.0,-0.57736176
2568896000,-0.005909713,-0.0050325864,0.000590086,0.0,0.0,-0.57012874
2568916000,-0.0062101614,-0.008862987,0.00090765953,0.0,0.0,-0.5740532
2568932000,-0.0077881003,-0.019827165,0.00089621544,0.0,0.0,-0.5779885
2568952000,-0.007490935,-0.020298397,0.00097543,0.0,0.0,-0.5721161
2568976000,0.0006155125,-0.01686581,0.0012865663,0.0,0.0,-0.57537305
2568996000,0.005604072,-0.011388127,0.0014324784,0.0,0.0,-0.5793615
2569016000,0.008872595,-0.009657349,0.0019925237,0.0,0.0,-0.5720691
2569032000,0.006236618,-0.0054188534,0.0022462606,0.0,0.0,-0.5756487
2569052000,0.0061054286,-0.004036504,0.0024461746,0.0,0.0,-0.57330173
2569076000,0.002940345,-0.0068999617,0.0025604367,0.0,0.0,-0.5764156
2569096000,0.0010177894,-0.009431334,0.0026257038,0.0,0.0,-0.58005404
2569116000,0.003117178,-0.012874369,0.0026496649,0.0,0.0,-0.57341784
2569136000,0.0019668876,-0.013632519,0.0027102828,0.0,0.0,-0.5774197
2569152000,0.002435158,-0.011977369,0.0026881099,0.0,0.0,-0.5812104
2569176000,0.0031224336,-0.01268262,0.0026151538,0.0,0.0,-0.57459706
2569192000,0.006378494,-0.014982291,0.0025480986,0.0,0.0,-0.5780788
2569216000,0.007385271,-0.012431588,0.0023279786,0.0,0.0,-0.5812266
2569236000,0.008867085,-0.009853546,0.002308309,0.0,0.0,-0.5742787
2569256000,0.0030921092,-0.009063801,0.0023193955,0.0,0.0,-0.5777712
2569276000,0.004902547,-0.009462848,0.0022855997,0.0,0.0,-0.5809616
2569292000,0.0023420951,-0.0114780655,0.0022695065,0.0,0.0,-0.575077
2569312000,0.0039644474,-0.013204742,0.002085328,0.0,0.0,-0.57837224
2569332000,0.0016675978,-0.015368555,0.0019263625,0.0,0.0,-0.5825463
2569356000,-0.0003670198,-0.011901906,0.0019925237,0.0,0.0,-0.57975423
2569376000,-0.0045791916,-0.007948667,0.0020704865,0.0,0.0,-0.58318
2569396000,-0.006606887,-0.008066417,0.0019147396,0.0,0.0,-0.57639885
2569416000,-0.0071173795,-0.006932756,0.0019256473,0.0,0.0,-0.57999873
2569436000,-0.0064566275,-0.0095441975,0.0016084313,0.0,0.0,-0.5834784
2569456000,-0.008516049,-0.010432391,0.001401186,0.0,0.0,-0.57682514
2569472000,-0.009441823,-0.006797296,0.0012488365,0.0,0.0,-0.58030635
2569496000,-0.005970216,-0.005776544,0.00085276365,0.0,0.0,-0.5834056
2569516000,-0.0028667646,-0.004675616,0.00074601173,0.0,0.0,-0.5760849
2569532000,-0.004925409,-0.0079344865,0.00061529875,0.0,0.0,-0.5789235
2569556000,-0.0039543095,-0.0066410056,0.00021851063,0.0,0.0,-0.5820932
2569576000,-0.0031522103,-0.005351897,-5.9366226e-05,0.0,0.0,-0.5751797
2569592000,-0.00082432525,-0.0041451715,-0.0001680851,0.0,0.0,-0.5783965
2569616000,0.0035789441,-0.008250285,2.682209e-05,0.0,0.0,-0.57527196
2569636000,0.0037605437,-0.0086707175,-0.00038731098,0.0,0.0,-0.578525
2569656000,0.0067480663,-0.011827974,-0.00066947937,0.0,0.0,-0.5814646
2569676000,0.0047055082,-0.012556896,-0.0009357333,0.0,0.0,-0.5748455
2569692000,0.0049717985,-0.010770995,-0.0011238456,0.0,0.0,-0.5785554
2569716000,0.001642881,-0.0044941325,-0.0012418628,0.0,0.0,-0.58223456
2569732000,0.008747262,-0.009063293,-0.0013813376,0.0,0.0,-0.57559204
2569756000,0.007033783,-0.00591538,-0.0012706518,0.0,0.0,-0.5792927
2569776000,0.0071695223,-0.0029559885,-0.0011419058,0.0,0.0,-0.58321947
2569796000,0.0065824958,-0.002117588,-0.0011295676,0.0,0.0,-0.57658046
2569816000,0.0083998265,-0.0035673513,-0.0013006926,0.0,0.0,-0.5800258
2569836000,0.0049820384,0.00016798356,-0.0014682412,0.0,0.0,-0.5842331
2569856000,0.012948856,0.003637752,-0.0016679764,0.0,0.0,-0.5808844
2569876000,0.01205652,0.002631383,-0.0017040968,0.0,0.0,-0.5808844
2569896000,0.007944248,-0.0017267897,-0.0018625259,0.0,0.0,-0.57818866
2569916000,0.0054997215,-0.0048405365,-0.0020692348,0.0,0.0,-0.5817355
2569932000,0.0030048913,-0.0048899613,-0.0021654367,0.0,0.0,-0.5849828
2569952000,0.0021789959,-0.0047671823,-0.0024629831,0.0,0.0,-0.5783946
2569976000,-0.00074961176,-0.0071104337,-0.002477467,0.0,0.0,-0.58140147
2569996000,-0.0031545376,-0.004417103,-0.002455473,0.0,0.0,-0.5850465
2570016000,-0.006157311,-0.01017122,-0.0025117993,0.0,0.0,-0.5784952
2570036000,-0.00075109256,-0.011769112,-0.0025929809,0.0,0.0,-0.58227813
2570056000,-0.0019974152,-0.0054133954,-0.0027953982,0.0,0.0,-0.5854729
2570076000,0.0012942106,-0.005822029,-0.0028193593,0.0,0.0,-0.5782428
2570096000,-0.001214637,-0.007200129,-0.0027700067,0.0,0.0,-0.5815404
2570112000,0.0039460016,-0.009544197,-0.0026775599,0.0,0.0,-0.5850399
2570136000,0.0008967854,-0.016685672,-0.0026691556,0.0,0.0,-0.5805373
2570156000,0.00039325794,-0.018958626,-0.0027290583,0.0,0.0,-0.58421355
2570172000,8.960813e-05,-0.018164307,-0.0029457808,0.0,0.0,-0.58421355
2570192000,0.007097202,-0.017835211,-0.0030544996,0.0,0.0,-0.5812561
2570212000,0.007689167,-0.008319018,-0.0030058622,0.0,0.0,-0.5848218
2570236000,0.0044063358,-0.0052624824,-0.0027521253,0.0,0.0,-0.5778153
2570256000,-0.00045284908,-0.0008795194,-0.0025084019,0.0,0.0,-0.58177686
2570276000,0.001643856,-0.00079347356,-0.0020300746,0.0,0.0,-0.5855764
2570292000,-0.00022708252,-0.009220757,-0.002159357,0.0,0.0,-0.57845706
2570316000,0.0005850764,-0.0068885176,-0.0020384789,0.0,0.0,-0.58221924
2570336000,0.0008017933,-0.0064917784,-0.0020375848,0.0,0.0,-0.5859512
2570356000,0.006594975,-0.008077722,-0.0019503236,0.0,0.0,-0.57958937
2570372000,0.0030840333,-0.006774169,-0.0017330647,0.0,0.0,-0.58301264
2570388000,0.00034341356,-0.00406858,-0.0018310547,0.0,0.0,-0.5866583
2570416000,-0.00261576,-0.004256363,-0.0016638637,0.0,0.0,-0.5805889
2570432000,-0.00038622553,-0.00058058597,-0.0014964938,0.0,0.0,-0.58364266
2570456000,0.007182798,-0.013275385,-0.0011343956,0.0,0.0,-0.57988435
2570472000,0.007282973,-0.013191087,-0.0008625984,0.0,0.0,-0.57988435
2570496000,0.011192068,-0.0045736865,-0.00029307604,0.0,0.0,-0.58649826
2570512000,0.008503828,-0.005753685,-0.00013911724,0.0,0.0,-0.579515
2570536000,0.002550609,-0.004339552,-9.638071e-05,0.0,0.0,-0.58264893
2570556000,0.003076051,-0.0035290536,0.00012212992,0.0,0.0,-0.5859009
2570576000,-0.0007594563,-0.004941555,-0.00019598007,0.0,0.0,-0.5787815
2570596000,-0.0011199759,-0.004639301,-0.0003143549,0.0,0.0,-0.58201283
2570616000,0.0025685295,-0.0066877487,-0.00023800135,0.0,0.0,-0.58557594
2570636000,0.0026835864,-0.013933983,-6.991625e-05,0.0,0.0,-0.5789431
2570656000,0.0011341036,-0.012769028,-0.00010085106,0.0,0.0,-0.5824007
2570672000,-0.002393912,-0.012967634,3.916025e-05,0.0,0.0,-0.5855259
2570696000,-0.0025256532,-0.009880081,2.1994114e-05,0.0,0.0,-0.5784791
2570712000,-0.0021521696,-0.006080473,-0.00014859438,0.0,0.0,-0.581177
2570736000,0.0059383577,-0.0027612944,-0.00036281347,0.0,0.0,-0.577036
2570756000,0.0069179283,-0.0023089733,-0.00050264597,0.0,0.0,-0.57990116
2570776000,0.0030063987,0.0021650926,-0.0006542802,0.0,0.0,-0.58302504
2570792000,0.0044047516,0.0011664173,-0.0004583001,0.0,0.0,-0.5763458
2570812000,0.009218382,-0.00072312634,-0.00046026707,0.0,0.0,-0.58025825
2570828000,0.00975371,0.0024957615,-0.00075799227,0.0,0.0,-0.5840475
2570852000,0.0069781286,0.0031871344,-0.00034350157,0.0,0.0,-0.5779672
2570872000,0.0050882804,0.0012999504,-0.00041556358,0.0,0.0,-0.5817632
2570896000,-0.003559519,0.0071539697,-0.000420928,0.0,0.0,-0.58524865
2570916000,-0.0043240143,0.0025679448,-0.00022727251,0.0,0.0,-0.5779075
2570932000,-0.0008374639,0.006553484,-0.00014698505,0.0,0.0,-0.58146715
2570956000,-0.0021579908,0.009840518,-6.9737434e-06,0.0,0.0,-0.5843333
2570976000,-0.0047601205,0.005260367,0.000103890896,0.0,0.0,-0.5778518
2570996000,-0.0016913814,0.00652861,0.00019544363,0.0,0.0,-0.5856127
2571012000,-0.0015087272,0.0053243586,7.5638294e-05,0.0,0.0,-0.5856127
2571036000,-0.004921769,-0.0040479815,-2.2172928e-05,0.0,0.0,-0.583801
2571056000,-0.00515286,-0.0035200822,-4.273653e-05,0.0,0.0,-0.5874035
2571076000,-0.0062131686,-0.008653302,-1.9133091e-05,0.0,0.0,-0.5807831
2571096000,-0.0052043777,-0.0073024607,0.0001001358,0.0,0.0,-0.5838498
2571112000,-0.0070406618,-0.005901895,0.000106573105,0.0,0.0,-0.58690095
2571132000,-0.008395847,-0.008428525,-6.920099e-05,0.0,0.0,-0.5805007
2571156000,-0.010552628,-0.008314759,-0.00026464462,0.0,0.0,-0.5837959
2571176000,-0.00787924,-0.006413912,-0.00045239925,0.0,0.0,-0.5873277
2571196000,-0.0036457898,-0.008824028,-0.0004720688,0.0,0.0,-0.5805137
2571216000,-0.007628972,-0.007713208,-0.00045472383,0.0,0.0,-0.58419704
2571236000,-0.006625726,-0.0017103355,-0.0005609393,0.0,0.0,-0.58729476
2571256000,-0.0041399747,-0.005744107,-0.00031292439,0.0,0.0,-0.5837394
2571272000,-0.0033689942,-0.0052984087,-0.0001757741,0.0,0.0,-0.5837394
2571296000,0.00013596844,-0.010095771,0.00011318922,0.0,0.0,-0.5799318
2571312000,-0.0018191622,-0.010185422,0.0004836917,0.0,0.0,-0.5836539
2571332000,0.006202677,-0.008555111,0.00065624714,0.0,0.0,-0.5868533
2571356000,0.0060353447,-0.008561648,0.0006866455,0.0,0.0,-0.5799037
2571376000,0.007439836,0.00014842115,0.00040733814,0.0,0.0,-0.5837666
2571392000,0.007574821,0.00286521,0.0003924966,0.0,0.0,-0.5871278
2571416000,0.008543266,0.0033936454,0.00015503168,0.0,0.0,-0.5798578
2571432000,0.014456946,0.0066586817,4.130602e-05,0.0,0.0,-0.58270335
2571456000,0.013852732,0.0033294754,0.00017935038,0.0,0.0,-0.58568865
2571468000,0.010533439,0.0037513704,0.00030130148,0.0,0.0,-0.5781989
2571496000,0.0069794026,0.0019296227,0.00032758713,0.0,0.0,-0.58156586
2571508000,0.0038936092,0.0010755917,0.0004967451,0.0,0.0,-0.5844984
2571536000,0.0009642597,-0.0036877377,0.00034743547,0.0,0.0,-0.5814703
2571552000,0.0002611829,-0.0033998564,0.00014197826,0.0,0.0,-0.5814703
2571576000,-0.0042679226,-0.008681111,-3.093481e-05,0.0,0.0,-0.57757896
2571592000,-0.0041803806,-0.008497731,-0.00017005205,0.0,0.0,-0.57757896
2571616000,0.0033160765,-0.005947778,-0.00029164553,0.0,0.0,-0.5843648
2571636000,0.0006638188,-0.008684391,-0.0003039837,0.0,0.0,-0.57821554
2571656000,-0.0009737704,-0.0060038622,-0.00045239925,0.0,0.0,-0.5818328
2571672000,-0.0002455758,-0.0028354526,-0.00040125847,0.0,0.0,-0.5857773
2571696000,-0.0029469095,-0.0013588724,-0.00017237663,0.0,0.0,-0.57901746
2571712000,-0.0044724373,0.0029037818,-0.0004221797,0.0,0.0,-0.5818983
2571732000,-0.0054895533,0.0044463193,-0.00070506334,0.0,0.0,-0.5848828
2571756000,-0.0051358305,0.0039381655,-0.000852406,0.0,0.0,-0.57799715
2571776000,-0.005749755,0.0031749122,-0.0010147691,0.0,0.0,-0.58076495
2571792000,-0.0034606915,0.0031859106,-0.0011837482,0.0,0.0,-0.58446413
2571812000,-0.006038928,0.0027988805,-0.0012774467,0.0,0.0,-0.57783526
2571836000,-0.0016808873,-0.0018351552,-0.0014033318,0.0,0.0,-0.5818442
2571856000,0.00049773837,-0.0038699438,-0.0014832616,0.0,0.0,-0.57896405
2571876000,0.00056675216,-0.0032753872,-0.001431942,0.0,0.0,-0.5826554
2571892000,0.000863628,-0.003162374,-0.001585722,0.0,0.0,-0.5826554
2571916000,-0.0041484553,-0.002374406,-0.0013328791,0.0,0.0,-0.579199
2571932000,-0.008127771,0.0004360972,-0.0014013648,0.0,0.0,-0.583255
2571956000,-0.0085581485,0.0051824767,-0.0013037324,0.0,0.0,-0.5868851
2571972000,-0.005535512,0.0037291443,-0.0012674332,0.0,0.0,-0.58037347
2571996000,-0.0050146626,0.009150789,-0.0013201833,0.0,0.0,-0.58321244
2572016000,-0.0038610413,0.009375234,-0.0014178157,0.0,0.0,-0.58712316
2572036000,-0.005554584,0.009765239,-0.001270473,0.0,0.0,-0.5798753
2572056000,-0.001637835,0.005455011,-0.0015680194,0.0,0.0,-0.5831999
2572072000,0.00069124997,0.00073928165,-0.0014997125,0.0,0.0,-0.5864149
2572096000,-0.00040948112,0.0069530252,-0.0015022159,0.0,0.0,-0.5792161
2572112000,-0.0008833464,0.004601135,-0.0014771819,0.0,0.0,-0.5824332
2572132000,-0.00011023879,0.0049706493,-0.0015553236,0.0,0.0,-0.5853954
2572152000,0.0069546145,0.0007940823,-0.00146842,0.0,0.0,-0.5829171
2572176000,0.007954329,0.0020551407,-0.0016107559,0.0,0.0,-0.5861747
2572196000,0.005918382,0.0024835076,-0.0015910864,0.0,0.0,-0.579354
2572216000,0.001456494,0.006156002,-0.0013716817,0.0,0.0,-0.5826858
2572236000,0.0029499074,0.0053063165,-0.0014637709,0.0,0.0,-0.58622855
2572256000,0.0057355044,0.0022337209,-0.0014576912,0.0,0.0,-0.5800147
2572276000,0.0046001924,-0.0019347293,-0.001596272,0.0,0.0,-0.58401525
2572292000,-0.0027237693,-0.0041116383,-0.001788497,0.0,0.0,-0.5869019
2572312000,-0.006786746,-0.006160383,-0.0015855432,0.0,0.0,-0.5794278
2572332000,-0.0070977034,-0.004441838,-0.001540482,0.0,0.0,-0.58287406
2572356000,-0.0048406315,0.00026849643,-0.0014503598,0.0,0.0,-0.5867625
2572376000,-0.0049431855,0.0031780507,-0.0012956858,0.0,0.0,-0.5803113
2572396000,-0.0050199535,0.0034982236,-0.0008472204,0.0,0.0,-0.5841404
2572416000,-0.0006198585,-0.00012397926,-0.0006033182,0.0,0.0,-0.5811614
2572432000,-0.00013257936,0.000786752,-0.00019186735,0.0,0.0,-0.5842503
2572452000,0.002043617,0.00028309468,-0.00019186735,0.0,0.0,-0.58827525
2572476000,-0.0004918515,-0.00042691012,-0.0001784563,0.0,0.0,-0.581027
2572492000,-0.0026842954,-0.0045381505,-0.00053054094,0.0,0.0,-0.5818292
2572516000,-0.0051839855,-0.0031529507,-0.000490129,0.0,0.0,-0.5808419
2572532000,-0.0054151216,0.000977847,-0.0006312132,0.0,0.0,-0.5693735
2572556000,-0.008378146,0.0013623169,-0.00077193975,0.0,0.0,-0.5670696
2572576000,-0.008914165,0.007012655,-0.0009046197,0.0,0.0,-0.5657257
2572596000,-0.011915188,0.005980216,-0.00087600946,0.0,0.0,-0.5582107
2572612000,-0.011577015,0.008033776,-0.0010533929,0.0,0.0,-0.5588305
2572632000,-0.011176511,0.0010054754,-0.001067698,0.0,0.0,-0.56086636
2572652000,-0.012328265,-0.0011208326,-0.001208961,0.0,0.0,-0.5579336
2572676000,-0.002448335,-0.0012368944,-0.0010419488,0.0,0.0,-0.5654141
2572692000,-0.0013796962,-0.0016005848,-0.0005943775,0.0,0.0,-0.5654141
2572716000,0.0024364628,-0.0025369534,-0.0007916093,0.0,0.0,-0.5664291
2572736000,-0.00070158485,-0.003514796,-0.0008597374,0.0,0.0,-0.5700784
2572756000,-0.004089423,-0.0035640502,-0.0008763671,0.0,0.0,-0.56717044
2572772000,-0.00402201,-0.0011093058,-0.00079250336,0.0,0.0,-0.56958807
2572796000,-0.0035666144,0.004325545,-0.0008223653,0.0,0.0,-0.57187897
2572816000,-0.004456993,0.008006006,-0.00077444315,0.0,0.0,-0.5673526
2572836000,-0.006838317,0.00664055,-0.00077426434,0.0,0.0,-0.56882036
2572852000,-0.0047011734,0.004105216,-0.0007125735,0.0,0.0,-0.5698216
2572876000,-0.002993837,0.00018957979,-0.0006905794,0.0,0.0,-0.56478906
2572896000,-0.0033382648,0.0034755138,-0.0006734133,0.0,0.0,-0.5660466
2572916000,-0.003010394,0.0060786386,-0.000643909,0.0,0.0,-0.5675572
2572936000,0.0015284903,0.009401869,-0.0008288026,0.0,0.0,-0.5636156
2572956000,0.00023588771,0.007352906,-0.0009344816,0.0,0.0,-0.56594974
2572976000,-0.0016444644,0.012586671,-0.0008241534,0.0,0.0,-0.5649268
2572992000,-0.00041659945,0.011507047,-0.0008507967,0.0,0.0,-0.56698674
2573016000,-0.0015979253,0.004403922,-0.0007125735,0.0,0.0,-0.5688344
2573032000,-0.0021917028,0.008445251,-0.0006428361,0.0,0.0,-0.5645223
2573056000,-0.00035101245,0.0050922735,-0.0008254051,0.0,0.0,-0.5660393
2573076000,0.002599094,0.00887141,-0.0005736351,0.0,0.0,-0.56758356
2573096000,-0.0032157535,0.0006185853,-0.00036227703,0.0,0.0,-0.5631664
2573112000,-0.0028974256,0.0016456026,-0.00043952465,0.0,0.0,-0.5651776
2573136000,-0.005878768,0.0013830098,-0.0005249977,0.0,0.0,-0.5667721
2573152000,-0.0008184761,-0.0063324897,-0.000618875,0.0,0.0,-0.5631457
2573172000,-0.0006535286,-0.0061668637,-0.00077319145,0.0,0.0,-0.56526417
2573188000,0.0025108326,-0.006012905,-0.0007583499,0.0,0.0,-0.567371
2573212000,0.0031229742,-0.001455151,-0.000854373,0.0,0.0,-0.5641179
2573236000,0.003831715,0.0072735962,-0.00088763237,0.0,0.0,-0.5663504
2573256000,0.0056416783,0.0047384966,-0.0007864237,0.0,0.0,-0.56520134
2573272000,0.0071716644,0.007908096,-0.00077676773,0.0,0.0,-0.5668605
2573296000,0.000427183,0.012720932,-0.00060760975,0.0,0.0,-0.56865233
2573312000,-0.0008306494,0.008527442,-0.000374794,0.0,0.0,-0.56434345
2573332000,-0.00067735906,0.007029065,-0.00014662743,0.0,0.0,-0.56542623
2573356000,-0.00079760305,0.008180424,-0.00010371208,0.0,0.0,-0.5667956
2573372000,-0.0061316276,0.004368012,-0.00018274784,0.0,0.0,-0.56327766
2573396000,-0.0056680515,-0.0021590968,-0.0002939701,0.0,0.0,-0.56506014
2573416000,-0.0018413966,-0.005392327,-0.0003694296,0.0,0.0,-0.56649506
2573432000,-0.0013897035,-0.0010434021,-0.000428617,0.0,0.0,-0.56328076
2573452000,-0.00016700104,0.0020682004,-0.00058579445,0.0,0.0,-0.56543547
2573472000,0.0005008131,0.0044391956,-0.0007735491,0.0,0.0,-0.56760675
2573496000,0.003922046,0.0058083883,-0.0005789995,0.0,0.0,-0.564858
2573512000,0.0025760292,0.003913547,-0.000420928,0.0,0.0,-0.5660585
2573532000,0.00082061,0.009929693,-0.00014179945,0.0,0.0,-0.56782657
2573552000,0.0051126666,0.0055754636,-6.848574e-05,0.0,0.0,-0.56522757
2573576000,0.0034201867,0.008083167,-0.00010603666,0.0,0.0,-0.56642526
2573592000,0.0059868544,0.006973228,-0.00013625622,0.0,0.0,-0.5631529
2573612000,0.0037081393,0.008560581,-2.8073788e-05,0.0,0.0,-0.5649703
2573632000,0.0021538208,0.008995908,0.0002619624,0.0,0.0,-0.5670871
2573656000,-0.00097304885,0.007479517,0.00016415119,0.0,0.0,-0.56438535
2573668000,-0.0015125005,0.0056278403,9.36985e-05,0.0,0.0,-0.56603247
2573692000,-0.0015319898,0.0061263093,-0.00025230646,0.0,0.0,-0.56806433
2573716000,0.0035809726,0.0111063775,-0.0003143549,0.0,0.0,-0.565656
2573736000,0.004334959,0.012406634,-0.000313282,0.0,0.0,-0.56718624
2573756000,0.010242692,0.010245298,-0.0002850294,0.0,0.0,-0.5692326
2573776000,0.009668828,0.004525178,-0.00013929605,0.0,0.0,-0.5659279
2573792000,0.008742934,0.004279885,-0.0002798438,0.0,0.0,-0.5661109
2573816000,0.006840869,0.0009124171,-0.0002374649,0.0,0.0,-0.5640012
2573836000,0.0055470276,0.0004242105,-0.00036495924,0.0,0.0,-0.5652341
2573856000,0.004260375,-0.0031930546,-0.0002657175,0.0,0.0,-0.5665224
2573876000,-0.0004595113,-0.00020155954,-0.00021475554,0.0,0.0,-0.5637662
2573892000,0.0057438165,0.0013362032,-9.924173e-05,0.0,0.0,-0.5652951
2573916000,0.007188311,0.0058755176,-8.958578e-05,0.0,0.0,-0.5666377
2573932000,0.0009861889,0.007146484,-0.00019454956,0.0,0.0,-0.56405073
2573956000,-0.0008878552,0.0068833884,-0.0003708601,0.0,0.0,-0.56560075
2573972000,-0.0018129945,0.00545313,-0.00067180395,0.0,0.0,-0.56739384
2573992000,-0.004847545,0.0074090324,-0.00045204163,0.0,0.0,-0.5645275
2574016000,-0.006338875,0.006384043,-0.00054591894,0.0,0.0,-0.5656177
2574032000,-0.0053970753,0.006442025,-0.00055736303,0.0,0.0,-0.56722134
2574056000,-0.0070732664,0.00530806,-0.00060135126,0.0,0.0,-0.5653082
2574072000,-0.006451429,0.0047021797,-0.0006701946,0.0,0.0,-0.5653082
2574092000,-0.008769965,0.0048832055,-0.00076675415,0.0,0.0,-0.5668231
2574112000,-0.00827607,0.0064292727,-0.00058060884,0.0,0.0,-0.56441677
2574136000,-0.0061659142,0.0006098376,-0.00060617924,0.0,0.0,-0.5667262
2574156000,0.00057839113,-0.0016753675,-0.00055503845,0.0,0.0,-0.56351733
2574176000,0.00056443387,-0.004265546,-0.00043809414,0.0,0.0,-0.56447524
2574196000,0.008261856,-0.0036734552,-0.00025981665,0.0,0.0,-0.5655089
2574216000,0.01103873,-0.002990148,-0.00026017427,0.0,0.0,-0.56282425
2574236000,0.006499533,-0.004420307,-0.00023317337,0.0,0.0,-0.56487423
2574256000,0.0026427016,0.00065332185,-0.00032258034,0.0,0.0,-0.56728214
2574272000,0.002878699,-0.004157286,-0.00046026707,0.0,0.0,-0.5653133
2574296000,0.004219636,-0.0061583137,-0.00039714575,0.0,0.0,-0.5660478
2574312000,0.0023184288,-0.0057992167,-0.0004913807,0.0,0.0,-0.56724846
2574336000,0.0013059529,-0.006075519,-0.000459373,0.0,0.0,-0.5647319
2574356000,0.0011955653,-0.0053540063,-0.00027126074,0.0,0.0,-0.5647319
2574372000,-0.0004059719,-0.0017205647,-0.00015860796,0.0,0.0,-0.56569827
2574392000,-0.0062852697,-0.003604929,-0.0003259778,0.0,0.0,-0.5643573
2574412000,-0.006167761,-0.0026490248,-0.000118374825,0.0,0.0,-0.5643573
2574432000,-0.0063645234,-0.0015088818,-9.7453594e-05,0.0,0.0,-0.5632733
2574456000,-0.0029209012,0.00040136473,-0.00028306246,0.0,0.0,-0.56481653
2574472000,-0.00060408935,0.0014083916,-0.00020116568,0.0,0.0,-0.56649494
2574496000,-0.0008823769,0.0022155654,-0.00046420097,0.0,0.0,-0.56458014
2574512000,-0.0016619603,-0.000184946,-0.00057166815,0.0,0.0,-0.565624
2574532000,0.0006224946,-0.0037959788,-0.00077193975,0.0,0.0,-0.5669153
2574552000,-0.0014182026,-0.0023762246,-0.0008672476,0.0,0.0,-0.5644907
2574572000,-0.0036836725,0.0006484085,-0.0009083748,0.0,0.0,-0.56577307
2574596000,-0.0056501282,0.00718087,-0.0007685423,0.0,0.0,-0.5674301
2574612000,-0.007252502,0.007039698,-0.00058561563,0.0,0.0,-0.5645659
2574632000,-0.002874808,0.008385454,-0.00039070845,0.0,0.0,-0.5654901
2574652000,-0.0013359315,0.009701949,-0.00046920776,0.0,0.0,-0.5667964
2574676000,-0.0031964453,0.01860351,-0.00038552284,0.0,0.0,-0.5647553
2574692000,-0.0028121783,0.018066313,-7.31349e-05,0.0,0.0,-0.5647553
2574712000,0.002900853,0.011150077,0.00017863512,0.0,0.0,-0.56461674
2574736000,0.0017061165,0.009143062,6.991625e-05,0.0,0.0,-0.56560075
2574756000,0.002745908,0.0017244735,5.0246716e-05,0.0,0.0,-0.56638294
2574772000,0.003043536,0.00042524477,-2.7358532e-05,0.0,0.0,-0.5639152
2574796000,0.0026133684,0.00019376184,-0.0001167655,0.0,0.0,-0.5647208
2574816000,0.0042281915,0.0005416755,3.093481e-05,0.0,0.0,-0.56525236
2574832000,0.0062340843,0.0015556922,6.240606e-05,0.0,0.0,-0.5620721
2574856000,0.0022282542,0.0015321892,0.00016844273,0.0,0.0,-0.5633451
2574876000,-0.0005355526,0.0037371018,9.226799e-05,0.0,0.0,-0.56489414
2574896000,-0.002755216,0.00042184547,-0.00011122227,0.0,0.0,-0.5630445
2574916000,-0.0044863885,0.0020395648,-8.332729e-05,0.0,0.0,-0.56626654
2574936000,-0.0081523415,0.0016065863,-9.548664e-05,0.0,0.0,-0.56461304
2574952000,-0.0077677527,0.0020358344,-3.1650066e-05,0.0,0.0,-0.56461304
2574976000,-0.009916256,-2.7097994e-05,-4.4703484e-05,0.0,0.0,-0.5672206
2574996000,-0.009371765,-0.005798095,-0.00021868944,0.0,0.0,-0.56495637
2575016000,-0.008711839,-0.009959816,-0.0002837777,0.0,0.0,-0.56573087
2575032000,-0.0080630835,-0.0038930266,-0.00014644861,0.0,0.0,-0.5665729
2575056000,-0.005025614,-0.0030574119,-1.0728836e-05,0.0,0.0,-0.56428224
2575076000,-0.0054610586,-0.0006404148,-2.5391579e-05,0.0,0.0,-0.56516486
2575096000,-0.0040337145,0.0032080328,7.009506e-05,0.0,0.0,-0.5662868
2575116000,-0.0060570193,0.002022029,9.459257e-05,0.0,0.0,-0.56388587
2575136000,-0.0052729575,-0.0031331158,2.7537346e-05,0.0,0.0,-0.56452733
2575156000,-0.003752548,-0.0059145037,4.6670437e-05,0.0,0.0,-0.56573755
2575176000,-0.00044247578,-0.007995804,0.0002387166,0.0,0.0,-0.5637319
2575192000,0.0023284487,-0.00432848,0.00025731325,0.0,0.0,-0.5646125
2575216000,0.0071249725,-0.008210708,7.31349e-05,0.0,0.0,-0.56504273
2575236000,0.009926506,-0.005245704,0.00014716387,0.0,0.0,-0.5657047
2575256000,0.0034379899,-0.0014963478,0.00017398596,0.0,0.0,-0.56677854
2575272000,0.005059391,0.002938172,0.00011909008,0.0,0.0,-0.56469786
2575292000,0.0065712407,-0.00010449483,8.922815e-05,0.0,0.0,-0.56528115
2575312000,0.0048968,0.0011190905,3.7908554e-05,0.0,0.0,-0.56611997
2575336000,0.0076813186,-0.002649774,8.940697e-06,0.0,0.0,-0.56415004
2575352000,0.00890739,-0.0010818345,0.00011944771,0.0,0.0,-0.5648048
2575372000,0.007844993,-0.0026734718,0.00021547079,0.0,0.0,-0.56590444
2575392000,0.0071032257,-0.0052643646,0.0005065799,0.0,0.0,-0.5647683
2575416000,0.0061165113,-0.005613787,0.00048941374,0.0,0.0,-0.5648708
2575436000,0.0041521722,-0.0021593461,0.0003862381,0.0,0.0,-0.56612295
2575456000,0.0021457456,0.00020368684,0.00040483475,0.0,0.0,-0.56588924
2575476000,0.0012568112,0.0009948467,0.00033581257,0.0,0.0,-0.56588924
2575492000,0.0006395874,0.00019437079,0.00031489134,0.0,0.0,-0.5673583
2575516000,-2.9945048e-05,-0.0066009155,5.275011e-05,0.0,0.0,-0.5665713
2575532000,-0.0008391263,-0.0066447174,-2.7000904e-05,0.0,0.0,-0.5665713
2575556000,0.0016283111,-0.0018084134,-0.0001090765,0.0,0.0,-0.5652748
2575576000,0.005060477,-0.0022507429,4.3451786e-05,0.0,0.0,-0.56571877
2575596000,0.006633452,-0.004593266,2.3782253e-05,0.0,0.0,-0.5664917
2575612000,-0.00080973585,0.0010942598,-9.727478e-05,0.0,0.0,-0.56458956
2575636000,-0.0019010841,0.0039688493,1.6629696e-05,0.0,0.0,-0.5658639
2575656000,-0.0033447528,0.0070159202,0.00018650293,0.0,0.0,-0.56740534
2575676000,-0.002451449,0.011133966,0.00022441149,0.0,0.0,-0.5650944
2575696000,-0.0050041345,0.012033845,0.00032812357,0.0,0.0,-0.5653182
2575712000,-0.0052254423,0.015175137,0.00018846989,0.0,0.0,-0.5663169
2575732000,-0.009732935,0.012894945,0.00011587143,0.0,0.0,-0.56436586
2575756000,-0.011607906,0.0076237656,0.00017791986,0.0,0.0,-0.5650648
2575776000,-0.009065465,-0.0016978462,-2.270937e-05,0.0,0.0,-0.56378156
2575796000,-0.005930626,-0.0043470724,9.834766e-06,0.0,0.0,-0.5645743
2575812000,-0.0010133861,-0.0045919004,-8.7976456e-05,0.0,0.0,-0.56560373
2575836000,-0.0061123,-0.0043856343,-0.0002040267,0.0,0.0,-0.5641442
2575852000,-0.008309079,-0.0012852576,-0.00031524897,0.0,0.0,-0.5647529
2575872000,-0.0046833535,0.0045405095,-0.00015163422,0.0,0.0,-0.5656634
2575892000,-0.0009371219,0.0031003715,-0.00019866228,0.0,0.0,-0.5643303
2575912000,0.003854977,0.004574864,-0.00039339066,0.0,0.0,-0.56501096
2575936000,0.0051979492,0.00068843085,-0.00048941374,0.0,0.0,-0.5660929
2575956000,0.0062157623,-0.0019304447,-0.0006067157,0.0,0.0,-0.564875
2575972000,0.003388904,-0.0027234014,-0.0005865097,0.0,0.0,-0.5655128
2575996000,-0.00042743445,-0.00074865867,-0.00046634674,0.0,0.0,-0.5661091
2576016000,0.0042968458,0.0029275334,-0.00045329332,0.0,0.0,-0.5650823
2576032000,0.0042734146,0.0031809201,-0.00047332048,0.0,0.0,-0.5650823
2576056000,0.0015155054,1.6935111e-05,-0.00033563375,0.0,0.0,-0.5643439
2576076000,0.0030306538,-0.0029031464,-0.0004068017,0.0,0.0,-0.5645599
2576092000,0.002761237,-0.00316469,-0.00045400858,0.0,0.0,-0.5645599
2576112000,0.00953996,-0.0028894607,-0.0004969239,0.0,0.0,-0.56292564
2576136000,0.008776274,-0.0019627393,-0.00035959482,0.0,0.0,-0.5637875
2576156000,0.0051870877,-0.0019253024,-0.00033295155,0.0,0.0,-0.5642818
2576176000,0.0031249188,-0.0006463751,-0.00047761202,0.0,0.0,-0.5640921
2576196000,0.0054894243,-0.0054404153,-0.0004375577,0.0,0.0,-0.56416976
2576216000,0.003067683,-0.008031661,-0.0005618334,0.0,0.0,-0.5645203
2576236000,0.0032972088,-0.008961802,-0.0006401539,0.0,0.0,-0.56295145
2576252000,0.0038519239,-0.00529146,-0.00052303076,0.0,0.0,-0.56332433
2576276000,0.0050605293,0.0018802679,-0.00030058622,0.0,0.0,-0.5639627
2576296000,0.00847861,0.006754955,-0.00040215254,0.0,0.0,-0.5627531
2576312000,0.008160144,0.0074722553,-0.00037497282,0.0,0.0,-0.5627531
2576332000,0.004140209,0.009594374,-0.00045472383,0.0,0.0,-0.5640776
2576356000,-0.0032918311,0.0012219961,-0.0005450249,0.0,0.0,-0.56342465
2576372000,-0.0012253043,8.341803e-05,-0.00061261654,0.0,0.0,-0.56466734
2576396000,-0.006473345,0.0005321882,-0.00054323673,0.0,0.0,-0.5639312
2576412000,-0.007842398,0.0006328279,-0.00051659346,0.0,0.0,-0.5646295
2576432000,-0.004086948,0.0021320004,-0.0004645586,0.0,0.0,-0.5656428
2576456000,-0.0026896982,0.009647411,-0.00025320053,0.0,0.0,-0.56433105
2576476000,0.002139888,0.005502034,-0.00010675192,0.0,0.0,-0.56417835
2576496000,0.004773941,0.002775006,0.0001745224,0.0,0.0,-0.5646711
2576516000,-0.0007509326,0.0025454173,0.00023120642,0.0,0.0,-0.5622393
2576536000,-0.0047955597,-0.0005450619,0.00015467405,0.0,0.0,-0.56238645
2576556000,-0.0057546203,-0.0009577461,0.00013107061,0.0,0.0,-0.56297666
2576568000,-0.009304552,-0.0020779488,0.00019150972,0.0,0.0,-0.56218493
2576596000,-0.0033715046,-0.0053748386,-2.682209e-05,0.0,0.0,-0.56393033
2576612000,-0.0026954378,-0.0053715985,0.00010049343,0.0,0.0,-0.56393033
2576632000,-0.0035741644,-0.0041912138,0.00013822317,0.0,0.0,-0.56302667
2576652000,-0.0042844145,-0.0031495972,7.8856945e-05,0.0,0.0,-0.5638046
2576672000,-0.0070302356,-0.0014227711,0.00016057491,0.0,0.0,-0.5638803
2576696000,-0.002516677,0.0005160474,0.00035351515,0.0,0.0,-0.56449205
2576716000,-0.0033625984,0.0010038569,0.0005013943,0.0,0.0,-0.5654589
2576736000,-0.0007709032,0.005651788,0.00038909912,0.0,0.0,-0.56395763
2576752000,-0.0042565535,0.005118764,0.00032007694,0.0,0.0,-0.56385607
2576772000,-0.0016378448,-0.00028242456,0.00030970573,0.0,0.0,-0.5648482
2576792000,0.0028648842,-0.005620054,0.00030863285,0.0,0.0,-0.563809
2576816000,0.006370647,-0.0008205497,0.00029683113,0.0,0.0,-0.5642153
2576836000,0.0035528967,0.0040944526,0.00047779083,0.0,0.0,-0.56519496
2576856000,-0.0010939767,0.0010350851,0.0005430579,0.0,0.0,-0.56475663
2576872000,-0.0015582377,0.0011278142,0.00059348345,0.0,0.0,-0.56475663
2576896000,-0.0058400147,0.0013459958,0.00049853325,0.0,0.0,-0.56467396
2576912000,-0.0052282065,0.0074380655,0.00048691034,0.0,0.0,-0.5653937
2576936000,-0.0043220506,0.000847464,0.00021922588,0.0,0.0,-0.56636673
2576956000,-0.008383155,0.0005327115,9.781122e-05,0.0,0.0,-0.56523716
2576976000,-0.009011191,-0.00038621575,-0.00011229515,0.0,0.0,-0.5656625
2576996000,-0.003798219,-0.0024263365,-0.00026661158,0.0,0.0,-0.56599736
2577016000,-0.0019567427,-0.004960192,-0.000118374825,0.0,0.0,-0.56484467
2577032000,-0.004600347,-0.0034362248,0.00019204617,0.0,0.0,-0.565767
2577052000,-0.0003851261,0.0020532024,0.00011229515,0.0,0.0,-0.5664509
2577072000,-0.0027090374,-0.00743605,0.00016647577,0.0,0.0,-0.56478894
2577096000,-0.004126351,-0.0042018723,0.00019776821,0.0,0.0,-0.5653841
2577112000,0.00093299174,-0.000358871,0.00022047758,0.0,0.0,-0.5656873
2577136000,0.00060538994,-0.0008969539,0.00025695562,0.0,0.0,-0.564963
2577156000,1.0839198e-05,-0.0010783717,0.00028145313,0.0,0.0,-0.5658149
2577176000,-0.00140698,-0.0022047255,0.00015771389,0.0,0.0,-0.56546867
2577196000,-0.0014861589,-0.004799176,0.00016075373,0.0,0.0,-0.56600946
2577216000,-0.0023348671,0.00010046497,0.00029951334,0.0,0.0,-0.56653535
2577236000,0.000261697,0.007749996,0.00018239021,0.0,0.0,-0.5655348
2577256000,0.0010098552,0.007839038,0.00015181303,0.0,0.0,-0.5655321
2577272000,0.0046632523,0.010558977,0.00027948618,0.0,0.0,-0.56605786
2577296000,0.009792255,0.014044896,0.00027304888,0.0,0.0,-0.5651419
2577312000,0.011623852,0.010458585,9.7990036e-05,0.0,0.0,-0.56581753
2577332000,0.008876443,0.0056566237,9.2089176e-05,0.0,0.0,-0.5663341
2577356000,0.0059423596,-0.0009009556,0.00014680624,0.0,0.0,-0.5648806
2577376000,0.00071982946,-0.0015085858,0.00026088953,0.0,0.0,-0.5653678
2577396000,-0.00037455303,-0.006539329,-6.7949295e-06,0.0,0.0,-0.5657052
2577412000,-0.0006174892,-0.0062864786,-0.00013178587,0.0,0.0,-0.5641532
2577432000,-0.002048364,-0.003429907,-4.7564507e-05,0.0,0.0,-0.56449866
2577456000,0.0026914696,0.009420542,-0.00015431643,0.0,0.0,-0.5639456
2577472000,0.0029422946,0.009872308,7.599592e-05,0.0,0.0,-0.5639456
2577492000,0.0032687152,0.005174319,8.457899e-05,0.0,0.0,-0.5643333
2577512000,0.003237462,0.0062298006,1.4126301e-05,0.0,0.0,-0.563738
2577532000,0.0031337945,0.0056703603,3.71933e-05,0.0,0.0,-0.56406176
2577552000,0.0002132461,0.0070755207,0.00014895201,0.0,0.0,-0.56463665
2577576000,-0.0036014174,0.010780583,0.00021654367,0.0,0.0,-0.56340486
2577596000,-0.0038590017,0.0042631347,0.00041002035,0.0,0.0,-0.56404465
2577616000,-0.00503557,0.0064359982,0.00054073334,0.0,0.0,-0.56502146
2577632000,-0.0041126776,-0.002654392,0.00063192844,0.0,0.0,-0.56420475
2577652000,-0.006709059,-0.0023534193,0.00064730644,0.0,0.0,-0.564467
2577672000,-0.008148351,-0.0032981064,0.00052428246,0.0,0.0,-0.5640694
2577692000,-0.0031257975,-0.0010812506,0.0004785061,0.0,0.0,-0.5624146
2577712000,-0.0018317183,-0.0003174761,0.0004579425,0.0,0.0,-0.5628272
2577736000,0.0013047557,0.005887974,0.0004259348,0.0,0.0,-0.5627355
2577756000,0.002194063,0.0035799094,0.00020223856,0.0,0.0,-0.5631582
2577776000,0.00069491914,0.0017022489,0.00015628338,0.0,0.0,-0.5642457
2577788000,-5.916017e-05,0.0024921559,0.00025230646,0.0,0.0,-0.5639906
2577812000,-0.0018315974,0.0036511961,0.0001680851,0.0,0.0,-0.5645781
2577836000,-0.002305761,0.002644248,-3.272295e-05,0.0,0.0,-0.5658562
2577856000,-0.006228012,0.0025655823,-0.0001425147,0.0,0.0,-0.5655508
2577872000,-0.005982667,-0.0019163999,-0.00033420324,0.0,0.0,-0.5660335
2577896000,0.0009308446,-0.006466411,-0.0004490018,0.0,0.0,-0.5665761
2577912000,-0.0011041195,-0.0054223174,-0.00046795607,0.0,0.0,-0.56557643
2577932000,-0.0026154395,-0.0056403466,-0.0005418062,0.0,0.0,-0.5654085
2577952000,-0.0032391306,-0.0058640856,-0.0005251765,0.0,0.0,-0.5653753
2577976000,-0.0011666736,-0.0061390637,-0.0003708601,0.0,0.0,-0.5640826
2577996000,-0.0007164676,-0.005299517,-0.00039178133,0.0,0.0,-0.5640826
2578012000,0.0006128135,-0.0074499,-0.00033169985,0.0,0.0,-0.5650254
2578032000,0.0003714217,-0.00154585,-0.000313282,0.0,0.0,-0.565206
2578056000,0.0018623834,0.0028788194,-0.0004171729,0.0,0.0,-0.5651786
2578072000,0.004820213,0.006876996,-0.00060009956,0.0,0.0,-0.5646367
2578096000,0.0020755108,0.0075369645,-0.000674665,0.0,0.0,-0.56496054
2578116000,-0.004149666,0.006826043,-0.0007020235,0.0,0.0,-0.56556976
2578136000,-0.0037898517,0.0013620127,-0.00072079897,0.0,0.0,-0.56447184
2578156000,-0.006172357,0.0044635697,-0.00083327293,0.0,0.0,-0.5646936
2578172000,-0.006294354,0.005876312,-0.00082558393,0.0,0.0,-0.56530935
2578196000,0.0007769263,0.008459793,-0.0010560751,0.0,0.0,-0.564598
2578212000,-0.003867035,0.0028918087,-0.0010744929,0.0,0.0,-0.56533366
2578232000,-0.006073017,0.0027824286,-0.0011386871,0.0,0.0,-0.56588876
2578256000,-0.0051143747,0.0048531285,-0.00092840195,0.0,0.0,-0.5650951
2578276000,-0.0047880206,-0.0011928189,-0.0008819103,0.0,0.0,-0.56518006
2578296000,-0.0027647743,-0.013378783,-0.0009083748,0.0,0.0,-0.56470156
2578316000,-0.003374358,-0.019740373,-0.0005173087,0.0,0.0,-0.5646844
2578336000,-0.004251375,-0.016760703,-0.0003708601,0.0,0.0,-0.5652463
2578356000,0.002072086,-0.007095886,-0.000428617,0.0,0.0,-0.5646909
2578372000,0.002562764,-0.0034814717,-0.0003182888,0.0,0.0,-0.5654394
2578396000,-0.0013408035,-0.00039425504,-0.00041896105,0.0,0.0,-0.5661131
2578412000,-0.00061558094,0.00048575853,-0.00039607286,0.0,0.0,-0.56543666
2578436000,0.00023567537,0.004574411,-0.00041931868,0.0,0.0,-0.5650079
2578456000,-0.0015555066,-0.00019994122,-0.00044327974,0.0,0.0,-0.5654404
2578472000,-0.0031010206,0.004287159,-0.0005096197,0.0,0.0,-0.56492156
2578492000,0.0017937622,0.005233934,-0.00046241283,0.0,0.0,-0.5652372
2578512000,0.0028841465,0.0020562406,-0.00051784515,0.0,0.0,-0.5664139
2578536000,0.008545217,0.002832172,-0.0004338026,0.0,0.0,-0.56670713
2578556000,0.008356058,0.0024257717,-0.000520885,0.0,0.0,-0.56670713
2578572000,0.009993327,0.005455844,-0.00041252375,0.0,0.0,-0.5669868
2578596000,0.014524441,0.0036705048,-0.0004981756,0.0,0.0,-0.5655587
2578616000,0.01234938,0.0033797338,-0.00059330463,0.0,0.0,-0.56574076
2578636000,0.011868084,0.002413922,-0.0006195903,0.0,0.0,-0.56497353
2578656000,0.007898588,0.0037548656,-0.00012588501,0.0,0.0,-0.56500477
2578676000,0.008467639,-0.0006033474,-0.00012516975,0.0,0.0,-0.56531847
2578692000,0.0023964266,0.0039727185,-0.00019562244,0.0,0.0,-0.56452477
2578712000,-0.0069766045,-0.0066538732,-0.00016021729,0.0,0.0,-0.56277806
2578736000,-0.02166633,-0.020420054,-0.00021189451,0.0,0.0,-0.56018054
2578752000,-0.031271614,-0.030331917,-0.035446644,0.0,0.0,-0.55787283
2578776000,-0.049758345,-0.034533616,-0.079553425,0.0,0.0,-0.55761755
2578796000,-0.064731464,-0.025544677,-0.12337893,0.0,0.0,-0.5586563
2578816000,-0.07579406,-0.0077249142,-0.15780902,0.0,0.0,-0.559865
2578832000,-0.098423414,0.013065062,-0.20049334,0.0,0.0,-0.56116307
2578852000,-0.12157795,0.045122452,-0.24214983,0.0,0.0,-0.56235564
2578872000,-0.17235717,0.12575975,-0.3164084,0.0,0.0,-0.5637567
2578896000,-0.19619764,0.17669338,-0.35277522,0.0,0.0,-0.56485814
2578912000,-0.21022364,0.2270933,-0.38119966,0.0,0.0,-0.5641303
2578936000,-0.22996782,0.2821157,-0.4127848,0.0,0.0,-0.5642553
2578952000,-0.25762433,0.3457801,-0.4459886,0.0,0.0,-0.56492853
2578976000,-0.2577744,0.3830803,-0.4640277,0.0,0.0,-0.5641629
2578992000,-0.29056236,0.4500745,-0.4931953,0.0,0.0,-0.56480616
2579012000,-0.3194002,0.5110936,-0.5173572,0.0,0.0,-0.56640315
2579036000,-0.31553033,0.53014255,-0.52836657,0.0,0.0,-0.56569475
2579056000,-0.35093567,0.5716233,-0.54801,0.0,0.0,-0.56658584
2579076000,-0.38501653,0.60934937,-0.5657433,0.0,0.0,-0.56798583
2579088000,-0.38490906,0.61060214,-0.5804701,0.0,0.0,-0.56704915
2579108000,-0.4264502,0.62830997,-0.5955983,0.0,0.0,-0.56887364
2579132000,-0.45379677,0.6324884,-0.6036873,0.0,0.0,-0.57110494
2579156000,-0.5209886,0.681441,-0.6469736,0.0,0.0,-0.57136554
2579172000,-0.47458857,0.6162209,-0.6267339,0.0,0.0,-0.57136554
2579196000,-0.49098325,0.60860586,-0.6660055,0.0,0.0,-0.5716412
2579216000,-0.51361036,0.6102332,-0.6746104,0.0,0.0,-0.5739822
2579236000,-0.52972025,0.6041473,-0.68305296,0.0,0.0,-0.57676363
2579252000,-0.47546053,0.5245373,-0.697554,0.0,0.0,-0.5750104
2579268000,-0.49928632,0.52658933,-0.70432615,0.0,0.0,-0.5781355
2579296000,-0.4928467,0.5009711,-0.705858,0.0,0.0,-0.58125615
2579308000,-0.41046518,0.41532764,-0.7210807,0.0,0.0,-0.57826966
2579332000,-0.4280597,0.42133382,-0.7263626,0.0,0.0,-0.58215445
2579352000,-0.4300465,0.41086802,-0.72532576,0.0,0.0,-0.58541316
2579376000,-0.32954532,0.31568497,-0.7343625,0.0,0.0,-0.58214897
2579392000,-0.36979407,0.3373959,-0.7455382,0.0,0.0,-0.5860412
2579416000,-0.3052295,0.27390534,-0.788177,0.0,0.0,-0.58690614
2579436000,-0.3429314,0.2916592,-0.7920983,0.0,0.0,-0.5919876
2579456000,-0.35660666,0.29561678,-0.7976775,0.0,0.0,-0.5964969
2579472000,-0.2486364,0.20925839,-0.8141991,0.0,0.0,-0.59367436
2579496000,-0.2725522,0.23279315,-0.8087411,0.0,0.0,-0.5977522
2579512000,-0.3066299,0.25009352,-0.82069254,0.0,0.0,-0.6011834
2579536000,-0.1840665,0.1655437,-0.82040465,0.0,0.0,-0.59749836
2579548000,-0.24279007,0.19956547,-0.8304156,0.0,0.0,-0.6019793
2579576000,-0.2741563,0.21135971,-0.8268689,0.0,0.0,-0.6065129
2579592000,-0.16917124,0.14118677,-0.8412323,0.0,0.0,-0.60255694
2579612000,-0.22155274,0.16649264,-0.8442791,0.0,0.0,-0.6076788
2579632000,-0.260249,0.1822017,-0.84856814,0.0,0.0,-0.6113586
2579652000,-0.14923602,0.116722405,-0.8531947,0.0,0.0,-0.60706264
2579668000,-0.19853857,0.14644255,-0.8549973,0.0,0.0,-0.61123914
2579692000,-0.23924029,0.16042912,-0.85063064,0.0,0.0,-0.61519754
2579716000,-0.21156034,0.14531612,-0.89647484,0.0,0.0,-0.6146468
2579736000,-0.25765243,0.16275084,-0.9000037,0.0,0.0,-0.61854476
2579752000,-0.15550098,0.11638439,-0.9089788,0.0,0.0,-0.6141245
2579772000,-0.2162949,0.13743195,-0.9124562,0.0,0.0,-0.6185405
2579796000,-0.26018852,0.14741987,-0.90838087,0.0,0.0,-0.6233547
2579812000,-0.14884046,0.10264577,-0.9075299,0.0,0.0,-0.6187638
2579836000,-0.20497656,0.12144911,-0.9106386,0.0,0.0,-0.6236662
2579856000,-0.24739592,0.12750348,-0.9157786,0.0,0.0,-0.6275118
2579872000,-0.14344588,0.09357184,-0.9212948,0.0,0.0,-0.62253
2579892000,-0.19785026,0.10923703,-0.9249579,0.0,0.0,-0.6268118
2579916000,-0.24027635,0.115491875,-0.9208448,0.0,0.0,-0.6303845
2579936000,-0.12829374,0.08818996,-0.9145773,0.0,0.0,-0.6255333
2579956000,-0.18959476,0.097347915,-0.91948783,0.0,0.0,-0.63074756
2579972000,-0.24157928,0.1080128,-0.93292683,0.0,0.0,-0.6349707
2579992000,-0.21903011,0.10005359,-0.9768466,0.0,0.0,-0.6355228
2580012000,-0.26715118,0.1058327,-0.98192465,0.0,0.0,-0.63934773
2580036000,-0.15986428,0.08553095,-0.9634418,0.0,0.0,-0.633905
2580056000,-0.21469292,0.08500193,-0.96026033,0.0,0.0,-0.6390339
2580076000,-0.26338154,0.08542478,-0.9756503,0.0,0.0,-0.6436164
2580092000,-0.15648462,0.06592575,-0.9754511,0.0,0.0,-0.6386286
2580112000,-0.21041979,0.06435916,-0.97217846,0.0,0.0,-0.64371085
2580136000,-0.25918165,0.06502068,-0.9776446,0.0,0.0,-0.6479423
2580156000,-0.15719947,0.053307384,-0.9658057,0.0,0.0,-0.64291286
2580172000,-0.21818344,0.053280517,-0.9813786,0.0,0.0,-0.6480618
2580196000,-0.2581521,0.049406335,-0.97715485,0.0,0.0,-0.6518503
2580216000,-0.16055813,0.045358926,-0.96315765,0.0,0.0,-0.64699763
2580236000,-0.21981378,0.038762346,-0.970648,0.0,0.0,-0.65220076
2580252000,-0.27009898,0.035173327,-0.9865499,0.0,0.0,-0.6555012
2580276000,-0.23807627,0.028943896,-1.0174043,0.0,0.0,-0.6558436
2580288000,-0.22294825,0.025151432,-0.9779783,0.0,0.0,-0.6558436
2580316000,-0.18804409,0.025890112,-1.0063274,0.0,0.0,-0.6555094
2580336000,-0.24150199,0.017805398,-1.0130532,0.0,0.0,-0.66047454
2580356000,-0.2853037,0.008040547,-1.0193269,0.0,0.0,-0.6646363
2580372000,-0.18638825,0.020835131,-1.0086375,0.0,0.0,-0.65953135
2580396000,-0.24217603,0.0076324046,-1.0063015,0.0,0.0,-0.6647239
2580416000,-0.20863473,0.011278242,-1.0028951,0.0,0.0,-0.6629237
2580432000,-0.26002008,-0.00235489,-1.0198274,0.0,0.0,-0.6682961
2580456000,-0.29247907,-0.016972572,-1.015166,0.0,0.0,-0.6728048
2580472000,-0.20199336,-0.002157122,-0.99374914,0.0,0.0,-0.6673073
2580496000,-0.25205266,-0.019877672,-1.0009947,0.0,0.0,-0.6720232
2580516000,-0.28616908,-0.03931877,-1.0073909,0.0,0.0,-0.67617273
2580532000,-0.19411924,-0.01858905,-0.99406457,0.0,0.0,-0.66979223
2580552000,-0.24321732,-0.03622189,-1.0007039,0.0,0.0,-0.6744967
2580576000,-0.20645638,-0.014821798,-1.0197616,0.0,0.0,-0.67260045
2580592000,-0.19025436,-0.014661044,-0.978629,0.0,0.0,-0.67260045
2580612000,-0.22747505,-0.02783972,-0.98277533,0.0,0.0,-0.6775964
2580636000,-0.17114049,0.0041226447,-0.9961138,0.0,0.0,-0.67566454
2580652000,-0.210221,-0.00649336,-0.99822164,0.0,0.0,-0.6808134
2580672000,-0.23838969,-0.012843668,-1.0084491,0.0,0.0,-0.6844239
2580696000,-0.14450768,0.030241728,-0.96737516,0.0,0.0,-0.67780375
2580716000,-0.18193465,0.013926208,-0.9694315,0.0,0.0,-0.6826743
2580732000,-0.21487136,0.0072369576,-0.97872233,0.0,0.0,-0.68644845
2580756000,-0.12361829,0.049185276,-0.9378991,0.0,0.0,-0.68133444
2580772000,-0.15318774,0.03674233,-0.9377103,0.0,0.0,-0.6862012
2580796000,-0.17355163,0.018370628,-0.9378909,0.0,0.0,-0.6897323
2580812000,-0.0889575,0.049809515,-0.90975916,0.0,0.0,-0.6840964
2580832000,-0.12052752,0.029013276,-0.9207058,0.0,0.0,-0.6876731
2580856000,-0.050792813,0.05486816,-0.93074906,0.0,0.0,-0.68428576
2580872000,-0.047438957,0.04445547,-0.8914765,0.0,0.0,-0.68428576
2580892000,-0.0891184,0.005617261,-0.93077374,0.0,0.0,-0.6904483
2580912000,-0.008605821,0.039479792,-0.91339624,0.0,0.0,-0.6853652
2580936000,-0.025723843,0.0118691325,-0.9029199,0.0,0.0,-0.68808895
2580952000,-0.03982782,-0.006251693,-0.910635,0.0,0.0,-0.69057226
2580976000,0.04057803,0.018291771,-0.8753171,0.0,0.0,-0.68516254
2580988000,0.022628758,-0.0026375055,-0.88362443,0.0,0.0,-0.68756723
2581016000,0.014488729,-0.021882355,-0.8704215,0.0,0.0,-0.6887334
2581036000,0.08581466,0.015778184,-0.84431577,0.0,0.0,-0.6839995
2581056000,0.06905985,-0.0061964393,-0.8421078,0.0,0.0,-0.6857217
2581076000,0.05203375,-0.027522326,-0.8397578,0.0,0.0,-0.6877456
2581096000,0.10220565,0.003363669,-0.81675625,0.0,0.0,-0.68394685
2581116000,0.080877945,-0.022633731,-0.8154012,0.0,0.0,-0.68678194
2581132000,0.06588594,-0.036659718,-0.821537,0.0,0.0,-0.6888812
2581156000,0.091894,-0.023302317,-0.8358693,0.0,0.0,-0.68688875
2581176000,0.06370145,-0.04825598,-0.8349105,0.0,0.0,-0.68851507
2581196000,0.08854839,-0.031009912,-0.81685996,0.0,0.0,-0.68466103
2581216000,0.056604646,-0.059703648,-0.8165084,0.0,0.0,-0.6864262
2581236000,0.029066652,-0.08601433,-0.8157345,0.0,0.0,-0.6876219
2581252000,0.046700276,-0.06823486,-0.7993777,0.0,0.0,-0.68457544
2581276000,0.01864019,-0.092986286,-0.7991921,0.0,0.0,-0.6861224
2581296000,-0.0074190125,-0.120479465,-0.7992904,0.0,0.0,-0.68742996
2581316000,0.0058973506,-0.107231855,-0.7849256,0.0,0.0,-0.6837246
2581332000,-0.015713185,-0.12341452,-0.7926936,0.0,0.0,-0.6847371
2581356000,-0.034637466,-0.14255476,-0.78308165,0.0,0.0,-0.68557703
2581372000,-0.019712001,-0.11691713,-0.77674127,0.0,0.0,-0.6817179
2581392000,-0.03258075,-0.13554472,-0.7760035,0.0,0.0,-0.6825776
2581412000,-0.042741984,-0.1545952,-0.77500105,0.0,0.0,-0.6835172
2581432000,-0.024436578,-0.13127142,-0.7606473,0.0,0.0,-0.6804398
2581456000,-0.041890606,-0.16688704,-0.7926965,0.0,0.0,-0.68303263
2581472000,-0.021308899,-0.13550127,-0.7864895,0.0,0.0,-0.6803496
2581492000,-0.03122507,-0.14566952,-0.7847017,0.0,0.0,-0.682373
2581516000,-0.03559774,-0.15999985,-0.7746692,0.0,0.0,-0.6837969
2581532000,-0.011434972,-0.11607295,-0.7677394,0.0,0.0,-0.681195
2581556000,-0.021868318,-0.12450886,-0.75741184,0.0,0.0,-0.68291944
2581572000,-0.031225339,-0.13394755,-0.76372325,0.0,0.0,-0.68404734
2581592000,-0.011333719,-0.09342939,-0.7410182,0.0,0.0,-0.6810975
2581616000,-0.014183164,-0.11191213,-0.739372,0.0,0.0,-0.68254524
2581636000,-0.02219224,-0.12768441,-0.7372774,0.0,0.0,-0.68404764
2581656000,-0.014173061,-0.11320245,-0.7633159,0.0,0.0,-0.68308306
2581672000,-0.012303472,-0.11427319,-0.72247195,0.0,0.0,-0.68308306
