timestamp,q[0],q[1],q[2],q[3],delta_q_reset[0],delta_q_reset[1],delta_q_reset[2],delta_q_reset[3],quat_reset_counter
2564256000,-0.97745013,-0.00047115513,-0.00026552938,-0.21118715,0.0,0.0,0.0,0.0,0
2564268000,-0.97745013,-0.00047116342,-0.00026549675,-0.21118726,0.0,0.0,0.0,0.0,0
2564276000,-0.97745013,-0.00047120207,-0.00026550316,-0.21118729,0.0,0.0,0.0,0.0,0
2564292000,-0.97745013,-0.00047100362,-0.00026548156,-0.21118721,0.0,0.0,0.0,0.0,0
2564304000,-0.97745013,-0.0004711037,-0.00026548564,-0.21118729,0.0,0.0,0.0,0.0,0
2564316000,-0.97745013,-0.0004709095,-0.00026548962,-0.21118718,0.0,0.0,0.0,0.0,0
2564328000,-0.97745013,-0.00047099436,-0.00026547685,-0.21118726,0.0,0.0,0.0,0.0,0
2564336000,-0.9774502,-0.0004709469,-0.00026555566,-0.21118706,0.0,0.0,0.0,0.0,0
2564352000,-0.97745013,-0.00047088976,-0.00026545857,-0.21118723,0.0,0.0,0.0,0.0,0
2564364000,-0.97745013,-0.00047095222,-0.00026547242,-0.21118729,0.0,0.0,0.0,0.0,0
2564372000,-0.97745013,-0.00047078333,-0.00026551823,-0.21118714,0.0,0.0,0.0,0.0,0
2564384000,-0.97745013,-0.00047078572,-0.00026548203,-0.21118724,0.0,0.0,0.0,0.0,0
2564400000,-0.9774502,-0.0004707773,-0.00026557303,-0.2111871,0.0,0.0,0.0,0.0,0
2564412000,-0.97745013,-0.00047071403,-0.00026547397,-0.21118721,0.0,0.0,0.0,0.0,0
2564424000,-0.97745013,-0.0004706458,-0.0002654859,-0.21118711,0.0,0.0,0.0,0.0,0
2564432000,-0.97745013,-0.00047061834,-0.00026547498,-0.2111872,0.0,0.0,0.0,0.0,0
2564448000,-0.97745013,-0.0004706837,-0.00026551235,-0.21118727,0.0,0.0,0.0,0.0,0
2564460000,-0.97745013,-0.0004705227,-0.0002655097,-0.21118721,0.0,0.0,0.0,0.0,0
2564468000,-0.97745013,-0.00047054177,-0.0002655398,-0.21118726,0.0,0.0,0.0,0.0,0
2564480000,-0.97745013,-0.000470385,-0.000265518,-0.2111872,0.0,0.0,0.0,0.0,0
2564496000,-0.97745013,-0.00047042186,-0.00026556192,-0.21118727,0.0,0.0,0.0,0.0,0
2564508000,-0.97745013,-0.00047029855,-0.00026556422,-0.2111872,0.0,0.0,0.0,0.0,0
2564520000,-0.97745013,-0.00047032046,-0.0002656284,-0.21118726,0.0,0.0,0.0,0.0,0
2564532000,-0.97745013,-0.0004701678,-0.0002656285,-0.2111872,0.0,0.0,0.0,0.0,0
2564544000,-0.97745013,-0.0004701901,-0.00026567574,-0.21118726,0.0,0.0,0.0,0.0,0
2564556000,-0.97745013,-0.00047002325,-0.00026567726,-0.2111872,0.0,0.0,0.0,0.0,0
2564568000,-0.97745013,-0.00047006502,-0.0002657193,-0.21118726,0.0,0.0,0.0,0.0,0
2564580000,-0.97745013,-0.00046994348,-0.00026578375,-0.21118712,0.0,0.0,0.0,0.0,0
2564588000,-0.97745013,-0.00046990803,-0.00026576372,-0.2111872,0.0,0.0,0.0,0.0,0
2564604000,-0.9774502,-0.00046985658,-0.00026585977,-0.21118706,0.0,0.0,0.0,0.0,0
2564612000,-0.97745013,-0.00046977962,-0.00026579358,-0.21118715,0.0,0.0,0.0,0.0,0
2564628000,-0.97745013,-0.00046985934,-0.00026578468,-0.21118726,0.0,0.0,0.0,0.0,0
2564640000,-0.97745013,-0.0004696729,-0.00026579943,-0.21118714,0.0,0.0,0.0,0.0,0
2564648000,-0.97745013,-0.00046970928,-0.00026577534,-0.21118721,0.0,0.0,0.0,0.0,0
2564664000,-0.9774502,-0.00046963684,-0.00026582475,-0.21118708,0.0,0.0,0.0,0.0,0
2564676000,-0.97745013,-0.0004696361,-0.00026576413,-0.2111872,0.0,0.0,0.0,0.0,0
2564684000,-0.97745013,-0.00046968224,-0.00026576666,-0.21118724,0.0,0.0,0.0,0.0,0
2564696000,-0.9774502,-0.00046955538,-0.000265821,-0.2111871,0.0,0.0,0.0,0.0,0
2564712000,-0.97745013,-0.00046960489,-0.00026578567,-0.21118723,0.0,0.0,0.0,0.0,0
2564724000,-0.9774502,-0.000469568,-0.00026588186,-0.21118702,0.0,0.0,0.0,0.0,0
2564736000,-0.97745013,-0.00046948198,-0.00026577717,-0.21118717,0.0,0.0,0.0,0.0,0
2564748000,-0.97745013,-0.0004695559,-0.0002657859,-0.21118724,0.0,0.0,0.0,0.0,0
2564756000,-0.97745013,-0.00046943643,-0.00026577382,-0.21118712,0.0,0.0,0.0,0.0,0
2564772000,-0.97745013,-0.00046943745,-0.00026579734,-0.21118723,0.0,0.0,0.0,0.0,0
2564784000,-0.97745013,-0.00046928148,-0.00026579606,-0.21118718,0.0,0.0,0.0,0.0,0
2564796000,-0.97745013,-0.0004693235,-0.00026584012,-0.21118724,0.0,0.0,0.0,0.0,0
2564808000,-0.97745013,-0.0004691911,-0.00026583136,-0.21118715,0.0,0.0,0.0,0.0,0
2564816000,-0.97745013,-0.0004691989,-0.00026584597,-0.21118721,0.0,0.0,0.0,0.0,0
2564832000,-0.97745013,-0.00046905133,-0.00026585546,-0.21118717,0.0,0.0,0.0,0.0,0
2564844000,-0.97745013,-0.00046907252,-0.00026591073,-0.21118723,0.0,0.0,0.0,0.0,0
2564856000,-0.97745013,-0.000468915,-0.0002659091,-0.21118717,0.0,0.0,0.0,0.0,0
2564864000,-0.97745013,-0.00046892936,-0.00026594204,-0.21118721,0.0,0.0,0.0,0.0,0
2564880000,-0.97745013,-0.00046881102,-0.00026599917,-0.21118711,0.0,0.0,0.0,0.0,0
2564892000,-0.97745013,-0.00046879856,-0.0002659824,-0.2111872,0.0,0.0,0.0,0.0,0
2564904000,-0.9774502,-0.00046872263,-0.00026606608,-0.21118706,0.0,0.0,0.0,0.0,0
2564916000,-0.97745013,-0.0004686561,-0.00026602994,-0.21118717,0.0,0.0,0.0,0.0,0
2564924000,-0.97745013,-0.0004687034,-0.00026604065,-0.21118721,0.0,0.0,0.0,0.0,0
2564940000,-0.97745013,-0.00046854696,-0.00026606568,-0.21118712,0.0,0.0,0.0,0.0,0
2564952000,-0.97745013,-0.0004686145,-0.00026605613,-0.21118721,0.0,0.0,0.0,0.0,0
2564964000,-0.9774502,-0.00046850913,-0.00026609804,-0.21118705,0.0,0.0,0.0,0.0,0
2564976000,-0.97745013,-0.00046850968,-0.0002660394,-0.21118717,0.0,0.0,0.0,0.0,0
2564988000,-0.97745013,-0.0004685837,-0.0002660533,-0.21118723,0.0,0.0,0.0,0.0,0
2565000000,-0.97745013,-0.0004683849,-0.0002660742,-0.21118712,0.0,0.0,0.0,0.0,0
2565008000,-0.97745013,-0.0004684179,-0.000266062,-0.21118718,0.0,0.0,0.0,0.0,0
2565024000,-0.9774502,-0.00046833185,-0.00026610243,-0.21118708,0.0,0.0,0.0,0.0,0
2565036000,-0.97745013,-0.0004683495,-0.00026604958,-0.21118718,0.0,0.0,0.0,0.0,0
2565048000,-0.9774502,-0.0004683043,-0.00026614664,-0.211187,0.0,0.0,0.0,0.0,0
2565060000,-0.97745013,-0.00046823957,-0.00026607438,-0.21118714,0.0,0.0,0.0,0.0,0
2565072000,-0.97745013,-0.00046831075,-0.0002660809,-0.21118721,0.0,0.0,0.0,0.0,0
2565084000,-0.97745013,-0.0004681816,-0.00026607016,-0.21118712,0.0,0.0,0.0,0.0,0
2565096000,-0.97745013,-0.00046819978,-0.00026610514,-0.2111872,0.0,0.0,0.0,0.0,0
2565108000,-0.97745013,-0.00046804445,-0.00026608168,-0.21118714,0.0,0.0,0.0,0.0,0
2565120000,-0.97745013,-0.00046807085,-0.00026611422,-0.2111872,0.0,0.0,0.0,0.0,0
2565132000,-0.97745013,-0.00046792862,-0.0002661066,-0.21118712,0.0,0.0,0.0,0.0,0
2565144000,-0.97745013,-0.0004679498,-0.0002661638,-0.2111872,0.0,0.0,0.0,0.0,0
2565156000,-0.9774502,-0.00046783904,-0.0002661785,-0.21118711,0.0,0.0,0.0,0.0,0
2565168000,-0.97745013,-0.00046783456,-0.00026621402,-0.21118718,0.0,0.0,0.0,0.0,0
2565180000,-0.9774502,-0.00046769175,-0.00026622272,-0.21118711,0.0,0.0,0.0,0.0,0
2565192000,-0.97745013,-0.00046769273,-0.00026625695,-0.21118718,0.0,0.0,0.0,0.0,0
2565204000,-0.9774502,-0.00046764244,-0.00026636917,-0.21118702,0.0,0.0,0.0,0.0,0
2565216000,-0.97745013,-0.00046756738,-0.00026631955,-0.21118714,0.0,0.0,0.0,0.0,0
2565224000,-0.97745013,-0.0004676055,-0.00026633387,-0.21118718,0.0,0.0,0.0,0.0,0
2565240000,-0.9774502,-0.00046744058,-0.00026635022,-0.2111871,0.0,0.0,0.0,0.0,0
2565252000,-0.97745013,-0.0004675164,-0.00026634184,-0.21118718,0.0,0.0,0.0,0.0,0
2565264000,-0.9774502,-0.00046736197,-0.0002663908,-0.21118705,0.0,0.0,0.0,0.0,0
2565272000,-0.97745013,-0.00046731572,-0.0002663341,-0.21118712,0.0,0.0,0.0,0.0,0
2565288000,-0.9774502,-0.0004673516,-0.0002664376,-0.21118696,0.0,0.0,0.0,0.0,0
2565300000,-0.9774502,-0.0004672385,-0.00026632508,-0.21118711,0.0,0.0,0.0,0.0,0
2565312000,-0.97745013,-0.00046734468,-0.0002663009,-0.21118718,0.0,0.0,0.0,0.0,0
2565324000,-0.97745013,-0.00046721473,-0.00026622598,-0.21118714,0.0,0.0,0.0,0.0,0
2565336000,-0.97745013,-0.00046722227,-0.0002662248,-0.2111872,0.0,0.0,0.0,0.0,0
2565348000,-0.97745013,-0.00046731211,-0.00026623812,-0.21118723,0.0,0.0,0.0,0.0,0
2565360000,-0.97745013,-0.0004671703,-0.0002661831,-0.21118715,0.0,0.0,0.0,0.0,0
2565372000,-0.97745013,-0.00046718735,-0.00026619856,-0.2111872,0.0,0.0,0.0,0.0,0
2565380000,-0.97745013,-0.0004672068,-0.00026621463,-0.21118721,0.0,0.0,0.0,0.0,0
2565396000,-0.97745013,-0.00046715458,-0.00026622534,-0.21118715,0.0,0.0,0.0,0.0,0
2565404000,-0.97745013,-0.0004671348,-0.00026622176,-0.21118718,0.0,0.0,0.0,0.0,0
2565420000,-0.97745013,-0.00046719328,-0.00026625823,-0.21118723,0.0,0.0,0.0,0.0,0
2565428000,-0.97745013,-0.0004672447,-0.0002662915,-0.21118724,0.0,0.0,0.0,0.0,0
2565440000,-0.97745013,-0.00046706555,-0.00026625078,-0.21118718,0.0,0.0,0.0,0.0,0
2565456000,-0.97745013,-0.0004671139,-0.00026627793,-0.21118723,0.0,0.0,0.0,0.0,0
2565468000,-0.97745013,-0.0004669984,-0.00026624414,-0.21118715,0.0,0.0,0.0,0.0,0
2565476000,-0.97745013,-0.00046698595,-0.00026624475,-0.21118718,0.0,0.0,0.0,0.0,0
2565492000,-0.97745013,-0.00046702175,-0.0002662707,-0.21118723,0.0,0.0,0.0,0.0,0
2565504000,-0.97745013,-0.00046708283,-0.00026630398,-0.21118724,0.0,0.0,0.0,0.0,0
2565516000,-0.97745013,-0.00046693668,-0.00026626544,-0.2111872,0.0,0.0,0.0,0.0,0
2565528000,-0.97745013,-0.00046696136,-0.00026628393,-0.21118723,0.0,0.0,0.0,0.0,0
2565540000,-0.97745013,-0.00046703246,-0.00026632997,-0.21118724,0.0,0.0,0.0,0.0,0
2565552000,-0.97745013,-0.00046688752,-0.0002662707,-0.2111872,0.0,0.0,0.0,0.0,0
2565564000,-0.97745013,-0.00046693496,-0.0002662914,-0.21118723,0.0,0.0,0.0,0.0,0
2565576000,-0.97745013,-0.00046697765,-0.00026631326,-0.21118724,0.0,0.0,0.0,0.0,0
2565588000,-0.97745013,-0.00046684477,-0.00026627927,-0.21118718,0.0,0.0,0.0,0.0,0
2565600000,-0.97745013,-0.00046688583,-0.0002662825,-0.21118721,0.0,0.0,0.0,0.0,0
2565612000,-0.97745013,-0.00046693636,-0.0002663134,-0.21118723,0.0,0.0,0.0,0.0,0
2565624000,-0.97745013,-0.0004668134,-0.00026628628,-0.21118718,0.0,0.0,0.0,0.0,0
2565636000,-0.97745013,-0.00046680702,-0.00026629315,-0.21118721,0.0,0.0,0.0,0.0,0
2565648000,-0.97745013,-0.00046688312,-0.00026631294,-0.21118723,0.0,0.0,0.0,0.0,0
2565660000,-0.97745013,-0.00046695198,-0.0002663402,-0.21118724,0.0,0.0,0.0,0.0,0
2565672000,-0.97745013,-0.00046677282,-0.00026629752,-0.2111872,0.0,0.0,0.0,0.0,0
2565684000,-0.97745013,-0.0004668563,-0.0002663109,-0.21118723,0.0,0.0,0.0,0.0,0
2565696000,-0.97745013,-0.0004668857,-0.00026633343,-0.21118724,0.0,0.0,0.0,0.0,0
2565708000,-0.97745013,-0.00046676808,-0.00026628733,-0.2111872,0.0,0.0,0.0,0.0,0
2565720000,-0.97745013,-0.0004668082,-0.00026629487,-0.21118723,0.0,0.0,0.0,0.0,0
2565728000,-0.97745013,-0.0004668381,-0.00026630194,-0.21118723,0.0,0.0,0.0,0.0,0
2565744000,-0.97745013,-0.00046677433,-0.00026630124,-0.21118718,0.0,0.0,0.0,0.0,0
2565756000,-0.97745013,-0.00046670705,-0.00026627633,-0.21118721,0.0,0.0,0.0,0.0,0
2565768000,-0.97745013,-0.0004667855,-0.0002663124,-0.21118723,0.0,0.0,0.0,0.0,0
2565780000,-0.97745013,-0.0004667976,-0.00026631192,-0.21118724,0.0,0.0,0.0,0.0,0
2565792000,-0.97745013,-0.00046669497,-0.00026628058,-0.2111872,0.0,0.0,0.0,0.0,0
2565804000,-0.97745013,-0.0004667162,-0.00026626652,-0.21118723,0.0,0.0,0.0,0.0,0
2565816000,-0.97745013,-0.00046679744,-0.00026628157,-0.21118723,0.0,0.0,0.0,0.0,0
2565828000,-0.97745013,-0.00046679488,-0.0002662919,-0.21118724,0.0,0.0,0.0,0.0,0
2565836000,-0.97745013,-0.00046673013,-0.0002662729,-0.21118721,0.0,0.0,0.0,0.0,0
2565848000,-0.97745013,-0.00046671534,-0.00026625622,-0.21118723,0.0,0.0,0.0,0.0,0
2565864000,-0.97745013,-0.00046675839,-0.000266257,-0.21118724,0.0,0.0,0.0,0.0,0
2565876000,-0.97745013,-0.00046685315,-0.00026627764,-0.21118724,0.0,0.0,0.0,0.0,0
2565888000,-0.97745013,-0.0004667759,-0.0002662662,-0.21118721,0.0,0.0,0.0,0.0,0
2565900000,-0.97745013,-0.0004667665,-0.00026623817,-0.21118723,0.0,0.0,0.0,0.0,0
2565912000,-0.97745013,-0.0004667345,-0.0002662258,-0.21118724,0.0,0.0,0.0,0.0,0
2565924000,-0.97745013,-0.00046681458,-0.00026624106,-0.21118724,0.0,0.0,0.0,0.0,0
2565936000,-0.97745013,-0.0004668994,-0.000266261,-0.21118724,0.0,0.0,0.0,0.0,0
2565948000,-0.97745013,-0.00046680737,-0.00026623823,-0.21118723,0.0,0.0,0.0,0.0,0
2565960000,-0.97745013,-0.00046678496,-0.00026620016,-0.21118723,0.0,0.0,0.0,0.0,0
2565972000,-0.97745013,-0.00046685818,-0.00026620057,-0.21118724,0.0,0.0,0.0,0.0,0
2565984000,-0.97745013,-0.00046679217,-0.00026617997,-0.21118724,0.0,0.0,0.0,0.0,0
2565992000,-0.97745013,-0.00046679372,-0.00026617778,-0.21118723,0.0,0.0,0.0,0.0,0
2566008000,-0.97745013,-0.00046679168,-0.00026616867,-0.21118723,0.0,0.0,0.0,0.0,0
2566020000,-0.97745013,-0.00046684925,-0.00026617653,-0.21118723,0.0,0.0,0.0,0.0,0
2566032000,-0.97745013,-0.00046672774,-0.00026630415,-0.21118718,0.0,0.0,0.0,0.0,0
2566040000,-0.97745013,-0.0004644493,-0.00027696163,-0.21118721,0.0,0.0,0.0,0.0,0
2566056000,-0.9774501,-0.000440147,-0.00038979074,-0.21118745,0.0,0.0,0.0,0.0,0
2566068000,-0.9774499,-0.0003898407,-0.00062329206,-0.21118778,0.0,0.0,0.0,0.0,0
2566076000,-0.97744966,-0.00033411593,-0.0008814136,-0.21118806,0.0,0.0,0.0,0.0,0
2566092000,-0.97744846,-0.00015712158,-0.0017026191,-0.21118861,0.0,0.0,0.0,0.0,0
2566104000,-0.97744626,4.2327996e-05,-0.002627759,-0.21118939,0.0,0.0,0.0,0.0,0
2566116000,-0.9774419,0.00030179683,-0.0038309072,-0.21119106,0.0,0.0,0.0,0.0,0
2566128000,-0.97743213,0.0006237761,-0.005320813,-0.21120329,0.0,0.0,0.0,0.0,0
2566140000,-0.9774157,0.0009978137,-0.007089601,-0.21122612,0.0,0.0,0.0,0.0,0
2566152000,-0.977395,0.0013784287,-0.009040375,-0.21124522,0.0,0.0,0.0,0.0,0
2566164000,-0.97737134,0.0017194082,-0.011001905,-0.21125913,0.0,0.0,0.0,0.0,0
2566172000,-0.9773547,0.0019187707,-0.012263036,-0.21126473,0.0,0.0,0.0,0.0,0
2566184000,-0.9773296,0.0021878139,-0.014044012,-0.21126735,0.0,0.0,0.0,0.0,0
2566196000,-0.97730577,0.002416746,-0.015632052,-0.21126361,0.0,0.0,0.0,0.0,0
2566212000,-0.9772783,0.0026450849,-0.017373523,-0.21125208,0.0,0.0,0.0,0.0,0
2566224000,-0.97726095,0.0028007005,-0.018453395,-0.21123864,0.0,0.0,0.0,0.0,0
2566236000,-0.9772464,0.0029565182,-0.019368349,-0.21122196,0.0,0.0,0.0,0.0,0
2566248000,-0.97723526,0.003081945,-0.020094192,-0.21120378,0.0,0.0,0.0,0.0,0
2566260000,-0.9772275,0.0031692213,-0.020645194,-0.21118528,0.0,0.0,0.0,0.0,0
2566268000,-0.977224,0.0032080307,-0.020932028,-0.21117285,0.0,0.0,0.0,0.0,0
2566284000,-0.97722054,0.003260018,-0.021331485,-0.21114798,0.0,0.0,0.0,0.0,0
2566296000,-0.9772214,0.0032689776,-0.021460216,-0.21113059,0.0,0.0,0.0,0.0,0
2566308000,-0.97722554,0.003253203,-0.021437626,-0.21111427,0.0,0.0,0.0,0.0,0
2566320000,-0.97723264,0.003215546,-0.021267109,-0.21109909,0.0,0.0,0.0,0.0,0
2566332000,-0.97724223,0.0031445622,-0.020970043,-0.21108548,0.0,0.0,0.0,0.0,0
2566344000,-0.9772533,0.0030470558,-0.020584442,-0.2110737,0.0,0.0,0.0,0.0,0
2566356000,-0.9772652,0.0029400103,-0.020130709,-0.21106383,0.0,0.0,0.0,0.0,0
2566368000,-0.9772781,0.0028243721,-0.0196003,-0.21105546,0.0,0.0,0.0,0.0,0
2566380000,-0.9772922,0.0027003943,-0.019001387,-0.21104689,0.0,0.0,0.0,0.0,0
2566392000,-0.97730654,0.0025769242,-0.018361833,-0.21103853,0.0,0.0,0.0,0.0,0
2566400000,-0.97731584,0.002501708,-0.017920349,-0.21103413,0.0,0.0,0.0,0.0,0
2566416000,-0.977334,0.0023579982,-0.017009456,-0.21102698,0.0,0.0,0.0,0.0,0
2566424000,-0.977343,0.002291405,-0.016544364,-0.21102303,0.0,0.0,0.0,0.0,0
2566440000,-0.97736084,0.0021499214,-0.015597487,-0.21101406,0.0,0.0,0.0,0.0,0
2566452000,-0.9773741,0.0020319093,-0.014868042,-0.21100679,0.0,0.0,0.0,0.0,0
2566460000,-0.97738254,0.0019526582,-0.014389008,-0.21100153,0.0,0.0,0.0,0.0,0
2566476000,-0.9773983,0.0017950849,-0.013474264,-0.21099032,0.0,0.0,0.0,0.0,0
2566488000,-0.9774093,0.0016719105,-0.012801656,-0.21098226,0.0,0.0,0.0,0.0,0
2566500000,-0.9774201,0.0015455949,-0.012119426,-0.21097338,0.0,0.0,0.0,0.0,0
2566512000,-0.9774306,0.0014322612,-0.011443194,-0.2109635,0.0,0.0,0.0,0.0,0
2566524000,-0.9774405,0.00133333,-0.010787886,-0.21095286,0.0,0.0,0.0,0.0,0
2566536000,-0.9774499,0.001240287,-0.010138105,-0.21094194,0.0,0.0,0.0,0.0,0
2566548000,-0.9774588,0.0011497892,-0.009500842,-0.21093099,0.0,0.0,0.0,0.0,0
2566560000,-0.9774671,0.0010808096,-0.008888409,-0.21091937,0.0,0.0,0.0,0.0,0
2566568000,-0.9774723,0.0010449572,-0.008499348,-0.21091154,0.0,0.0,0.0,0.0,0
2566580000,-0.9774796,0.0009958203,-0.007944601,-0.21089971,0.0,0.0,0.0,0.0,0
2566592000,-0.9774862,0.0009503197,-0.0074239783,-0.21088813,0.0,0.0,0.0,0.0,0
2566608000,-0.9774942,0.0008947296,-0.0067970203,-0.21087253,0.0,0.0,0.0,0.0,0
2566616000,-0.9774978,0.0008622899,-0.0065089627,-0.2108648,0.0,0.0,0.0,0.0,0
2566632000,-0.9775047,0.00079374854,-0.005973371,-0.21084934,0.0,0.0,0.0,0.0,0
2566640000,-0.9775079,0.0007664335,-0.005730891,-0.2108411,0.0,0.0,0.0,0.0,0
2566656000,-0.97751385,0.00073202857,-0.0052984394,-0.21082483,0.0,0.0,0.0,0.0,0
2566668000,-0.97751784,0.00071744923,-0.005000062,-0.21081391,0.0,0.0,0.0,0.0,0
2566676000,-0.97752035,0.0007018321,-0.0048151286,-0.2108066,0.0,0.0,0.0,0.0,0
2566692000,-0.97752523,0.0006711319,-0.0044886437,-0.21079113,0.0,0.0,0.0,0.0,0
2566704000,-0.9775287,0.00065446354,-0.0042810794,-0.21077962,0.0,0.0,0.0,0.0,0
2566716000,-0.97753185,0.00064299966,-0.0040959236,-0.21076868,0.0,0.0,0.0,0.0,0
2566728000,-0.977535,0.0006380909,-0.0039283843,-0.21075715,0.0,0.0,0.0,0.0,0
2566740000,-0.97753817,0.00064125384,-0.0037731477,-0.21074535,0.0,0.0,0.0,0.0,0
2566748000,-0.97754014,0.0006461327,-0.0036747141,-0.21073796,0.0,0.0,0.0,0.0,0
2566760000,-0.9775429,0.0006549266,-0.0035346737,-0.21072762,0.0,0.0,0.0,0.0,0
2566776000,-0.9775461,0.000663505,-0.0033819976,-0.21071519,0.0,0.0,0.0,0.0,0
2566784000,-0.97754747,0.0006700769,-0.0033238505,-0.21070954,0.0,0.0,0.0,0.0,0
2566800000,-0.97755027,0.00068382075,-0.0032260856,-0.21069802,0.0,0.0,0.0,0.0,0
2566812000,-0.9775523,0.0006900883,-0.0031537416,-0.21068968,0.0,0.0,0.0,0.0,0
2566820000,-0.97755355,0.0006906805,-0.0031058567,-0.21068473,0.0,0.0,0.0,0.0,0
2566836000,-0.9775552,0.00068230345,-0.0030147675,-0.21067843,0.0,0.0,0.0,0.0,0
2566844000,-0.97755563,0.00067098875,-0.0029708226,-0.21067698,0.0,0.0,0.0,0.0,0
2566860000,-0.977556,0.0006331626,-0.002891572,-0.21067668,0.0,0.0,0.0,0.0,0
2566872000,-0.9775557,0.00060061045,-0.002833062,-0.21067894,0.0,0.0,0.0,0.0,0
2566884000,-0.97755504,0.00056896644,-0.0027705065,-0.21068282,0.0,0.0,0.0,0.0,0
2566896000,-0.9775543,0.00054381054,-0.0027051158,-0.21068697,0.0,0.0,0.0,0.0,0
2566908000,-0.9775537,0.0005368627,-0.002630594,-0.21069065,0.0,0.0,0.0,0.0,0
2566920000,-0.9775534,0.0005482919,-0.002550073,-0.21069323,0.0,0.0,0.0,0.0,0
2566928000,-0.97755337,0.0005618011,-0.002491391,-0.21069409,0.0,0.0,0.0,0.0,0
2566944000,-0.9775536,0.0005888654,-0.0023626671,-0.21069448,0.0,0.0,0.0,0.0,0
2566956000,-0.9775544,0.0006136654,-0.0022666717,-0.21069163,0.0,0.0,0.0,0.0,0
2566964000,-0.97755533,0.00062962394,-0.002205952,-0.21068801,0.0,0.0,0.0,0.0,0
2566980000,-0.9775578,0.00064523815,-0.0020975147,-0.21067767,0.0,0.0,0.0,0.0,0
2566992000,-0.97756004,0.00062783406,-0.0020267204,-0.21066797,0.0,0.0,0.0,0.0,0
2567004000,-0.97756225,0.0005866448,-0.0019660708,-0.21065836,0.0,0.0,0.0,0.0,0
2567016000,-0.97756416,0.00053816475,-0.001915443,-0.21065,0.0,0.0,0.0,0.0,0
2567028000,-0.9775659,0.00049200887,-0.0018757344,-0.21064249,0.0,0.0,0.0,0.0,0
2567040000,-0.9775675,0.0004624577,-0.0018479628,-0.2106354,0.0,0.0,0.0,0.0,0
2567052000,-0.977569,0.00045183435,-0.0018302668,-0.21062857,0.0,0.0,0.0,0.0,0
2567064000,-0.9775705,0.00045692202,-0.0018108685,-0.21062179,0.0,0.0,0.0,0.0,0
2567072000,-0.97757155,0.0004591647,-0.0017928698,-0.21061711,0.0,0.0,0.0,0.0,0
2567088000,-0.97757375,0.00045794973,-0.001742174,-0.2106074,0.0,0.0,0.0,0.0,0
2567100000,-0.97757536,0.00044892478,-0.0016938526,-0.21060011,0.0,0.0,0.0,0.0,0
2567108000,-0.9775764,0.00043842904,-0.0016555004,-0.2105957,0.0,0.0,0.0,0.0,0
2567124000,-0.97757816,0.00042001085,-0.0015713715,-0.21058826,0.0,0.0,0.0,0.0,0
2567132000,-0.97757894,0.000414962,-0.0015296636,-0.21058498,0.0,0.0,0.0,0.0,0
2567144000,-0.97757995,0.00040794423,-0.0014701098,-0.21058072,0.0,0.0,0.0,0.0,0
2567160000,-0.97758096,0.0004011904,-0.0014039152,-0.21057637,0.0,0.0,0.0,0.0,0
2567168000,-0.97758144,0.0004006957,-0.0013728419,-0.21057445,0.0,0.0,0.0,0.0,0
2567184000,-0.9775826,0.00041150313,-0.0013209274,-0.21056952,0.0,0.0,0.0,0.0,0
2567196000,-0.9775835,0.0004327994,-0.0012991123,-0.21056508,0.0,0.0,0.0,0.0,0
2567208000,-0.9775847,0.00046272928,-0.0012884057,-0.21055955,0.0,0.0,0.0,0.0,0
2567220000,-0.97758627,0.00050268596,-0.0012799613,-0.2105523,0.0,0.0,0.0,0.0,0
2567232000,-0.97758806,0.00054467615,-0.0012654581,-0.21054414,0.0,0.0,0.0,0.0,0
2567240000,-0.97758925,0.0005651973,-0.0012526116,-0.21053864,0.0,0.0,0.0,0.0,0
2567256000,-0.97759145,0.00058903237,-0.0012215852,-0.2105283,0.0,0.0,0.0,0.0,0
2567268000,-0.977593,0.0005890964,-0.0011944679,-0.2105213,0.0,0.0,0.0,0.0,0
2567280000,-0.97759455,0.0005729896,-0.0011568693,-0.21051441,0.0,0.0,0.0,0.0,0
2567288000,-0.9775955,0.00054778036,-0.0011259454,-0.21051018,0.0,0.0,0.0,0.0,0
2567304000,-0.97759694,0.00046552462,-0.0010422956,-0.21050432,0.0,0.0,0.0,0.0,0
2567316000,-0.9775973,0.00039685314,-0.000968775,-0.21050303,0.0,0.0,0.0,0.0,0
2567328000,-0.9775971,0.00033065898,-0.0008945383,-0.21050432,0.0,0.0,0.0,0.0,0
2567340000,-0.97759646,0.00027643907,-0.00082755473,-0.21050765,0.0,0.0,0.0,0.0,0
2567352000,-0.9775957,0.00023897484,-0.0007618932,-0.21051168,0.0,0.0,0.0,0.0,0
2567360000,-0.9775951,0.00021936058,-0.00072279567,-0.21051441,0.0,0.0,0.0,0.0,0
2567376000,-0.9775941,0.00017801992,-0.00065476785,-0.21051964,0.0,0.0,0.0,0.0,0
2567388000,-0.9775933,0.0001347879,-0.0006036969,-0.21052338,0.0,0.0,0.0,0.0,0
2567400000,-0.9775927,8.8373505e-05,-0.00054671214,-0.21052638,0.0,0.0,0.0,0.0,0
2567412000,-0.97759235,4.429402e-05,-0.0004894171,-0.21052818,0.0,0.0,0.0,0.0,0
2567424000,-0.97759205,5.4493967e-06,-0.0004369247,-0.21052969,0.0,0.0,0.0,0.0,0
2567436000,-0.97759175,-3.4815857e-05,-0.00039650686,-0.2105311,0.0,0.0,0.0,0.0,0
2567444000,-0.9775915,-6.255559e-05,-0.00037768448,-0.21053217,0.0,0.0,0.0,0.0,0
2567460000,-0.97759104,-0.000116125964,-0.0003520382,-0.2105343,0.0,0.0,0.0,0.0,0
2567472000,-0.9775908,-0.000159335,-0.00033183448,-0.2105356,0.0,0.0,0.0,0.0,0
2567480000,-0.97759056,-0.00018874262,-0.0003165458,-0.21053657,0.0,0.0,0.0,0.0,0
2567496000,-0.97758985,-0.00025620658,-0.00027877153,-0.21054001,0.0,0.0,0.0,0.0,0
2567508000,-0.977589,-0.00031216082,-0.00025038834,-0.2105438,0.0,0.0,0.0,0.0,0
2567520000,-0.97758806,-0.000358218,-0.00022798691,-0.21054813,0.0,0.0,0.0,0.0,0
2567532000,-0.97758716,-0.00039289758,-0.00021412851,-0.21055213,0.0,0.0,0.0,0.0,0
2567544000,-0.9775864,-0.00042197318,-0.00019926483,-0.21055567,0.0,0.0,0.0,0.0,0
2567552000,-0.977586,-0.00044162996,-0.00018813636,-0.21055771,0.0,0.0,0.0,0.0,0
2567564000,-0.9775854,-0.00047530446,-0.00016838018,-0.21056052,0.0,0.0,0.0,0.0,0
2567580000,-0.97758496,-0.000515107,-0.00012703551,-0.21056236,0.0,0.0,0.0,0.0,0
2567592000,-0.9775849,-0.00052602345,-8.419286e-05,-0.2105626,0.0,0.0,0.0,0.0,0
2567604000,-0.9775849,-0.00052999624,-3.797871e-05,-0.21056248,0.0,0.0,0.0,0.0,0
2567616000,-0.97758496,-0.0005403298,9.702371e-06,-0.21056227,0.0,0.0,0.0,0.0,0
2567628000,-0.97758496,-0.0005465966,5.7292782e-05,-0.21056227,0.0,0.0,0.0,0.0,0
2567640000,-0.9775849,-0.0005491615,9.272503e-05,-0.21056251,0.0,0.0,0.0,0.0,0
2567652000,-0.9775847,-0.0005488276,0.00012661045,-0.21056339,0.0,0.0,0.0,0.0,0
2567664000,-0.9775844,-0.0005407084,0.00015583201,-0.21056469,0.0,0.0,0.0,0.0,0
2567676000,-0.9775842,-0.00053311314,0.00017208545,-0.21056576,0.0,0.0,0.0,0.0,0
2567688000,-0.9775841,-0.0005279175,0.00017592283,-0.21056616,0.0,0.0,0.0,0.0,0
2567700000,-0.9775841,-0.00053441204,0.00016425995,-0.21056613,0.0,0.0,0.0,0.0,0
2567712000,-0.97758436,-0.0005502385,0.00015444146,-0.210565,0.0,0.0,0.0,0.0,0
2567724000,-0.9775851,-0.0005747375,0.00016398549,-0.21056168,0.0,0.0,0.0,0.0,0
2567732000,-0.9775856,-0.0005961574,0.00017957996,-0.21055904,0.0,0.0,0.0,0.0,0
2567744000,-0.97758615,-0.0006264413,0.00022055466,-0.21055624,0.0,0.0,0.0,0.0,0
2567760000,-0.9775864,-0.0006706565,0.00030439644,-0.21055514,0.0,0.0,0.0,0.0,0
2567772000,-0.97758615,-0.0006955537,0.0003755883,-0.21055596,0.0,0.0,0.0,0.0,0
2567780000,-0.977586,-0.00070545496,0.00041696584,-0.2105567,0.0,0.0,0.0,0.0,0
2567796000,-0.97758627,-0.00072857615,0.0004777837,-0.21055503,0.0,0.0,0.0,0.0,0
2567808000,-0.9775873,-0.0007512902,0.00050741446,-0.21055026,0.0,0.0,0.0,0.0,0
2567816000,-0.9775882,-0.0007626562,0.00052046974,-0.21054587,0.0,0.0,0.0,0.0,0
2567828000,-0.9775898,-0.00076983956,0.00053801626,-0.21053833,0.0,0.0,0.0,0.0,0
2567844000,-0.97759205,-0.0007680456,0.00056923606,-0.2105279,0.0,0.0,0.0,0.0,0
2567856000,-0.97759396,-0.00076120446,0.000593309,-0.21051891,0.0,0.0,0.0,0.0,0
2567868000,-0.9775959,-0.0007504526,0.00061024755,-0.21050973,0.0,0.0,0.0,0.0,0
2567880000,-0.9775978,-0.00073826325,0.00061920006,-0.2105012,0.0,0.0,0.0,0.0,0
2567892000,-0.97759944,-0.0007336288,0.00061796163,-0.21049361,0.0,0.0,0.0,0.0,0
2567904000,-0.977601,-0.00073301897,0.0006093215,-0.21048628,0.0,0.0,0.0,0.0,0
2567916000,-0.9776028,-0.0007439665,0.0005919823,-0.21047808,0.0,0.0,0.0,0.0,0
2567928000,-0.97760475,-0.0007699222,0.0005681123,-0.21046883,0.0,0.0,0.0,0.0,0
2567940000,-0.97760683,-0.00080849667,0.00054197945,-0.21045923,0.0,0.0,0.0,0.0,0
2567952000,-0.97760874,-0.00085286226,0.0005133265,-0.21045028,0.0,0.0,0.0,0.0,0
2567964000,-0.97761065,-0.0008864199,0.00048415828,-0.21044113,0.0,0.0,0.0,0.0,0
2567976000,-0.9776127,-0.0009140759,0.00045699903,-0.2104318,0.0,0.0,0.0,0.0,0
2567984000,-0.97761405,-0.0009282802,0.00043801896,-0.21042545,0.0,0.0,0.0,0.0,0
2568000000,-0.977617,-0.0009481263,0.0003909867,-0.2104115,0.0,0.0,0.0,0.0,0
2568012000,-0.97761935,-0.0009555984,0.00035493766,-0.21040073,0.0,0.0,0.0,0.0,0
2568020000,-0.9776208,-0.00095733325,0.00033617692,-0.210394,0.0,0.0,0.0,0.0,0
2568036000,-0.9776234,-0.0009517514,0.00031346965,-0.21038203,0.0,0.0,0.0,0.0,0
2568044000,-0.97762465,-0.0009403415,0.00031222677,-0.21037623,0.0,0.0,0.0,0.0,0
2568056000,-0.97762656,-0.00090972026,0.00032459912,-0.21036735,0.0,0.0,0.0,0.0,0
2568068000,-0.9776286,-0.00086517626,0.00035156254,-0.21035811,0.0,0.0,0.0,0.0,0
2568080000,-0.9776306,-0.00080924726,0.0003939391,-0.21034896,0.0,0.0,0.0,0.0,0
2568096000,-0.9776333,-0.0007214411,0.00047931087,-0.21033654,0.0,0.0,0.0,0.0,0
2568108000,-0.9776354,-0.00065122225,0.0005610672,-0.21032684,0.0,0.0,0.0,0.0,0
2568120000,-0.97763747,-0.00058587745,0.0006512709,-0.21031709,0.0,0.0,0.0,0.0,0
2568132000,-0.97763956,-0.0005305629,0.0007397246,-0.21030733,0.0,0.0,0.0,0.0,0
2568144000,-0.9776416,-0.0004838927,0.00082355976,-0.21029769,0.0,0.0,0.0,0.0,0
2568156000,-0.97764355,-0.00043855517,0.000897226,-0.21028824,0.0,0.0,0.0,0.0,0
2568168000,-0.97764564,-0.00039248646,0.00095411035,-0.21027859,0.0,0.0,0.0,0.0,0
2568176000,-0.977647,-0.00036451855,0.0009862946,-0.21027212,0.0,0.0,0.0,0.0,0
2568192000,-0.97764933,-0.00031733737,0.001043521,-0.21026115,0.0,0.0,0.0,0.0,0
2568204000,-0.9776506,-0.000292447,0.0010787738,-0.21025494,0.0,0.0,0.0,0.0,0
2568216000,-0.97765166,-0.00026365244,0.0011116404,-0.21025,0.0,0.0,0.0,0.0,0
2568224000,-0.97765243,-0.00024427657,0.0011373132,-0.21024631,0.0,0.0,0.0,0.0,0
2568240000,-0.9776548,-0.00020883082,0.0011880363,-0.21023479,0.0,0.0,0.0,0.0,0
2568248000,-0.9776566,-0.00019623543,0.0012109162,-0.21022639,0.0,0.0,0.0,0.0,0
2568264000,-0.9776612,-0.00018058468,0.0012394236,-0.21020488,0.0,0.0,0.0,0.0,0
2568272000,-0.97766393,-0.0001767736,0.0012430098,-0.21019231,0.0,0.0,0.0,0.0,0
2568288000,-0.9776696,-0.00018376939,0.0012382381,-0.21016598,0.0,0.0,0.0,0.0,0
2568300000,-0.97767377,-0.00019220838,0.0012248982,-0.21014665,0.0,0.0,0.0,0.0,0
2568312000,-0.9776777,-0.0001984791,0.0012041422,-0.21012829,0.0,0.0,0.0,0.0,0
2568324000,-0.97768176,-0.00019926458,0.0011763504,-0.2101096,0.0,0.0,0.0,0.0,0
2568336000,-0.9776859,-0.00019207975,0.0011418152,-0.21009049,0.0,0.0,0.0,0.0,0
2568344000,-0.97768867,-0.00018204148,0.001116983,-0.21007779,0.0,0.0,0.0,0.0,0
2568356000,-0.9776927,-0.00015992501,0.0010772644,-0.2100591,0.0,0.0,0.0,0.0,0
2568368000,-0.9776966,-0.00012335164,0.0010388962,-0.2100415,0.0,0.0,0.0,0.0,0
2568384000,-0.9777011,-5.4898515e-05,0.0010105673,-0.21002033,0.0,0.0,0.0,0.0,0
2568396000,-0.9777043,8.479778e-06,0.0010147085,-0.21000563,0.0,0.0,0.0,0.0,0
2568408000,-0.97770727,7.121272e-05,0.0010481986,-0.20999175,0.0,0.0,0.0,0.0,0
2568420000,-0.9777102,0.00013184111,0.0011051795,-0.20997776,0.0,0.0,0.0,0.0,0
2568432000,-0.977713,0.00019007013,0.0011770903,-0.20996414,0.0,0.0,0.0,0.0,0
2568444000,-0.9777157,0.00023804574,0.0012622287,-0.20995115,0.0,0.0,0.0,0.0,0
2568456000,-0.97771823,0.00026933887,0.00135074,-0.2099387,0.0,0.0,0.0,0.0,0
2568468000,-0.97772056,0.00028134952,0.0014340498,-0.2099272,0.0,0.0,0.0,0.0,0
2568480000,-0.9777225,0.00027157366,0.0015177563,-0.20991768,0.0,0.0,0.0,0.0,0
2568488000,-0.9777236,0.0002517219,0.0015782503,-0.20991224,0.0,0.0,0.0,0.0,0
2568504000,-0.97772557,0.00018616543,0.0017001405,-0.20990215,0.0,0.0,0.0,0.0,0
2568516000,-0.977727,0.00013922826,0.0017827319,-0.20989475,0.0,0.0,0.0,0.0,0
2568528000,-0.97772855,0.00010692606,0.0018522524,-0.2098871,0.0,0.0,0.0,0.0,0
2568536000,-0.9777295,9.5113675e-05,0.001893804,-0.20988223,0.0,0.0,0.0,0.0,0
2568552000,-0.97773105,9.8243036e-05,0.0019629344,-0.20987435,0.0,0.0,0.0,0.0,0
2568564000,-0.97773194,0.00011223774,0.0020079326,-0.20986979,0.0,0.0,0.0,0.0,0
2568572000,-0.9777325,0.0001197552,0.0020395126,-0.20986706,0.0,0.0,0.0,0.0,0
2568588000,-0.97773343,0.000119235774,0.0021065054,-0.2098619,0.0,0.0,0.0,0.0,0
2568600000,-0.97773397,0.00010795714,0.0021603804,-0.20985872,0.0,0.0,0.0,0.0,0
2568608000,-0.97773427,9.275674e-05,0.0021976077,-0.20985709,0.0,0.0,0.0,0.0,0
2568624000,-0.97773486,3.8249073e-05,0.002260412,-0.20985366,0.0,0.0,0.0,0.0,0
2568636000,-0.9777353,-2.0100026e-05,0.0022917853,-0.20985132,0.0,0.0,0.0,0.0,0
2568644000,-0.9777355,-6.396563e-05,0.0023064045,-0.20984998,0.0,0.0,0.0,0.0,0
2568660000,-0.9777362,-0.0001544497,0.0023206354,-0.2098467,0.0,0.0,0.0,0.0,0
2568672000,-0.97773683,-0.00021571523,0.002327004,-0.20984353,0.0,0.0,0.0,0.0,0
2568684000,-0.97773755,-0.00025784152,0.0023422462,-0.20984004,0.0,0.0,0.0,0.0,0
2568692000,-0.9777381,-0.0002753331,0.0023577788,-0.2098373,0.0,0.0,0.0,0.0,0
2568708000,-0.9777395,-0.00030059216,0.0023947994,-0.2098301,0.0,0.0,0.0,0.0,0
2568720000,-0.9777412,-0.00031249688,0.0024206776,-0.20982218,0.0,0.0,0.0,0.0,0
2568732000,-0.977743,-0.00031711257,0.0024409462,-0.20981319,0.0,0.0,0.0,0.0,0
2568744000,-0.97774464,-0.00032233226,0.002462744,-0.20980552,0.0,0.0,0.0,0.0,0
2568756000,-0.9777457,-0.0003291414,0.0024852694,-0.20980029,0.0,0.0,0.0,0.0,0
2568768000,-0.9777465,-0.00032236057,0.0025169395,-0.20979626,0.0,0.0,0.0,0.0,0
2568780000,-0.97774726,-0.00030493733,0.0025579745,-0.20979209,0.0,0.0,0.0,0.0,0
2568792000,-0.9777483,-0.00028456416,0.0025961355,-0.20978707,0.0,0.0,0.0,0.0,0
2568800000,-0.977749,-0.0002755258,0.002619187,-0.20978336,0.0,0.0,0.0,0.0,0
2568812000,-0.9777502,-0.00027315354,0.0026491652,-0.20977747,0.0,0.0,0.0,0.0,0
2568824000,-0.9777515,-0.00028376313,0.0026679626,-0.20977111,0.0,0.0,0.0,0.0,0
2568840000,-0.9777533,-0.00031097815,0.0026851585,-0.2097625,0.0,0.0,0.0,0.0,0
2568852000,-0.9777543,-0.00033363132,0.0026952985,-0.2097577,0.0,0.0,0.0,0.0,0
2568864000,-0.97775495,-0.000349513,0.002698705,-0.20975438,0.0,0.0,0.0,0.0,0
2568872000,-0.9777554,-0.0003518732,0.0026970252,-0.20975219,0.0,0.0,0.0,0.0,0
2568888000,-0.9777565,-0.0003343685,0.00268244,-0.20974743,0.0,0.0,0.0,0.0,0
2568900000,-0.9777572,-0.00030476975,0.0026602629,-0.2097445,0.0,0.0,0.0,0.0,0
2568908000,-0.9777576,-0.0002791881,0.0026398804,-0.20974322,0.0,0.0,0.0,0.0,0
2568920000,-0.977758,-0.00023468559,0.0026028645,-0.20974183,0.0,0.0,0.0,0.0,0
2568932000,-0.97775817,-0.00018604896,0.0025606882,-0.20974149,0.0,0.0,0.0,0.0,0
2568948000,-0.9777578,-0.00012391419,0.0025112797,-0.20974383,0.0,0.0,0.0,0.0,0
2568960000,-0.9777574,-7.9498495e-05,0.0024914185,-0.20974587,0.0,0.0,0.0,0.0,0
2568968000,-0.97775716,-5.2258074e-05,0.0024909566,-0.20974708,0.0,0.0,0.0,0.0,0
2568984000,-0.97775644,-5.13831e-06,0.0025136687,-0.20975007,0.0,0.0,0.0,0.0,0
2568996000,-0.9777556,1.1360165e-05,0.0025456436,-0.20975363,0.0,0.0,0.0,0.0,0
2569008000,-0.9777545,1.4816777e-05,0.0025767232,-0.2097587,0.0,0.0,0.0,0.0,0
2569020000,-0.97775304,1.2278356e-06,0.0025923855,-0.20976502,0.0,0.0,0.0,0.0,0
2569032000,-0.9777512,-3.0821197e-05,0.0025950682,-0.20977369,0.0,0.0,0.0,0.0,0
2569040000,-0.9777496,-6.3026004e-05,0.0025899815,-0.20978115,0.0,0.0,0.0,0.0,0
2569052000,-0.9777467,-0.00011822261,0.0025741372,-0.2097947,0.0,0.0,0.0,0.0,0
2569064000,-0.97774327,-0.00016985,0.0025520397,-0.209811,0.0,0.0,0.0,0.0,0
2569080000,-0.97773826,-0.00022560071,0.0025197293,-0.20983483,0.0,0.0,0.0,0.0,0
2569092000,-0.97773427,-0.0002591103,0.0024897119,-0.20985353,0.0,0.0,0.0,0.0,0
2569104000,-0.9777303,-0.00028711802,0.0024546045,-0.2098726,0.0,0.0,0.0,0.0,0
2569116000,-0.9777263,-0.0003123934,0.0024128344,-0.20989166,0.0,0.0,0.0,0.0,0
2569128000,-0.9777225,-0.00033161655,0.0023713494,-0.20990968,0.0,0.0,0.0,0.0,0
2569140000,-0.97771883,-0.0003430181,0.002335385,-0.20992726,0.0,0.0,0.0,0.0,0
2569152000,-0.9777151,-0.00035036073,0.002311621,-0.20994492,0.0,0.0,0.0,0.0,0
2569164000,-0.97771144,-0.00035642934,0.0023035884,-0.20996186,0.0,0.0,0.0,0.0,0
2569176000,-0.9777079,-0.00037170958,0.0023112595,-0.20997806,0.0,0.0,0.0,0.0,0
2569188000,-0.9777047,-0.00039425897,0.0023279274,-0.20999283,0.0,0.0,0.0,0.0,0
2569200000,-0.9777017,-0.00043097654,0.0023518575,-0.21000654,0.0,0.0,0.0,0.0,0
2569208000,-0.97769976,-0.00045958933,0.0023706453,-0.21001542,0.0,0.0,0.0,0.0,0
2569224000,-0.97769606,-0.0005086339,0.002400571,-0.21003224,0.0,0.0,0.0,0.0,0
2569236000,-0.9776937,-0.00053791056,0.0024142603,-0.21004309,0.0,0.0,0.0,0.0,0
2569248000,-0.97769135,-0.0005742341,0.0024244266,-0.21005373,0.0,0.0,0.0,0.0,0
2569260000,-0.97768897,-0.00062536536,0.0024290564,-0.21006437,0.0,0.0,0.0,0.0,0
2569272000,-0.97768664,-0.00068328326,0.002430154,-0.2100751,0.0,0.0,0.0,0.0,0
2569284000,-0.9776843,-0.0007305302,0.0024332725,-0.21008582,0.0,0.0,0.0,0.0,0
2569292000,-0.97768277,-0.00075432204,0.0024336826,-0.21009289,0.0,0.0,0.0,0.0,0
2569304000,-0.9776804,-0.00078022224,0.002430567,-0.21010391,0.0,0.0,0.0,0.0,0
2569316000,-0.9776778,-0.00079978316,0.0024276085,-0.21011576,0.0,0.0,0.0,0.0,0
2569332000,-0.9776741,-0.00083227956,0.002429741,-0.21013282,0.0,0.0,0.0,0.0,0
2569344000,-0.97767156,-0.0008609965,0.002433998,-0.21014471,0.0,0.0,0.0,0.0,0
2569356000,-0.97766924,-0.0008828837,0.0024490757,-0.21015525,0.0,0.0,0.0,0.0,0
2569368000,-0.9776669,-0.00089254015,0.0024755688,-0.21016562,0.0,0.0,0.0,0.0,0
2569380000,-0.9776645,-0.0008869048,0.0025107698,-0.21017663,0.0,0.0,0.0,0.0,0
2569392000,-0.97766167,-0.0008758078,0.0025577722,-0.210189,0.0,0.0,0.0,0.0,0
2569404000,-0.9776587,-0.00086924055,0.0026016433,-0.2102024,0.0,0.0,0.0,0.0,0
2569416000,-0.97765565,-0.00086256023,0.002631441,-0.21021618,0.0,0.0,0.0,0.0,0
2569428000,-0.9776526,-0.0008433018,0.0026504651,-0.21023026,0.0,0.0,0.0,0.0,0
2569440000,-0.9776494,-0.000816294,0.0026562808,-0.21024525,0.0,0.0,0.0,0.0,0
2569452000,-0.9776462,-0.0007887347,0.0026521005,-0.21026023,0.0,0.0,0.0,0.0,0
2569460000,-0.97764426,-0.00076793,0.0026486365,-0.21026929,0.0,0.0,0.0,0.0,0
2569476000,-0.9776409,-0.0007158598,0.0026514535,-0.2102851,0.0,0.0,0.0,0.0,0
2569488000,-0.97763866,-0.00067275396,0.0026684487,-0.21029532,0.0,0.0,0.0,0.0,0
2569500000,-0.9776366,-0.0006288479,0.0026949928,-0.21030506,0.0,0.0,0.0,0.0,0
2569512000,-0.97763455,-0.00058338366,0.00272321,-0.21031402,0.0,0.0,0.0,0.0,0
2569524000,-0.97763294,-0.0005354922,0.002735461,-0.21032159,0.0,0.0,0.0,0.0,0
2569536000,-0.97763145,-0.00049713306,0.0027360944,-0.21032846,0.0,0.0,0.0,0.0,0
2569544000,-0.97763056,-0.00047788263,0.0027326853,-0.2103328,0.0,0.0,0.0,0.0,0
2569560000,-0.9776289,-0.00044076896,0.0027318248,-0.2103407,0.0,0.0,0.0,0.0,0
2569572000,-0.97762793,-0.00040794423,0.002740827,-0.21034506,0.0,0.0,0.0,0.0,0
2569580000,-0.9776276,-0.00039049055,0.002746166,-0.21034683,0.0,0.0,0.0,0.0,0
2569596000,-0.9776273,-0.000371601,0.0027532342,-0.21034789,0.0,0.0,0.0,0.0,0
2569608000,-0.9776275,-0.00035938746,0.0027583917,-0.21034673,0.0,0.0,0.0,0.0,0
2569620000,-0.97762775,-0.0003431055,0.0027656574,-0.21034555,0.0,0.0,0.0,0.0,0
2569628000,-0.9776277,-0.0003361384,0.0027669428,-0.21034595,0.0,0.0,0.0,0.0,0
2569644000,-0.97762686,-0.0003295529,0.0027620972,-0.21034999,0.0,0.0,0.0,0.0,0
2569656000,-0.9776261,-0.00033263324,0.0027524102,-0.21035364,0.0,0.0,0.0,0.0,0
2569668000,-0.97762555,-0.00033566135,0.0027454288,-0.21035616,0.0,0.0,0.0,0.0,0
2569680000,-0.97762537,-0.0003395019,0.002747949,-0.21035708,0.0,0.0,0.0,0.0,0
2569692000,-0.9776255,-0.00034885338,0.0027642741,-0.21035618,0.0,0.0,0.0,0.0,0
2569704000,-0.9776259,-0.00036194338,0.0027929454,-0.21035384,0.0,0.0,0.0,0.0,0
2569716000,-0.97762656,-0.00038526652,0.002829248,-0.21035028,0.0,0.0,0.0,0.0,0
2569728000,-0.9776274,-0.0004198654,0.0028683126,-0.21034588,0.0,0.0,0.0,0.0,0
2569740000,-0.9776283,-0.00045848778,0.0029035462,-0.21034114,0.0,0.0,0.0,0.0,0
2569752000,-0.97762924,-0.0005025169,0.0029299615,-0.21033633,0.0,0.0,0.0,0.0,0
2569764000,-0.97763014,-0.0005432777,0.0029455766,-0.2103317,0.0,0.0,0.0,0.0,0
2569776000,-0.97763085,-0.0005824301,0.0029526816,-0.21032831,0.0,0.0,0.0,0.0,0
2569788000,-0.9776312,-0.0006217097,0.002958011,-0.2103264,0.0,0.0,0.0,0.0,0
2569800000,-0.9776312,-0.0006619508,0.002965815,-0.21032625,0.0,0.0,0.0,0.0,0
2569812000,-0.9776307,-0.0007056444,0.002975954,-0.21032827,0.0,0.0,0.0,0.0,0
2569824000,-0.97762996,-0.0007511554,0.0029755416,-0.21033143,0.0,0.0,0.0,0.0,0
2569836000,-0.9776293,-0.0008033449,0.0029628337,-0.21033467,0.0,0.0,0.0,0.0,0
2569848000,-0.9776288,-0.0008577616,0.0029382878,-0.21033686,0.0,0.0,0.0,0.0,0
2569860000,-0.97762865,-0.00090546935,0.0029063516,-0.21033786,0.0,0.0,0.0,0.0,0
2569872000,-0.9776287,-0.0009589951,0.0028735178,-0.2103378,0.0,0.0,0.0,0.0,0
2569884000,-0.97762907,-0.0010173955,0.0028367734,-0.21033654,0.0,0.0,0.0,0.0,0
2569896000,-0.97762954,-0.0010803123,0.002797724,-0.21033446,0.0,0.0,0.0,0.0,0
2569908000,-0.9776301,-0.0011475926,0.0027490088,-0.21033236,0.0,0.0,0.0,0.0,0
2569916000,-0.9776305,-0.0011911751,0.0027132777,-0.21033052,0.0,0.0,0.0,0.0,0
2569928000,-0.9776314,-0.0012538832,0.0026596137,-0.21032664,0.0,0.0,0.0,0.0,0
2569940000,-0.97763264,-0.0013126204,0.0026095496,-0.21032122,0.0,0.0,0.0,0.0,0
2569956000,-0.97763467,-0.0013867858,0.0025590279,-0.21031184,0.0,0.0,0.0,0.0,0
2569968000,-0.9776366,-0.0014276501,0.002532233,-0.21030304,0.0,0.0,0.0,0.0,0
2569980000,-0.97763896,-0.0014543865,0.002511618,-0.21029209,0.0,0.0,0.0,0.0,0
2569992000,-0.9776416,-0.0014697046,0.0024997382,-0.21027984,0.0,0.0,0.0,0.0,0
2570000000,-0.97764343,-0.0014715643,0.002497595,-0.2102713,0.0,0.0,0.0,0.0,0
2570016000,-0.9776471,-0.0014576692,0.0025036847,-0.21025403,0.0,0.0,0.0,0.0,0
2570028000,-0.97765,-0.0014417428,0.0025189256,-0.2102409,0.0,0.0,0.0,0.0,0
2570040000,-0.9776528,-0.0014274835,0.0025391262,-0.21022756,0.0,0.0,0.0,0.0,0
2570052000,-0.97765577,-0.0014109903,0.0025637788,-0.21021368,0.0,0.0,0.0,0.0,0
2570064000,-0.97765875,-0.0013979044,0.0026000969,-0.21019948,0.0,0.0,0.0,0.0,0
2570076000,-0.97766197,-0.0013894796,0.0026353546,-0.21018401,0.0,0.0,0.0,0.0,0
2570088000,-0.9776656,-0.0013835623,0.0026567036,-0.21016683,0.0,0.0,0.0,0.0,0
2570100000,-0.9776694,-0.001375663,0.002666742,-0.21014892,0.0,0.0,0.0,0.0,0
2570112000,-0.97767323,-0.0013678599,0.002671535,-0.21013114,0.0,0.0,0.0,0.0,0
2570124000,-0.977677,-0.0013679685,0.0026775347,-0.2101136,0.0,0.0,0.0,0.0,0
2570136000,-0.97768056,-0.0013784441,0.002684646,-0.21009697,0.0,0.0,0.0,0.0,0
2570148000,-0.97768384,-0.0013855497,0.002699375,-0.2100813,0.0,0.0,0.0,0.0,0
2570160000,-0.977687,-0.0013904326,0.0027267237,-0.21006626,0.0,0.0,0.0,0.0,0
2570172000,-0.9776901,-0.0013989824,0.0027695762,-0.21005125,0.0,0.0,0.0,0.0,0
2570180000,-0.9776923,-0.0014064374,0.0028030928,-0.21004063,0.0,0.0,0.0,0.0,0
2570196000,-0.9776974,-0.0014130317,0.002884109,-0.21001591,0.0,0.0,0.0,0.0,0
2570204000,-0.97770023,-0.0014179713,0.0029314072,-0.21000172,0.0,0.0,0.0,0.0,0
2570216000,-0.977705,-0.0014364218,0.0030109065,-0.20997846,0.0,0.0,0.0,0.0,0
2570228000,-0.97770995,-0.0014737927,0.0030941416,-0.20995381,0.0,0.0,0.0,0.0,0
2570244000,-0.9777166,-0.0015321106,0.0031932516,-0.20992084,0.0,0.0,0.0,0.0,0
2570256000,-0.97772145,-0.0015743211,0.0032440366,-0.20989715,0.0,0.0,0.0,0.0,0
2570268000,-0.97772616,-0.0016112517,0.0032722687,-0.20987454,0.0,0.0,0.0,0.0,0
2570280000,-0.9777305,-0.0016429084,0.0032767397,-0.2098541,0.0,0.0,0.0,0.0,0
2570292000,-0.9777341,-0.0016698809,0.0032587983,-0.20983736,0.0,0.0,0.0,0.0,0
2570304000,-0.97773707,-0.0016892434,0.0032334959,-0.2098237,0.0,0.0,0.0,0.0,0
2570316000,-0.97773993,-0.001701772,0.0032130587,-0.20981055,0.0,0.0,0.0,0.0,0
2570328000,-0.97774285,-0.001709507,0.0032053478,-0.20979719,0.0,0.0,0.0,0.0,0
2570340000,-0.97774553,-0.0017211245,0.0032155912,-0.20978422,0.0,0.0,0.0,0.0,0
2570352000,-0.9777482,-0.001739164,0.0032367883,-0.2097713,0.0,0.0,0.0,0.0,0
2570364000,-0.97775096,-0.0017626717,0.0032576744,-0.20975815,0.0,0.0,0.0,0.0,0
2570376000,-0.97775364,-0.0017879643,0.003272116,-0.20974503,0.0,0.0,0.0,0.0,0
2570388000,-0.9777564,-0.0018193049,0.0032850716,-0.20973198,0.0,0.0,0.0,0.0,0
2570400000,-0.97775894,-0.0018537758,0.003300749,-0.2097194,0.0,0.0,0.0,0.0,0
2570408000,-0.97776073,-0.0018699298,0.0033124213,-0.20971061,0.0,0.0,0.0,0.0,0
2570424000,-0.97776484,-0.00187706,0.0033233808,-0.20969126,0.0,0.0,0.0,0.0,0
2570432000,-0.97776705,-0.0018713028,0.0033217403,-0.20968111,0.0,0.0,0.0,0.0,0
2570448000,-0.97777146,-0.001854479,0.0033122345,-0.20966078,0.0,0.0,0.0,0.0,0
2570460000,-0.97777474,-0.0018481766,0.0033005057,-0.20964572,0.0,0.0,0.0,0.0,0
2570468000,-0.97777677,-0.0018507891,0.003291761,-0.20963633,0.0,0.0,0.0,0.0,0
2570480000,-0.9777794,-0.0018696256,0.0032809572,-0.20962426,0.0,0.0,0.0,0.0,0
2570496000,-0.97778195,-0.0019201195,0.0032750089,-0.20961197,0.0,0.0,0.0,0.0,0
2570504000,-0.9777827,-0.0019558768,0.0032759418,-0.20960782,0.0,0.0,0.0,0.0,0
2570520000,-0.97778326,-0.0020319892,0.003278338,-0.20960465,0.0,0.0,0.0,0.0,0
2570532000,-0.977783,-0.002094838,0.0032709725,-0.20960516,0.0,0.0,0.0,0.0,0
2570544000,-0.97778267,-0.0021554104,0.003261524,-0.2096065,0.0,0.0,0.0,0.0,0
2570556000,-0.97778225,-0.0022080378,0.0032537559,-0.20960803,0.0,0.0,0.0,0.0,0
2570564000,-0.9777819,-0.0022329283,0.003248484,-0.2096096,0.0,0.0,0.0,0.0,0
2570580000,-0.9777809,-0.002269071,0.003237506,-0.20961405,0.0,0.0,0.0,0.0,0
2570592000,-0.9777803,-0.002296059,0.0032365988,-0.20961651,0.0,0.0,0.0,0.0,0
2570604000,-0.9777801,-0.002322352,0.0032429248,-0.20961685,0.0,0.0,0.0,0.0,0
2570616000,-0.97778034,-0.0023401882,0.0032543363,-0.20961544,0.0,0.0,0.0,0.0,0
2570628000,-0.97778076,-0.002348266,0.0032656242,-0.20961313,0.0,0.0,0.0,0.0,0
2570640000,-0.9777812,-0.0023574494,0.003284263,-0.20961095,0.0,0.0,0.0,0.0,0
2570652000,-0.97778136,-0.0023649894,0.0033111647,-0.20960964,0.0,0.0,0.0,0.0,0
2570664000,-0.9777813,-0.0023725927,0.0033460907,-0.20960924,0.0,0.0,0.0,0.0,0
2570672000,-0.9777812,-0.0023795234,0.0033785957,-0.20960903,0.0,0.0,0.0,0.0,0
2570688000,-0.9777809,-0.0024046407,0.0034593944,-0.20960893,0.0,0.0,0.0,0.0,0
2570700000,-0.97778034,-0.0024163919,0.0035226685,-0.20961024,0.0,0.0,0.0,0.0,0
2570712000,-0.9777796,-0.0024186254,0.003579282,-0.20961253,0.0,0.0,0.0,0.0,0
2570724000,-0.97777903,-0.0024149737,0.0036235445,-0.20961463,0.0,0.0,0.0,0.0,0
2570736000,-0.9777787,-0.0024099455,0.0036596584,-0.2096158,0.0,0.0,0.0,0.0,0
2570748000,-0.97777855,-0.0024010467,0.0036902188,-0.2096159,0.0,0.0,0.0,0.0,0
2570756000,-0.9777787,-0.00239362,0.0037119274,-0.2096149,0.0,0.0,0.0,0.0,0
2570768000,-0.9777793,-0.0023828882,0.0037440269,-0.20961142,0.0,0.0,0.0,0.0,0
2570784000,-0.9777808,-0.002377026,0.0037737854,-0.20960414,0.0,0.0,0.0,0.0,0
2570796000,-0.97778225,-0.0023844966,0.0037857203,-0.20959707,0.0,0.0,0.0,0.0,0
2570804000,-0.9777833,-0.0023965251,0.003790494,-0.209592,0.0,0.0,0.0,0.0,0
2570820000,-0.9777851,-0.0024343603,0.0037843627,-0.2095831,0.0,0.0,0.0,0.0,0
2570828000,-0.97778594,-0.0024573342,0.003774372,-0.20957929,0.0,0.0,0.0,0.0,0
2570840000,-0.97778714,-0.0024956814,0.0037498502,-0.20957358,0.0,0.0,0.0,0.0,0
2570856000,-0.9777894,-0.0025356847,0.0036963117,-0.2095637,0.0,0.0,0.0,0.0,0
2570868000,-0.97779083,-0.0025603021,0.003647559,-0.20955741,0.0,0.0,0.0,0.0,0
2570880000,-0.97779185,-0.0025881305,0.0035955252,-0.20955342,0.0,0.0,0.0,0.0,0
2570892000,-0.97779256,-0.0026171124,0.003545248,-0.20955034,0.0,0.0,0.0,0.0,0
2570904000,-0.9777934,-0.002647552,0.003508634,-0.20954683,0.0,0.0,0.0,0.0,0
2570916000,-0.9777943,-0.0026760877,0.0034824251,-0.2095426,0.0,0.0,0.0,0.0,0
2570928000,-0.97779524,-0.0026897753,0.0034535923,-0.20953856,0.0,0.0,0.0,0.0,0
2570940000,-0.977796,-0.0026832437,0.0034224994,-0.20953548,0.0,0.0,0.0,0.0,0
2570952000,-0.9777967,-0.0026693607,0.00338786,-0.20953326,0.0,0.0,0.0,0.0,0
2570964000,-0.97779703,-0.0026575683,0.0033427707,-0.20953229,0.0,0.0,0.0,0.0,0
2570976000,-0.9777973,-0.0026431403,0.0032824345,-0.20953229,0.0,0.0,0.0,0.0,0
2570988000,-0.97779745,-0.0026199294,0.0032141884,-0.20953289,0.0,0.0,0.0,0.0,0
2571000000,-0.9777975,-0.0025872306,0.0031419827,-0.20953421,0.0,0.0,0.0,0.0,0
2571008000,-0.9777974,-0.0025619697,0.003093614,-0.20953573,0.0,0.0,0.0,0.0,0
2571024000,-0.9777969,-0.0025152587,0.003001797,-0.20953986,0.0,0.0,0.0,0.0,0
2571036000,-0.9777966,-0.0024818757,0.0029411137,-0.20954251,0.0,0.0,0.0,0.0,0
2571048000,-0.97779644,-0.0024520997,0.002890272,-0.20954442,0.0,0.0,0.0,0.0,0
2571060000,-0.9777964,-0.0024308728,0.0028481802,-0.20954545,0.0,0.0,0.0,0.0,0
2571072000,-0.9777964,-0.0024074956,0.0028183805,-0.20954607,0.0,0.0,0.0,0.0,0
2571084000,-0.9777965,-0.0023702509,0.0028008465,-0.20954634,0.0,0.0,0.0,0.0,0
2571096000,-0.9777965,-0.00232224,0.0028015964,-0.20954677,0.0,0.0,0.0,0.0,0
2571108000,-0.9777964,-0.0022719752,0.002820303,-0.20954774,0.0,0.0,0.0,0.0,0
2571120000,-0.977796,-0.002226327,0.002852462,-0.2095494,0.0,0.0,0.0,0.0,0
2571132000,-0.9777956,-0.0021844178,0.002898901,-0.2095512,0.0,0.0,0.0,0.0,0
2571140000,-0.97779536,-0.0021594965,0.0029314826,-0.20955202,0.0,0.0,0.0,0.0,0
2571156000,-0.9777953,-0.002115157,0.0029963271,-0.20955202,0.0,0.0,0.0,0.0,0
2571168000,-0.9777955,-0.00208265,0.00304536,-0.20955066,0.0,0.0,0.0,0.0,0
2571180000,-0.9777961,-0.0020468272,0.0030938813,-0.20954758,0.0,0.0,0.0,0.0,0
2571188000,-0.97779673,-0.0020191446,0.0031261577,-0.20954435,0.0,0.0,0.0,0.0,0
2571204000,-0.97779864,-0.00194193,0.0031841386,-0.20953535,0.0,0.0,0.0,0.0,0
2571216000,-0.9778003,-0.0018768962,0.0032297333,-0.20952722,0.0,0.0,0.0,0.0,0
2571228000,-0.97780216,-0.0018137711,0.0032824783,-0.20951848,0.0,0.0,0.0,0.0,0
2571240000,-0.977804,-0.0017529489,0.0033397926,-0.20950945,0.0,0.0,0.0,0.0,0
2571252000,-0.977806,-0.0016986594,0.0033975593,-0.20949975,0.0,0.0,0.0,0.0,0
2571264000,-0.97780806,-0.001651204,0.003445107,-0.20948957,0.0,0.0,0.0,0.0,0
2571272000,-0.9778094,-0.0016223507,0.0034697943,-0.20948307,0.0,0.0,0.0,0.0,0
2571288000,-0.9778118,-0.0015730793,0.003509711,-0.20947167,0.0,0.0,0.0,0.0,0
2571300000,-0.9778132,-0.0015421318,0.0035319019,-0.20946516,0.0,0.0,0.0,0.0,0
2571308000,-0.9778138,-0.0015246127,0.003540917,-0.20946234,0.0,0.0,0.0,0.0,0
2571320000,-0.97781426,-0.0015028563,0.0035548718,-0.20946011,0.0,0.0,0.0,0.0,0
2571336000,-0.9778138,-0.0014886379,0.0035826163,-0.20946199,0.0,0.0,0.0,0.0,0
2571344000,-0.977813,-0.0014850519,0.003605809,-0.20946515,0.0,0.0,0.0,0.0,0
2571360000,-0.97781074,-0.0014810174,0.003679477,-0.20947455,0.0,0.0,0.0,0.0,0
2571372000,-0.97780865,-0.0014914251,0.0037298792,-0.2094833,0.0,0.0,0.0,0.0,0
2571384000,-0.9778066,-0.0015214424,0.0037678042,-0.20949182,0.0,0.0,0.0,0.0,0
2571396000,-0.97780484,-0.0015652927,0.0037915027,-0.20949924,0.0,0.0,0.0,0.0,0
2571408000,-0.9778034,-0.0016125521,0.0037992627,-0.20950554,0.0,0.0,0.0,0.0,0
2571420000,-0.9778021,-0.0016590509,0.0037921963,-0.20951137,0.0,0.0,0.0,0.0,0
2571432000,-0.97780114,-0.0016997347,0.0037639483,-0.20951614,0.0,0.0,0.0,0.0,0
2571444000,-0.97780055,-0.0017371883,0.0037145028,-0.20951937,0.0,0.0,0.0,0.0,0
2571456000,-0.9778003,-0.0017778822,0.0036531934,-0.20952137,0.0,0.0,0.0,0.0,0
2571468000,-0.9778001,-0.0018204338,0.0035848306,-0.20952314,0.0,0.0,0.0,0.0,0
2571480000,-0.9777997,-0.0018701684,0.0035251465,-0.20952533,0.0,0.0,0.0,0.0,0
2571492000,-0.97779906,-0.0019330411,0.0034767515,-0.2095288,0.0,0.0,0.0,0.0,0
2571500000,-0.9777984,-0.0019790798,0.0034495415,-0.20953181,0.0,0.0,0.0,0.0,0
2571516000,-0.97779685,-0.0020716102,0.0033974403,-0.2095389,0.0,0.0,0.0,0.0,0
2571528000,-0.9777952,-0.0021372945,0.0033682089,-0.20954658,0.0,0.0,0.0,0.0,0
2571536000,-0.9777939,-0.0021745162,0.0033598135,-0.2095525,0.0,0.0,0.0,0.0,0
2571552000,-0.97779125,-0.0022188772,0.0033584274,-0.20956416,0.0,0.0,0.0,0.0,0
2571564000,-0.9777894,-0.0022317448,0.0033653472,-0.20957264,0.0,0.0,0.0,0.0,0
2571576000,-0.97778773,-0.0022383353,0.0033722557,-0.20958021,0.0,0.0,0.0,0.0,0
2571588000,-0.9777864,-0.0022349989,0.0033846262,-0.20958628,0.0,0.0,0.0,0.0,0
2571600000,-0.97778535,-0.002215763,0.0034031372,-0.209591,0.0,0.0,0.0,0.0,0
2571608000,-0.9777848,-0.0021978887,0.0034192312,-0.20959353,0.0,0.0,0.0,0.0,0
2571624000,-0.97778386,-0.0021587627,0.0034615838,-0.20959768,0.0,0.0,0.0,0.0,0
2571636000,-0.9777832,-0.0021391716,0.003500399,-0.2096002,0.0,0.0,0.0,0.0,0
2571644000,-0.97778285,-0.0021364612,0.0035276238,-0.2096015,0.0,0.0,0.0,0.0,0
2571656000,-0.97778225,-0.0021418,0.0035656102,-0.20960355,0.0,0.0,0.0,0.0,0
2571672000,-0.9777812,-0.0021663725,0.0036091262,-0.20960769,0.0,0.0,0.0,0.0,0
2571680000,-0.97778064,-0.0021815368,0.003627417,-0.20960975,0.0,0.0,0.0,0.0,0
2571696000,-0.97777975,-0.0021977907,0.0036709947,-0.20961297,0.0,0.0,0.0,0.0,0
2571708000,-0.9777787,-0.0022063588,0.0037020121,-0.20961735,0.0,0.0,0.0,0.0,0
2571716000,-0.97777766,-0.0022123517,0.0037162616,-0.20962158,0.0,0.0,0.0,0.0,0
2571732000,-0.9777756,-0.002210778,0.0037314254,-0.20963112,0.0,0.0,0.0,0.0,0
2571744000,-0.9777742,-0.0021927925,0.0037309625,-0.20963769,0.0,0.0,0.0,0.0,0
2571756000,-0.9777733,-0.0021554765,0.0037210116,-0.20964238,0.0,0.0,0.0,0.0,0
2571768000,-0.97777295,-0.0021076875,0.0037007106,-0.20964499,0.0,0.0,0.0,0.0,0
2571780000,-0.9777728,-0.0020625736,0.003672424,-0.20964664,0.0,0.0,0.0,0.0,0
2571792000,-0.9777727,-0.0020177185,0.0036348419,-0.2096481,0.0,0.0,0.0,0.0,0
2571804000,-0.9777729,-0.0019705181,0.0035957643,-0.20964831,0.0,0.0,0.0,0.0,0
2571812000,-0.9777732,-0.001938862,0.0035724186,-0.20964774,0.0,0.0,0.0,0.0,0
2571828000,-0.977774,-0.0018707387,0.0035306201,-0.20964526,0.0,0.0,0.0,0.0,0
2571840000,-0.97777486,-0.0018211317,0.0035082344,-0.20964207,0.0,0.0,0.0,0.0,0
2571852000,-0.9777759,-0.001773487,0.003496522,-0.20963801,0.0,0.0,0.0,0.0,0
2571864000,-0.977777,-0.0017364235,0.0034973093,-0.20963308,0.0,0.0,0.0,0.0,0
2571876000,-0.97777826,-0.001713549,0.003507891,-0.20962708,0.0,0.0,0.0,0.0,0
2571888000,-0.97777957,-0.0017118509,0.0035291843,-0.20962068,0.0,0.0,0.0,0.0,0
2571900000,-0.9777809,-0.0017248754,0.0035578455,-0.2096139,0.0,0.0,0.0,0.0,0
2571912000,-0.9777825,-0.0017438094,0.003586106,-0.20960596,0.0,0.0,0.0,0.0,0
2571924000,-0.9777841,-0.001757243,0.0036090359,-0.2095979,0.0,0.0,0.0,0.0,0
2571936000,-0.97778547,-0.0017525778,0.0036238597,-0.20959112,0.0,0.0,0.0,0.0,0
2571944000,-0.9777863,-0.0017413379,0.0036297606,-0.20958741,0.0,0.0,0.0,0.0,0
2571960000,-0.9777878,-0.001706683,0.0036354647,-0.20958053,0.0,0.0,0.0,0.0,0
2571972000,-0.9777889,-0.0016686046,0.0036373425,-0.20957553,0.0,0.0,0.0,0.0,0
2571984000,-0.97778994,-0.0016163002,0.0036313692,-0.20957124,0.0,0.0,0.0,0.0,0
2571996000,-0.9777909,-0.0015514279,0.0036153106,-0.20956767,0.0,0.0,0.0,0.0,0
2572008000,-0.9777918,-0.0014810544,0.003591872,-0.20956448,0.0,0.0,0.0,0.0,0
2572020000,-0.97779274,-0.0014047455,0.0035632702,-0.20956086,0.0,0.0,0.0,0.0,0
2572028000,-0.9777935,-0.0013557764,0.0035429788,-0.209558,0.0,0.0,0.0,0.0,0
2572044000,-0.9777952,-0.0012748368,0.0034832612,-0.20955184,0.0,0.0,0.0,0.0,0
2572056000,-0.97779626,-0.0012291573,0.003424506,-0.20954786,0.0,0.0,0.0,0.0,0
2572068000,-0.97779745,-0.0011945083,0.0033539946,-0.2095437,0.0,0.0,0.0,0.0,0
2572080000,-0.97779906,-0.0011632763,0.0032876153,-0.20953755,0.0,0.0,0.0,0.0,0
2572092000,-0.9778008,-0.0011332508,0.0032377886,-0.20953025,0.0,0.0,0.0,0.0,0
2572104000,-0.97780263,-0.001104651,0.0032028286,-0.2095225,0.0,0.0,0.0,0.0,0
2572112000,-0.9778038,-0.0010875642,0.003184564,-0.20951708,0.0,0.0,0.0,0.0,0
2572124000,-0.9778057,-0.0010640753,0.0031583696,-0.20950904,0.0,0.0,0.0,0.0,0
2572140000,-0.977808,-0.0010480427,0.003118376,-0.20949885,0.0,0.0,0.0,0.0,0
2572152000,-0.97780985,-0.00105098,0.0030831995,-0.20949079,0.0,0.0,0.0,0.0,0
2572164000,-0.9778117,-0.0010592567,0.0030547096,-0.20948264,0.0,0.0,0.0,0.0,0
2572176000,-0.9778134,-0.001073888,0.0030339593,-0.20947465,0.0,0.0,0.0,0.0,0
2572188000,-0.9778152,-0.0010954714,0.0030167415,-0.2094664,0.0,0.0,0.0,0.0,0
2572200000,-0.97781724,-0.001135449,0.0029986673,-0.20945717,0.0,0.0,0.0,0.0,0
2572212000,-0.9778194,-0.0011869087,0.0029839291,-0.20944701,0.0,0.0,0.0,0.0,0
2572224000,-0.97782165,-0.001244593,0.0029657164,-0.20943646,0.0,0.0,0.0,0.0,0
2572236000,-0.9778238,-0.0012976455,0.0029414166,-0.20942637,0.0,0.0,0.0,0.0,0
2572244000,-0.9778251,-0.0013257932,0.0029199275,-0.20942028,0.0,0.0,0.0,0.0,0
2572260000,-0.97782785,-0.0013727932,0.002872682,-0.20940797,0.0,0.0,0.0,0.0,0
2572272000,-0.97783005,-0.0013949045,0.0028342146,-0.20939794,0.0,0.0,0.0,0.0,0
2572284000,-0.9778323,-0.0014102148,0.0027966376,-0.20938788,0.0,0.0,0.0,0.0,0
2572292000,-0.97783387,-0.0014207284,0.00277172,-0.2093808,0.0,0.0,0.0,0.0,0
2572308000,-0.97783756,-0.0014355547,0.0027336709,-0.20936401,0.0,0.0,0.0,0.0,0
2572320000,-0.97784084,-0.0014405687,0.0027340562,-0.20934848,0.0,0.0,0.0,0.0,0
2572332000,-0.97784436,-0.0014461715,0.002759835,-0.20933178,0.0,0.0,0.0,0.0,0
2572340000,-0.9778466,-0.0014501683,0.0027882599,-0.2093207,0.0,0.0,0.0,0.0,0
2572356000,-0.97785103,-0.0014397219,0.0028583158,-0.20929945,0.0,0.0,0.0,0.0,0
2572368000,-0.9778542,-0.0014138622,0.0029082207,-0.2092841,0.0,0.0,0.0,0.0,0
2572380000,-0.97785723,-0.0013827549,0.002941369,-0.20926952,0.0,0.0,0.0,0.0,0
2572392000,-0.97786015,-0.0013468063,0.0029561648,-0.209256,0.0,0.0,0.0,0.0,0
2572404000,-0.9778627,-0.0013080852,0.0029563662,-0.20924422,0.0,0.0,0.0,0.0,0
2572416000,-0.97786456,-0.0012700015,0.0029436864,-0.20923597,0.0,0.0,0.0,0.0,0
2572428000,-0.9778658,-0.0012473954,0.0029181836,-0.20923063,0.0,0.0,0.0,0.0,0
2572436000,-0.97786635,-0.0012372195,0.0029024386,-0.20922844,0.0,0.0,0.0,0.0,0
2572452000,-0.9778664,-0.0012283744,0.0028846567,-0.20922849,0.0,0.0,0.0,0.0,0
2572464000,-0.9778655,-0.0012306657,0.0028789318,-0.20923285,0.0,0.0,0.0,0.0,0
2572476000,-0.97786415,-0.0012306786,0.0028718465,-0.20923935,0.0,0.0,0.0,0.0,0
2572484000,-0.97786313,-0.0012287989,0.0028684593,-0.20924406,0.0,0.0,0.0,0.0,0
2572496000,-0.97786164,-0.0012279731,0.0028614223,-0.2092511,0.0,0.0,0.0,0.0,0
2572512000,-0.97786003,-0.0012345499,0.0028491868,-0.20925863,0.0,0.0,0.0,0.0,0
2572520000,-0.97785956,-0.001240072,0.00284481,-0.20926097,0.0,0.0,0.0,0.0,0
2572536000,-0.97785884,-0.0012480852,0.0028430214,-0.20926426,0.0,0.0,0.0,0.0,0
2572544000,-0.9778586,-0.0012465682,0.0028488396,-0.20926543,0.0,0.0,0.0,0.0,0
2572560000,-0.97785836,-0.0012210663,0.0028708258,-0.20926642,0.0,0.0,0.0,0.0,0
2572572000,-0.9778584,-0.0011881482,0.0028872679,-0.20926589,0.0,0.0,0.0,0.0,0
2572580000,-0.97785866,-0.0011606849,0.0028975825,-0.20926479,0.0,0.0,0.0,0.0,0
2572596000,-0.9778596,-0.0010939534,0.0029161728,-0.20926066,0.0,0.0,0.0,0.0,0
2572608000,-0.9778606,-0.0010341024,0.0029242677,-0.2092561,0.0,0.0,0.0,0.0,0
2572620000,-0.9778618,-0.0009642153,0.0029266428,-0.20925064,0.0,0.0,0.0,0.0,0
2572628000,-0.97786283,-0.00091271836,0.0029238535,-0.20924637,0.0,0.0,0.0,0.0,0
2572644000,-0.977865,-0.0008003696,0.0029018605,-0.20923688,0.0,0.0,0.0,0.0,0
2572652000,-0.9778662,-0.0007426035,0.0028896115,-0.20923181,0.0,0.0,0.0,0.0,0
2572668000,-0.9778688,-0.0006325652,0.0028682514,-0.20922014,0.0,0.0,0.0,0.0,0
2572680000,-0.977871,-0.0005559926,0.0028579037,-0.20921023,0.0,0.0,0.0,0.0,0
2572688000,-0.97787243,-0.00050982146,0.002854683,-0.20920366,0.0,0.0,0.0,0.0,0
2572700000,-0.9778743,-0.0004504346,0.0028532452,-0.20919514,0.0,0.0,0.0,0.0,0
2572716000,-0.9778756,-0.00039831444,0.0028569924,-0.20918924,0.0,0.0,0.0,0.0,0
2572724000,-0.9778758,-0.00038140095,0.0028632628,-0.20918788,0.0,0.0,0.0,0.0,0
2572740000,-0.97787625,-0.00036344648,0.0028830073,-0.20918575,0.0,0.0,0.0,0.0,0
2572752000,-0.9778766,-0.00036637206,0.0028962856,-0.20918383,0.0,0.0,0.0,0.0,0
2572760000,-0.977877,-0.00037376894,0.0029055923,-0.20918198,0.0,0.0,0.0,0.0,0
2572772000,-0.9778777,-0.0003835232,0.0029197594,-0.20917846,0.0,0.0,0.0,0.0,0
2572784000,-0.97787845,-0.00038153198,0.0029333865,-0.2091747,0.0,0.0,0.0,0.0,0
2572800000,-0.9778794,-0.0003625259,0.0029524842,-0.20917006,0.0,0.0,0.0,0.0,0
2572812000,-0.9778801,-0.00033150287,0.0029688927,-0.2091665,0.0,0.0,0.0,0.0,0
2572824000,-0.9778811,-0.00029825262,0.0029748462,-0.20916212,0.0,0.0,0.0,0.0,0
2572836000,-0.9778821,-0.0002715041,0.0029674089,-0.20915757,0.0,0.0,0.0,0.0,0
2572848000,-0.97788304,-0.00024515192,0.0029508278,-0.20915319,0.0,0.0,0.0,0.0,0
2572860000,-0.97788405,-0.00020789533,0.0029247385,-0.20914905,0.0,0.0,0.0,0.0,0
2572872000,-0.97788495,-0.00016758307,0.0028918078,-0.2091452,0.0,0.0,0.0,0.0,0
2572880000,-0.97788554,-0.00014121356,0.0028686957,-0.20914282,0.0,0.0,0.0,0.0,0
2572896000,-0.9778867,-8.8954155e-05,0.002822868,-0.20913826,0.0,0.0,0.0,0.0,0
2572908000,-0.97788745,-5.3189684e-05,0.0027950322,-0.20913503,0.0,0.0,0.0,0.0,0
2572920000,-0.97788817,-2.008565e-05,0.002775391,-0.20913194,0.0,0.0,0.0,0.0,0
2572932000,-0.9778888,1.5596523e-06,0.0027616634,-0.20912893,0.0,0.0,0.0,0.0,0
2572944000,-0.97788954,1.7030869e-05,0.002745184,-0.20912586,0.0,0.0,0.0,0.0,0
2572956000,-0.97789043,2.3717164e-05,0.002722422,-0.20912191,0.0,0.0,0.0,0.0,0
2572968000,-0.9778917,2.5921976e-05,0.0026908095,-0.20911647,0.0,0.0,0.0,0.0,0
2572980000,-0.9778931,2.0945137e-05,0.002655879,-0.20911019,0.0,0.0,0.0,0.0,0
2572992000,-0.97789454,1.5815509e-05,0.0026109503,-0.20910409,0.0,0.0,0.0,0.0,0
2573004000,-0.97789586,9.966244e-06,0.0025546746,-0.20909865,0.0,0.0,0.0,0.0,0
2573016000,-0.9778971,9.8866185e-06,0.0024851956,-0.2090936,0.0,0.0,0.0,0.0,0
2573028000,-0.97789836,2.1090773e-05,0.0024119453,-0.2090887,0.0,0.0,0.0,0.0,0
2573040000,-0.97789943,4.6198606e-05,0.002341367,-0.20908448,0.0,0.0,0.0,0.0,0
2573052000,-0.97790027,7.261029e-05,0.0022887432,-0.20908125,0.0,0.0,0.0,0.0,0
2573060000,-0.9779007,8.725608e-05,0.0022634792,-0.20907956,0.0,0.0,0.0,0.0,0
2573076000,-0.9779015,0.00011353061,0.0022247045,-0.20907602,0.0,0.0,0.0,0.0,0
2573088000,-0.97790223,0.00013002119,0.002198533,-0.2090729,0.0,0.0,0.0,0.0,0
2573100000,-0.97790277,0.00013530867,0.00216831,-0.20907073,0.0,0.0,0.0,0.0,0
2573112000,-0.97790277,0.00013501574,0.0021401735,-0.20907085,0.0,0.0,0.0,0.0,0
2573124000,-0.9779025,0.0001387975,0.0021200732,-0.2090725,0.0,0.0,0.0,0.0,0
2573136000,-0.9779021,0.0001528902,0.0021050952,-0.20907433,0.0,0.0,0.0,0.0,0
2573148000,-0.9779019,0.000169877,0.002085288,-0.20907581,0.0,0.0,0.0,0.0,0
2573160000,-0.9779018,0.0001867423,0.0020644495,-0.20907621,0.0,0.0,0.0,0.0,0
2573168000,-0.97790194,0.00019838489,0.0020522254,-0.20907576,0.0,0.0,0.0,0.0,0
2573184000,-0.9779026,0.00022009877,0.0020392444,-0.20907281,0.0,0.0,0.0,0.0,0
2573196000,-0.9779034,0.00022843553,0.002043636,-0.20906869,0.0,0.0,0.0,0.0,0
2573208000,-0.97790444,0.00022283904,0.0020643899,-0.20906377,0.0,0.0,0.0,0.0,0
2573216000,-0.9779052,0.00021249977,0.0020852007,-0.20906018,0.0,0.0,0.0,0.0,0
2573232000,-0.9779069,0.00017704804,0.00213551,-0.20905189,0.0,0.0,0.0,0.0,0
2573240000,-0.97790784,0.00015844395,0.0021626803,-0.20904703,0.0,0.0,0.0,0.0,0
