timestamp,q[0],q[1],q[2],q[3],delta_q_reset[0],delta_q_reset[1],delta_q_reset[2],delta_q_reset[3],quat_reset_counter
2564256000,0.9784544,-0.00020226452,-0.0026627718,0.20644593,-0.99999464,1.45519135e-11,1.8189892e-11,0.0032733525,4
2564308000,0.9784508,-0.00020833865,-0.0025927834,0.20646398,-0.99999464,1.45519135e-11,1.8189892e-11,0.0032733525,4
2564356000,0.9784424,-0.00023890856,-0.0026447559,0.20650305,-0.99999464,1.45519135e-11,1.8189892e-11,0.0032733525,4
2564408000,0.97843957,-0.00022440568,-0.0026270167,0.2065165,-0.99999464,1.45519135e-11,1.8189892e-11,0.0032733525,4
2564460000,0.97843266,-0.00025609432,-0.0026562733,0.20654888,-0.99999464,1.45519135e-11,1.8189892e-11,0.0032733525,4
2564512000,0.9784096,-0.00023744184,-0.0026768865,0.20665815,-0.99999464,1.45519135e-11,1.8189892e-11,0.0032733525,4
2564564000,0.9784088,-0.00025121198,-0.0026642235,0.20666204,-0.99999464,1.45519135e-11,1.8189892e-11,0.0032733525,4
2564616000,0.97841066,-0.00023945865,-0.0026581082,0.20665279,-0.99999464,1.45519135e-11,1.8189892e-11,0.0032733525,4
2564668000,0.97841275,-0.00023235213,-0.0026216004,0.20664385,-0.99999464,1.45519135e-11,1.8189892e-11,0.0032733525,4
2564720000,0.9784245,-0.00024073495,-0.0026393116,0.20658801,-0.99999464,1.45519135e-11,1.8189892e-11,0.0032733525,4
2564772000,0.97842205,-0.00024884153,-0.0026865725,0.20659874,-0.99999464,1.45519135e-11,1.8189892e-11,0.0032733525,4
2564824000,0.9784268,-0.00020345717,-0.002647536,0.20657691,-0.99999464,1.45519135e-11,1.8189892e-11,0.0032733525,4
2564876000,0.9784135,-0.00021932943,-0.0026319292,0.20663984,-0.99999464,1.45519135e-11,1.8189892e-11,0.0032733525,4
2564928000,0.9784102,-0.00024486467,-0.002639486,0.2066556,-0.99999464,1.45519135e-11,1.8189892e-11,0.0032733525,4
2564980000,0.97841376,-0.00021119995,-0.0026750488,0.20663811,-0.99999464,1.45519135e-11,1.8189892e-11,0.0032733525,4
2565032000,0.97841936,-0.00017316034,-0.0026638086,0.20661207,-0.99999464,1.45519135e-11,1.8189892e-11,0.0032733525,4
2565084000,0.97840744,-0.00014921991,-0.0026496456,0.2066684,-0.99999464,1.45519135e-11,1.8189892e-11,0.0032733525,4
2565140000,0.9784043,-0.00019456142,-0.0025921992,0.20668428,-0.99999464,1.45519135e-11,1.8189892e-11,0.0032733525,4
2565188000,0.97842723,-0.0001941819,-0.0025590868,0.20657581,-0.99999464,1.45519135e-11,1.8189892e-11,0.0032733525,4
2565240000,0.9784174,-0.00026675218,-0.0025476816,0.20662253,-0.99999464,1.45519135e-11,1.8189892e-11,0.0032733525,4
2565292000,0.9784184,-0.00030166595,-0.0025232884,0.20661768,-0.99999464,1.45519135e-11,1.8189892e-11,0.0032733525,4
2565344000,0.9784153,-0.0002863189,-0.0025089637,0.20663285,-0.99999464,1.45519135e-11,1.8189892e-11,0.0032733525,4
2565396000,0.97840375,-0.00024768943,-0.002489925,0.20668797,-0.99999464,1.45519135e-11,1.8189892e-11,0.0032733525,4
2565448000,0.9783995,-0.00027581828,-0.0024952008,0.20670821,-0.99999464,1.45519135e-11,1.8189892e-11,0.0032733525,4
2565500000,0.9783899,-0.0003656427,-0.0024909289,0.2067534,-0.99999464,1.45519135e-11,1.8189892e-11,0.0032733525,4
2565552000,0.97837746,-0.00033859213,-0.0025010828,0.20681226,-0.99999464,1.45519135e-11,1.8189892e-11,0.0032733525,4
2565604000,0.9783835,-0.0003460664,-0.002507356,0.20678331,-0.99999464,1.45519135e-11,1.8189892e-11,0.0032733525,4
2565660000,0.9783775,-0.00031282537,-0.0025362927,0.20681117,-0.99999464,1.45519135e-11,1.8189892e-11,0.0032733525,4
2565708000,0.9783591,-0.00033512703,-0.0025326645,0.20689845,-0.99999464,1.45519135e-11,1.8189892e-11,0.0032733525,4
2565760000,0.97835004,-0.00032559322,-0.0025887713,0.206941,-0.99999464,1.45519135e-11,1.8189892e-11,0.0032733525,4
2565816000,0.9783426,-0.0004279155,-0.002650531,0.206975,-0.99999464,1.45519135e-11,1.8189892e-11,0.0032733525,4
2565864000,0.97834146,-0.00045979902,-0.0026746285,0.20697959,-0.99999464,1.45519135e-11,1.8189892e-11,0.0032733525,4
2565916000,0.97834826,-0.00041404917,-0.0027506244,0.20694695,-0.99999464,1.45519135e-11,1.8189892e-11,0.0032733525,4
2565968000,0.9783557,-0.0004338908,-0.00273037,0.206912,-0.99999464,1.45519135e-11,1.8189892e-11,0.0032733525,4
2566020000,0.9783553,-0.00036300937,-0.0027315326,0.20691423,-0.99999464,1.45519135e-11,1.8189892e-11,0.0032733525,4
2566072000,0.9783604,-0.00045471647,-0.0023003311,0.20689484,-0.99999464,1.45519135e-11,1.8189892e-11,0.0032733525,4
2566128000,0.9783683,-0.0013435453,0.002120261,0.20685568,-0.99999464,1.45519135e-11,1.8189892e-11,0.0032733525,4
2566176000,0.97830254,-0.0027709664,0.009641898,0.20693822,-0.99999464,1.45519135e-11,1.8189892e-11,0.0032733525,4
2566228000,0.978228,-0.0036038656,0.015739044,0.20690428,-0.99999464,1.45519135e-11,1.8189892e-11,0.0032733525,4
2566280000,0.97820294,-0.0040518376,0.018273849,0.20680611,-0.99999464,1.45519135e-11,1.8189892e-11,0.0032733525,4
2566332000,0.97823244,-0.003953428,0.018112818,0.20668255,-0.99999464,1.45519135e-11,1.8189892e-11,0.0032733525,4
2566384000,0.9782843,-0.0035355885,0.016006386,0.2066187,-0.99999464,1.45519135e-11,1.8189892e-11,0.0032733525,4
2566436000,0.97832656,-0.0030447785,0.013011301,0.20663622,-0.99999464,1.45519135e-11,1.8189892e-11,0.0032733525,4
2566488000,0.9783727,-0.002601727,0.009919248,0.20659539,-0.99999464,1.45519135e-11,1.8189892e-11,0.0032733525,4
2566540000,0.9784025,-0.0021596109,0.0070633152,0.20657715,-0.99999464,1.45519135e-11,1.8189892e-11,0.0032733525,4
2566592000,0.97842515,-0.0019699475,0.0045283255,0.20654306,-0.99999464,1.45519135e-11,1.8189892e-11,0.0032733525,4
2566648000,0.97843665,-0.0017972672,0.0025312991,0.2065239,-0.99999464,1.45519135e-11,1.8189892e-11,0.0032733525,4
2566696000,0.9784413,-0.0017148643,0.0013820849,0.20651363,-0.99999464,1.45519135e-11,1.8189892e-11,0.0032733525,4
2566748000,0.97845435,-0.001706468,0.0006828069,0.20645519,-0.99999464,1.45519135e-11,1.8189892e-11,0.0032733525,4
2566800000,0.97846466,-0.0017557458,0.00024566843,0.206407,-0.99999464,1.45519135e-11,1.8189892e-11,0.0032733525,4
2566852000,0.9784903,-0.0017588516,-9.122431e-06,0.20628567,-0.99999464,1.45519135e-11,1.8189892e-11,0.0032733525,4
2566908000,0.97848004,-0.0016321834,-0.0003272302,0.20633475,-0.99999464,1.45519135e-11,1.8189892e-11,0.0032733525,4
2566956000,0.97846377,-0.001670419,-0.0007245056,0.20641048,-0.99999464,1.45519135e-11,1.8189892e-11,0.0032733525,4
2567008000,0.9784725,-0.0016801666,-0.0010637519,0.20636803,-0.99999464,1.45519135e-11,1.8189892e-11,0.0032733525,4
2567060000,0.97847474,-0.0015313922,-0.0011305859,0.20635812,-0.99999464,1.45519135e-11,1.8189892e-11,0.0032733525,4
2567112000,0.9784827,-0.0015217615,-0.0012689825,0.20631933,-0.99999464,1.45519135e-11,1.8189892e-11,0.0032733525,4
2567164000,0.9784849,-0.0014853029,-0.0015440764,0.20630717,-0.99999464,1.45519135e-11,1.8189892e-11,0.0032733525,4
2567216000,0.97847694,-0.0015851894,-0.001618426,0.20634396,-0.99999464,1.45519135e-11,1.8189892e-11,0.0032733525,4
2567268000,0.9784875,-0.0017567431,-0.0016893856,0.20629196,-0.99999464,1.45519135e-11,1.8189892e-11,0.0032733525,4
2567320000,0.97850657,-0.001531059,-0.0018849157,0.2062017,-0.99999464,1.45519135e-11,1.8189892e-11,0.0032733525,4
2567376000,0.97849953,-0.0012905322,-0.0021813852,0.20623343,-0.99999464,1.45519135e-11,1.8189892e-11,0.0032733525,4
2567424000,0.97849953,-0.0010726333,-0.002428933,0.206232,-0.99999464,1.45519135e-11,1.8189892e-11,0.0032733525,4
2567480000,0.9785066,-0.0008865821,-0.0024940865,0.20619859,-0.99999464,1.45519135e-11,1.8189892e-11,0.0032733525,4
2567532000,0.9785044,-0.0007052682,-0.0025837908,0.20620881,-0.99999464,1.45519135e-11,1.8189892e-11,0.0032733525,4
2567580000,0.97850096,-0.00057754334,-0.0026385463,0.20622456,-0.99999464,1.45519135e-11,1.8189892e-11,0.0032733525,4
2567632000,0.9785057,-0.0005055081,-0.0027672618,0.20620084,-0.99999464,1.45519135e-11,1.8189892e-11,0.0032733525,4
2567688000,0.97849494,-0.0004904496,-0.002924747,0.20624946,-0.99999464,1.45519135e-11,1.8189892e-11,0.0032733525,4
2567736000,0.9783741,-0.0003964938,-0.0028408114,0.20682321,0.9999998,-2.9103833e-10,2.9103834e-11,0.00066861516,5
2567788000,0.97838485,-0.00023214992,-0.0030971596,0.20676918,0.9999998,-2.9103833e-10,2.9103834e-11,0.00066861516,5
2567844000,0.9784062,-0.00015772239,-0.0032306558,0.20666651,0.9999998,-2.9103833e-10,2.9103834e-11,0.00066861516,5
2567892000,0.9784167,-0.00017668652,-0.0032763577,0.20661552,0.9999998,-2.9103833e-10,2.9103834e-11,0.00066861516,5
2567944000,0.97841877,-8.792414e-05,-0.0031824375,0.20660715,0.9999998,-2.9103833e-10,2.9103834e-11,0.00066861516,5
2568000000,0.97841495,2.1719603e-05,-0.0030137852,0.20662786,0.9999998,-2.9103833e-10,2.9103834e-11,0.00066861516,5
2568048000,0.9784087,5.0271447e-05,-0.0029216423,0.20665896,0.9999998,-2.9103833e-10,2.9103834e-11,0.00066861516,5
2568100000,0.97840065,-0.00027187399,-0.0030482197,0.20669483,0.9999998,-2.9103833e-10,2.9103834e-11,0.00066861516,5
2568156000,0.9784049,-0.000503123,-0.0034283532,0.2066686,0.9999998,-2.9103833e-10,2.9103834e-11,0.00066861516,5
2568204000,0.9784109,-0.0006477985,-0.0035491143,0.20663765,0.9999998,-2.9103833e-10,2.9103834e-11,0.00066861516,5
2568256000,0.978393,-0.0007638754,-0.0037190756,0.20671916,0.9999998,-2.9103833e-10,2.9103834e-11,0.00066861516,5
2568312000,0.97838795,-0.00081207766,-0.0037717596,0.20674202,0.9999998,-2.9103833e-10,2.9103834e-11,0.00066861516,5
2568360000,0.9783916,-0.00085841544,-0.0036240504,0.20672715,0.9999998,-2.9103833e-10,2.9103834e-11,0.00066861516,5
2568412000,0.978398,-0.0010403867,-0.0036058598,0.20669614,0.9999998,-2.9103833e-10,2.9103834e-11,0.00066861516,5
2568464000,0.97842324,-0.001229555,-0.0039648684,0.20656925,0.9999998,-2.9103833e-10,2.9103834e-11,0.00066861516,5
2568520000,0.97844285,-0.0010793582,-0.0044273827,0.20646773,0.9999998,-2.9103833e-10,2.9103834e-11,0.00066861516,5
2568568000,0.97845703,-0.0010963677,-0.0045934087,0.20639704,0.9999998,-2.9103833e-10,2.9103834e-11,0.00066861516,5
2568620000,0.97847086,-0.0010324636,-0.0047651883,0.20632763,0.9999998,-2.9103833e-10,2.9103834e-11,0.00066861516,5
2568672000,0.97846955,-0.00070531835,-0.0048673297,0.20633283,0.9999998,-2.9103833e-10,2.9103834e-11,0.00066861516,5
2568728000,0.9784756,-0.0005953554,-0.0050328732,0.20630065,0.9999998,-2.9103833e-10,2.9103834e-11,0.00066861516,5
2568776000,0.97847337,-0.0005953222,-0.0051407553,0.20630845,0.9999998,-2.9103833e-10,2.9103834e-11,0.00066861516,5
2568828000,0.9784827,-0.0006019373,-0.0052627726,0.20626098,0.9999998,-2.9103833e-10,2.9103834e-11,0.00066861516,5
2568880000,0.9784898,-0.00052178383,-0.005312214,0.20622599,0.9999998,-2.9103833e-10,2.9103834e-11,0.00066861516,5
2568932000,0.9784983,-0.0006562521,-0.005196631,0.20618895,0.9999998,-2.9103833e-10,2.9103834e-11,0.00066861516,5
2568988000,0.9785172,-0.0008731191,-0.0051901555,0.20609805,0.9999998,-2.9103833e-10,2.9103834e-11,0.00066861516,5
2569036000,0.97855496,-0.0008641277,-0.005242951,0.2059175,0.9999998,-2.9103833e-10,2.9103834e-11,0.00066861516,5
2569088000,0.9785635,-0.00067974266,-0.0051312293,0.2058806,0.9999998,-2.9103833e-10,2.9103834e-11,0.00066861516,5
2569140000,0.9785648,-0.0005683334,-0.0049748677,0.20587872,0.9999998,-2.9103833e-10,2.9103834e-11,0.00066861516,5
2569192000,0.97856176,-0.0005677107,-0.004888198,0.20589514,0.9999998,-2.9103833e-10,2.9103834e-11,0.00066861516,5
2569244000,0.9785516,-0.0004324748,-0.0049919365,0.20594133,0.9999998,-2.9103833e-10,2.9103834e-11,0.00066861516,5
2569296000,0.9785503,-0.00018504962,-0.0049863327,0.20594749,0.9999998,-2.9103833e-10,2.9103834e-11,0.00066861516,5
2569348000,0.9785416,-5.0924355e-05,-0.005004469,0.20598869,0.9999998,-2.9103833e-10,2.9103834e-11,0.00066861516,5
2569400000,0.97853553,1.797378e-05,-0.005112266,0.206015,0.9999998,-2.9103833e-10,2.9103834e-11,0.00066861516,5
2569452000,0.97851735,-5.457817e-05,-0.0052141193,0.20609885,0.9999998,-2.9103833e-10,2.9103834e-11,0.00066861516,5
2569504000,0.9784941,-0.000261888,-0.0052119796,0.20620866,0.9999998,-2.9103833e-10,2.9103834e-11,0.00066861516,5
2569556000,0.978473,-0.0004463429,-0.005135445,0.20631066,0.9999998,-2.9103833e-10,2.9103834e-11,0.00066861516,5
2569608000,0.97846735,-0.0005575082,-0.0051089297,0.20633784,0.9999998,-2.9103833e-10,2.9103834e-11,0.00066861516,5
2569664000,0.9784344,-0.00052283495,-0.005070268,0.20649496,0.9999998,-2.9103833e-10,2.9103834e-11,0.00066861516,5
2569712000,0.97842044,-0.00046362882,-0.0050901673,0.20656069,0.9999998,-2.9103833e-10,2.9103834e-11,0.00066861516,5
2569764000,0.9784203,-0.00028316246,-0.0051828744,0.20655954,0.9999998,-2.9103833e-10,2.9103834e-11,0.00066861516,5
2569820000,0.9784133,-0.000117091186,-0.005189194,0.20659292,0.9999998,-2.9103833e-10,2.9103834e-11,0.00066861516,5
2569868000,0.97840196,-4.2657575e-06,-0.005053439,0.20664972,0.9999998,-2.9103833e-10,2.9103834e-11,0.00066861516,5
2569920000,0.9783873,0.00019771545,-0.004856084,0.20672391,0.9999998,-2.9103833e-10,2.9103834e-11,0.00066861516,5
2569972000,0.97837585,0.0004221295,-0.0046696886,0.20678203,0.9999998,-2.9103833e-10,2.9103834e-11,0.00066861516,5
2570028000,0.97837025,0.0004748677,-0.0046337433,0.20680921,0.9999998,-2.9103833e-10,2.9103834e-11,0.00066861516,5
2570076000,0.978364,0.00043213106,-0.004744473,0.20683616,0.9999998,-2.9103833e-10,2.9103834e-11,0.00066861516,5
2570128000,0.9783684,0.0004336547,-0.0047799596,0.2068148,0.9999998,-2.9103833e-10,2.9103834e-11,0.00066861516,5
2570180000,0.97835356,0.00047061118,-0.0049074744,0.20688148,0.9999998,-2.9103833e-10,2.9103834e-11,0.00066861516,5
2570232000,0.9783629,0.00053071685,-0.005220594,0.20682949,0.9999998,-2.9103833e-10,2.9103834e-11,0.00066861516,5
2570284000,0.97838646,0.00068587303,-0.005433301,0.20671225,0.9999998,-2.9103833e-10,2.9103834e-11,0.00066861516,5
2570336000,0.9783909,0.00068544684,-0.0053309146,0.2066943,0.9999998,-2.9103833e-10,2.9103834e-11,0.00066861516,5
2570388000,0.9783956,0.0007795366,-0.0054039187,0.20666939,0.9999998,-2.9103833e-10,2.9103834e-11,0.00066861516,5
2570440000,0.9784105,0.0008136757,-0.0054913475,0.20659696,0.9999998,-2.9103833e-10,2.9103834e-11,0.00066861516,5
2570496000,0.9784537,0.0008578731,-0.005515298,0.20639107,0.9999998,-2.9103833e-10,2.9103834e-11,0.00066861516,5
2570544000,0.9784626,0.0011341647,-0.0055559124,0.20634659,0.9999998,-2.9103833e-10,2.9103834e-11,0.00066861516,5
2570596000,0.97845,0.0012499023,-0.005527374,0.20640647,0.9999998,-2.9103833e-10,2.9103834e-11,0.00066861516,5
2570648000,0.9784563,0.0012964217,-0.005554309,0.20637529,0.9999998,-2.9103833e-10,2.9103834e-11,0.00066861516,5
2570700000,0.9784549,0.0013257278,-0.005835636,0.2063741,0.9999998,-2.9103833e-10,2.9103834e-11,0.00066861516,5
2570752000,0.9784401,0.0013085824,-0.006026484,0.20643884,0.9999998,-2.9103833e-10,2.9103834e-11,0.00066861516,5
2570804000,0.97844166,0.001283293,-0.0060944115,0.2064299,0.9999998,-2.9103833e-10,2.9103834e-11,0.00066861516,5
2570856000,0.97844696,0.001477892,-0.006085194,0.20640327,0.9999998,-2.9103833e-10,2.9103834e-11,0.00066861516,5
2570908000,0.9784504,0.0015733999,-0.0058477973,0.20639299,0.9999998,-2.9103833e-10,2.9103834e-11,0.00066861516,5
2570964000,0.97845924,0.001526076,-0.0057250215,0.20635536,0.9999998,-2.9103833e-10,2.9103834e-11,0.00066861516,5
2571012000,0.97846484,0.0014526313,-0.0054785195,0.20633568,0.9999998,-2.9103833e-10,2.9103834e-11,0.00066861516,5
2571064000,0.97846484,0.0012869912,-0.005300755,0.2063414,0.9999998,-2.9103833e-10,2.9103834e-11,0.00066861516,5
2571116000,0.97846276,0.0011210492,-0.005264435,0.20635363,0.9999998,-2.9103833e-10,2.9103834e-11,0.00066861516,5
2571168000,0.9784476,0.0009497495,-0.0054484233,0.2064213,0.9999998,-2.9103833e-10,2.9103834e-11,0.00066861516,5
2571224000,0.9784433,0.00076878344,-0.0056176893,0.20643798,0.9999998,-2.9103833e-10,2.9103834e-11,0.00066861516,5
2571272000,0.9784557,0.00058327947,-0.00581084,0.20637432,0.9999998,-2.9103833e-10,2.9103834e-11,0.00066861516,5
2571324000,0.97848415,0.00046887717,-0.0059302645,0.2062363,0.9999998,-2.9103833e-10,2.9103834e-11,0.00066861516,5
2571376000,0.9784737,0.0004536896,-0.0061225067,0.20628068,0.9999998,-2.9103833e-10,2.9103834e-11,0.00066861516,5
2571428000,0.9784603,0.0006325395,-0.00625091,0.20633934,0.9999998,-2.9103833e-10,2.9103834e-11,0.00066861516,5
2571480000,0.9784708,0.0008420803,-0.0059784637,0.2062972,0.9999998,-2.9103833e-10,2.9103834e-11,0.00066861516,5
2571536000,0.9784723,0.0011772244,-0.0057534445,0.20629509,0.9999998,-2.9103833e-10,2.9103834e-11,0.00066861516,5
2571588000,0.97845393,0.0012535292,-0.0057856813,0.20638071,0.9999998,-2.9103833e-10,2.9103834e-11,0.00066861516,5
2571636000,0.97845054,0.0011696923,-0.005893262,0.20639412,0.9999998,-2.9103833e-10,2.9103834e-11,0.00066861516,5
2571688000,0.97845155,0.0011850415,-0.0060472945,0.20638458,0.9999998,-2.9103833e-10,2.9103834e-11,0.00066861516,5
2571740000,0.97842395,0.0012755299,-0.0061678253,0.2065114,0.9999998,-2.9103833e-10,2.9103834e-11,0.00066861516,5
2571796000,0.978415,0.0010782871,-0.006117922,0.20655641,0.9999998,-2.9103833e-10,2.9103834e-11,0.00066861516,5
2571844000,0.97840524,0.00090705184,-0.0059478353,0.20660856,0.9999998,-2.9103833e-10,2.9103834e-11,0.00066861516,5
2571896000,0.97840476,0.00075747614,-0.0059276945,0.20661171,0.9999998,-2.9103833e-10,2.9103834e-11,0.00066861516,5
2571948000,0.9784104,0.0007965004,-0.0060459203,0.20658155,0.9999998,-2.9103833e-10,2.9103834e-11,0.00066861516,5
2572000000,0.9784081,0.0006863532,-0.0060353866,0.20659335,0.9999998,-2.9103833e-10,2.9103834e-11,0.00066861516,5
2572056000,0.9784016,0.00038944618,-0.0059095346,0.20662808,0.9999998,-2.9103833e-10,2.9103834e-11,0.00066861516,5
2572108000,0.97840804,0.00029454535,-0.0056633116,0.20660529,0.9999998,-2.9103833e-10,2.9103834e-11,0.00066861516,5
2572160000,0.9784082,0.0002232229,-0.005532669,0.20660762,0.9999998,-2.9103833e-10,2.9103834e-11,0.00066861516,5
2572208000,0.97840875,0.00025801946,-0.0054652826,0.20660678,0.9999998,-2.9103833e-10,2.9103834e-11,0.00066861516,5
2572260000,0.9784107,0.00042262446,-0.0053696134,0.20660008,0.9999998,-2.9103833e-10,2.9103834e-11,0.00066861516,5
2572312000,0.9784065,0.00046981775,-0.005169633,0.20662495,0.9999998,-2.9103833e-10,2.9103834e-11,0.00066861516,5
2572364000,0.97841275,0.0004892765,-0.005339849,0.2065909,0.9999998,-2.9103833e-10,2.9103834e-11,0.00066861516,5
2572416000,0.9784458,0.000341259,-0.005414702,0.2064325,0.9999998,-2.9103833e-10,2.9103834e-11,0.00066861516,5
2572468000,0.9784581,0.00031607196,-0.005340536,0.20637608,0.9999998,-2.9103833e-10,2.9103834e-11,0.00066861516,5
2572520000,0.9784427,0.0002895283,-0.0053213416,0.2064497,0.9999998,-2.9103833e-10,2.9103834e-11,0.00066861516,5
2572572000,0.9784304,0.0002908304,-0.00537071,0.20650674,0.9999998,-2.9103833e-10,2.9103834e-11,0.00066861516,5
2572624000,0.97842765,9.203596e-05,-0.0054032654,0.20651934,0.9999998,-2.9103833e-10,2.9103834e-11,0.00066861516,5
2572676000,0.9784308,-0.0002578344,-0.00535751,0.20650543,0.9999998,-2.9103833e-10,2.9103834e-11,0.00066861516,5
2572728000,0.9784345,-0.00042926223,-0.005382719,0.20648709,0.9999998,-2.9103833e-10,2.9103834e-11,0.00066861516,5
2572780000,0.9784372,-0.00036370356,-0.00545589,0.20647246,0.9999998,-2.9103833e-10,2.9103834e-11,0.00066861516,5
2572836000,0.978434,-0.0004112222,-0.005510847,0.20648596,0.9999998,-2.9103833e-10,2.9103834e-11,0.00066861516,5
2572884000,0.97843975,-0.0005340505,-0.0054360996,0.2064604,0.9999998,-2.9103833e-10,2.9103834e-11,0.00066861516,5
2572940000,0.9784296,-0.00071443844,-0.005298847,0.20651107,0.9999998,-2.9103833e-10,2.9103834e-11,0.00066861516,5
2572992000,0.9784335,-0.00075940666,-0.00521089,0.20649505,0.9999998,-2.9103833e-10,2.9103834e-11,0.00066861516,5
2573040000,0.9784407,-0.0007438243,-0.00493095,0.20646766,0.9999998,-2.9103833e-10,2.9103834e-11,0.00066861516,5
2573092000,0.97845423,-0.00081772794,-0.0047597354,0.20640787,0.9999998,-2.9103833e-10,2.9103834e-11,0.00066861516,5
2573144000,0.97844577,-0.0008248802,-0.004723344,0.20644869,0.9999998,-2.9103833e-10,2.9103834e-11,0.00066861516,5
2573196000,0.97844034,-0.0009320659,-0.004671812,0.20647474,0.9999998,-2.9103833e-10,2.9103834e-11,0.00066861516,5
2573248000,0.97843933,-0.0008704625,-0.0047929767,0.20647721,0.9999998,-2.9103833e-10,2.9103834e-11,0.00066861516,5
2573300000,0.97844756,-0.00074308534,-0.0047857477,0.20643926,0.9999998,-2.9103833e-10,2.9103834e-11,0.00066861516,5
2573352000,0.9784641,-0.0006526329,-0.0045490265,0.20636609,0.9999998,-2.9103833e-10,2.9103834e-11,0.00066861516,5
2573408000,0.9784573,-0.00075018674,-0.0042828354,0.20640364,0.9999998,-2.9103833e-10,2.9103834e-11,0.00066861516,5
2573456000,0.97844577,-0.0007484539,-0.0043359417,0.20645753,0.9999998,-2.9103833e-10,2.9103834e-11,0.00066861516,5
2573508000,0.9784534,-0.0007614375,-0.0043503107,0.20642048,0.9999998,-2.9103833e-10,2.9103834e-11,0.00066861516,5
2573560000,0.9784696,-0.00079600886,-0.0042244466,0.20634668,0.9999998,-2.9103833e-10,2.9103834e-11,0.00066861516,5
2573612000,0.9784719,-0.0007246852,-0.004052824,0.2063393,0.9999998,-2.9103833e-10,2.9103834e-11,0.00066861516,5
2573668000,0.97847414,-0.00059102423,-0.0038309484,0.20633315,0.9999998,-2.9103833e-10,2.9103834e-11,0.00066861516,5
2573716000,0.97845954,-0.00058143836,-0.0036684603,0.2064053,0.9999998,-2.9103833e-10,2.9103834e-11,0.00066861516,5
2573768000,0.9784656,-0.00062015135,-0.0034892254,0.20637974,0.9999998,-2.9103833e-10,2.9103834e-11,0.00066861516,5
2573820000,0.9784613,-0.00046710385,-0.0032563445,0.206404,0.9999998,-2.9103833e-10,2.9103834e-11,0.00066861516,5
2573872000,0.9784649,-0.00027951787,-0.0032121756,0.20638822,0.9999998,-2.9103833e-10,2.9103834e-11,0.00066861516,5
2573928000,0.9784656,-5.9342896e-05,-0.003153074,0.20638627,0.9999998,-2.9103833e-10,2.9103834e-11,0.00066861516,5
2573980000,0.9784532,-5.915191e-06,-0.0031273437,0.20644537,0.9999998,-2.9103833e-10,2.9103834e-11,0.00066861516,5
2574028000,0.9784526,-0.000110476736,-0.002986697,0.20645005,0.9999998,-2.9103833e-10,2.9103834e-11,0.00066861516,5
2574080000,0.978446,-0.0002706498,-0.002895809,0.20648247,0.9999998,-2.9103833e-10,2.9103834e-11,0.00066861516,5
2574132000,0.9784515,-0.0004671723,-0.0028280416,0.20645714,0.9999998,-2.9103833e-10,2.9103834e-11,0.00066861516,5
2574184000,0.9784578,-0.0006310062,-0.0028126596,0.20642713,0.9999998,-2.9103833e-10,2.9103834e-11,0.00066861516,5
2574240000,0.9784648,-0.00067602657,-0.0028490087,0.20639308,0.9999998,-2.9103833e-10,2.9103834e-11,0.00066861516,5
2574292000,0.9784591,-0.00043398127,-0.0029367993,0.20641948,0.9999998,-2.9103833e-10,2.9103834e-11,0.00066861516,5
2574340000,0.9784621,-0.00035854982,-0.0030073428,0.20640458,0.9999998,-2.9103833e-10,2.9103834e-11,0.00066861516,5
2574392000,0.97846264,-0.00021358907,-0.0032148547,0.20639932,0.9999998,-2.9103833e-10,2.9103834e-11,0.00066861516,5
2574444000,0.97846204,-0.0002897791,-0.0033353816,0.2063999,0.9999998,-2.9103833e-10,2.9103834e-11,0.00066861516,5
2574496000,0.97845143,-0.0003731399,-0.0034055458,0.20644896,0.9999998,-2.9103833e-10,2.9103834e-11,0.00066861516,5
2574548000,0.9784404,-0.0004095514,-0.003431265,0.20650086,0.9999998,-2.9103833e-10,2.9103834e-11,0.00066861516,5
2574600000,0.9784461,-0.00044033662,-0.0035212496,0.2064718,0.9999998,-2.9103833e-10,2.9103834e-11,0.00066861516,5
2574652000,0.9784543,-0.00050918845,-0.003529238,0.20643333,0.9999998,-2.9103833e-10,2.9103834e-11,0.00066861516,5
2574704000,0.9784761,-0.00063053274,-0.0033679034,0.20633203,0.9999998,-2.9103833e-10,2.9103834e-11,0.00066861516,5
2574760000,0.9784709,-0.0007016378,-0.0029468185,0.20636266,0.9999998,-2.9103833e-10,2.9103834e-11,0.00066861516,5
2574808000,0.9784739,-0.0006672998,-0.0027723464,0.2063513,0.9999998,-2.9103833e-10,2.9103834e-11,0.00066861516,5
2574860000,0.9784803,-0.0006423647,-0.0027574017,0.20632118,0.9999998,-2.9103833e-10,2.9103834e-11,0.00066861516,5
2574912000,0.97847104,-0.00053135306,-0.002672041,0.20636621,0.9999998,-2.9103833e-10,2.9103834e-11,0.00066861516,5
2574964000,0.9784712,-0.0005181983,-0.002777035,0.20636405,0.9999998,-2.9103833e-10,2.9103834e-11,0.00066861516,5
2575020000,0.9784621,-0.0008201561,-0.0027936206,0.20640607,0.9999998,-2.9103833e-10,2.9103834e-11,0.00066861516,5
2575068000,0.97847074,-0.0010064772,-0.0029909422,0.20636138,0.9999998,-2.9103833e-10,2.9103834e-11,0.00066861516,5
2575120000,0.9784752,-0.0011043323,-0.00315855,0.20633751,0.9999998,-2.9103833e-10,2.9103834e-11,0.00066861516,5
2575172000,0.9784822,-0.0012508093,-0.0030988322,0.20630424,0.9999998,-2.9103833e-10,2.9103834e-11,0.00066861516,5
2575228000,0.97847587,-0.0012603833,-0.0033903362,0.20632945,0.9999998,-2.9103833e-10,2.9103834e-11,0.00066861516,5
2575276000,0.97847354,-0.001065557,-0.0034707391,0.2063404,0.9999998,-2.9103833e-10,2.9103834e-11,0.00066861516,5
2575332000,0.9784703,-0.0009097863,-0.0036300367,0.20635355,0.9999998,-2.9103833e-10,2.9103834e-11,0.00066861516,5
2575380000,0.9784869,-0.0006975729,-0.003513048,0.2062778,0.9999998,-2.9103833e-10,2.9103834e-11,0.00066861516,5
2575432000,0.978486,-0.0004947579,-0.003604637,0.20628129,0.9999998,-2.9103833e-10,2.9103834e-11,0.00066861516,5
2575484000,0.9784838,-0.00031736132,-0.0037488763,0.20628971,0.9999998,-2.9103833e-10,2.9103834e-11,0.00066861516,5
2575536000,0.97846866,-0.00018857824,-0.0037359097,0.2063615,0.9999998,-2.9103833e-10,2.9103834e-11,0.00066861516,5
2575588000,0.97847235,-0.00022690467,-0.0038132202,0.20634305,0.9999998,-2.9103833e-10,2.9103834e-11,0.00066861516,5
2575644000,0.9784716,-8.8975365e-05,-0.003953208,0.20634386,0.9999998,-2.9103833e-10,2.9103834e-11,0.00066861516,5
2575696000,0.97848225,-7.069898e-05,-0.003938166,0.20629355,0.9999998,-2.9103833e-10,2.9103834e-11,0.00066861516,5
2575744000,0.97848064,-0.00016342812,-0.003709022,0.20630518,0.9999998,-2.9103833e-10,2.9103834e-11,0.00066861516,5
2575796000,0.9784719,-0.00045088865,-0.0034498365,0.20635109,0.9999998,-2.9103833e-10,2.9103834e-11,0.00066861516,5
2575848000,0.97846085,-0.00070968695,-0.003381355,0.20640382,0.9999998,-2.9103833e-10,2.9103834e-11,0.00066861516,5
2575900000,0.9784585,-0.0008658632,-0.0035906974,0.20641044,0.9999998,-2.9103833e-10,2.9103834e-11,0.00066861516,5
2575952000,0.9784496,-0.0009150056,-0.003533165,0.20645365,0.9999998,-2.9103833e-10,2.9103834e-11,0.00066861516,5
2576004000,0.97845733,-0.0008032411,-0.003477777,0.20641871,0.9999998,-2.9103833e-10,2.9103834e-11,0.00066861516,5
2576056000,0.9784587,-0.00078337867,-0.0035342113,0.20641127,0.9999998,-2.9103833e-10,2.9103834e-11,0.00066861516,5
2576112000,0.9784538,-0.0007620148,-0.0034792689,0.20643489,0.9999998,-2.9103833e-10,2.9103834e-11,0.00066861516,5
2576160000,0.9784592,-0.00068745617,-0.0034429438,0.2064103,0.9999998,-2.9103833e-10,2.9103834e-11,0.00066861516,5
2576212000,0.97845155,-0.00045012165,-0.0035085187,0.20644638,0.9999998,-2.9103833e-10,2.9103834e-11,0.00066861516,5
2576264000,0.9784544,-0.0002727296,-0.0036203845,0.20643127,0.9999998,-2.9103833e-10,2.9103834e-11,0.00066861516,5
2576316000,0.9784572,-0.00017809327,-0.0037872898,0.20641518,0.9999998,-2.9103833e-10,2.9103834e-11,0.00066861516,5
2576368000,0.9784489,-8.324248e-06,-0.0035994158,0.20645769,0.9999998,-2.9103833e-10,2.9103834e-11,0.00066861516,5
2576420000,0.9784566,3.4429522e-05,-0.003511165,0.2064226,0.9999998,-2.9103833e-10,2.9103834e-11,0.00066861516,5
2576476000,0.9784686,-0.00018418461,-0.0035788163,0.2063649,0.9999998,-2.9103833e-10,2.9103834e-11,0.00066861516,5
2576524000,0.9784798,-0.00024423818,-0.0034279695,0.20631449,0.9999998,-2.9103833e-10,2.9103834e-11,0.00066861516,5
2576576000,0.97847587,-0.00018623445,-0.0033499596,0.20633392,0.9999998,-2.9103833e-10,2.9103834e-11,0.00066861516,5
2576628000,0.9784774,-0.0002922245,-0.0034398434,0.20632523,0.9999998,-2.9103833e-10,2.9103834e-11,0.00066861516,5
2576684000,0.97848135,-0.00037073277,-0.0035521113,0.2063043,0.9999998,-2.9103833e-10,2.9103834e-11,0.00066861516,5
2576732000,0.9784855,-0.00046505287,-0.003704757,0.2062821,0.9999998,-2.9103833e-10,2.9103834e-11,0.00066861516,5
2576788000,0.97848326,-0.0005132228,-0.003639887,0.20629397,0.9999998,-2.9103833e-10,2.9103834e-11,0.00066861516,5
2576836000,0.9784888,-0.00054575887,-0.003628178,0.20626749,0.9999998,-2.9103833e-10,2.9103834e-11,0.00066861516,5
2576888000,0.9784892,-0.0004834038,-0.0036280933,0.2062658,0.9999998,-2.9103833e-10,2.9103834e-11,0.00066861516,5
2576944000,0.9784772,-0.00047150083,-0.003516159,0.20632474,0.9999998,-2.9103833e-10,2.9103834e-11,0.00066861516,5
2576992000,0.9784624,-0.00067874993,-0.003484959,0.20639485,0.9999998,-2.9103833e-10,2.9103834e-11,0.00066861516,5
2577044000,0.97847736,-0.0008088083,-0.0034929444,0.20632319,0.9999998,-2.9103833e-10,2.9103834e-11,0.00066861516,5
2577100000,0.978481,-0.0008542535,-0.0036418708,0.20630302,0.9999998,-2.9103833e-10,2.9103834e-11,0.00066861516,5
2577148000,0.9784786,-0.00085034623,-0.0037415866,0.20631306,0.9999998,-2.9103833e-10,2.9103834e-11,0.00066861516,5
2577204000,0.97848076,-0.0008846531,-0.003764857,0.20630215,0.9999998,-2.9103833e-10,2.9103834e-11,0.00066861516,5
2577252000,0.978476,-0.0008424033,-0.0038596352,0.20632276,0.9999998,-2.9103833e-10,2.9103834e-11,0.00066861516,5
2577304000,0.97847337,-0.00094237865,-0.003808208,0.20633592,0.9999998,-2.9103833e-10,2.9103834e-11,0.00066861516,5
2577356000,0.9784769,-0.00077554723,-0.0035306523,0.20632511,0.9999998,-2.9103833e-10,2.9103834e-11,0.00066861516,5
2577408000,0.97846806,-0.00057707995,-0.0033005904,0.20637143,0.9999998,-2.9103833e-10,2.9103834e-11,0.00066861516,5
2577460000,0.9784682,-0.0005235993,-0.0033677144,0.20636986,0.9999998,-2.9103833e-10,2.9103834e-11,0.00066861516,5
2577512000,0.9784724,-0.0005174961,-0.003357053,0.20634975,0.9999998,-2.9103833e-10,2.9103834e-11,0.00066861516,5
2577564000,0.9784804,-0.00050460646,-0.003235294,0.20631418,0.9999998,-2.9103833e-10,2.9103834e-11,0.00066861516,5
2577620000,0.9784955,-0.00044568078,-0.003057573,0.20624508,0.9999998,-2.9103833e-10,2.9103834e-11,0.00066861516,5
2577668000,0.9784931,-0.000542326,-0.0029475195,0.20625824,0.9999998,-2.9103833e-10,2.9103834e-11,0.00066861516,5
2577720000,0.978491,-0.00067705795,-0.0029674035,0.20626678,0.9999998,-2.9103833e-10,2.9103834e-11,0.00066861516,5
2577776000,0.978478,-0.00078276463,-0.003071883,0.206327,0.9999998,-2.9103833e-10,2.9103834e-11,0.00066861516,5
2577824000,0.97847736,-0.0007593731,-0.0030101053,0.20633084,0.9999998,-2.9103833e-10,2.9103834e-11,0.00066861516,5
2577876000,0.97846043,-0.0008157913,-0.0029351104,0.20641196,0.9999998,-2.9103833e-10,2.9103834e-11,0.00066861516,5
2577928000,0.97845376,-0.00093882595,-0.0029641606,0.20644273,0.9999998,-2.9103833e-10,2.9103834e-11,0.00066861516,5
2577984000,0.9784608,-0.00093178515,-0.0030891332,0.20640749,0.9999998,-2.9103833e-10,2.9103834e-11,0.00066861516,5
2578032000,0.97846043,-0.0009785119,-0.0033441228,0.20640525,0.9999998,-2.9103833e-10,2.9103834e-11,0.00066861516,5
2578084000,0.97844845,-0.00085554825,-0.0034795525,0.2064605,0.9999998,-2.9103833e-10,2.9103834e-11,0.00066861516,5
2578136000,0.9784466,-0.00084110495,-0.0034383268,0.20646971,0.9999998,-2.9103833e-10,2.9103834e-11,0.00066861516,5
2578188000,0.9784345,-0.0008692699,-0.003359571,0.20652844,0.9999998,-2.9103833e-10,2.9103834e-11,0.00066861516,5
2578240000,0.9784357,-0.001045224,-0.0032351755,0.2065241,0.9999998,-2.9103833e-10,2.9103834e-11,0.00066861516,5
2578292000,0.9784404,-0.0011732517,-0.0030860316,0.20650323,0.9999998,-2.9103833e-10,2.9103834e-11,0.00066861516,5
2578344000,0.97845787,-0.0012599601,-0.0032450364,0.20641743,0.9999998,-2.9103833e-10,2.9103834e-11,0.00066861516,5
2578396000,0.97845685,-0.0013086429,-0.0036641066,0.20641515,0.9999998,-2.9103833e-10,2.9103834e-11,0.00066861516,5
2578448000,0.9784538,-0.0011757861,-0.0037914726,0.20642766,0.9999998,-2.9103833e-10,2.9103834e-11,0.00066861516,5
2578500000,0.9784522,-0.0012130543,-0.003814984,0.2064345,0.9999998,-2.9103833e-10,2.9103834e-11,0.00066861516,5
2578552000,0.9784518,-0.0011969339,-0.0037522365,0.20643812,0.9999998,-2.9103833e-10,2.9103834e-11,0.00066861516,5
2578604000,0.97844946,-0.0010464283,-0.0035915205,0.20645288,0.9999998,-2.9103833e-10,2.9103834e-11,0.00066861516,5
2578660000,0.9784659,-0.0007445086,-0.0034200212,0.20637906,0.9999998,-2.9103833e-10,2.9103834e-11,0.00066861516,5
2578708000,0.97845674,-0.0004423856,-0.0033198209,0.20642507,0.9999998,-2.9103833e-10,2.9103834e-11,0.00066861516,5
2578760000,0.978456,-0.00040997847,-0.0032643315,0.20642947,0.9999998,-2.9103833e-10,2.9103834e-11,0.00066861516,5
2578812000,0.9784809,-0.0009864449,-0.0040144348,0.20629634,0.9999998,-2.9103833e-10,2.9103834e-11,0.00066861516,5
2578864000,0.9787095,-0.0029109719,-0.005076704,0.20516674,0.9999998,-2.9103833e-10,2.9103834e-11,0.00066861516,5
2578920000,0.97935706,-0.0070823478,-0.0047607007,0.20195773,0.9999998,-2.9103833e-10,2.9103834e-11,0.00066861516,5
2578968000,0.98026943,-0.01266769,-0.0021162091,0.19724828,0.9999998,-2.9103833e-10,2.9103834e-11,0.00066861516,5
2579024000,0.9816206,-0.02153821,0.0049883523,0.18955828,0.9999998,-2.9103833e-10,2.9103834e-11,0.00066861516,5
2579072000,0.98284847,-0.031212265,0.014481913,0.18117665,0.9999998,-2.9103833e-10,2.9103834e-11,0.00066861516,5
2579128000,0.98405653,-0.04504262,0.028601948,0.16966385,0.9999998,-2.9103833e-10,2.9103834e-11,0.00066861516,5
2579180000,0.9847221,-0.06047743,0.043124188,0.15749682,0.9999998,-2.9103833e-10,2.9103834e-11,0.00066861516,5
2579228000,0.9848454,-0.076051675,0.056291122,0.14535178,0.9999998,-2.9103833e-10,2.9103834e-11,0.00066861516,5
2579280000,0.9845653,-0.092838906,0.069143154,0.1312684,0.9999998,-2.9103833e-10,2.9103834e-11,0.00066861516,5
2579332000,0.9839656,-0.108964495,0.07984451,0.1164626,0.9999998,-2.9103833e-10,2.9103834e-11,0.00066861516,5
2579384000,0.9831942,-0.12378523,0.088305935,0.10103696,0.9999998,-2.9103833e-10,2.9103834e-11,0.00066861516,5
2579436000,0.98239,-0.1368445,0.094659925,0.08498868,0.9999998,-2.9103833e-10,2.9103834e-11,0.00066861516,5
2579488000,0.9815786,-0.14834827,0.099044785,0.0684587,0.9999998,-2.9103833e-10,2.9103834e-11,0.00066861516,5
2579540000,0.98081946,-0.15822992,0.10159386,0.051333588,0.9999998,-2.9103833e-10,2.9103834e-11,0.00066861516,5
2579592000,0.9800408,-0.16665898,0.10298045,0.033761535,0.9999998,-2.9103833e-10,2.9103834e-11,0.00066861516,5
2579644000,0.9790952,-0.1744187,0.10345514,0.01573785,0.9999998,-2.9103833e-10,2.9103834e-11,0.00066861516,5
2579700000,0.97779435,-0.18235014,0.103194684,-0.0041793385,0.9999998,-2.9103833e-10,2.9103834e-11,0.00066861516,5
2579752000,0.9763073,-0.18917447,0.10247231,-0.023164142,0.9999998,-2.9103833e-10,2.9103834e-11,0.00066861516,5
2579800000,0.9746484,-0.19520076,0.10138175,-0.04097408,0.9999998,-2.9103833e-10,2.9103834e-11,0.00066861516,5
2579852000,0.9724775,-0.20157884,0.09988217,-0.060638417,0.9999998,-2.9103833e-10,2.9103834e-11,0.00066861516,5
2579908000,0.9697273,-0.20815477,0.09777675,-0.08210041,0.9999998,-2.9103833e-10,2.9103834e-11,0.00066861516,5
2579956000,0.96700406,-0.21349889,0.09565326,-0.100855745,0.9999998,-2.9103833e-10,2.9103834e-11,0.00066861516,5
2580008000,0.96367913,-0.21893167,0.09309421,-0.12134689,0.9999998,-2.9103833e-10,2.9103834e-11,0.00066861516,5
2580060000,0.9598085,-0.2244654,0.0904234,-0.14214979,0.9999998,-2.9103833e-10,2.9103834e-11,0.00066861516,5
2580112000,0.95539737,-0.23010455,0.08752515,-0.16311735,0.9999998,-2.9103833e-10,2.9103834e-11,0.00066861516,5
2580164000,0.95051736,-0.2355236,0.08426512,-0.18424107,0.9999998,-2.9103833e-10,2.9103834e-11,0.00066861516,5
2580216000,0.9451519,-0.24073733,0.080579825,-0.20552431,0.9999998,-2.9103833e-10,2.9103834e-11,0.00066861516,5
2580268000,0.93923724,-0.24596146,0.07661683,-0.2268619,0.9999998,-2.9103833e-10,2.9103834e-11,0.00066861516,5
2580320000,0.93273425,-0.25119808,0.07249055,-0.24829715,0.9999998,-2.9103833e-10,2.9103834e-11,0.00066861516,5
2580372000,0.92567444,-0.2563292,0.068070464,-0.26979366,0.9999998,-2.9103833e-10,2.9103834e-11,0.00066861516,5
2580424000,0.91804385,-0.26143977,0.06346677,-0.2912333,0.9999998,-2.9103833e-10,2.9103834e-11,0.00066861516,5
2580476000,0.9098656,-0.26627183,0.05879138,-0.31270996,0.9999998,-2.9103833e-10,2.9103834e-11,0.00066861516,5
2580528000,0.9009527,-0.27155036,0.053959943,-0.33411512,0.9999998,-2.9103833e-10,2.9103834e-11,0.00066861516,5
2580580000,0.8915366,-0.27665976,0.048829664,-0.3552993,0.9999998,-2.9103833e-10,2.9103834e-11,0.00066861516,5
2580636000,0.88075244,-0.2819676,0.043102305,-0.3780366,0.9999998,-2.9103833e-10,2.9103834e-11,0.00066861516,5
2580684000,0.87123203,-0.28554404,0.03832995,-0.39742944,0.9999998,-2.9103833e-10,2.9103834e-11,0.00066861516,5
2580736000,0.8606431,-0.2884979,0.03353671,-0.4182557,0.9999998,-2.9103833e-10,2.9103834e-11,0.00066861516,5
2580788000,0.84989727,-0.2904884,0.02915156,-0.43868124,0.9999998,-2.9103833e-10,2.9103834e-11,0.00066861516,5
2580844000,0.83808506,-0.2914443,0.024996104,-0.46048763,0.9999998,-2.9103833e-10,2.9103834e-11,0.00066861516,5
2580892000,0.8278947,-0.2914221,0.021303233,-0.4787587,0.9999998,-2.9103833e-10,2.9103834e-11,0.00066861516,5
2580944000,0.8168032,-0.29035974,0.017001536,-0.4982316,0.9999998,-2.9103833e-10,2.9103834e-11,0.00066861516,5
2580996000,0.80565125,-0.28848758,0.012108412,-0.5172567,0.9999998,-2.9103833e-10,2.9103834e-11,0.00066861516,5
2581048000,0.79454565,-0.28565627,0.006606235,-0.5357744,0.9999998,-2.9103833e-10,2.9103834e-11,0.00066861516,5
2581104000,0.7827684,-0.2813361,7.933503e-05,-0.55508894,0.9999998,-2.9103833e-10,2.9103834e-11,0.00066861516,5
2581152000,0.7727067,-0.2770358,-0.005634465,-0.57109004,0.9999998,-2.9103833e-10,2.9103834e-11,0.00066861516,5
2581204000,0.76171756,-0.2722425,-0.011971587,-0.5878157,0.9999998,-2.9103833e-10,2.9103834e-11,0.00066861516,5
2581260000,0.74956197,-0.26761162,-0.018677777,-0.60513806,0.9999998,-2.9103833e-10,2.9103834e-11,0.00066861516,5
2581308000,0.7387704,-0.26464936,-0.024250476,-0.6193473,0.9999998,-2.9103833e-10,2.9103834e-11,0.00066861516,5
2581360000,0.7265613,-0.26259577,-0.030085387,-0.6342295,0.9999998,-2.9103833e-10,2.9103834e-11,0.00066861516,5
2581412000,0.71387434,-0.26153153,-0.035706885,-0.64862144,0.9999998,-2.9103833e-10,2.9103834e-11,0.00066861516,5
2581464000,0.70090663,-0.2608983,-0.041213807,-0.66254324,0.9999998,-2.9103833e-10,2.9103834e-11,0.00066861516,5
2581520000,0.686705,-0.2604349,-0.047046527,-0.67704993,0.9999998,-2.9103833e-10,2.9103834e-11,0.00066861516,5
2581572000,0.67330503,-0.26004088,-0.05251112,-0.6901317,0.9999998,-2.9103833e-10,2.9103834e-11,0.00066861516,5
2581620000,0.6607891,-0.25932616,-0.057134777,-0.70202804,0.9999998,-2.9103833e-10,2.9103834e-11,0.00066861516,5
2581672000,0.6471499,-0.25820988,-0.061856113,-0.71463174,0.9999998,-2.9103833e-10,2.9103834e-11,0.00066861516,5
2581724000,0.63342756,-0.25700998,-0.0663997,-0.726847,0.9999998,-2.9103833e-10,2.9103834e-11,0.00066861516,5
2581776000,0.61958873,-0.25568244,-0.07101254,-0.73871076,0.9999998,-2.9103833e-10,2.9103834e-11,0.00066861516,5
2581828000,0.60565126,-0.25435805,-0.07534866,-0.75020736,0.9999998,-2.9103833e-10,2.9103834e-11,0.00066861516,5
2581880000,0.5915412,-0.25301215,-0.079901114,-0.76136696,0.9999998,-2.9103833e-10,2.9103834e-11,0.00066861516,5
2581932000,0.57727695,-0.25183675,-0.08435048,-0.7721493,0.9999998,-2.9103833e-10,2.9103834e-11,0.00066861516,5
2581984000,0.56288654,-0.2508285,-0.08915402,-0.7824931,0.9999998,-2.9103833e-10,2.9103834e-11,0.00066861516,5
2582036000,0.5485808,-0.24968038,-0.09381032,-0.79241306,0.9999998,-2.9103833e-10,2.9103834e-11,0.00066861516,5
2582088000,0.5350339,-0.24789356,-0.098386586,-0.80162823,0.9999998,-2.9103833e-10,2.9103834e-11,0.00066861516,5
2582144000,0.5218948,-0.24607484,-0.10281999,-0.8102476,0.9999998,-2.9103833e-10,2.9103834e-11,0.00066861516,5
2582196000,0.5111915,-0.24470177,-0.10622404,-0.8170195,0.9999998,-2.9103833e-10,2.9103834e-11,0.00066861516,5
2582244000,0.5025688,-0.24390288,-0.10850893,-0.8222906,0.9999998,-2.9103833e-10,2.9103834e-11,0.00066861516,5
2582296000,0.49451795,-0.24350862,-0.1101463,-0.8270571,0.9999998,-2.9103833e-10,2.9103834e-11,0.00066861516,5
2582352000,0.48698935,-0.24362542,-0.1114184,-0.83130854,0.9999998,-2.9103833e-10,2.9103834e-11,0.00066861516,5
2582404000,0.48103082,-0.24381001,-0.112576626,-0.8345613,0.9999998,-2.9103833e-10,2.9103834e-11,0.00066861516,5
2582452000,0.47641197,-0.24389341,-0.11345847,-0.8370633,0.9999998,-2.9103833e-10,2.9103834e-11,0.00066861516,5
2582504000,0.47220227,-0.24373329,-0.11453004,-0.83934623,0.9999998,-2.9103833e-10,2.9103834e-11,0.00066861516,5
2582560000,0.46836853,-0.24353297,-0.115570545,-0.8414073,0.9999998,-2.9103833e-10,2.9103834e-11,0.00066861516,5
2582608000,0.46571895,-0.2431997,-0.11634719,-0.84286606,0.9999998,-2.9103833e-10,2.9103834e-11,0.00066861516,5
2582664000,0.46309108,-0.24252136,-0.1172359,-0.8443849,0.9999998,-2.9103833e-10,2.9103834e-11,0.00066861516,5
2582716000,0.46116632,-0.24197358,-0.11783074,-0.845512,0.9999998,-2.9103833e-10,2.9103834e-11,0.00066861516,5
2582764000,0.4597008,-0.24175346,-0.11839628,-0.8462936,0.9999998,-2.9103833e-10,2.9103834e-11,0.00066861516,5
2582816000,0.45833543,-0.24180585,-0.11895349,-0.84694076,0.9999998,-2.9103833e-10,2.9103834e-11,0.00066861516,5
2582868000,0.45727423,-0.24167813,-0.119491056,-0.84747493,0.9999998,-2.9103833e-10,2.9103834e-11,0.00066861516,5
2582920000,0.4563975,-0.24160418,-0.11991621,-0.84790856,0.9999998,-2.9103833e-10,2.9103834e-11,0.00066861516,5
2582972000,0.4556912,-0.24174492,-0.1203719,-0.84818363,0.9999998,-2.9103833e-10,2.9103834e-11,0.00066861516,5
2583024000,0.45514002,-0.24180754,-0.12065293,-0.8484218,0.9999998,-2.9103833e-10,2.9103834e-11,0.00066861516,5
2583076000,0.4547954,-0.24182072,-0.12075827,-0.8485879,0.9999998,-2.9103833e-10,2.9103834e-11,0.00066861516,5
2583128000,0.45451683,-0.2418632,-0.120836794,-0.84871376,0.9999998,-2.9103833e-10,2.9103834e-11,0.00066861516,5
2583180000,0.45424545,-0.24205892,-0.121049,-0.8487731,0.9999998,-2.9103833e-10,2.9103834e-11,0.00066861516,5
2583232000,0.45411167,-0.24206823,-0.12113401,-0.8488299,0.9999998,-2.9103833e-10,2.9103834e-11,0.00066861516,5
2583284000,0.45403874,-0.24194475,-0.12115313,-0.84890133,0.9999998,-2.9103833e-10,2.9103834e-11,0.00066861516,5
2583336000,0.45399684,-0.24196596,-0.121299125,-0.8488968,0.9999998,-2.9103833e-10,2.9103834e-11,0.00066861516,5
2583388000,0.45401654,-0.24208944,-0.121388525,-0.8488383,0.9999998,-2.9103833e-10,2.9103834e-11,0.00066861516,5
2583444000,0.45400077,-0.24266082,-0.12153263,-0.848663,0.9999998,-2.9103833e-10,2.9103834e-11,0.00066861516,5
2583492000,0.4539723,-0.24322647,-0.12187247,-0.8484675,0.9999998,-2.9103833e-10,2.9103834e-11,0.00066861516,5
2583544000,0.45401788,-0.24404699,-0.122204594,-0.8481597,0.9999998,-2.9103833e-10,2.9103834e-11,0.00066861516,5
2583600000,0.45409274,-0.24490578,-0.12243887,-0.8478383,0.9999998,-2.9103833e-10,2.9103834e-11,0.00066861516,5
2583648000,0.45415926,-0.24567094,-0.1226041,-0.8475574,0.9999998,-2.9103833e-10,2.9103834e-11,0.00066861516,5
2583700000,0.45425886,-0.24635673,-0.12269414,-0.8472918,0.9999998,-2.9103833e-10,2.9103834e-11,0.00066861516,5
2583756000,0.45435116,-0.24666288,-0.12276327,-0.8471433,0.9999998,-2.9103833e-10,2.9103834e-11,0.00066861516,5
2583808000,0.45453024,-0.24690108,-0.1227435,-0.84698063,0.9999998,-2.9103833e-10,2.9103834e-11,0.00066861516,5
2583860000,0.45464703,-0.24699236,-0.12265704,-0.8469039,0.9999998,-2.9103833e-10,2.9103834e-11,0.00066861516,5
2583912000,0.4548004,-0.24707034,-0.122634694,-0.84680206,0.9999998,-2.9103833e-10,2.9103834e-11,0.00066861516,5
2583960000,0.4550373,-0.24696507,-0.122615755,-0.84670824,0.9999998,-2.9103833e-10,2.9103834e-11,0.00066861516,5
2584012000,0.45524853,-0.24703461,-0.12280038,-0.84654754,0.9999998,-2.9103833e-10,2.9103834e-11,0.00066861516,5
2584064000,0.45539713,-0.24740689,-0.12308903,-0.846317,0.9999998,-2.9103833e-10,2.9103834e-11,0.00066861516,5
2584116000,0.45562625,-0.24767342,-0.123244315,-0.846093,0.9999998,-2.9103833e-10,2.9103834e-11,0.00066861516,5
2584168000,0.45584202,-0.24766761,-0.123287946,-0.8459721,0.9999998,-2.9103833e-10,2.9103834e-11,0.00066861516,5
2584220000,0.45614752,-0.24754469,-0.12332592,-0.8458379,0.9999998,-2.9103833e-10,2.9103834e-11,0.00066861516,5
2584272000,0.45635298,-0.24747202,-0.1231824,-0.84576935,0.9999998,-2.9103833e-10,2.9103834e-11,0.00066861516,5
2584328000,0.45657563,-0.24735028,-0.123113945,-0.8456946,0.9999998,-2.9103833e-10,2.9103834e-11,0.00066861516,5
2584380000,0.45683807,-0.24716549,-0.123130165,-0.8456047,0.9999998,-2.9103833e-10,2.9103834e-11,0.00066861516,5
2584428000,0.45700255,-0.24739562,-0.12292824,-0.8454778,0.9999998,-2.9103833e-10,2.9103834e-11,0.00066861516,5
2584484000,0.4571475,-0.24770431,-0.12299314,-0.84529954,0.9999998,-2.9103833e-10,2.9103834e-11,0.00066861516,5
2584532000,0.45726693,-0.24784085,-0.12289979,-0.84520864,0.9999998,-2.9103833e-10,2.9103834e-11,0.00066861516,5
2584588000,0.4574659,-0.24783762,-0.12275944,-0.84512234,0.9999998,-2.9103833e-10,2.9103834e-11,0.00066861516,5
2584636000,0.4575803,-0.24791494,-0.12261862,-0.84505814,0.9999998,-2.9103833e-10,2.9103834e-11,0.00066861516,5
2584692000,0.4578115,-0.24783099,-0.12249691,-0.8449751,0.9999998,-2.9103833e-10,2.9103834e-11,0.00066861516,5
2584740000,0.45799708,-0.24771821,-0.122440815,-0.8449158,0.9999998,-2.9103833e-10,2.9103834e-11,0.00066861516,5
2584792000,0.45814526,-0.2475836,-0.12245906,-0.8448722,0.9999998,-2.9103833e-10,2.9103834e-11,0.00066861516,5
2584844000,0.45824984,-0.24769278,-0.12250815,-0.84477645,0.9999998,-2.9103833e-10,2.9103834e-11,0.00066861516,5
2584900000,0.45848575,-0.24792022,-0.122571185,-0.8445724,0.9999998,-2.9103833e-10,2.9103834e-11,0.00066861516,5
2584948000,0.45868757,-0.24784465,-0.12253811,-0.8444899,0.9999998,-2.9103833e-10,2.9103834e-11,0.00066861516,5
2585000000,0.45889607,-0.24777053,-0.12245176,-0.844411,0.9999998,-2.9103833e-10,2.9103834e-11,0.00066861516,5
2585052000,0.4590283,-0.24792486,-0.122444764,-0.8442947,0.9999998,-2.9103833e-10,2.9103834e-11,0.00066861516,5
2585104000,0.45918825,-0.24798426,-0.12254711,-0.8441754,0.9999998,-2.9103833e-10,2.9103834e-11,0.00066861516,5
2585156000,0.45938528,-0.24777071,-0.12264949,-0.84411615,0.9999998,-2.9103833e-10,2.9103834e-11,0.00066861516,5
2585208000,0.45952457,-0.24766377,-0.12267124,-0.8440685,0.9999998,-2.9103833e-10,2.9103834e-11,0.00066861516,5
2585260000,0.45965442,-0.2478587,-0.12279718,-0.84392226,0.9999998,-2.9103833e-10,2.9103834e-11,0.00066861516,5
2585312000,0.45977172,-0.24807087,-0.12294801,-0.8437741,0.9999998,-2.9103833e-10,2.9103834e-11,0.00066861516,5
2585364000,0.45991647,-0.2481863,-0.12281021,-0.84368134,0.9999998,-2.9103833e-10,2.9103834e-11,0.00066861516,5
2585416000,0.45994008,-0.24828939,-0.12271365,-0.8436522,0.9999998,-2.9103833e-10,2.9103834e-11,0.00066861516,5
2585472000,0.46004996,-0.24834496,-0.122657,-0.84358406,0.9999998,-2.9103833e-10,2.9103834e-11,0.00066861516,5
2585520000,0.46023047,-0.24820575,-0.122756906,-0.84351206,0.9999998,-2.9103833e-10,2.9103834e-11,0.00066861516,5
2585572000,0.4604205,-0.24791048,-0.12275589,-0.84349537,0.9999998,-2.9103833e-10,2.9103834e-11,0.00066861516,5
2585624000,0.46061364,-0.24779679,-0.122896925,-0.8434028,0.9999998,-2.9103833e-10,2.9103834e-11,0.00066861516,5
2585676000,0.4607359,-0.24797812,-0.1228256,-0.843293,0.9999998,-2.9103833e-10,2.9103834e-11,0.00066861516,5
2585728000,0.46088555,-0.24795823,-0.122724935,-0.84323186,0.9999998,-2.9103833e-10,2.9103834e-11,0.00066861516,5
2585780000,0.46103254,-0.2479589,-0.12257184,-0.8431735,0.9999998,-2.9103833e-10,2.9103834e-11,0.00066861516,5
2585832000,0.46114087,-0.24807729,-0.122464254,-0.8430952,0.9999998,-2.9103833e-10,2.9103834e-11,0.00066861516,5
2585884000,0.46114972,-0.24845459,-0.12241177,-0.8429867,0.9999998,-2.9103833e-10,2.9103834e-11,0.00066861516,5
2585940000,0.46125495,-0.24852897,-0.1226987,-0.8428655,0.9999998,-2.9103833e-10,2.9103834e-11,0.00066861516,5
2585988000,0.46137854,-0.24833086,-0.122940354,-0.8428211,0.9999998,-2.9103833e-10,2.9103834e-11,0.00066861516,5
2586044000,0.4615245,-0.248081,-0.12324731,-0.84277,0.9999998,-2.9103833e-10,2.9103834e-11,0.00066861516,5
2586092000,0.46160552,-0.24824068,-0.1233498,-0.8426636,0.9999998,-2.9103833e-10,2.9103834e-11,0.00066861516,5
2586144000,0.46179458,-0.2484014,-0.123469844,-0.8424949,0.9999998,-2.9103833e-10,2.9103834e-11,0.00066861516,5
2586196000,0.4619018,-0.24854647,-0.12354554,-0.8423823,0.9999998,-2.9103833e-10,2.9103834e-11,0.00066861516,5
2586252000,0.46194363,-0.24886088,-0.123410456,-0.84228635,0.9999998,-2.9103833e-10,2.9103834e-11,0.00066861516,5
2586300000,0.46193793,-0.24915679,-0.12330469,-0.84221756,0.9999998,-2.9103833e-10,2.9103834e-11,0.00066861516,5
2586352000,0.46192327,-0.24930938,-0.12326336,-0.84218633,0.9999998,-2.9103833e-10,2.9103834e-11,0.00066861516,5
2586404000,0.4619238,-0.24946883,-0.123213954,-0.84214616,0.9999998,-2.9103833e-10,2.9103834e-11,0.00066861516,5
2586460000,0.4619886,-0.24943441,-0.12340527,-0.84209275,0.9999998,-2.9103833e-10,2.9103834e-11,0.00066861516,5
2586508000,0.46205828,-0.24945167,-0.123563655,-0.84202623,0.9999998,-2.9103833e-10,2.9103834e-11,0.00066861516,5
2586560000,0.46219346,-0.24914554,-0.12365059,-0.8420299,0.9999998,-2.9103833e-10,2.9103834e-11,0.00066861516,5
2586612000,0.46232235,-0.24893412,-0.123541,-0.84203774,0.9999998,-2.9103833e-10,2.9103834e-11,0.00066861516,5
2586664000,0.46244717,-0.2488019,-0.12321712,-0.84205574,0.9999998,-2.9103833e-10,2.9103834e-11,0.00066861516,5
2586720000,0.46251243,-0.24856913,-0.12293978,-0.84212905,0.9999998,-2.9103833e-10,2.9103834e-11,0.00066861516,5
2586768000,0.46259442,-0.24836414,-0.12286661,-0.84215534,0.9999998,-2.9103833e-10,2.9103834e-11,0.00066861516,5
2586824000,0.46267718,-0.24820812,-0.12265491,-0.8421867,0.9999998,-2.9103833e-10,2.9103834e-11,0.00066861516,5
2586872000,0.46271315,-0.24840187,-0.12260997,-0.8421164,0.9999998,-2.9103833e-10,2.9103834e-11,0.00066861516,5
2586924000,0.46265477,-0.2487582,-0.12255724,-0.84205085,0.9999998,-2.9103833e-10,2.9103834e-11,0.00066861516,5
2586976000,0.46261024,-0.2490476,-0.122615546,-0.8419813,0.9999998,-2.9103833e-10,2.9103834e-11,0.00066861516,5
2587028000,0.4626362,-0.24951774,-0.12263326,-0.84182525,0.9999998,-2.9103833e-10,2.9103834e-11,0.00066861516,5
2587080000,0.4625793,-0.25000235,-0.12265651,-0.8417094,0.9999998,-2.9103833e-10,2.9103834e-11,0.00066861516,5
2587132000,0.46257183,-0.25021136,-0.12284611,-0.8416237,0.9999998,-2.9103833e-10,2.9103834e-11,0.00066861516,5
2587184000,0.46265894,-0.250294,-0.123013824,-0.84152675,0.9999998,-2.9103833e-10,2.9103834e-11,0.00066861516,5
2587236000,0.46272472,-0.25014788,-0.12291218,-0.84154886,0.9999998,-2.9103833e-10,2.9103834e-11,0.00066861516,5
2587288000,0.4627627,-0.24990791,-0.12274918,-0.84162307,0.9999998,-2.9103833e-10,2.9103834e-11,0.00066861516,5
2587344000,0.4628546,-0.24964075,-0.12257389,-0.8416774,0.9999998,-2.9103833e-10,2.9103834e-11,0.00066861516,5
2587392000,0.46296805,-0.2495979,-0.122587234,-0.84162575,0.9999998,-2.9103833e-10,2.9103834e-11,0.00066861516,5
2587444000,0.46300292,-0.24974963,-0.12268498,-0.8415473,0.9999998,-2.9103833e-10,2.9103834e-11,0.00066861516,5
2587496000,0.46309015,-0.24985379,-0.122908324,-0.8414358,0.9999998,-2.9103833e-10,2.9103834e-11,0.00066861516,5
2587548000,0.46317372,-0.25000376,-0.12312742,-0.84131324,0.9999998,-2.9103833e-10,2.9103834e-11,0.00066861516,5
2587604000,0.4632282,-0.24999908,-0.12327328,-0.8412632,0.9999998,-2.9103833e-10,2.9103834e-11,0.00066861516,5
2587652000,0.46331325,-0.25022572,-0.12330923,-0.84114367,0.9999998,-2.9103833e-10,2.9103834e-11,0.00066861516,5
2587704000,0.4633031,-0.2505145,-0.12326756,-0.8410695,0.9999998,-2.9103833e-10,2.9103834e-11,0.00066861516,5
2587756000,0.46333626,-0.25072417,-0.12337731,-0.8409727,0.9999998,-2.9103833e-10,2.9103834e-11,0.00066861516,5
2587808000,0.46338174,-0.25077122,-0.1234549,-0.84092224,0.9999998,-2.9103833e-10,2.9103834e-11,0.00066861516,5
2587860000,0.463391,-0.250907,-0.12351306,-0.8408681,0.9999998,-2.9103833e-10,2.9103834e-11,0.00066861516,5
2587912000,0.46336553,-0.25091872,-0.12358917,-0.8408674,0.9999998,-2.9103833e-10,2.9103834e-11,0.00066861516,5
2587964000,0.46342996,-0.25073332,-0.12371739,-0.84086835,0.9999998,-2.9103833e-10,2.9103834e-11,0.00066861516,5
2588016000,0.46351638,-0.25053725,-0.12369609,-0.8408823,0.9999998,-2.9103833e-10,2.9103834e-11,0.00066861516,5
2588068000,0.4635889,-0.25061762,-0.12366145,-0.84082335,0.9999998,-2.9103833e-10,2.9103834e-11,0.00066861516,5
2588120000,0.46363464,-0.25082573,-0.12363738,-0.8407397,0.9999998,-2.9103833e-10,2.9103834e-11,0.00066861516,5
2588176000,0.46356562,-0.25089458,-0.12360032,-0.8407626,0.9999998,-2.9103833e-10,2.9103834e-11,0.00066861516,5
2588224000,0.4634878,-0.25104496,-0.123609014,-0.84075934,0.9999998,-2.9103833e-10,2.9103834e-11,0.00066861516,5
2588280000,0.4635141,-0.2513647,-0.1234863,-0.8406673,0.9999998,-2.9103833e-10,2.9103834e-11,0.00066861516,5
2588328000,0.4634909,-0.25145623,-0.123343505,-0.84067374,0.9999998,-2.9103833e-10,2.9103834e-11,0.00066861516,5
2588380000,0.46338797,-0.25157905,-0.12331222,-0.84069836,0.9999998,-2.9103833e-10,2.9103834e-11,0.00066861516,5
2588432000,0.46341807,-0.25173298,-0.12333363,-0.84063256,0.9999998,-2.9103833e-10,2.9103834e-11,0.00066861516,5
2588484000,0.46339643,-0.2518588,-0.12349167,-0.8405837,0.9999998,-2.9103833e-10,2.9103834e-11,0.00066861516,5
2588540000,0.46336883,-0.25198025,-0.12367483,-0.8405354,0.9999998,-2.9103833e-10,2.9103834e-11,0.00066861516,5
2588588000,0.4634552,-0.25193974,-0.12383879,-0.8404759,0.9999998,-2.9103833e-10,2.9103834e-11,0.00066861516,5
2588640000,0.46348646,-0.2520486,-0.12399823,-0.8404024,0.9999998,-2.9103833e-10,2.9103834e-11,0.00066861516,5
2588696000,0.46352047,-0.25220227,-0.12397621,-0.84034085,0.9999998,-2.9103833e-10,2.9103834e-11,0.00066861516,5
2588744000,0.46341565,-0.25269178,-0.123991825,-0.8402493,0.9999998,-2.9103833e-10,2.9103834e-11,0.00066861516,5
2588796000,0.46331567,-0.25307435,-0.12383981,-0.8402117,0.9999998,-2.9103833e-10,2.9103834e-11,0.00066861516,5
2588848000,0.46331435,-0.2533232,-0.12392146,-0.8401255,0.9999998,-2.9103833e-10,2.9103834e-11,0.00066861516,5
2588900000,0.4633359,-0.2535766,-0.12427702,-0.8399845,0.9999998,-2.9103833e-10,2.9103834e-11,0.00066861516,5
2588952000,0.4633205,-0.25381455,-0.1245889,-0.839875,0.9999998,-2.9103833e-10,2.9103834e-11,0.00066861516,5
2589004000,0.4633607,-0.25409716,-0.12501225,-0.83970433,0.9999998,-2.9103833e-10,2.9103834e-11,0.00066861516,5
2589056000,0.46331033,-0.2545822,-0.125506,-0.8395117,0.9999998,-2.9103833e-10,2.9103834e-11,0.00066861516,5
2589108000,0.46327147,-0.25499648,-0.12592983,-0.8393439,0.9999998,-2.9103833e-10,2.9103834e-11,0.00066861516,5
2589164000,0.46322247,-0.25532976,-0.12607011,-0.83924854,0.9999998,-2.9103833e-10,2.9103834e-11,0.00066861516,5
2589212000,0.4632138,-0.25544387,-0.12622212,-0.8391957,0.9999998,-2.9103833e-10,2.9103834e-11,0.00066861516,5
2589264000,0.463269,-0.25558352,-0.12630776,-0.83910984,0.9999998,-2.9103833e-10,2.9103834e-11,0.00066861516,5
2589316000,0.463195,-0.255727,-0.12642266,-0.8390897,0.9999998,-2.9103833e-10,2.9103834e-11,0.00066861516,5
2589368000,0.46325842,-0.2557072,-0.12631263,-0.83907723,0.9999998,-2.9103833e-10,2.9103834e-11,0.00066861516,5
2589420000,0.463311,-0.2555432,-0.12599345,-0.83914614,0.9999998,-2.9103833e-10,2.9103834e-11,0.00066861516,5
2589476000,0.4633726,-0.2553355,-0.12575878,-0.8392107,0.9999998,-2.9103833e-10,2.9103834e-11,0.00066861516,5
2589524000,0.46337977,-0.2552874,-0.1257809,-0.83921784,0.9999998,-2.9103833e-10,2.9103834e-11,0.00066861516,5
2589576000,0.46331146,-0.25540522,-0.12593691,-0.8391963,0.9999998,-2.9103833e-10,2.9103834e-11,0.00066861516,5
2589628000,0.46327147,-0.25572225,-0.12613676,-0.83909196,0.9999998,-2.9103833e-10,2.9103834e-11,0.00066861516,5
2589684000,0.46329015,-0.25610366,-0.12634385,-0.83893406,0.9999998,-2.9103833e-10,2.9103834e-11,0.00066861516,5
2589736000,0.46331382,-0.25626364,-0.12651557,-0.8388463,0.9999998,-2.9103833e-10,2.9103834e-11,0.00066861516,5
2589788000,0.46329194,-0.25615433,-0.1264788,-0.8388973,0.9999998,-2.9103833e-10,2.9103834e-11,0.00066861516,5
2589836000,0.46331185,-0.25610608,-0.12633495,-0.83892274,0.9999998,-2.9103833e-10,2.9103834e-11,0.00066861516,5
2589888000,0.46336246,-0.25581932,-0.12616843,-0.8390074,0.9999998,-2.9103833e-10,2.9103834e-11,0.00066861516,5
2589940000,0.4634639,-0.25562513,-0.12609977,-0.8390208,0.9999998,-2.9103833e-10,2.9103834e-11,0.00066861516,5
2589992000,0.46345773,-0.255582,-0.1260484,-0.83904505,0.9999998,-2.9103833e-10,2.9103834e-11,0.00066861516,5
2590044000,0.46345055,-0.25563648,-0.12613805,-0.83901894,0.9999998,-2.9103833e-10,2.9103834e-11,0.00066861516,5
2590100000,0.46336532,-0.2560524,-0.1262082,-0.83892864,0.9999998,-2.9103833e-10,2.9103834e-11,0.00066861516,5
2590148000,0.4632136,-0.25645298,-0.12629482,-0.838877,0.9999998,-2.9103833e-10,2.9103834e-11,0.00066861516,5
2590200000,0.46320343,-0.2567068,-0.12652388,-0.8387705,0.9999998,-2.9103833e-10,2.9103834e-11,0.00066861516,5
2590252000,0.4633001,-0.25684887,-0.12669085,-0.8386484,0.9999998,-2.9103833e-10,2.9103834e-11,0.00066861516,5
2590304000,0.46331307,-0.25688714,-0.1265546,-0.8386501,0.9999998,-2.9103833e-10,2.9103834e-11,0.00066861516,5
2590356000,0.46325374,-0.25688115,-0.12630916,-0.8387217,0.9999998,-2.9103833e-10,2.9103834e-11,0.00066861516,5
2590412000,0.46324164,-0.25681773,-0.12622589,-0.8387603,0.9999998,-2.9103833e-10,2.9103834e-11,0.00066861516,5
2590460000,0.46327245,-0.256678,-0.12615463,-0.83879673,0.9999998,-2.9103833e-10,2.9103834e-11,0.00066861516,5
2590512000,0.46330503,-0.2565418,-0.12609433,-0.8388295,0.9999998,-2.9103833e-10,2.9103834e-11,0.00066861516,5
2590568000,0.4633147,-0.25641912,-0.12614864,-0.83885354,0.9999998,-2.9103833e-10,2.9103834e-11,0.00066861516,5
2590616000,0.46335852,-0.25655878,-0.1260721,-0.83879817,0.9999998,-2.9103833e-10,2.9103834e-11,0.00066861516,5
2590668000,0.4633775,-0.2566672,-0.12609029,-0.83875185,0.9999998,-2.9103833e-10,2.9103834e-11,0.00066861516,5
2590720000,0.46329823,-0.2569106,-0.12608318,-0.83872205,0.9999998,-2.9103833e-10,2.9103834e-11,0.00066861516,5
2590772000,0.4632432,-0.25715107,-0.12613961,-0.83867025,0.9999998,-2.9103833e-10,2.9103834e-11,0.00066861516,5
2590824000,0.4631603,-0.25746757,-0.12616682,-0.8386149,0.9999998,-2.9103833e-10,2.9103834e-11,0.00066861516,5
2590876000,0.46315387,-0.25761122,-0.1261399,-0.83857834,0.9999998,-2.9103833e-10,2.9103834e-11,0.00066861516,5
2590932000,0.46304896,-0.25754866,-0.12591985,-0.8386886,0.9999998,-2.9103833e-10,2.9103834e-11,0.00066861516,5
2590980000,0.4629753,-0.25749713,-0.1257836,-0.8387655,0.9999998,-2.9103833e-10,2.9103834e-11,0.00066861516,5
2591032000,0.46294722,-0.25768834,-0.1256778,-0.8387382,0.9999998,-2.9103833e-10,2.9103834e-11,0.00066861516,5
2591088000,0.462913,-0.2579405,-0.12590523,-0.83864534,0.9999998,-2.9103833e-10,2.9103834e-11,0.00066861516,5
2591136000,0.4628863,-0.25806165,-0.12612204,-0.8385903,0.9999998,-2.9103833e-10,2.9103834e-11,0.00066861516,5
2591188000,0.46289897,-0.25801638,-0.1261337,-0.83859557,0.9999998,-2.9103833e-10,2.9103834e-11,0.00066861516,5
2591240000,0.4629559,-0.2577805,-0.12625933,-0.8386178,0.9999998,-2.9103833e-10,2.9103834e-11,0.00066861516,5
2591292000,0.46300668,-0.25766551,-0.12631862,-0.83861613,0.9999998,-2.9103833e-10,2.9103834e-11,0.00066861516,5
2591344000,0.46304378,-0.25768608,-0.12634549,-0.83858526,0.9999998,-2.9103833e-10,2.9103834e-11,0.00066861516,5
2591396000,0.4630326,-0.25789577,-0.12636417,-0.8385242,0.9999998,-2.9103833e-10,2.9103834e-11,0.00066861516,5
2591448000,0.4629853,-0.25791752,-0.12646204,-0.8385289,0.9999998,-2.9103833e-10,2.9103834e-11,0.00066861516,5
2591500000,0.46297967,-0.25786445,-0.12661436,-0.8385252,0.9999998,-2.9103833e-10,2.9103834e-11,0.00066861516,5
2591552000,0.4629871,-0.25794157,-0.12668127,-0.8384874,0.9999998,-2.9103833e-10,2.9103834e-11,0.00066861516,5
2591604000,0.46298063,-0.25818762,-0.12675978,-0.8384033,0.9999998,-2.9103833e-10,2.9103834e-11,0.00066861516,5
