timestamp,roll_body,pitch_body,yaw_body,yaw_sp_move_rate,q_d[0],q_d[1],q_d[2],q_d[3],thrust_body[0],thrust_body[1],thrust_body[2],q_d_valid,roll_reset_integral,pitch_reset_integral,yaw_reset_integral,fw_control_yaw,apply_flaps
2565280000,-0.043334488,0.18214992,0.41622642,0.0,0.97373164,-0.03989717,0.084507905,0.20763752,0.0,0.0,-0.12213327,1,0,0,0,0,0
2565372000,-0.005488782,0.08011424,0.41569582,0.0,0.977666,-0.010946895,0.038618486,0.20629585,0.0,0.0,-0.12038794,1,0,0,0,0,0
2565468000,0.0010986814,0.10691477,0.41569582,0.0,0.9770854,-0.010489172,0.052395113,0.20603108,0.0,0.0,-0.15838437,1,0,0,0,0,0
2565580000,0.0020926832,0.07305751,0.41569582,0.0,0.9778319,-0.0065130577,0.035950363,0.20617944,0.0,0.0,-0.23225257,1,0,0,0,0,0
2565672000,0.0019729394,0.05872744,0.41569582,0.0,0.97806096,-0.0050936425,0.028931063,0.20623723,0.0,0.0,-0.29414895,1,0,0,0,0,0
2565784000,0.00047875388,0.04783573,0.41569582,0.0,0.9781986,-0.004700932,0.023450237,0.20628996,0.0,0.0,-0.37379596,1,0,0,0,0,0
2565876000,0.00046763328,0.040776905,0.41569582,0.0,0.9782749,-0.003978223,0.019996494,0.20630707,0.0,0.0,-0.44211045,1,0,0,0,0,0
2565972000,0.0010826768,0.03460922,0.41569582,0.0,0.9783326,-0.0030410986,0.017043011,0.2063145,0.0,0.0,-0.5152731,1,0,0,0,0,0
2566064000,0.0012073289,0.029452696,0.41569582,0.0,0.9783729,-0.0024481316,0.014533429,0.2063235,0.0,0.0,-0.5835065,1,0,0,0,0,0
2566176000,-0.0013381308,0.018860957,0.41569582,0.0,0.97843224,-0.0026006296,0.0090893125,0.20635158,0.0,0.0,-0.6088933,1,0,0,0,0,0
2566268000,-0.0014286841,0.0030730718,0.41569582,0.0,0.9784757,-0.0010160377,0.0013560568,0.20635541,0.0,0.0,-0.6064282,1,0,0,0,0,0
2566380000,-0.0029777894,-0.0111517925,0.41569582,0.0,0.9784627,-0.00030622195,-0.005763089,0.20634307,0.0,0.0,-0.6096427,1,0,0,0,0,0
2566476000,-0.004123187,-0.015323493,0.41569582,0.0,0.97844976,-0.00043614404,-0.007922161,0.20633265,0.0,0.0,-0.6169154,1,0,0,0,0,0
2566568000,-0.0043211114,-0.017773593,0.41569582,0.0,0.97844034,-0.00028016654,-0.009141216,0.20632721,0.0,0.0,-0.61459655,1,0,0,0,0,0
2566680000,-0.004602271,-0.016888596,0.41569582,0.0,0.9784438,-0.0005090323,-0.008737266,0.2063277,0.0,0.0,-0.61792237,1,0,0,0,0,0
2566772000,-0.004431107,-0.015078337,0.41569582,0.0,0.97845054,-0.00061208184,-0.007833993,0.20633192,0.0,0.0,-0.6168584,1,0,0,0,0,0
2566868000,-0.0053802957,-0.01599736,0.41569582,0.0,0.9784469,-0.0009816202,-0.00838152,0.2063262,0.0,0.0,-0.6225281,1,0,0,0,0,0
2566980000,-0.0038474638,-0.014926503,0.41569582,0.0,0.9784512,-0.00034221515,-0.0076995012,0.20633444,0.0,0.0,-0.6276267,1,0,0,0,0,0
2567072000,-0.004576042,-0.014677441,0.41569582,0.0,0.9784518,-0.000724353,-0.007652818,0.20633207,0.0,0.0,-0.62537205,1,0,0,0,0,0
2567184000,-0.0052937507,-0.012698738,0.41569582,0.0,0.9784576,-0.0012796439,-0.0067588324,0.2063333,0.0,0.0,-0.62745804,1,0,0,0,0,0
2567276000,-0.0035325922,-0.013450609,0.41569582,0.0,0.978456,-0.00034045562,-0.0069449726,0.206338,0.0,0.0,-0.62509435,1,0,0,0,0,0
2567372000,-0.0025755153,-0.013721152,0.41569582,0.0,0.97845525,0.0001556876,-0.006978588,0.20634094,0.0,0.0,-0.63405967,1,0,0,0,0,0
2567464000,-0.0026086036,-0.013164446,0.41569582,0.0,0.97845703,8.205945e-05,-0.006709646,0.20634156,0.0,0.0,-0.6320456,1,0,0,0,0,0
2567576000,-0.0022438534,-0.013118485,0.41569582,0.0,0.97845715,0.00025576353,-0.0066495286,0.20634283,0.0,0.0,-0.63552827,1,0,0,0,0,0
2567668000,-0.0019033637,-0.012949054,0.41569582,0.0,0.9784576,0.0004048591,-0.0065315105,0.20634416,0.0,0.0,-0.63440067,1,0,0,0,0,0
2567780000,-0.002550249,-0.012755614,0.41569582,0.0,0.9784583,6.84252e-05,-0.0065036137,0.20634228,0.0,0.0,-0.63709116,1,0,0,0,0,0
2567876000,-0.0009935988,-0.011351178,0.41569582,0.0,0.978462,0.0006850783,-0.0056559197,0.20634848,0.0,0.0,-0.6439428,1,0,0,0,0,0
2567968000,-0.0016599268,-0.010315932,0.41569582,0.0,0.97846484,0.00025227547,-0.005218193,0.2063476,0.0,0.0,-0.6050469,1,0,0,0,0,0
2568080000,-0.0036639057,-0.011682929,0.41569582,0.0,0.97846115,-0.00058708835,-0.0060937237,0.20634028,0.0,0.0,-0.5347328,1,0,0,0,0,0
2568172000,-0.0034421461,-0.011140601,0.41569582,0.0,0.97846264,-0.00053455424,-0.005805522,0.20634173,0.0,0.0,-0.566701,1,0,0,0,0,0
2568268000,-0.0037472227,-0.01046304,0.41569582,0.0,0.9784642,-0.0007537185,-0.0055055134,0.20634185,0.0,0.0,-0.57485986,1,0,0,0,0,0
2568380000,-0.005057993,-0.012607878,0.41569582,0.0,0.978458,-0.0011736798,-0.00669006,0.20633425,0.0,0.0,-0.5699688,1,0,0,0,0,0
2568476000,-0.004246163,-0.01266387,0.41569582,0.0,0.9784582,-0.0007707317,-0.0066336975,0.20633689,0.0,0.0,-0.5746385,1,0,0,0,0,0
2568568000,-0.0026553676,-0.012839937,0.41569582,0.0,0.978458,2.5698373e-05,-0.0065557123,0.20634182,0.0,0.0,-0.572007,1,0,0,0,0,0
2568680000,-0.0029546763,-0.012618294,0.41569582,0.0,0.97845864,-0.00014360106,-0.006478158,0.20634118,0.0,0.0,-0.57166785,1,0,0,0,0,0
2568772000,-0.0023709377,-0.012928064,0.41569582,0.0,0.9784577,0.00017394261,-0.0065694815,0.20634267,0.0,0.0,-0.5712422,1,0,0,0,0,0
2568868000,-0.004236236,-0.011463654,0.41569582,0.0,0.9784615,-0.00088971516,-0.0060454947,0.2063389,0.0,0.0,-0.57736176,1,0,0,0,0,0
2568980000,-0.002951412,-0.011728871,0.41569582,0.0,0.9784612,-0.00023377451,-0.0060426905,0.20634238,0.0,0.0,-0.5793615,1,0,0,0,0,0
2569072000,-0.0030622405,-0.010934649,0.41569582,0.0,0.97846323,-0.00036994295,-0.0056655686,0.2063431,0.0,0.0,-0.5764156,1,0,0,0,0,0
2569184000,-0.0021088342,-0.011784201,0.41569582,0.0,0.978461,0.00018414918,-0.0059828293,0.20634484,0.0,0.0,-0.5780788,1,0,0,0,0,0
2569276000,-0.0020653566,-0.011577054,0.41569582,0.0,0.97846156,0.0001840466,-0.005877002,0.2063452,0.0,0.0,-0.575077,1,0,0,0,0,0
2569372000,-0.0028294188,-0.011149328,0.41569582,0.0,0.97846276,-0.00023388852,-0.005746575,0.20634349,0.0,0.0,-0.58318,1,0,0,0,0,0
2569464000,-0.0039341613,-0.011202281,0.41569582,0.0,0.97846234,-0.0007688996,-0.0058864583,0.2063402,0.0,0.0,-0.58030635,1,0,0,0,0,0
2569576000,-0.0032669362,-0.0104765445,0.41569582,0.0,0.9784643,-0.0005173537,-0.0054625687,0.20634316,0.0,0.0,-0.5783965,1,0,0,0,0,0
2569668000,-0.0022976364,-0.011766475,0.41569582,0.0,0.9784611,8.9952526e-05,-0.005993637,0.20634432,0.0,0.0,-0.5748455,1,0,0,0,0,0
2569780000,-0.0014043368,-0.010344555,0.41569582,0.0,0.9784647,0.00038027167,-0.005205826,0.20634824,0.0,0.0,-0.57658046,1,0,0,0,0,0
2569876000,-0.00025049894,-0.009523368,0.41569582,0.0,0.97846633,0.0008600393,-0.0046850275,0.2063517,0.0,0.0,-0.58479965,1,0,0,0,0,0
2569968000,-0.0012211659,-0.010498264,0.41569582,0.0,0.97846425,0.00048574415,-0.0052621267,0.20634858,0.0,0.0,-0.58140147,1,0,0,0,0,0
2570080000,-0.001318748,-0.01069723,0.41569582,0.0,0.9784638,0.00045853248,-0.0053695347,0.20634818,0.0,0.0,-0.5815404,1,0,0,0,0,0
2570172000,-0.00048449347,-0.012914621,0.41569582,0.0,0.97845715,0.0010954585,-0.006368275,0.20634876,0.0,0.0,-0.57743645,1,0,0,0,0,0
2570268000,-0.0006706224,-0.011057749,0.41569582,0.0,0.9784627,0.00081281335,-0.0054790424,0.20634964,0.0,0.0,-0.5855764,1,0,0,0,0,0
2570380000,-0.00064360397,-0.011575297,0.41569582,0.0,0.9784612,0.0008794307,-0.0057294555,0.20634936,0.0,0.0,-0.5866583,1,0,0,0,0,0
2570472000,0.001072311,-0.012397036,0.41569582,0.0,0.9784577,0.0018036903,-0.0059544337,0.20635386,0.0,0.0,-0.583397,1,0,0,0,0,0
2570584000,-4.9884355e-05,-0.01209142,0.41569582,0.0,0.9784594,0.0012231474,-0.0059207,0.20635068,0.0,0.0,-0.58201283,1,0,0,0,0,0
2570676000,-0.00021873164,-0.013460959,0.41569582,0.0,0.97845525,0.0012818454,-0.0066081393,0.20634922,0.0,0.0,-0.5784791,1,0,0,0,0,0
2570772000,0.0005510581,-0.01206985,0.41569582,0.0,0.9784591,0.0015149208,-0.0058481446,0.20635247,0.0,0.0,-0.58302504,1,0,0,0,0,0
2570864000,0.0013184383,-0.012233284,0.41569582,0.0,0.9784579,0.0019072079,-0.005848926,0.20635465,0.0,0.0,-0.5817632,1,0,0,0,0,0
2570976000,0.00050525315,-0.0103224,0.41569582,0.0,0.97846395,0.0013122185,-0.004997964,0.20635314,0.0,0.0,-0.58192,1,0,0,0,0,0
2571068000,-0.0006939213,-0.012289997,0.41569582,0.0,0.9784592,0.00092855404,-0.0060842996,0.20634863,0.0,0.0,-0.5807831,1,0,0,0,0,0
2571180000,-0.0011401767,-0.012683528,0.41569582,0.0,0.97845817,0.0007508359,-0.006322867,0.2063469,0.0,0.0,-0.5805137,1,0,0,0,0,0
2571276000,-0.002058971,-0.0129335625,0.41569582,0.0,0.9784577,0.0003271332,-0.0065399855,0.20634368,0.0,0.0,-0.5870964,1,0,0,0,0,0
2571368000,-0.0004119309,-0.012112484,0.41569582,0.0,0.9784596,0.0010481969,-0.0059683598,0.20634961,0.0,0.0,-0.5837666,1,0,0,0,0,0
2571480000,0.0004744379,-0.011690729,0.41569582,0.0,0.97846025,0.0014383204,-0.005670573,0.20635244,0.0,0.0,-0.58156586,1,0,0,0,0,0
2571572000,-0.0006310116,-0.013256047,0.41569582,0.0,0.9784562,0.0010590046,-0.006550427,0.20634803,0.0,0.0,-0.57757896,1,0,0,0,0,0
2571668000,-0.00019778087,-0.012683671,0.41569582,0.0,0.97845775,0.0012118978,-0.0062257056,0.20634985,0.0,0.0,-0.5857773,1,0,0,0,0,0
2571780000,-0.00096841314,-0.011906604,0.41569582,0.0,0.97846043,0.0007547071,-0.005925052,0.20634812,0.0,0.0,-0.58446413,1,0,0,0,0,0
2571872000,-0.00081791315,-0.012417224,0.41569582,0.0,0.9784589,0.00088102015,-0.0061593344,0.20634814,0.0,0.0,-0.5826554,1,0,0,0,0,0
2571984000,-0.0019251546,-0.010648144,0.41569582,0.0,0.978464,0.00015679478,-0.0054080863,0.20634656,0.0,0.0,-0.58321244,1,0,0,0,0,0
2572076000,-0.0017900778,-0.010124666,0.41569582,0.0,0.97846526,0.00016886705,-0.0051380475,0.20634745,0.0,0.0,-0.5792161,1,0,0,0,0,0
2572172000,-0.00057400006,-0.010521677,0.41569582,0.0,0.978464,0.00080477394,-0.00520681,0.20635028,0.0,0.0,-0.5861747,1,0,0,0,0,0
2572284000,-0.0016819658,-0.01122293,0.41569582,0.0,0.9784625,0.00033507546,-0.0056641977,0.20634666,0.0,0.0,-0.5869019,1,0,0,0,0,0
2572376000,-0.0022106494,-0.010216689,0.41569582,0.0,0.9784651,-2.739558e-05,-0.00522646,0.20634626,0.0,0.0,-0.5841404,1,0,0,0,0,0
2572468000,-0.0016725326,-0.010664475,0.41569582,0.0,0.97846395,0.00028207028,-0.0053900112,0.20634726,0.0,0.0,-0.581027,1,0,0,0,0,0
2572580000,-0.0037382417,-0.009625551,0.41569582,0.0,0.9784661,-0.00083573733,-0.0050948616,0.20634308,0.0,0.0,-0.5582107,1,0,0,0,0,0
2572676000,-0.0030903814,-0.010598153,0.41569582,0.0,0.97846407,-0.00041842958,-0.005503848,0.20634349,0.0,0.0,-0.5654141,1,0,0,0,0,0
2572768000,-0.0036697453,-0.010685164,0.41569582,0.0,0.97846365,-0.0006928953,-0.0056061903,0.20634173,0.0,0.0,-0.56958807,1,0,0,0,0,0
2572880000,-0.0038614906,-0.009741022,0.41569582,0.0,0.9784658,-0.0008841203,-0.00516407,0.20634261,0.0,0.0,-0.5660466,1,0,0,0,0,0
2572972000,-0.003923011,-0.007810126,0.41569582,0.0,0.97846955,-0.0011134486,-0.0042257607,0.20634513,0.0,0.0,-0.5649268,1,0,0,0,0,0
2573068000,-0.0031610953,-0.007680916,0.41569582,0.0,0.97847015,-0.0007540246,-0.004083937,0.20634687,0.0,0.0,-0.56758356,1,0,0,0,0,0
2573180000,-0.0032980873,-0.009771022,0.41569582,0.0,0.978466,-0.0006053894,-0.0051206197,0.20634398,0.0,0.0,-0.567371,1,0,0,0,0,0
2573272000,-0.0023852196,-0.0077559557,0.41569582,0.0,0.9784702,-0.0003666965,-0.0040405993,0.2063484,0.0,0.0,-0.5668605,1,0,0,0,0,0
2573384000,-0.0041629095,-0.008492489,0.41569582,0.0,0.9784682,-0.0011604087,-0.0045843455,0.20634367,0.0,0.0,-0.56506014,1,0,0,0,0,0
2573476000,-0.0026900377,-0.0071830116,0.41569582,0.0,0.9784711,-0.00057494006,-0.0037917446,0.20634836,0.0,0.0,-0.564858,1,0,0,0,0,0
2573572000,-0.0027120393,-0.006488002,0.41569582,0.0,0.9784721,-0.0006574143,-0.003453992,0.20634903,0.0,0.0,-0.56642526,1,0,0,0,0,0
2573664000,-0.0029898665,-0.006315068,0.41569582,0.0,0.9784723,-0.00081118045,-0.0033980513,0.20634875,0.0,0.0,-0.56603247,1,0,0,0,0,0
2573776000,-0.0011083108,-0.005611085,0.41569582,0.0,0.9784736,3.6709473e-05,-0.0028595072,0.20635226,0.0,0.0,-0.5661109,1,0,0,0,0,0
2573868000,-0.0019490536,-0.006204403,0.41569582,0.0,0.9784727,-0.0003133953,-0.0032365248,0.20635055,0.0,0.0,-0.5637662,1,0,0,0,0,0
2573980000,-0.0020881314,-0.004814762,0.41569582,0.0,0.97847444,-0.0005248179,-0.002571011,0.20635144,0.0,0.0,-0.5645275,1,0,0,0,0,0
2574076000,-0.003224684,-0.004716894,0.41569582,0.0,0.97847414,-0.0010909594,-0.0026403943,0.20635006,0.0,0.0,-0.5668231,1,0,0,0,0,0
2574168000,-0.0022827,-0.005964906,0.41569582,0.0,0.978473,-0.0005013382,-0.003153778,0.20635024,0.0,0.0,-0.56447524,1,0,0,0,0,0
2574280000,-0.0013575603,-0.00659454,0.41569582,0.0,0.9784722,1.6238138e-05,-0.0033663658,0.20635128,0.0,0.0,-0.5660478,1,0,0,0,0,0
2574372000,-0.0019665374,-0.0065878336,0.41569582,0.0,0.9784722,-0.00028238748,-0.0034259164,0.20635022,0.0,0.0,-0.5631632,1,0,0,0,0,0
2574468000,-0.0021731593,-0.0062010204,0.41569582,0.0,0.9784727,-0.0004233851,-0.0032579917,0.2063502,0.0,0.0,-0.56649494,1,0,0,0,0,0
2574580000,-0.0032410894,-0.00547677,0.41569582,0.0,0.97847325,-0.0010205826,-0.003013846,0.20634921,0.0,0.0,-0.5674301,1,0,0,0,0,0
2574672000,-0.0030929325,-0.0034649984,0.41569582,0.0,0.9784752,-0.0011556705,-0.0020143278,0.20635144,0.0,0.0,-0.5647553,1,0,0,0,0,0
2574764000,-0.0020973857,-0.005300354,0.41569582,0.0,0.9784739,-0.00047924294,-0.0028095355,0.20635107,0.0,0.0,-0.5639152,1,0,0,0,0,0
2574876000,-0.002590358,-0.0050426847,0.41569582,0.0,0.978474,-0.00074700936,-0.0027343368,0.2063506,0.0,0.0,-0.5630445,1,0,0,0,0,0
2574972000,-0.0038545784,-0.0052527273,0.41569582,0.0,0.9784731,-0.0013438403,-0.0029675325,0.20634857,0.0,0.0,-0.5672206,1,0,0,0,0,0
2575064000,-0.004128688,-0.0055854674,0.41569582,0.0,0.97847253,-0.0014436129,-0.0031586022,0.20634775,0.0,0.0,-0.56516486,1,0,0,0,0,0
2575176000,-0.003442786,-0.006379637,0.41569582,0.0,0.978472,-0.0010261027,-0.0034763701,0.20634788,0.0,0.0,-0.5646125,1,0,0,0,0,0
2575268000,-0.0027104956,-0.005838437,0.41569582,0.0,0.978473,-0.0007236804,-0.0031360427,0.20634966,0.0,0.0,-0.56469786,1,0,0,0,0,0
2575380000,-0.0015912284,-0.0074615455,0.41569582,0.0,0.97847074,-8.6248065e-06,-0.0038146442,0.20635019,0.0,0.0,-0.5647683,1,0,0,0,0,0
2575476000,-0.0020744011,-0.007178776,0.41569582,0.0,0.9784712,-0.0002741857,-0.0037261546,0.20634952,0.0,0.0,-0.5673583,1,0,0,0,0,0
2575568000,-0.001094662,-0.007713969,0.41569582,0.0,0.9784703,0.00026035742,-0.0038869048,0.20635098,0.0,0.0,-0.56571877,1,0,0,0,0,0
2575680000,-0.002613949,-0.0056940657,0.41569582,0.0,0.97847325,-0.0006913422,-0.0030554496,0.20634995,0.0,0.0,-0.5653182,1,0,0,0,0,0
2575772000,-0.003555187,-0.007141786,0.41569582,0.0,0.9784708,-0.0010024554,-0.003860837,0.20634678,0.0,0.0,-0.56378156,1,0,0,0,0,0
2575868000,-0.0037607802,-0.005652196,0.41569582,0.0,0.9784727,-0.0012567339,-0.0031532892,0.20634823,0.0,0.0,-0.5656634,1,0,0,0,0,0
2575980000,-0.0031348288,-0.0066295913,0.41569582,0.0,0.9784718,-0.00084964896,-0.0035668833,0.20634817,0.0,0.0,-0.5661091,1,0,0,0,0,0
2576072000,-0.0025233133,-0.0070228004,0.41569582,0.0,0.9784714,-0.00050990283,-0.0036961625,0.20634884,0.0,0.0,-0.5645599,1,0,0,0,0,0
2576164000,-0.0021811645,-0.0066255447,0.41569582,0.0,0.9784721,-0.00038349972,-0.00346651,0.20634979,0.0,0.0,-0.5640921,1,0,0,0,0,0
2576276000,9.166857e-05,-0.006184238,0.41569582,0.0,0.9784726,0.0006829196,-0.0030161052,0.20635378,0.0,0.0,-0.5619324,1,0,0,0,0,0
2576372000,-0.0017052612,-0.0070267706,0.41569582,0.0,0.9784716,-0.000109272965,-0.0036137023,0.20635033,0.0,0.0,-0.56466734,1,0,0,0,0,0
2576484000,-0.0011415409,-0.0063729007,0.41569582,0.0,0.97847253,9.9054465e-05,-0.0032356442,0.20635177,0.0,0.0,-0.5646711,1,0,0,0,0,0
2576576000,-0.002411856,-0.0068777935,0.41569582,0.0,0.97847164,-0.00047033557,-0.0036137204,0.20634918,0.0,0.0,-0.56270397,1,0,0,0,0,0
2576668000,-0.0033384252,-0.007040914,0.41569582,0.0,0.97847104,-0.0009068157,-0.0037891227,0.20634732,0.0,0.0,-0.5638803,1,0,0,0,0,0
2576780000,-0.0020295721,-0.007847879,0.41569582,0.0,0.9784701,-0.00018321679,-0.004048878,0.206349,0.0,0.0,-0.563809,1,0,0,0,0,0
2576876000,-0.0029801799,-0.0063043577,0.41569582,0.0,0.9784723,-0.00080754654,-0.003391812,0.20634878,0.0,0.0,-0.5655386,1,0,0,0,0,0
2576968000,-0.004145343,-0.006670757,0.41569582,0.0,0.9784712,-0.0013397812,-0.0036912817,0.20634626,0.0,0.0,-0.5656625,1,0,0,0,0,0
2577080000,-0.0038318124,-0.0074301073,0.41569582,0.0,0.9784702,-0.0011080414,-0.0040304335,0.20634584,0.0,0.0,-0.5653841,1,0,0,0,0,0
2577172000,-0.0034140197,-0.007356818,0.41569582,0.0,0.97847056,-0.0009112045,-0.0039514727,0.20634675,0.0,0.0,-0.56546867,1,0,0,0,0,0
2577268000,-0.0025634246,-0.005459552,0.41569582,0.0,0.97847354,-0.0006908206,-0.0029355045,0.20635025,0.0,0.0,-0.56605786,1,0,0,0,0,0
2577380000,-0.0026345663,-0.007273906,0.41569582,0.0,0.978471,-0.00053842296,-0.00383049,0.20634837,0.0,0.0,-0.5657052,1,0,0,0,0,0
2577472000,-0.0018770642,-0.0051022973,0.41569582,0.0,0.97847414,-0.00039188878,-0.0026899066,0.20635152,0.0,0.0,-0.5639595,1,0,0,0,0,0
2577584000,-0.0028503614,-0.0052757063,0.41569582,0.0,0.97847366,-0.0008501697,-0.002875165,0.20635001,0.0,0.0,-0.56404465,1,0,0,0,0,0
2577676000,-0.0028762126,-0.005718455,0.41569582,0.0,0.9784731,-0.00081713457,-0.0030944406,0.2063495,0.0,0.0,-0.5624146,1,0,0,0,0,0
2577772000,-0.0026780614,-0.005423112,0.41569582,0.0,0.9784736,-0.0007506649,-0.002929504,0.20635012,0.0,0.0,-0.5642457,1,0,0,0,0,0
2577864000,-0.0037522744,-0.0057037147,0.41569582,0.0,0.9784727,-0.001247257,-0.0031776165,0.20634815,0.0,0.0,-0.5660335,1,0,0,0,0,0
2577976000,-0.0032575682,-0.006652098,0.41569582,0.0,0.9784717,-0.00090737524,-0.003590558,0.2063479,0.0,0.0,-0.5640826,1,0,0,0,0,0
2578068000,-0.0023878985,-0.0052013053,0.41569582,0.0,0.9784739,-0.00063159235,-0.002791051,0.20635076,0.0,0.0,-0.5646367,1,0,0,0,0,0
2578180000,-0.002990043,-0.004787684,0.41569582,0.0,0.97847414,-0.0009688604,-0.0026508186,0.20635027,0.0,0.0,-0.564598,1,0,0,0,0,0
2578276000,-0.003574242,-0.0068330616,0.41569582,0.0,0.9784713,-0.0010436317,-0.0037117642,0.20634711,0.0,0.0,-0.56545734,1,0,0,0,0,0
2578368000,-0.0034546214,-0.0067434856,0.41569582,0.0,0.97847146,-0.0009943516,-0.0036555987,0.20634747,0.0,0.0,-0.5654394,1,0,0,0,0,0
2578480000,-0.003593413,-0.00612056,0.41569582,0.0,0.97847223,-0.0011265264,-0.0033651616,0.20634793,0.0,0.0,-0.5652372,1,0,0,0,0,0
2578572000,-0.0012824921,-0.0054145837,0.41569582,0.0,0.97847384,-6.8781046e-05,-0.0027813434,0.2063521,0.0,0.0,-0.56577545,1,0,0,0,0,0
2578668000,-0.0013305217,-0.0064190784,0.41579515,0.0,0.9784622,1.1525413e-05,-0.0032777335,0.2064,0.0,0.0,-0.56531847,1,0,0,0,0,0
2578780000,-0.013104496,-0.0115524735,0.37181285,0.0,0.9827387,-0.005371557,-0.006887625,0.18479317,0.0,0.0,-0.5586563,1,0,0,0,0,0
2578872000,-0.037640594,0.00874219,0.29955623,0.0,0.9886074,-0.019260446,0.0015132293,0.1492722,0.0,0.0,-0.5637567,1,0,0,0,0,0
2578984000,-0.08942846,0.0680947,0.21159162,0.0,0.9926785,-0.048014715,0.02909916,0.10694495,0.0,0.0,-0.56480616,1,0,0,0,0,0
2579076000,-0.1512045,0.124160916,0.13933496,0.0,0.99248224,-0.07950827,0.05646568,0.07395317,0.0,0.0,-0.56704915,1,0,0,0,0,0
2579172000,-0.23369046,0.16661356,0.06393674,0.0,0.9889212,-0.11875739,0.07888755,0.04133057,0.0,0.0,-0.5733007,1,0,0,0,0,0
2579284000,-0.31034,0.18200862,-0.024027858,0.0,0.98399466,-0.15281874,0.09162939,0.002223936,0.0,0.0,-0.58125615,1,0,0,0,0,0
2579376000,-0.35218117,0.1734598,-0.096284494,0.0,0.98042935,-0.17021726,0.09358162,-0.032044496,0.0,0.0,-0.5860412,1,0,0,0,0,0
2579468000,-0.3760633,0.15081975,-0.16854113,0.0,0.97729135,-0.17950335,0.089436844,-0.068419576,0.0,0.0,-0.59367436,1,0,0,0,0,0
2579580000,-0.41197067,0.12494862,-0.25650576,0.0,0.9705597,-0.19463962,0.08672079,-0.11228867,0.0,0.0,-0.60255694,1,0,0,0,0,0
2579676000,-0.45763695,0.10140106,-0.331904,0.0,0.9612194,-0.21526971,0.08610146,-0.1493415,0.0,0.0,-0.61519754,1,0,0,0,0,0
2579768000,-0.4744644,0.0687519,-0.40416062,0.0,0.9532718,-0.22339003,0.07986791,-0.18705826,0.0,0.0,-0.6185405,1,0,0,0,0,0
2579880000,-0.4967488,0.025833523,-0.4921252,0.0,0.9408117,-0.23535436,0.07201859,-0.23301294,0.0,0.0,-0.6268118,1,0,0,0,0,0
2579972000,-0.5027742,-0.010947485,-0.5643819,0.0,0.9298661,-0.24038187,0.06417342,-0.2710118,0.0,0.0,-0.63057643,1,0,0,0,0,0
2580068000,-0.533807,-0.05579997,-0.63978016,0.0,0.9129884,-0.25873032,0.05736228,-0.31019408,0.0,0.0,-0.6436164,1,0,0,0,0,0
2580180000,-0.5433212,-0.1100015,-0.7277448,0.0,0.8936423,-0.26923066,0.045863975,-0.3561106,0.0,0.0,-0.6518503,1,0,0,0,0,0
2580272000,-0.5418773,-0.15435562,-0.8000015,0.0,0.8767831,-0.27470455,0.03548802,-0.39310232,0.0,0.0,-0.6558436,1,0,0,0,0,0
2580364000,-0.5355028,-0.19575147,-0.8722582,0.0,0.85899264,-0.2784603,0.025809417,-0.42886528,0.0,0.0,-0.65953135,1,0,0,0,0,0
2580480000,-0.5431324,-0.26117343,-0.9633644,0.0,0.83028805,-0.2938097,0.012039595,-0.47344765,0.0,0.0,-0.6720232,1,0,0,0,0,0
2580572000,-0.52946645,-0.30127645,-1.035621,0.0,0.8097015,-0.2964692,0.0021922996,-0.50644314,0.0,0.0,-0.67260045,1,0,0,0,0,0
2580668000,-0.5256013,-0.34695116,-1.1110193,0.0,0.7844983,-0.30531302,-0.0066683935,-0.53972393,0.0,0.0,-0.6844239,1,0,0,0,0,0
2580780000,-0.5000578,-0.37871215,-1.1989838,0.0,0.7593736,-0.30353335,-0.013460343,-0.57535917,0.0,0.0,-0.6897323,1,0,0,0,0,0
2580872000,-0.46402988,-0.39875242,-1.2712404,0.0,0.7405911,-0.29579905,-0.021302247,-0.6029709,0.0,0.0,-0.6876552,1,0,0,0,0,0
2580984000,-0.41430995,-0.42384022,-1.3592049,0.0,0.7169749,-0.2857683,-0.03373477,-0.6349373,0.0,0.0,-0.68756723,1,0,0,0,0,0
2581076000,-0.3644524,-0.43360132,-1.4314615,0.0,0.6991687,-0.27235848,-0.04350769,-0.6596143,0.0,0.0,-0.68394685,1,0,0,0,0,0
2581172000,-0.3267405,-0.45778447,-1.5068597,0.0,0.6756184,-0.26869488,-0.0549142,-0.6843444,0.0,0.0,-0.68851507,1,0,0,0,0,0
2581284000,-0.28371012,-0.48413467,-1.5948242,0.0,0.6471316,-0.26568484,-0.06755527,-0.711385,0.0,0.0,-0.68742996,1,0,0,0,0,0
2581376000,-0.25013578,-0.5016156,-1.6670808,0.0,0.62321925,-0.26353657,-0.07608327,-0.73236436,0.0,0.0,-0.6825776,1,0,0,0,0,0
2581468000,-0.21366704,-0.51678157,-1.7393373,0.0,0.59928936,-0.26063904,-0.08512125,-0.752113,0.0,0.0,-0.6803496,1,0,0,0,0,0
2581580000,-0.1712101,-0.5273427,-1.8273019,0.0,0.5699452,-0.25601655,-0.09326868,-0.7751897,0.0,0.0,-0.6810975,1,0,0,0,0,0
2581676000,-0.13270861,-0.5372931,-1.9027001,0.0,0.5441983,-0.25275013,-0.10171389,-0.79348594,0.0,0.0,-0.68200517,1,0,0,0,0,0
2581772000,-0.09550054,-0.55014634,-1.9780983,0.0,0.51739186,-0.2519207,-0.11069835,-0.8103008,0.0,0.0,-0.6848494,1,0,0,0,0,0
2581884000,-0.04909394,-0.55849314,-2.0660627,0.0,-0.48641744,0.24874148,0.12087719,0.828803,0.0,0.0,-0.6850757,1,0,0,0,0,0
2581976000,-0.017491322,-0.55635285,-2.1244068,0.0,-0.46611387,0.2439321,0.12636732,0.84099126,0.0,0.0,-0.6841343,1,0,0,0,0,0
2582068000,-0.018327339,-0.55285597,-2.1244202,0.0,-0.46625274,0.24266115,0.12519148,0.8414577,0.0,0.0,-0.68420124,1,0,0,0,0,0
2582180000,-0.022850875,-0.552471,-2.124452,0.0,-0.46571672,0.24355556,0.12319337,0.841791,0.0,0.0,-0.6828317,1,0,0,0,0,0
2582276000,-0.02559056,-0.56196105,-2.1244745,0.0,-0.46468687,0.24817096,0.124273166,0.8408528,0.0,0.0,-0.6870471,1,0,0,0,0,0
2582368000,-0.025576204,-0.5576279,-2.1245084,0.0,-0.46498907,0.24635482,0.12325453,0.84136957,0.0,0.0,-0.68469393,1,0,0,0,0,0
2582480000,-0.024086935,-0.55767834,-2.1245286,0.0,-0.46516022,0.24603088,0.123890385,0.8412764,0.0,0.0,-0.6863328,1,0,0,0,0,0
2582572000,-0.023555383,-0.5509552,-2.1245353,0.0,-0.46570385,0.24308898,0.12252953,0.8420298,0.0,0.0,-0.68536496,1,0,0,0,0,0
2582668000,-0.022957833,-0.5579784,-2.124527,0.0,-0.46527818,0.24589385,0.12443614,0.84117067,0.0,0.0,-0.68981344,1,0,0,0,0,0
2582780000,-0.022250608,-0.55747694,-2.1245155,0.0,-0.46540588,0.24551848,0.124616966,0.8411829,0.0,0.0,-0.6875799,1,0,0,0,0,0
2582872000,-0.023150027,-0.5553355,-2.124498,0.0,-0.46545646,0.24482912,0.12373661,0.84148574,0.0,0.0,-0.6871791,1,0,0,0,0,0
2582964000,-0.023669349,-0.5496834,-2.1244817,0.0,-0.46580306,0.24257874,0.12218832,0.84217167,0.0,0.0,-0.6855661,1,0,0,0,0,0
2583076000,-0.024450095,-0.55212235,-2.1244574,0.0,-0.46554452,0.24378203,0.12243744,0.8419309,0.0,0.0,-0.6871513,1,0,0,0,0,0
2583172000,-0.024912655,-0.55633307,-2.124438,0.0,-0.46519378,0.24565363,0.12323731,0.8414639,0.0,0.0,-0.6894113,1,0,0,0,0,0
2583284000,-0.025330082,-0.55684876,-2.1244082,0.0,-0.46511787,0.24596499,0.12318686,0.8414224,0.0,0.0,-0.6899518,1,0,0,0,0,0
2583376000,-0.026343517,-0.55751187,-2.124379,0.0,-0.46495748,0.24647662,0.12292035,0.8414003,0.0,0.0,-0.6888585,1,0,0,0,0,0
2583468000,-0.028327262,-0.5559502,-2.1243467,0.0,-0.46484,0.24628155,0.12172148,0.84169656,0.0,0.0,-0.68693954,1,0,0,0,0,0
2583580000,-0.0291248,-0.55917823,-2.1243095,0.0,-0.46452147,0.24781658,0.12215162,0.84135956,0.0,0.0,-0.6881372,1,0,0,0,0,0
2583676000,-0.029236186,-0.5653807,-2.1242805,0.0,-0.46406284,0.25043657,0.12357021,0.84062934,0.0,0.0,-0.69209,1,0,0,0,0,0
2583768000,-0.029908938,-0.56158024,-2.1242516,0.0,-0.46427178,0.24900068,0.12239533,0.8411122,0.0,0.0,-0.6913882,1,0,0,0,0,0
2583880000,-0.029707866,-0.560808,-2.124199,0.0,-0.46437585,0.24862754,0.12230436,0.84117836,0.0,0.0,-0.6933376,1,0,0,0,0,0
2583972000,-0.029253377,-0.56064886,-2.124155,0.0,-0.4644625,0.24845272,0.12246346,0.84115905,0.0,0.0,-0.69030875,1,0,0,0,0,0
2584068000,-0.028832786,-0.5659262,-2.1241038,0.0,-0.46414712,0.25056022,0.12389042,0.84049875,0.0,0.0,-0.69384736,1,0,0,0,0,0
2584180000,-0.02921247,-0.56519085,-2.124046,0.0,-0.4641784,0.25033712,0.123564795,0.84059596,0.0,0.0,-0.69611233,1,0,0,0,0,0
2584272000,-0.02889195,-0.5607739,-2.1239905,0.0,-0.4645674,0.24841103,0.12266535,0.841084,0.0,0.0,-0.6921077,1,0,0,0,0,0
2584364000,-0.03068426,-0.55974114,-2.1239457,0.0,-0.46443957,0.24839224,0.12167351,0.8413042,0.0,0.0,-0.69068116,1,0,0,0,0,0
2584476000,-0.030721791,-0.55753845,-2.123886,0.0,-0.4646221,0.24747518,0.12114537,0.8415499,0.0,0.0,-0.69126195,1,0,0,0,0,0
2584572000,-0.030890292,-0.5654857,-2.1238494,0.0,-0.46402884,0.2508377,0.122953765,0.84061885,0.0,0.0,-0.6951277,1,0,0,0,0,0
2584664000,-0.03096401,-0.5603483,-2.1238003,0.0,-0.46442124,0.24870251,0.12171717,0.8412163,0.0,0.0,-0.6929049,1,0,0,0,0,0
2584776000,-0.03140636,-0.562052,-2.123754,0.0,-0.46425956,0.24951531,0.12193888,0.8410328,0.0,0.0,-0.69440114,1,0,0,0,0,0
2584868000,-0.031027028,-0.5571158,-2.123702,0.0,-0.46469286,0.24735801,0.120939955,0.8415747,0.0,0.0,-0.69237655,1,0,0,0,0,0
2584980000,-0.031187786,-0.5585228,-2.1236565,0.0,-0.46458855,0.24798167,0.121210106,0.8414099,0.0,0.0,-0.6930092,1,0,0,0,0,0
2585076000,-0.029372126,-0.56364566,-2.1235957,0.0,-0.46446195,0.24970007,0.12318978,0.84068376,0.0,0.0,-0.69578147,1,0,0,0,0,0
2585168000,-0.030069264,-0.56179035,-2.1235437,0.0,-0.46453393,0.24908249,0.122465566,0.840933,0.0,0.0,-0.6939214,1,0,0,0,0,0
2585280000,-0.031598628,-0.5611081,-2.1234756,0.0,-0.4644226,0.24914804,0.12166996,0.84109056,0.0,0.0,-0.69294775,1,0,0,0,0,0
2585372000,-0.031154387,-0.5585345,-2.123438,0.0,-0.46468383,0.24796556,0.12125403,0.8413557,0.0,0.0,-0.69236183,1,0,0,0,0,0
2585468000,-0.030004676,-0.5635002,-2.1233792,0.0,-0.46448478,0.24977279,0.12291661,0.84068954,0.0,0.0,-0.6947943,1,0,0,0,0,0
2585580000,-0.030336352,-0.5651431,-2.1233191,0.0,-0.46434668,0.25053322,0.12317222,0.8405022,0.0,0.0,-0.69586664,1,0,0,0,0,0
2585672000,-0.031250373,-0.5599054,-2.123263,0.0,-0.4646444,0.24855095,0.121558994,0.8411608,0.0,0.0,-0.69420147,1,0,0,0,0,0
2585784000,-0.031754836,-0.56234896,-2.1232285,0.0,-0.46441498,0.24968843,0.12192802,0.84089714,0.0,0.0,-0.6938427,1,0,0,0,0,0
2585876000,-0.02882788,-0.5578377,-2.1231613,0.0,-0.46513927,0.2471162,0.12210239,0.8412313,0.0,0.0,-0.69331276,1,0,0,0,0,0
2585972000,-0.02916133,-0.5651526,-2.123116,0.0,-0.46457842,0.2502518,0.123693675,0.8403814,0.0,0.0,-0.6954353,1,0,0,0,0,0
2586064000,-0.029465688,-0.56214195,-2.1230612,0.0,-0.46478608,0.24905978,0.12286238,0.8407425,0.0,0.0,-0.6924307,1,0,0,0,0,0
2586176000,-0.031342488,-0.5636575,-2.1230235,0.0,-0.46445537,0.25012743,0.12243585,0.8406705,0.0,0.0,-0.6947043,1,0,0,0,0,0
2586268000,-0.030748487,-0.5596669,-2.1229753,0.0,-0.4648452,0.24831702,0.121749476,0.84109133,0.0,0.0,-0.69221926,1,0,0,0,0,0
2586380000,-0.029056061,-0.56043303,-2.1229448,0.0,-0.46501178,0.24824238,0.122645795,0.84089106,0.0,0.0,-0.69297117,1,0,0,0,0,0
2586476000,-0.028982842,-0.56546795,-2.1229005,0.0,-0.46466792,0.25032887,0.12387003,0.84028286,0.0,0.0,-0.6951939,1,0,0,0,0,0
2586568000,-0.030660003,-0.56146,-2.1228766,0.0,-0.46476528,0.24904071,0.12222232,0.8408529,0.0,0.0,-0.69495815,1,0,0,0,0,0
2586680000,-0.030266875,-0.5601069,-2.1228456,0.0,-0.46492717,0.2483813,0.12207198,0.84098035,0.0,0.0,-0.6950522,1,0,0,0,0,0
2586772000,-0.031119565,-0.557976,-2.1228414,0.0,-0.4649802,0.24768749,0.121210665,0.84128016,0.0,0.0,-0.6932113,1,0,0,0,0,0
2586868000,-0.030972484,-0.5664871,-2.1228223,0.0,-0.46437556,0.2512122,0.12328432,0.84026706,0.0,0.0,-0.69665444,1,0,0,0,0,0
2586980000,-0.03250089,-0.5687164,-2.1228232,0.0,-0.4640157,0.25249875,0.1231682,0.84009725,0.0,0.0,-0.6955249,1,0,0,0,0,0
2587072000,-0.0308622,-0.5646108,-2.1228004,0.0,-0.4645384,0.25040084,0.12289064,0.8404769,0.0,0.0,-0.69424933,1,0,0,0,0,0
2587164000,-0.031522643,-0.55883735,-2.1227927,0.0,-0.4648872,0.24813873,0.12125061,0.84119284,0.0,0.0,-0.69289535,1,0,0,0,0,0
2587276000,-0.03173601,-0.5589165,-2.1227565,0.0,-0.46487015,0.24821925,0.121184066,0.84118813,0.0,0.0,-0.69249785,1,0,0,0,0,0
2587372000,-0.031047732,-0.56782275,-2.1227434,0.0,-0.4642994,0.25178313,0.123577826,0.8400951,0.0,0.0,-0.6961368,1,0,0,0,0,0
2587484000,-0.02996104,-0.5679496,-2.1227016,0.0,-0.4644443,0.25158125,0.12406941,0.8400031,0.0,0.0,-0.6960688,1,0,0,0,0,0
2587576000,-0.030961942,-0.5659185,-2.122687,0.0,-0.4644761,0.25096378,0.12317155,0.8403023,0.0,0.0,-0.69512963,1,0,0,0,0,0
2587668000,-0.03078725,-0.56287396,-2.1226594,0.0,-0.46473598,0.24964845,0.122529745,0.8406441,0.0,0.0,-0.6922753,1,0,0,0,0,0
2587780000,-0.030794201,-0.5629125,-2.1226573,0.0,-0.46473318,0.24966606,0.12253618,0.84063953,0.0,0.0,-0.6933825,1,0,0,0,0,0
2587876000,-0.02972078,-0.568581,-2.12263,0.0,-0.46445754,0.25178486,0.12432826,0.83989644,0.0,0.0,-0.69734013,1,0,0,0,0,0
2587968000,-0.030149244,-0.5661868,-2.1226225,0.0,-0.46458519,0.25088316,0.1235844,0.84020543,0.0,0.0,-0.69537073,1,0,0,0,0,0
2588080000,-0.030733341,-0.56694585,-2.1225984,0.0,-0.46446547,0.25133467,0.12352117,0.840146,0.0,0.0,-0.6946569,1,0,0,0,0,0
2588172000,-0.0320231,-0.5642147,-2.122603,0.0,-0.46450555,0.25049278,0.12233399,0.8405488,0.0,0.0,-0.69404244,1,0,0,0,0,0
2588268000,-0.032345984,-0.5710065,-2.1225834,0.0,-0.4639635,0.25340465,0.12380398,0.8397598,0.0,0.0,-0.6959597,1,0,0,0,0,0
2588380000,-0.031371064,-0.57179326,-2.1225839,0.0,-0.46402755,0.25350708,0.12439885,0.83960557,0.0,0.0,-0.69676626,1,0,0,0,0,0
2588472000,-0.031099621,-0.5684197,-2.1225586,0.0,-0.46432582,0.25203323,0.123720124,0.83998454,0.0,0.0,-0.69515324,1,0,0,0,0,0
2588564000,-0.031076515,-0.5658137,-2.1225533,0.0,-0.46452567,0.25093836,0.12311548,0.8402906,0.0,0.0,-0.6943427,1,0,0,0,0,0
2588676000,-0.033773903,-0.56803334,-2.12259,0.0,-0.46400437,0.25249436,0.122501634,0.8402023,0.0,0.0,-0.69335926,1,0,0,0,0,0
2588772000,-0.032250118,-0.57577795,-2.1225753,0.0,-0.46361786,0.255374,0.12497075,0.8391811,0.0,0.0,-0.69915503,1,0,0,0,0,0
2588884000,-0.031046689,-0.57826483,-2.122569,0.0,-0.46358532,0.25613248,0.12606266,0.83880454,0.0,0.0,-0.6984188,1,0,0,0,0,0
2588976000,-0.029969452,-0.5773624,-2.122528,0.0,-0.46380877,0.25550354,0.12630701,0.838836,0.0,0.0,-0.6974228,1,0,0,0,0,0
2589068000,-0.0305864,-0.57377326,-2.1225078,0.0,-0.4640098,0.25414714,0.1252048,0.839302,0.0,0.0,-0.69650716,1,0,0,0,0,0
2589180000,-0.029826706,-0.5754287,-2.1224618,0.0,-0.4640009,0.25465918,0.12591967,0.83904475,0.0,0.0,-0.69710773,1,0,0,0,0,0
2589276000,-0.030971581,-0.58127344,-2.1224475,0.0,-0.46341673,0.25736237,0.1268186,0.8384072,0.0,0.0,-0.7008484,1,0,0,0,0,0
2589368000,-0.030952873,-0.5766536,-2.122414,0.0,-0.46378464,0.2554286,0.12574203,0.8389571,0.0,0.0,-0.7000627,1,0,0,0,0,0
2589480000,-0.03098856,-0.5779803,-2.1224003,0.0,-0.46368518,0.2559896,0.12604156,0.8387961,0.0,0.0,-0.69866365,1,0,0,0,0,0
2589572000,-0.030591773,-0.576359,-2.1223795,0.0,-0.46386763,0.25521976,0.12582849,0.83896184,0.0,0.0,-0.6978075,1,0,0,0,0,0
2589668000,-0.030261718,-0.58305526,-2.1223824,0.0,-0.46339932,0.25793675,0.1275442,0.8381302,0.0,0.0,-0.70096284,1,0,0,0,0,0
2589780000,-0.03111563,-0.5814325,-2.1223695,0.0,-0.46341866,0.25745714,0.12680574,0.83837897,0.0,0.0,-0.7027193,1,0,0,0,0,0
2589872000,-0.030452289,-0.5770861,-2.1223757,0.0,-0.4638319,0.2554906,0.12605886,0.8388645,0.0,0.0,-0.70220405,1,0,0,0,0,0
2589964000,-0.030830517,-0.57573354,-2.122376,0.0,-0.46388596,0.25501385,0.12558134,0.8390513,0.0,0.0,-0.6988656,1,0,0,0,0,0
2590076000,-0.031482052,-0.57738566,-2.1224012,0.0,-0.46366686,0.25585598,0.12569427,0.83889914,0.0,0.0,-0.69895434,1,0,0,0,0,0
2590172000,-0.030386651,-0.5843481,-2.1224065,0.0,-0.46327418,0.25850624,0.1277932,0.83798593,0.0,0.0,-0.7018903,1,0,0,0,0,0
2590264000,-0.03183481,-0.5799714,-2.12243,0.0,-0.46341246,0.25701827,0.12615214,0.8386156,0.0,0.0,-0.7014055,1,0,0,0,0,0
2590376000,-0.031100051,-0.57890224,-2.1224446,0.0,-0.4635822,0.2564029,0.1262064,0.83870196,0.0,0.0,-0.70111936,1,0,0,0,0,0
2590468000,-0.030938238,-0.5755926,-2.12247,0.0,-0.46384355,0.2549859,0.12549092,0.8390968,0.0,0.0,-0.7006266,1,0,0,0,0,0
2590580000,-0.032371916,-0.57716155,-2.122487,0.0,-0.46353397,0.25597414,0.12525718,0.83900183,0.0,0.0,-0.7002428,1,0,0,0,0,0
2590676000,-0.03213188,-0.585327,-2.1225178,0.0,-0.4629264,0.25932547,0.12727806,0.83800346,0.0,0.0,-0.7027349,1,0,0,0,0,0
2590768000,-0.03260882,-0.58167076,-2.1225388,0.0,-0.46313712,0.2579131,0.1262141,0.83848363,0.0,0.0,-0.70131063,1,0,0,0,0,0
2590880000,-0.033314455,-0.5809526,-2.1225827,0.0,-0.4630829,0.2577798,0.12574333,0.8386253,0.0,0.0,-0.7020018,1,0,0,0,0,0
2590972000,-0.033456482,-0.57915545,-2.1225853,0.0,-0.46320143,0.2570634,0.12525979,0.8388521,0.0,0.0,-0.6994601,1,0,0,0,0,0
2591068000,-0.03272341,-0.58589983,-2.1225996,0.0,-0.46277124,0.2597063,0.12715451,0.83799,0.0,0.0,-0.70368403,1,0,0,0,0,0
2591180000,-0.031687677,-0.5845563,-2.1225991,0.0,-0.46300918,0.25890657,0.12727213,0.83808815,0.0,0.0,-0.7040945,1,0,0,0,0,0
2591272000,-0.032543488,-0.58200544,-2.1226122,0.0,-0.463089,0.25804216,0.12631088,0.8384559,0.0,0.0,-0.70243627,1,0,0,0,0,0
2591364000,-0.0323916,-0.57858884,-2.1225913,0.0,-0.46337894,0.25658068,0.12557207,0.83885515,0.0,0.0,-0.7007331,1,0,0,0,0,0
2591476000,-0.031989675,-0.5802481,-2.122581,0.0,-0.46330813,0.2571791,0.12613301,0.83862686,0.0,0.0,-0.7013592,1,0,0,0,0,0
2591572000,-0.031856146,-0.5880643,-2.122559,0.0,-0.4627337,0.26040483,0.12803271,0.83766013,0.0,0.0,-0.70275205,1,0,0,0,0,0
2591664000,-0.031509403,-0.584249,-2.1225548,0.0,-0.4630745,0.25873438,0.12728019,0.838104,0.0,0.0,-0.7013501,1,0,0,0,0,0
2591776000,-0.030264664,-0.5809941,-2.122553,0.0,-0.46348467,0.2570888,0.12703557,0.8384207,0.0,0.0,-0.70303863,1,0,0,0,0,0
2591868000,-0.02986271,-0.57673347,-2.1225674,0.0,-0.46385348,0.25521877,0.12619856,0.83891433,0.0,0.0,-0.7016451,1,0,0,0,0,0
2591980000,-0.03141486,-0.57724684,-2.1225553,0.0,-0.46362135,0.25579217,0.12567005,0.83894736,0.0,0.0,-0.7012093,1,0,0,0,0,0
2592076000,-0.031051842,-0.5859362,-2.1225638,0.0,-0.46300024,0.25933227,0.12786801,0.83787066,0.0,0.0,-0.7035956,1,0,0,0,0,0
2592168000,-0.031924486,-0.58285743,-2.1225715,0.0,-0.4631207,0.25825146,0.12677632,0.83830374,0.0,0.0,-0.7021556,1,0,0,0,0,0
2592280000,-0.032000717,-0.58286077,-2.1226072,0.0,-0.4630956,0.25827277,0.12674056,0.8383165,0.0,0.0,-0.70324147,1,0,0,0,0,0
2592372000,-0.031831138,-0.5792531,-2.1226306,0.0,-0.46338373,0.2567304,0.12595862,0.83874875,0.0,0.0,-0.7003082,1,0,0,0,0,0
2592468000,-0.032275885,-0.58760667,-2.1226666,0.0,-0.46266937,0.26031813,0.12773515,0.837768,0.0,0.0,-0.7048351,1,0,0,0,0,0
2592580000,-0.03131725,-0.5874714,-2.122703,0.0,-0.4627892,0.26004234,0.12810014,0.8377318,0.0,0.0,-0.7042871,1,0,0,0,0,0
2592672000,-0.031649623,-0.58321357,-2.1227417,0.0,-0.46305755,0.2583471,0.12695344,0.8382824,0.0,0.0,-0.70369226,1,0,0,0,0,0
2592784000,-0.031065842,-0.5843575,-2.1227624,0.0,-0.46303642,0.25869018,0.12746479,0.83811057,0.0,0.0,-0.7026966,1,0,0,0,0,0
2592876000,-0.031688802,-0.58062303,-2.1227903,0.0,-0.46323034,0.25727892,0.12632057,0.83861095,0.0,0.0,-0.701092,1,0,0,0,0,0
2592972000,-0.031179147,-0.5860216,-2.1228085,0.0,-0.4628747,0.25941297,0.12780307,0.83792496,0.0,0.0,-0.7046039,1,0,0,0,0,0
2593084000,-0.031695925,-0.58619976,-2.12285,0.0,-0.46277654,0.25960943,0.1276231,0.8379458,0.0,0.0,-0.7053949,1,0,0,0,0,0
2593176000,-0.031729225,-0.5841636,-2.1228647,0.0,-0.46292272,0.2587694,0.12712787,0.83820015,0.0,0.0,-0.7018559,1,0,0,0,0,0
2593268000,-0.030754803,-0.5805682,-2.1228876,0.0,-0.46331385,0.2570459,0.12668678,0.838581,0.0,0.0,-0.7007955,1,0,0,0,0,0
2593380000,-0.03093841,-0.5797541,-2.1229105,0.0,-0.46334273,0.25675032,0.12641513,0.8386966,0.0,0.0,-0.7013311,1,0,0,0,0,0
2593476000,-0.031406887,-0.5878339,-2.1229434,0.0,-0.46264893,0.2602295,0.12811662,0.8377486,0.0,0.0,-0.7047046,1,0,0,0,0,0
2593568000,-0.033575762,-0.58551437,-2.1230016,0.0,-0.46252185,0.25976828,0.12665431,0.8381842,0.0,0.0,-0.7030617,1,0,0,0,0,0
2593680000,-0.033317685,-0.59042,-2.1230645,0.0,-0.46214843,0.2617562,0.127909,0.8375809,0.0,0.0,-0.7042029,1,0,0,0,0,0
2593772000,-0.03266921,-0.58980876,-2.1231232,0.0,-0.46225613,0.26135558,0.12802912,0.83762825,0.0,0.0,-0.7027867,1,0,0,0,0,0
2593868000,-0.03179276,-0.5971694,-2.1231623,0.0,-0.46178088,0.2642197,0.13012153,0.8366688,0.0,0.0,-0.7065355,1,0,0,0,0,0
2593980000,-0.032851584,-0.5954392,-2.1232214,0.0,-0.46175197,0.26374808,0.12926404,0.8369665,0.0,0.0,-0.70936966,1,0,0,0,0,0
2594072000,-0.03359204,-0.5925647,-2.1232953,0.0,-0.4618484,0.26272735,0.12826842,0.8373874,0.0,0.0,-0.7072453,1,0,0,0,0,0
2594184000,-0.034761745,-0.59308827,-2.1234007,0.0,-0.46160954,0.26322213,0.12788798,0.8374219,0.0,0.0,-0.70788705,1,0,0,0,0,0
2594276000,-0.035534192,-0.5919207,-2.1234465,0.0,-0.4615804,0.2629173,0.12728378,0.83762574,0.0,0.0,-0.70721227,1,0,0,0,0,0
2594372000,-0.034130644,-0.600807,-2.1234937,0.0,-0.4610456,0.26629353,0.12995434,0.83644277,0.0,0.0,-0.7084709,1,0,0,0,0,0
2594464000,-0.033733357,-0.5953088,-2.1235132,0.0,-0.46152365,0.26391613,0.12882584,0.837107,0.0,0.0,-0.7090952,1,0,0,0,0,0
2594576000,-0.0324441,-0.59458137,-2.1235304,0.0,-0.46174335,0.26331693,0.12919222,0.837118,0.0,0.0,-0.70765144,1,0,0,0,0,0
2594668000,-0.03247411,-0.5900953,-2.1235557,0.0,-0.4620782,0.2614575,0.12812169,0.8376804,0.0,0.0,-0.70676744,1,0,0,0,0,0
2594780000,-0.034688424,-0.59010947,-2.1236043,0.0,-0.46176705,0.26197794,0.12719114,0.83783126,0.0,0.0,-0.70655775,1,0,0,0,0,0
2594876000,-0.03380553,-0.5971767,-2.1236331,0.0,-0.4613171,0.26471776,0.12921883,0.8369071,0.0,0.0,-0.71073914,1,0,0,0,0,0
2594968000,-0.03431588,-0.5949775,-2.1236765,0.0,-0.46140447,0.2639232,0.12848257,0.83722323,0.0,0.0,-0.7075764,1,0,0,0,0,0
2595080000,-0.03340505,-0.595041,-2.1237009,0.0,-0.46150947,0.26374105,0.12887557,0.8371623,0.0,0.0,-0.7080156,1,0,0,0,0,0
2595172000,-0.03361412,-0.590124,-2.1237273,0.0,-0.46185502,0.26174378,0.12762848,0.8377894,0.0,0.0,-0.70728695,1,0,0,0,0,0
2595268000,-0.033737697,-0.59880257,-2.1237803,0.0,-0.4611365,0.26538792,0.1296097,0.836734,0.0,0.0,-0.7095142,1,0,0,0,0,0
2595380000,-0.03405477,-0.5990253,-2.1238697,0.0,-0.46103933,0.2655595,0.12951751,0.83674735,0.0,0.0,-0.70878863,1,0,0,0,0,0
2595472000,-0.034801565,-0.5951651,-2.1239352,0.0,-0.4612173,0.2641299,0.1282892,0.8372908,0.0,0.0,-0.70743406,1,0,0,0,0,0
2595584000,-0.034755398,-0.59479475,-2.124012,0.0,-0.46122032,0.26397005,0.12821133,0.83735144,0.0,0.0,-0.7071431,1,0,0,0,0,0
2595676000,-0.03499223,-0.58874893,-2.124082,0.0,-0.4616332,0.2615117,0.12668122,0.83812785,0.0,0.0,-0.7058523,1,0,0,0,0,0
2595772000,-0.034286406,-0.5962975,-2.1241488,0.0,-0.46110687,0.2644961,0.12874277,0.83716637,0.0,0.0,-0.71044517,1,0,0,0,0,0
2595884000,-0.03242241,-0.59734595,-2.1242204,0.0,-0.46124104,0.2645072,0.12975967,0.8369319,0.0,0.0,-0.7087409,1,0,0,0,0,0
2595976000,-0.03327674,-0.5930582,-2.124279,0.0,-0.4614394,0.26292324,0.12838723,0.8375332,0.0,0.0,-0.7083164,1,0,0,0,0,0
2596068000,-0.032900207,-0.5909512,-2.1243305,0.0,-0.46163142,0.2619621,0.12804307,0.83778113,0.0,0.0,-0.7056281,1,0,0,0,0,0
2596180000,-0.033618815,-0.59107655,-2.1243882,0.0,-0.46150333,0.26218382,0.12776391,0.837825,0.0,0.0,-0.70536166,1,0,0,0,0,0
2596276000,-0.032803115,-0.59798735,-2.1244102,0.0,-0.4610609,0.2648742,0.1297258,0.8369204,0.0,0.0,-0.7093256,1,0,0,0,0,0
2596368000,-0.033363797,-0.5921639,-2.1244335,0.0,-0.46143305,0.26258075,0.12812032,0.8376849,0.0,0.0,-0.7089706,1,0,0,0,0,0
2596480000,-0.034074295,-0.59304655,-2.1244788,0.0,-0.46125177,0.2631151,0.12802418,0.8376318,0.0,0.0,-0.7084541,1,0,0,0,0,0
2596572000,-0.03249351,-0.5909864,-2.1245217,0.0,-0.46160188,0.2618951,0.12819661,0.8377949,0.0,0.0,-0.7058608,1,0,0,0,0,0
2596668000,-0.032056294,-0.6002344,-2.1245878,0.0,-0.46090907,0.26564848,0.13054202,0.83663166,0.0,0.0,-0.70755035,1,0,0,0,0,0
2596780000,-0.034305617,-0.5978793,-2.1246734,0.0,-0.46076012,0.2651925,0.12903675,0.83709174,0.0,0.0,-0.7098549,1,0,0,0,0,0
2596872000,-0.03499206,-0.59346455,-2.1247864,0.0,-0.4609694,0.26352042,0.12769751,0.8377097,0.0,0.0,-0.70618075,1,0,0,0,0,0
2596984000,-0.034031365,-0.59240603,-2.1249213,0.0,-0.46112218,0.2628668,0.1278335,0.8378102,0.0,0.0,-0.70730317,1,0,0,0,0,0
2597076000,-0.032083347,-0.58942634,-2.125021,0.0,-0.4615673,0.26118237,0.12793674,0.8380761,0.0,0.0,-0.7053303,1,0,0,0,0,0
2597172000,-0.03164428,-0.5966091,-2.1250868,0.0,-0.46103895,0.26407728,0.12979789,0.8371731,0.0,0.0,-0.7091624,1,0,0,0,0,0
2597284000,-0.031750713,-0.59781,-2.1251783,0.0,-0.46089268,0.2646077,0.13002293,0.8370512,0.0,0.0,-0.7077128,1,0,0,0,0,0
2597376000,-0.03228634,-0.5945734,-2.1252458,0.0,-0.46104658,0.26338795,0.12903053,0.83750457,0.0,0.0,-0.70448315,1,0,0,0,0,0
2597468000,-0.03301408,-0.58927804,-2.1253552,0.0,-0.46131706,0.26135665,0.1274682,0.83823097,0.0,0.0,-0.7038891,1,0,0,0,0,0
2597580000,-0.03198962,-0.5870496,-2.1254783,0.0,-0.46157128,0.26019907,0.12735824,0.8384678,0.0,0.0,-0.70555264,1,0,0,0,0,0
2597676000,-0.030615473,-0.5943403,-2.1255798,0.0,-0.46114475,0.26292726,0.12963158,0.8375025,0.0,0.0,-0.70797837,1,0,0,0,0,0
2597768000,-0.030993465,-0.590247,-2.12567,0.0,-0.46137425,0.26131457,0.1285013,0.8380548,0.0,0.0,-0.708406,1,0,0,0,0,0
2597880000,-0.031806532,-0.59267634,-2.1258276,0.0,-0.46101367,0.2625246,0.12870991,0.83784306,0.0,0.0,-0.70736367,1,0,0,0,0,0
2597972000,-0.030493496,-0.5908445,-2.125956,0.0,-0.4612736,0.2614667,0.12881358,0.83801484,0.0,0.0,-0.7045439,1,0,0,0,0,0
2598068000,-0.03145608,-0.58883095,-2.1261125,0.0,-0.46123767,0.26085925,0.12791741,0.83836114,0.0,0.0,-0.70486283,1,0,0,0,0,0
2598180000,-0.0321038,-0.58709097,-2.126274,0.0,-0.46121964,0.26029333,0.12721653,0.83865356,0.0,0.0,-0.704,1,0,0,0,0,0
2598276000,-0.031430747,-0.5943618,-2.1264806,0.0,-0.46065858,0.26318234,0.12917666,0.8377602,0.0,0.0,-0.70885897,1,0,0,0,0,0
2598368000,-0.03220046,-0.59113926,-2.1266787,0.0,-0.46072453,0.2620294,0.12807278,0.83825463,0.0,0.0,-0.7063055,1,0,0,0,0,0
2598480000,-0.031881217,-0.5928874,-2.126993,0.0,-0.46049926,0.26270473,0.12857507,0.8380902,0.0,0.0,-0.70607156,1,0,0,0,0,0
2598572000,-0.032260124,-0.5903063,-2.127238,0.0,-0.46054682,0.26173165,0.12777926,0.83849007,0.0,0.0,-0.70417863,1,0,0,0,0,0
2598668000,-0.032548532,-0.597559,-2.1275096,0.0,-0.45983067,0.26483798,0.12932153,0.8376709,0.0,0.0,-0.7077959,1,0,0,0,0,0
2598780000,-0.03160122,-0.597379,-2.127809,0.0,-0.45984474,0.26456457,0.12963654,0.8377009,0.0,0.0,-0.7070645,1,0,0,0,0,0
2598872000,-0.031818833,-0.592467,-2.1280074,0.0,-0.46011478,0.2625803,0.12836955,0.83837175,0.0,0.0,-0.7076481,1,0,0,0,0,0
2598964000,-0.030503908,-0.59159505,-2.1283212,0.0,-0.46022314,0.2619343,0.12867557,0.8384675,0.0,0.0,-0.7078557,1,0,0,0,0,0
2599076000,-0.030628504,-0.5982839,-2.1286736,0.0,-0.4595408,0.26477417,0.13014118,0.8377232,0.0,0.0,-0.70556176,1,0,0,0,0,0
2599172000,-0.03135673,-0.6087573,-2.1290836,0.0,-0.45844942,0.26932862,0.13222744,0.8365418,0.0,0.0,-0.7098484,1,0,0,0,0,0
2599284000,-0.03174361,-0.60783416,-2.1296039,0.0,-0.45825282,0.26906756,0.13178018,0.83680403,0.0,0.0,-0.7126306,1,0,0,0,0,0
2599376000,-0.032771233,-0.60440665,-2.1301322,0.0,-0.4581646,0.26791102,0.13047944,0.837427,0.0,0.0,-0.7110147,1,0,0,0,0,0
2599472000,-0.032139797,-0.60340476,-2.1306229,0.0,-0.45812255,0.26738113,0.13044445,0.8376248,0.0,0.0,-0.7122402,1,0,0,0,0,0
2599564000,-0.03345513,-0.5969159,-2.1312392,0.0,-0.45819786,0.26501828,0.12829724,0.8386655,0.0,0.0,-0.70798105,1,0,0,0,0,0
2599680000,-0.03302275,-0.572355,-2.1319432,0.0,-0.45984122,0.25470152,0.122647434,0.8418021,0.0,0.0,-0.702161,1,0,0,0,0,0
2599772000,-0.03827694,-0.5259595,-2.132627,0.0,-0.4622962,0.23646492,0.10945213,0.84757704,0.0,0.0,-0.69602466,1,0,0,0,0,0
2599868000,-0.04173847,-0.483299,-2.1331885,0.0,-0.46459758,0.21926838,0.097844906,0.85234785,0.0,0.0,-0.6902789,1,0,0,0,0,0
2599980000,-0.038329978,-0.44333678,-2.133955,0.0,-0.46718466,0.20152923,0.08974988,0.85619473,0.0,0.0,-0.6813208,1,0,0,0,0,0
2600072000,-0.031425927,-0.42394322,-2.1343477,0.0,-0.46884638,0.19165637,0.088067435,0.8577267,0.0,0.0,-0.67211115,1,0,0,0,0,0
2600184000,-0.026351249,-0.40174767,-2.134635,0.0,-0.4704306,0.18098015,0.08494963,0.859491,0.0,0.0,-0.66017056,1,0,0,0,0,0
2600276000,-0.0215663,-0.38205066,-2.134543,0.0,-0.4719182,0.17139956,0.08233506,0.8608927,0.0,0.0,-0.65647507,1,0,0,0,0,0
2600372000,-0.017722066,-0.35105985,-2.1344585,0.0,-0.47376406,0.15715674,0.07662314,0.8631213,0.0,0.0,-0.6505844,1,0,0,0,0,0
2600464000,-0.01277678,-0.3278915,-2.1341448,0.0,-0.47529504,0.14597923,0.073259555,0.8645333,0.0,0.0,-0.64457744,1,0,0,0,0,0
2600576000,-0.0065725576,-0.3023904,-2.1339417,0.0,-0.47683552,0.13347182,0.06987061,0.86598575,0.0,0.0,-0.6368238,1,0,0,0,0,0
2600668000,-0.004696245,-0.28749526,-2.1337118,0.0,-0.4776036,0.12656662,0.06713883,0.866815,0.0,0.0,-0.6335797,1,0,0,0,0,0
2600780000,-0.006398784,-0.2686039,-2.1334748,0.0,-0.47825685,0.11877626,0.061894238,0.86794686,0.0,0.0,-0.62751865,1,0,0,0,0,0
2600876000,-0.007411478,-0.2510197,-2.1332002,0.0,-0.47889432,0.11137892,0.05725573,0.868894,0.0,0.0,-0.62194866,1,0,0,0,0,0
2600968000,-0.008167356,-0.2374531,-2.1328406,0.0,-0.47943175,0.10565696,0.05369078,0.8695396,0.0,0.0,-0.61832136,1,0,0,0,0,0
2601080000,-0.008607099,-0.22096723,-2.132214,0.0,-0.48016757,0.09857976,0.049569618,0.87020916,0.0,0.0,-0.61399657,1,0,0,0,0,0
2601172000,-0.010701098,-0.2121319,-2.1320233,0.0,-0.4803985,0.09523504,0.046541777,0.87062126,0.0,0.0,-0.61155534,1,0,0,0,0,0
2601268000,-0.008989073,-0.19457285,-2.131805,0.0,-0.48104033,0.08717627,0.04306907,0.8712896,0.0,0.0,-0.60768145,1,0,0,0,0,0
2601380000,-0.006073276,-0.17737493,-2.1315885,0.0,-0.4816702,0.078978226,0.04020425,0.87185997,0.0,0.0,-0.6032735,1,0,0,0,0,0
2601472000,-0.009268783,-0.17012504,-2.1311045,0.0,-0.48192126,0.07657898,0.037081294,0.8720737,0.0,0.0,-0.6004327,1,0,0,0,0,0
2601584000,-0.012751815,-0.15802996,-2.1309888,0.0,-0.4821111,0.07214376,0.032646686,0.87252414,0.0,0.0,-0.59842813,1,0,0,0,0,0
2601676000,-0.011594856,-0.15162519,-2.1306415,0.0,-0.48244047,0.06906633,0.03161665,0.8726291,0.0,0.0,-0.595106,1,0,0,0,0,0
2601772000,-0.010782109,-0.13672313,-2.1302576,0.0,-0.48293096,0.06236404,0.028382165,0.87297356,0.0,0.0,-0.5945791,1,0,0,0,0,0
2601884000,-0.009548179,-0.12432963,-2.1327925,0.0,-0.48208365,0.05669019,0.025852006,0.8739069,0.0,0.0,-0.59219146,1,0,0,0,0,0
2601976000,-0.0080025885,-0.11469305,-2.0888102,0.0,0.5013882,-0.051562715,-0.025341887,-0.8633128,0.0,0.0,-0.58733666,1,0,0,0,0,0
2602068000,0.011545531,-0.09740912,-2.0165536,0.0,0.5329156,-0.03810784,-0.030841824,-0.8447471,0.0,0.0,-0.5835031,1,0,0,0,0,0
2602180000,0.06278998,-0.062475275,-1.9285891,0.0,0.57024336,-0.0077661173,-0.04357246,-0.8202828,0.0,0.0,-0.5843785,1,0,0,0,0,0
2602276000,0.13521416,-0.03721457,-1.8531909,0.0,0.600089,0.025720974,-0.06515534,-0.79686034,0.0,0.0,-0.58284825,1,0,0,0,0,0
2602368000,0.19804312,-0.028709015,-1.7809343,0.0,0.62700605,0.051077597,-0.08582748,-0.7725853,0.0,0.0,-0.5826876,1,0,0,0,0,0
2602480000,0.26315048,-0.029386897,-1.6929698,0.0,0.65826535,0.07601441,-0.107901014,-0.74112475,0.0,0.0,-0.58419204,1,0,0,0,0,0
2602572000,0.29857835,-0.041106444,-1.6207132,0.0,0.6836445,0.08776783,-0.12174839,-0.71421593,0.0,0.0,-0.5844009,1,0,0,0,0,0
2602668000,0.3226978,-0.05442885,-1.545315,0.0,0.70954734,0.09624423,-0.13133013,-0.68558884,0.0,0.0,-0.5817197,1,0,0,0,0,0
2602780000,0.2539515,-0.06383177,-1.4573505,0.0,0.7423649,0.07335117,-0.10789625,-0.65716994,0.0,0.0,-0.5795852,1,0,0,0,0,0
2602872000,0.19487336,-0.06554781,-1.3850939,0.0,0.7675958,0.054007504,-0.08718091,-0.63267624,0.0,0.0,-0.58536506,1,0,0,0,0,0
2602984000,0.1614606,-0.06745717,-1.2971294,0.0,0.7955469,0.043928415,-0.07547135,-0.59956616,0.0,0.0,-0.58308303,1,0,0,0,0,0
2603076000,0.14461152,-0.06993736,-1.2248728,0.0,0.8170648,0.039030917,-0.070036836,-0.5709435,0.0,0.0,-0.581955,1,0,0,0,0,0
2603172000,0.15966958,-0.08529633,-1.1494746,0.0,0.83774936,0.04377282,-0.0789851,-0.5385363,0.0,0.0,-0.58211845,1,0,0,0,0,0
2603284000,0.16153221,-0.10083754,-1.0615101,0.0,0.86057955,0.044063352,-0.08410854,-0.5003868,0.0,0.0,-0.581726,1,0,0,0,0,0
2603376000,0.15840165,-0.11631386,-0.9892535,0.0,0.87808657,0.042012475,-0.08849147,-0.46836752,0.0,0.0,-0.58270794,1,0,0,0,0,0
2603468000,0.15379328,-0.13212958,-0.91699684,0.0,0.89436245,0.03960359,-0.09295038,-0.43578383,0.0,0.0,-0.5830756,1,0,0,0,0,0
2603580000,0.1543126,-0.1548762,-0.8290322,0.0,0.91225487,0.03927644,-0.10154911,-0.3948875,0.0,0.0,-0.5835944,1,0,0,0,0,0
2603676000,0.1523485,-0.1705094,-0.7536339,0.0,0.92616117,0.039262734,-0.10684815,-0.35953757,0.0,0.0,-0.58556527,1,0,0,0,0,0
2603768000,0.14245236,-0.18040651,-0.68137723,0.0,0.9384549,0.036779996,-0.10837073,-0.32589176,0.0,0.0,-0.58464926,1,0,0,0,0,0
2603880000,0.13144654,-0.20367993,-0.5934126,0.0,0.951248,0.032821286,-0.116114214,-0.28384402,0.0,0.0,-0.58837837,1,0,0,0,0,0
2603972000,0.122487165,-0.22633532,-0.5211559,0.0,0.96004134,0.029721132,-0.12457745,-0.24883273,0.0,0.0,-0.59016734,1,0,0,0,0,0
2604068000,0.10735011,-0.2350637,-0.44575766,0.0,0.9685326,0.026079394,-0.12597305,-0.2130617,0.0,0.0,-0.5907213,1,0,0,0,0,0
2604180000,0.091910206,-0.25862688,-0.35779306,0.0,0.9758485,0.021906115,-0.13486765,-0.17044239,0.0,0.0,-0.592533,1,0,0,0,0,0
2604272000,0.07522694,-0.28298104,-0.28553644,0.0,0.9799959,0.016799549,-0.14478248,-0.13551322,0.0,0.0,-0.59420514,1,0,0,0,0,0
2604384000,0.055703674,-0.30062658,-0.19757183,0.0,0.9839335,0.012636779,-0.1516756,-0.09332554,0.0,0.0,-0.5976236,1,0,0,0,0,0
2604476000,0.033004098,-0.3211221,-0.12531517,0.0,0.98523164,0.0062478096,-0.16055661,-0.059169866,0.0,0.0,-0.6004332,1,0,0,0,0,0
2604572000,0.012674303,-0.35159189,-0.049916953,0.0,0.98428893,0.0018730023,-0.1749896,-0.023462804,0.0,0.0,-0.6055594,1,0,0,0,0,0
2604664000,-0.01206617,-0.34228992,0.022339683,0.0,0.98532254,-0.0040422683,-0.17036337,0.009978797,0.0,0.0,-0.6035453,1,0,0,0,0,0
2604776000,-0.026793314,-0.35413697,0.06283565,0.0,0.98386437,-0.007647614,-0.17645615,0.028560204,0.0,0.0,-0.60851735,1,0,0,0,0,0
2604868000,-0.03012824,-0.37068063,0.06578409,0.0,0.9823218,-0.008737959,-0.18464734,0.029544799,0.0,0.0,-0.60880446,1,0,0,0,0,0
2604980000,-0.030363495,-0.38286278,0.0696708,0.0,0.9811248,-0.008268975,-0.19064605,0.03130152,0.0,0.0,-0.6106295,1,0,0,0,0,0
2605076000,-0.033384446,-0.40311205,0.07253923,0.0,0.9790967,-0.009084437,-0.20062755,0.032183312,0.0,0.0,-0.6189618,1,0,0,0,0,0
2605168000,-0.037958045,-0.4355061,0.076135464,0.0,0.9756583,-0.010295758,-0.2165461,0.033056162,0.0,0.0,-0.63188916,1,0,0,0,0,0
2605280000,-0.041312672,-0.44804245,0.08018218,0.0,0.97420466,-0.011220524,-0.22273347,0.034485653,0.0,0.0,-0.628957,1,0,0,0,0,0
2605372000,-0.04470436,-0.44638956,0.08416946,0.0,0.9742965,-0.012466403,-0.22201207,0.036075693,0.0,0.0,-0.6309498,1,0,0,0,0,0
2605468000,-0.048486426,-0.47367537,0.08785171,0.0,0.97111154,-0.0132414475,-0.2353693,0.036991257,0.0,0.0,-0.63878125,1,0,0,0,0,0
2605580000,-0.05058303,-0.47559008,0.09342918,0.0,0.9707672,-0.013553792,-0.23637576,0.039418466,0.0,0.0,-0.6383525,1,0,0,0,0,0
2605672000,-0.057079684,-0.49608764,0.098542064,0.0,0.96816885,-0.015542419,-0.2464727,0.040726997,0.0,0.0,-0.64803165,1,0,0,0,0,0
2605784000,-0.06313829,-0.49793938,0.10583922,0.0,0.9677392,-0.01752076,-0.2475561,0.043471817,0.0,0.0,-0.65343213,1,0,0,0,0,0
2605876000,-0.06675616,-0.4782865,0.11251891,0.0,0.96990836,-0.019059114,-0.23818696,0.04670682,0.0,0.0,-0.648935,1,0,0,0,0,0
2605972000,-0.07131223,-0.48115247,0.11998901,0.0,0.9693466,-0.020282846,-0.23975837,0.049716327,0.0,0.0,-0.65210855,1,0,0,0,0,0
2606084000,-0.07264913,-0.47123647,0.13069202,0.0,0.9702084,-0.020004053,-0.23509823,0.054993622,0.0,0.0,-0.6547421,1,0,0,0,0,0
2606176000,-0.07480045,-0.4595933,0.14216085,0.0,0.97117966,-0.020150926,-0.22963122,0.060609777,0.0,0.0,-0.6529711,1,0,0,0,0,0
2606268000,-0.07784872,-0.43734264,0.15554878,0.0,0.9731543,-0.021030964,-0.21906467,0.06737203,0.0,0.0,-0.6528121,1,0,0,0,0,0
2606380000,-0.08745596,-0.43586567,0.17550111,0.0,0.97248846,-0.023585582,-0.21891442,0.07606811,0.0,0.0,-0.6512558,1,0,0,0,0,0
2606476000,-0.098813005,-0.4484443,0.19476473,0.0,0.97023165,-0.026329804,-0.22570613,0.08375003,0.0,0.0,-0.6531164,1,0,0,0,0,0
2606568000,-0.10742704,-0.43763533,0.2217153,0.0,0.97005284,-0.028105205,-0.22122987,0.0962542,0.0,0.0,-0.6513684,1,0,0,0,0,0
2606680000,-0.12573333,-0.4324,0.26321867,0.0,0.9681288,-0.03273626,-0.22029696,0.114560746,0.0,0.0,-0.6520723,1,0,0,0,0,0
2606772000,-0.1274412,-0.43565568,0.26632553,0.0,0.9675884,-0.032987814,-0.22201605,0.11572956,0.0,0.0,-0.65255576,1,0,0,0,0,0
2606868000,-0.12015715,-0.43707263,0.25061756,0.0,0.9684409,-0.031107653,-0.2220387,0.1088732,0.0,0.0,-0.650285,1,0,0,0,0,0
2606980000,-0.07160699,-0.4422169,0.16265294,0.0,0.9724448,-0.017004233,-0.22128344,0.07138385,0.0,0.0,-0.6520944,1,0,0,0,0,0
2607072000,-0.01842043,-0.44525582,0.0903963,0.0,0.97437507,0.0010020237,-0.22096446,0.042034365,0.0,0.0,-0.65161145,1,0,0,0,0,0
2607184000,0.039691504,-0.44594032,0.008809413,0.0,0.97502416,0.020326817,-0.22099628,0.008682913,0.0,0.0,-0.6538566,1,0,0,0,0,0
2607276000,0.038491495,-0.4478704,0.008876815,0.0,0.974822,0.019749304,-0.22194168,0.008600334,0.0,0.0,-0.6538932,1,0,0,0,0,0
2607372000,0.029075652,-0.45050627,0.008910326,0.0,0.97461045,0.015164891,-0.22326414,0.0075890636,0.0,0.0,-0.65457696,1,0,0,0,0,0
2607484000,0.015869038,-0.4515176,0.008876815,0.0,0.9745764,0.008726505,-0.2238024,0.0061017047,0.0,0.0,-0.6522908,1,0,0,0,0,0
2607576000,0.009097203,-0.45268372,0.00878909,0.0,0.9744699,0.0054187113,-0.22439024,0.0053031566,0.0,0.0,-0.6525253,1,0,0,0,0,0
2607668000,0.0069266725,-0.4544052,0.008686769,0.0,0.9742819,0.0043526418,-0.22523478,0.0050118403,0.0,0.0,-0.65357447,1,0,0,0,0,0
2607780000,0.0065151462,-0.45134538,0.008569327,0.0,0.9746266,0.004133676,-0.2237452,0.0049048997,0.0,0.0,-0.6546004,1,0,0,0,0,0
2607876000,0.0067865513,-0.4531393,0.008471388,0.0,0.97442514,0.0042579984,-0.22461885,0.0048896493,0.0,0.0,-0.6575027,1,0,0,0,0,0
2607968000,0.006358467,-0.457393,0.008372304,0.0,0.9739463,0.00404545,-0.22669205,0.0047978745,0.0,0.0,-0.65754825,1,0,0,0,0,0
2608080000,0.005942942,-0.4597839,0.008243159,0.0,0.97367567,0.003832453,-0.22785746,0.004690226,0.0,0.0,-0.65750176,1,0,0,0,0,0
2608172000,0.007679997,-0.45354968,0.008177822,0.0,0.97437775,0.004660966,-0.22481726,0.0048475415,0.0,0.0,-0.6540568,1,0,0,0,0,0
2608268000,0.0076585356,-0.46348804,0.008082515,0.0,0.9732487,0.0046550287,-0.2296566,0.0048126625,0.0,0.0,-0.65845126,1,0,0,0,0,0
2608380000,0.006884669,-0.46442497,0.008000983,0.0,0.9731429,0.004270537,-0.23011455,0.0046852636,0.0,0.0,-0.660152,1,0,0,0,0,0
2608472000,0.007118588,-0.45761627,0.007911081,0.0,0.97392046,0.00436367,-0.22679996,0.0046597146,0.0,0.0,-0.6552359,1,0,0,0,0,0
2608564000,0.007170223,-0.45759824,0.007842978,0.0,0.97392255,0.004381065,-0.22679119,0.0046323836,0.0,0.0,-0.6570084,1,0,0,0,0,0
2608676000,0.006219109,-0.45877624,0.0077358494,0.0,0.973791,0.0039075627,-0.22736719,0.004473629,0.0,0.0,-0.65699697,1,0,0,0,0,0
2608772000,0.006595481,-0.4632232,0.007673961,0.0,0.97328234,0.0040904116,-0.22953112,0.004491472,0.0,0.0,-0.6589785,1,0,0,0,0,0
2608864000,0.0068010055,-0.4622152,0.007619397,0.0,0.9733977,0.0041826903,-0.22904018,0.0044872784,0.0,0.0,-0.6604837,1,0,0,0,0,0
2608976000,0.0057243467,-0.46701583,0.0075407624,0.0,0.9728473,0.0036569014,-0.23137856,0.00433031,0.0,0.0,-0.66013795,1,0,0,0,0,0
2609072000,0.0063205343,-0.46896544,0.0074692843,0.0,0.9726203,0.0039414586,-0.23232561,0.004366666,0.0,0.0,-0.6588735,1,0,0,0,0,0
2609184000,0.0049057687,-0.4742235,0.007380982,0.0,0.97200876,0.0032511128,-0.23488507,0.0041633826,0.0,0.0,-0.6618974,1,0,0,0,0,0
2609276000,0.0055958205,-0.46977633,0.0073079406,0.0,0.9725277,0.0035714575,-0.2327218,0.004204776,0.0,0.0,-0.65944123,1,0,0,0,0,0
2609372000,0.005196026,-0.46528894,0.007242397,0.0,0.97304827,0.0033628717,-0.23054013,0.0041225962,0.0,0.0,-0.65907395,1,0,0,0,0,0
2609464000,0.0042881304,-0.46846426,0.0071845558,0.0,0.9726826,0.0029192516,-0.23208661,0.0039917934,0.0,0.0,-0.66241664,1,0,0,0,0,0
2609576000,0.0028579633,-0.47307938,0.0071011083,0.0,0.9721464,0.0022212164,-0.23433343,0.0037865432,0.0,0.0,-0.66434324,1,0,0,0,0,0
2609668000,0.002877823,-0.470829,0.0070336377,0.0,0.97240955,0.0022194954,-0.23323946,0.0037554244,0.0,0.0,-0.6614238,1,0,0,0,0,0
2609780000,0.0039788038,-0.46898893,0.0069655133,0.0,0.9726225,0.0027441622,-0.23234269,0.0038496635,0.0,0.0,-0.66055024,1,0,0,0,0,0
2609876000,0.0050275903,-0.47502148,0.0069139795,0.0,0.9719158,0.0032565773,-0.23527336,0.003951375,0.0,0.0,-0.66297483,1,0,0,0,0,0
2609968000,0.0053249835,-0.47868466,0.0068794093,0.0,0.97148275,0.003402001,-0.23705262,0.00397281,0.0,0.0,-0.66358805,1,0,0,0,0,0
2610080000,0.0044252044,-0.4730636,0.006835951,0.0,0.9721467,0.0029519205,-0.23432311,0.003841274,0.0,0.0,-0.6625224,1,0,0,0,0,0
2610172000,0.003046026,-0.4759198,0.006800984,0.0,0.97181296,0.0022816495,-0.23571381,0.0036636624,0.0,0.0,-0.66386294,1,0,0,0,0,0
2610268000,0.003748743,-0.48278928,0.006748194,0.0,0.9709968,0.0026266123,-0.23904915,0.003724334,0.0,0.0,-0.6652995,1,0,0,0,0,0
2610380000,0.0034902757,-0.48151553,0.00671277,0.0,0.97114927,0.0024950826,-0.2384312,0.0036756734,0.0,0.0,-0.6632047,1,0,0,0,0,0
2610472000,0.0037566025,-0.48205802,0.0066682254,0.0,0.9710843,0.00261985,-0.23869419,0.0036860723,0.0,0.0,-0.6665428,1,0,0,0,0,0
2610584000,0.004126006,-0.47961044,0.006632374,0.0,0.9713753,0.002791592,-0.23750496,0.0037112671,0.0,0.0,-0.66338706,1,0,0,0,0,0
2610676000,0.003755945,-0.47286525,0.006596328,0.0,0.9721713,0.002598262,-0.2342283,0.003646283,0.0,0.0,-0.6628677,1,0,0,0,0,0
2610772000,0.003340722,-0.47746682,0.0065691643,0.0,0.9716304,0.002399687,-0.2364652,0.0035864075,0.0,0.0,-0.66592973,1,0,0,0,0,0
2610884000,0.0042418344,-0.48163933,0.0065327697,0.0,0.9711338,0.0028387266,-0.23849018,0.0036779467,0.0,0.0,-0.66576517,1,0,0,0,0,0
2610976000,0.0040696645,-0.4837056,0.006496171,0.0,0.9708872,0.002753518,-0.23949376,0.0036408838,0.0,0.0,-0.66738695,1,0,0,0,0,0
2611068000,0.0048048403,-0.47718477,0.006486989,0.0,0.97166187,0.003100897,-0.2363256,0.0037193692,0.0,0.0,-0.6653404,1,0,0,0,0,0
2611180000,0.005586075,-0.47876656,0.0064316224,0.0,0.97147346,0.0034758504,-0.23709266,0.0037863276,0.0,0.0,-0.6653334,1,0,0,0,0,0
2611276000,0.004921661,-0.48493284,0.0064130607,0.0,0.97073895,0.00315871,-0.24008799,0.0037035563,0.0,0.0,-0.6677078,1,0,0,0,0,0
2611368000,0.0033703987,-0.48448485,0.006366419,0.0,0.9707949,0.002399573,-0.23987341,0.0034945018,0.0,0.0,-0.6696365,1,0,0,0,0,0
2611480000,0.0018840833,-0.47955322,0.006309995,0.0,0.9713851,0.0016643509,-0.23748145,0.0032884497,0.0,0.0,-0.6673129,1,0,0,0,0,0
2611572000,0.0035636872,-0.4829815,0.006243522,0.0,0.9709749,0.0024766973,-0.23914343,0.003457292,0.0,0.0,-0.66853034,1,0,0,0,0,0
2611668000,0.0030936284,-0.4894489,0.0062052174,0.0,0.97019714,0.0022524432,-0.24228287,0.0033849292,0.0,0.0,-0.66929615,1,0,0,0,0,0
2611780000,0.0024681862,-0.4839563,0.0061473134,0.0,0.97085965,0.0019346522,-0.2396186,0.0032798182,0.0,0.0,-0.66679424,1,0,0,0,0,0
