timestamp,ref_timestamp,ref_lat,ref_lon,x,y,z,delta_xy[0],delta_xy[1],delta_z,vx,vy,vz,z_deriv,delta_vxy[0],delta_vxy[1],delta_vz,ax,ay,az,yaw,ref_alt,dist_bottom,dist_bottom_rate,eph,epv,evh,evv,vxy_max,vz_max,hagl_min,hagl_max,xy_valid,z_valid,v_xy_valid,v_z_valid,xy_reset_counter,z_reset_counter,vxy_reset_counter,vz_reset_counter,xy_global,z_global,dist_bottom_valid
2564252000,1684000,47.3977508,8.5456074,-0.07090342,0.043552615,0.024080629,-0.022669492,-0.0033747193,0.0,0.04355471,0.045155846,0.013586487,-0.008045349,-0.05914641,-0.009015089,0.12613459,0.07910021,-0.0117111765,-0.028940847,0.41588673,0.0,0.10033599,-0.013586487,0.41815293,0.23486497,0.17223994,0.104217075,inf,inf,inf,inf,1,1,1,1,2,0,2,2,1,1,1
2564348000,1684000,47.3977508,8.5456074,-0.068160325,0.043595575,0.023786979,-0.022669492,-0.0033747193,0.0,0.04422123,0.043746237,0.0118331555,-0.0090649985,-0.05914641,-0.009015089,0.12613459,-0.0035361443,0.024725037,-0.023551283,0.41601932,0.0,0.10075591,-0.0118331555,0.4301555,0.23446487,0.17661203,0.104417235,inf,inf,inf,inf,1,1,1,1,2,0,2,2,1,1,1
2564452000,1684000,47.3977508,8.5456074,-0.065566435,0.04347962,0.022677397,-0.022669492,-0.0033747193,0.0,0.04644103,0.041591994,0.011622696,-0.009301156,-0.05914641,-0.009015089,0.12613459,0.059423942,0.024890982,0.010369345,0.41607895,0.0,0.101865485,-0.011622696,0.4175159,0.23498262,0.17201544,0.10422718,inf,inf,inf,inf,1,1,1,1,2,0,2,2,1,1,1
2564548000,1684000,47.3977508,8.5456074,-0.06322325,0.043487985,0.021732986,-0.022669492,-0.0033747193,0.0,0.047560066,0.03973886,0.012747603,-0.008166366,-0.05914641,-0.009015089,0.12613459,0.02842769,0.06286919,0.06604101,0.4163294,0.0,0.1028099,-0.012747603,0.42949098,0.2345727,0.17638701,0.10442431,inf,inf,inf,inf,1,1,1,1,2,0,2,2,1,1,1
2564652000,1684000,47.3977508,8.5456074,-0.061005622,0.043064777,0.02056796,-0.022669492,-0.0033747193,0.0,0.048786618,0.038788788,0.011927339,-0.009157124,-0.05914641,-0.009015089,0.12613459,0.034553234,0.04162153,0.038313676,0.4162197,0.0,0.10397492,-0.011927339,0.4169439,0.23347498,0.17183061,0.10381116,inf,inf,inf,inf,1,1,1,1,2,0,2,2,1,1,1
2564748000,1684000,47.3977508,8.5456074,-0.05901854,0.04285478,0.019771412,-0.022669492,-0.0033747193,0.0,0.048355166,0.038865607,0.011114296,-0.009761269,-0.05914641,-0.009015089,0.12613459,-0.04523608,0.066842705,-0.035158355,0.41620937,0.0,0.10477147,-0.011114296,0.42889568,0.23468935,0.17619102,0.104438,inf,inf,inf,inf,1,1,1,1,2,0,2,2,1,1,1
2564852000,1684000,47.3977508,8.5456074,-0.057235572,0.042403545,0.018442724,-0.022669492,-0.0033747193,0.0,0.049493585,0.037943196,0.009112438,-0.011844609,-0.05914641,-0.009015089,0.12613459,0.084367916,-0.013745532,-0.050180588,0.416196,0.0,0.10610016,-0.009112438,0.41643128,0.23358934,0.17167109,0.103825204,inf,inf,inf,inf,1,1,1,1,2,0,2,2,1,1,1
2564948000,1684000,47.3977508,8.5456074,-0.055637013,0.042233158,0.017269406,-0.022669492,-0.0033747193,0.0,0.047562953,0.038122065,0.00951449,-0.011369495,-0.05914641,-0.009015089,0.12613459,0.0068796105,-0.00793361,-0.039362345,0.4163354,0.0,0.107273474,-0.00951449,0.42836395,0.23480533,0.17604297,0.10445359,inf,inf,inf,inf,1,1,1,1,2,0,2,2,1,1,1
2565052000,1684000,47.3977508,8.5456074,-0.054306448,0.041331787,0.016592132,-0.022669492,-0.0033747193,0.0,0.048196513,0.037227362,0.0113449525,-0.008933874,-0.05914641,-0.009015089,0.12613459,0.050985266,-0.04834308,0.083755694,0.41622233,0.0,0.107950754,-0.0113449525,0.4159731,0.23371215,0.17155306,0.10384514,inf,inf,inf,inf,1,1,1,1,2,0,2,2,1,1,1
2565148000,1684000,47.3977508,8.5456074,-0.053006988,0.040530138,0.016235307,-0.022669492,-0.0033747193,0.0,0.04776022,0.035382435,0.007938564,-0.0115955025,-0.05914641,-0.009015089,0.12613459,-0.028299479,-0.039676525,-0.03856234,0.41636506,0.0,0.10830758,-0.007938564,0.4278903,0.2349296,0.17591527,0.104474835,inf,inf,inf,inf,1,1,1,1,2,0,2,2,1,1,1
2565252000,1684000,47.3977508,8.5456074,-0.05142374,0.0394703,0.015372843,-0.022669492,-0.0033747193,0.0,0.04894676,0.03401844,0.006091947,-0.01298246,-0.05914641,-0.009015089,0.12613459,0.05525527,-0.038515598,-0.032467764,0.4162495,0.0,0.10917004,-0.006091947,0.4155648,0.23382547,0.171444,0.10386275,inf,inf,inf,inf,1,1,1,1,2,0,2,2,1,1,1
2565348000,1684000,47.3977508,8.5456074,-0.049546745,0.038781,0.014790036,-0.022669492,-0.0033747193,0.0,0.049469896,0.03410046,0.0055474606,-0.012727377,-0.05914641,-0.009015089,0.12613459,-0.006124366,0.040187024,0.067750916,0.4162679,0.0,0.10975285,-0.0055474606,0.42746934,0.23503613,0.17581558,0.10449022,inf,inf,inf,inf,1,1,1,1,2,0,2,2,1,1,1
2565452000,1684000,47.3977508,8.5456074,-0.04803989,0.03789803,0.01525052,-0.022669492,-0.0033747193,0.0,0.04823111,0.03436619,0.008600166,-0.008055754,-0.05914641,-0.009015089,0.12613459,0.0019759098,-0.002973218,-0.009625218,0.41643384,0.0,0.109292366,-0.008600166,0.4152018,0.23394778,0.17137964,0.10388633,inf,inf,inf,inf,1,1,1,1,2,0,2,2,1,1,1
2565548000,1684000,47.3977508,8.5456074,-0.04677842,0.03730587,0.015188657,-0.022669492,-0.0033747193,0.0,0.047489658,0.03386039,0.007111174,-0.008747992,-0.05914641,-0.009015089,0.12613459,0.115687385,-0.03920902,-0.017507931,0.41664174,0.0,0.10935423,-0.007111174,0.42709678,0.2351601,0.17573635,0.104515105,inf,inf,inf,inf,1,1,1,1,2,0,2,2,1,1,1
2565652000,1684000,47.3977508,8.5456074,-0.04580841,0.03675099,0.0148316,-0.022669492,-0.0033747193,0.0,0.046567943,0.033943657,0.007537101,-0.007829167,-0.05914641,-0.009015089,0.12613459,0.013148287,-0.01661333,0.06106216,0.4166596,0.0,0.10971128,-0.007537101,0.4148805,0.23406962,0.17130128,0.10391126,inf,inf,inf,inf,1,1,1,1,2,0,2,2,1,1,1
2565748000,1684000,47.3977508,8.5456074,-0.04495687,0.036602564,0.014770466,-0.022669492,-0.0033747193,0.0,0.04645142,0.03442772,0.0058208737,-0.008775371,-0.05914641,-0.009015089,0.12613459,0.06198249,-0.021960087,0.021745449,0.4168908,0.0,0.10977242,-0.0058208737,0.42676717,0.23530135,0.17566326,0.10454912,inf,inf,inf,inf,1,1,1,1,2,0,2,2,1,1,1
2565852000,1684000,47.3977508,8.5456074,-0.044372667,0.036794208,0.014491931,-0.022669492,-0.0033747193,0.0,0.045716744,0.035075866,0.005036712,-0.008853295,-0.05914641,-0.009015089,0.12613459,0.053895704,0.00086096197,0.0010365619,0.41696507,0.0,0.110050954,-0.005036712,0.41459608,0.23421574,0.17125411,0.10394803,inf,inf,inf,inf,1,1,1,1,2,0,2,2,1,1,1
2565956000,1684000,47.3977508,8.5456074,-0.043684352,0.037466798,0.014070931,-0.022669492,-0.0033747193,0.0,0.043895323,0.03457466,0.0033409365,-0.009943064,-0.05914641,-0.009015089,0.12613459,0.00249601,-0.03801974,-0.009517184,0.41684377,0.0,0.11047196,-0.0033409365,0.42748982,0.23446538,0.17598937,0.10435241,inf,inf,inf,inf,1,1,1,1,2,0,2,2,1,1,1
2566052000,1684000,47.3977508,8.5456074,-0.04376257,0.038104616,0.014105545,-0.022669492,-0.0033747193,0.0,0.041894443,0.03341511,-0.00072906056,-0.0129696475,-0.05914641,-0.009015089,0.12613459,-0.039009552,-0.038355652,-0.28944385,0.41680267,0.0,0.11043734,0.00072906056,0.41434553,0.23435085,0.17122096,0.10398055,inf,inf,inf,inf,1,1,1,1,2,0,2,2,1,1,1
2566148000,1684000,47.3977508,8.5456074,-0.04460116,0.03881007,0.010060998,-0.022669492,-0.0033747193,0.0,0.02447546,0.029198077,-0.082708724,-0.09428436,-0.05914641,-0.009015089,0.12613459,-0.167448,-0.040610664,-1.0597184,0.41679546,0.0,0.11448189,0.082708724,0.42622232,0.23396799,0.17558977,0.10419482,inf,inf,inf,inf,1,1,1,1,2,0,2,2,1,1,1
2566252000,1684000,47.3977508,8.5456074,-0.04760311,0.038656116,-0.0060686264,-0.022669492,-0.0033747193,0.0,-0.0012586559,0.019105846,-0.216068,-0.22722027,-0.05914641,-0.009015089,0.12613459,-0.37648362,-0.21524836,-1.2309691,0.41679466,0.0,0.13061151,0.216068,0.41412634,0.23450199,0.17128864,0.104020886,inf,inf,inf,inf,1,1,1,1,2,0,2,2,1,1,1
2566348000,1684000,47.3977508,8.5456074,-0.053049725,0.03740528,-0.0340151,-0.022669492,-0.0033747193,0.0,-0.032123853,0.008354624,-0.3408622,-0.35209864,-0.05914641,-0.009015089,0.12613459,-0.31557164,-0.058250125,-1.3069761,0.4164149,0.0,0.15855798,0.3408622,0.42601347,0.23410876,0.1760659,0.10423088,inf,inf,inf,inf,1,1,1,1,2,0,2,2,1,1,1
2566452000,1684000,47.3977508,8.5456074,-0.06168401,0.034708697,-0.07742987,-0.022669492,-0.0033747193,0.0,-0.058366142,-0.0012779161,-0.47520986,-0.48631546,-0.05914641,-0.009015089,0.12613459,-0.1691243,-0.014014738,-1.3472241,0.4162055,0.0,0.20197275,0.47520986,0.41394392,0.23464231,0.17217386,0.10405563,inf,inf,inf,inf,1,1,1,1,2,0,2,2,1,1,1
2566556000,1684000,47.3977508,8.5456074,-0.07178944,0.031629454,-0.13496134,-0.022669492,-0.0033747193,0.0,-0.069768384,-0.0039758026,-0.6124594,-0.62337583,-0.05914641,-0.009015089,0.12613459,-0.060480114,-0.043526474,-1.3348078,0.41611862,0.0,0.25950423,0.6124594,0.42689586,0.23489764,0.17746417,0.10446268,inf,inf,inf,inf,1,1,1,1,2,0,2,2,1,1,1
2566652000,1684000,47.3977508,8.5456074,-0.08177127,0.02860789,-0.20026922,-0.022669492,-0.0033747193,0.0,-0.068522006,-0.002683349,-0.7370048,-0.7473266,-0.05914641,-0.009015089,0.12613459,0.060891878,0.012735708,-1.0890363,0.41603774,0.0,0.3248121,0.7370048,0.4138265,0.23478891,0.17308192,0.10409316,inf,inf,inf,inf,1,1,1,1,2,0,2,2,1,1,1
2566748000,1684000,47.3977508,8.5456074,-0.09105678,0.02606618,-0.27732852,-0.022669492,-0.0033747193,0.0,-0.061218854,0.00066832674,-0.8601003,-0.87000424,-0.05914641,-0.009015089,0.12613459,0.09665248,0.02853039,-1.4067916,0.415899,0.0,0.4018714,0.8601003,0.42580697,0.23439266,0.17799541,0.10430296,inf,inf,inf,inf,1,1,1,1,2,0,2,2,1,1,1
2566852000,1684000,47.3977508,8.5456074,-0.10104023,0.023225352,-0.37434348,-0.022669492,-0.0033747193,0.0,-0.053182784,0.0030924678,-0.99972963,-1.0089889,-0.05914641,-0.009015089,0.12613459,0.04492584,0.07231972,-1.3339388,0.4155543,0.0,0.49888638,0.99972963,0.41376558,0.23332122,0.17392349,0.1037091,inf,inf,inf,inf,1,1,1,1,2,0,2,2,1,1,1
2566948000,1684000,47.3977508,8.5456074,-0.10974999,0.02092162,-0.4762769,-0.022669492,-0.0033747193,0.0,-0.04607233,0.003768474,-1.1189048,-1.1275778,-0.05914641,-0.009015089,0.12613459,0.09804169,-0.028252792,-1.2472867,0.41579843,0.0,0.60081977,1.1189048,0.4257919,0.23454544,0.17883605,0.10434615,inf,inf,inf,inf,1,1,1,1,2,0,2,2,1,1,1
2567052000,1684000,47.3977508,8.5456074,-0.11817761,0.018239,-0.6001926,-0.022669492,-0.0033747193,0.0,-0.036514033,0.006982682,-1.2569311,-1.2651305,-0.05914641,-0.009015089,0.12613459,0.07925258,0.053842608,-1.2592449,0.41573143,0.0,0.7247355,1.2569311,0.4137522,0.23346168,0.17470738,0.103747025,inf,inf,inf,inf,1,1,1,1,2,0,2,2,1,1,1
2567148000,1684000,47.3977508,8.5456074,-0.124907844,0.016109591,-0.7270859,-0.022669492,-0.0033747193,0.0,-0.029403286,0.010786225,-1.3816057,-1.3894145,-0.05914641,-0.009015089,0.12613459,0.076670684,0.1300774,-1.2362347,0.41561115,0.0,0.8516288,1.3816057,0.42582357,0.23468755,0.1796123,0.10438485,inf,inf,inf,inf,1,1,1,1,2,0,2,2,1,1,1
2567252000,1684000,47.3977508,8.5456074,-0.13172272,0.013286915,-0.8786417,-0.022669492,-0.0033747193,0.0,-0.02319695,0.012146826,-1.5180051,-1.5259644,-0.05914641,-0.009015089,0.12613459,0.055963106,0.029738966,-1.3647395,0.4156242,0.0,1.0031846,1.5180051,0.41377902,0.23360927,0.17539832,0.10378834,inf,inf,inf,inf,1,1,1,1,2,0,2,2,1,1,1
2567348000,1684000,47.3977508,8.5456074,-0.1372863,0.01054448,-1.0313131,-0.022669492,-0.0033747193,0.0,-0.017415807,0.011719123,-1.6403698,-1.6487253,-0.05914641,-0.009015089,0.12613459,0.096678436,0.063827395,-1.3518323,0.4154115,0.0,1.1558559,1.6403698,0.42589337,0.23483658,0.18031742,0.10442666,inf,inf,inf,inf,1,1,1,1,2,0,2,2,1,1,1
2567452000,1684000,47.3977508,8.5456074,-0.14297505,0.007281688,-1.209975,-0.022669492,-0.0033747193,0.0,-0.0091855135,0.01261346,-1.7749842,-1.783658,-0.05914641,-0.009015089,0.12613459,0.11749666,0.08016684,-1.2513994,0.41544822,0.0,1.3345178,1.7749842,0.41383898,0.23374622,0.1760248,0.103824966,inf,inf,inf,inf,1,1,1,1,2,0,2,2,1,1,1
2567548000,1684000,47.3977508,8.5456074,-0.14750867,0.00465685,-1.3876053,-0.022669492,-0.0033747193,0.0,-0.005516114,0.01567835,-1.8964096,-1.905638,-0.05914641,-0.009015089,0.12613459,0.062448006,0.07335604,-1.2546078,0.41545892,0.0,1.5121481,1.8964096,0.42599353,0.23497553,0.18092853,0.10446417,inf,inf,inf,inf,1,1,1,1,2,0,2,2,1,1,1
2567652000,1684000,47.3977508,8.5456074,-0.15224835,0.002075861,-1.5923785,-0.022669492,-0.0033747193,0.0,0.00065425434,0.01711065,-2.0310376,-2.039877,-0.05914641,-0.009015089,0.12613459,0.015077165,0.014781601,-1.2132963,0.41539764,0.0,1.7169213,2.0310376,0.4139245,0.23389935,0.17656317,0.1038689,inf,inf,inf,inf,1,1,1,1,2,0,2,2,1,1,1
2567748000,1684000,47.3977508,8.5456074,-0.15599003,0.000113039685,-1.793347,-0.022669492,-0.0033747193,0.0,0.005091177,0.0181514,-2.155211,-2.1632755,-0.05914641,-0.009015089,0.12613459,0.07069511,0.105963886,-1.3864999,0.41660875,0.0,1.9178898,2.155211,0.4261069,0.23512146,0.17997247,0.10450437,inf,inf,inf,inf,1,1,1,1,2,0,2,2,1,1,1
2567852000,1684000,47.3977508,8.5456074,-0.15927185,-0.0016343101,-2.0247858,-0.022669492,-0.0033747193,0.0,0.009938633,0.019722993,-2.2915285,-2.2990518,-0.05914641,-0.009015089,0.12613459,0.105079085,0.013439012,-1.4092689,0.41629568,0.0,2.1493287,2.2915285,0.41403943,0.23404165,0.17141744,0.10390738,inf,inf,inf,inf,1,1,1,1,2,0,2,2,1,1,1
2567948000,1684000,47.3977508,8.5456074,-0.1612074,-0.002794215,-2.250753,-0.022669492,-0.0033747193,0.0,0.016173685,0.021315424,-2.4145896,-2.4214633,-0.05914641,-0.009015089,0.12613459,0.080377996,0.01977267,-1.2317178,0.41622072,0.0,2.3752959,2.4145896,0.4258784,0.2352741,0.17259452,0.10454837,inf,inf,inf,inf,1,1,1,1,2,0,2,2,1,1,1
2568052000,1684000,47.3977508,8.5456074,-0.16183063,-0.0025968892,-2.5072517,-0.022669492,-0.0033747193,0.0,0.017282981,0.02633088,-2.4706912,-2.477316,-0.05914641,-0.009015089,0.12613459,0.05930261,0.06445146,0.7044263,0.41632107,0.0,2.6317947,2.4706912,0.4390527,0.23551814,0.1743172,0.10493756,inf,inf,inf,inf,1,1,1,1,2,0,2,2,1,1,1
2568156000,1684000,47.3977508,8.5456074,-0.16275294,-0.0025509463,-2.7564607,-0.022669492,-0.0033747193,0.0,0.019306956,0.027646938,-2.3252654,-2.3306503,-0.05914641,-0.009015089,0.12613459,0.0036841119,0.018149158,1.3973572,0.416348,0.0,2.8810036,2.3252654,0.42516974,0.23440132,0.16728531,0.10430472,inf,inf,inf,inf,1,1,1,1,2,0,2,2,1,1,1
2568252000,1684000,47.3977508,8.5456074,-0.16345064,-0.0024062144,-2.974732,-0.022669492,-0.0033747193,0.0,0.020861626,0.028314121,-2.2421627,-2.2467942,-0.05914641,-0.009015089,0.12613459,0.03182953,0.054003123,0.5817413,0.41646302,0.0,3.0992749,2.2421627,0.4368968,0.23562567,0.1694697,0.104929075,inf,inf,inf,inf,1,1,1,1,2,0,2,2,1,1,1
2568348000,1684000,47.3977508,8.5456074,-0.16481957,-0.0023988103,-3.187657,-0.022669492,-0.0033747193,0.0,0.021223456,0.030745951,-2.1838946,-2.188648,-0.05914641,-0.009015089,0.12613459,-0.016764438,0.0773385,0.62551063,0.41647723,0.0,3.3122,2.1838946,0.42239204,0.2338832,0.16315036,0.10411069,inf,inf,inf,inf,1,1,1,1,2,0,2,2,1,1,1
2568452000,1684000,47.3977508,8.5456074,-0.16686139,-0.002466376,-3.4117522,-0.022669492,-0.0033747193,0.0,0.019339768,0.028104711,-2.110817,-2.115929,-0.05914641,-0.009015089,0.12613459,0.002963512,-0.017918605,0.73598135,0.4161934,0.0,3.5362952,2.110817,0.43466142,0.23575611,0.1660834,0.10493529,inf,inf,inf,inf,1,1,1,1,2,0,2,2,1,1,1
2568548000,1684000,47.3977508,8.5456074,-0.16856615,-0.0031430013,-3.6128101,-0.022669492,-0.0033747193,0.0,0.020767067,0.029055998,-2.0495665,-2.0557952,-0.05914641,-0.009015089,0.12613459,-0.02379516,-0.06580966,0.6104558,0.41583872,0.0,3.737353,2.0495665,0.4204866,0.234001,0.16091646,0.104114406,inf,inf,inf,inf,1,1,1,1,2,0,2,2,1,1,1
2568652000,1684000,47.3977508,8.5456074,-0.16988385,-0.0042593456,-3.8251429,-0.022669492,-0.0033747193,0.0,0.02183989,0.027287327,-1.9971436,-2.004538,-0.05914641,-0.009015089,0.12613459,-0.0046605635,-0.03337807,0.6890194,0.41563785,0.0,3.9496858,1.9971436,0.43240434,0.23425068,0.16445605,0.10451258,inf,inf,inf,inf,1,1,1,1,2,0,2,2,1,1,1
2568748000,1684000,47.3977508,8.5456074,-0.17098469,-0.0052268193,-4.0158606,-0.022669492,-0.0033747193,0.0,0.022403551,0.029407367,-1.9452901,-1.9534973,-0.05914641,-0.009015089,0.12613459,0.011344745,-0.0070977407,0.57518476,0.41562444,0.0,4.1404033,1.9452901,0.41854593,0.234133,0.16015188,0.104129046,inf,inf,inf,inf,1,1,1,1,2,0,2,2,1,1,1
2568852000,1684000,47.3977508,8.5456074,-0.17177387,-0.0059717465,-4.217415,-0.022669492,-0.0033747193,0.0,0.025197878,0.031117229,-1.9010991,-1.9100573,-0.05914641,-0.009015089,0.12613459,0.011780691,0.008192624,0.2977587,0.4155631,0.0,4.3419576,1.9010991,0.4301847,0.23437178,0.16430905,0.104524665,inf,inf,inf,inf,1,1,1,1,2,0,2,2,1,1,1
2568948000,1684000,47.3977508,8.5456074,-0.17237383,-0.005841247,-4.399394,-0.022669492,-0.0033747193,0.0,0.024388922,0.03147265,-1.8605566,-1.8699579,-0.05914641,-0.009015089,0.12613459,0.09124201,-0.049105067,0.38482898,0.41533342,0.0,4.5239367,1.8605566,0.41662684,0.23424484,0.16067651,0.10413902,inf,inf,inf,inf,1,1,1,1,2,0,2,2,1,1,1
2569052000,1684000,47.3977508,8.5456074,-0.1726264,-0.0052358177,-4.592097,-0.022669492,-0.0033747193,0.0,0.028950812,0.030380532,-1.8237113,-1.8330985,-0.05914641,-0.009015089,0.12613459,0.077146664,-0.023927584,0.4352042,0.41482002,0.0,4.7166395,1.8237113,0.4280613,0.23449121,0.16538449,0.104540356,inf,inf,inf,inf,1,1,1,1,2,0,2,2,1,1,1
2569148000,1684000,47.3977508,8.5456074,-0.17240053,-0.0047752294,-4.7662277,-0.022669492,-0.0033747193,0.0,0.028540771,0.029718002,-1.7942715,-1.8031272,-0.05914641,-0.009015089,0.12613459,-0.015488548,0.038417034,0.2623014,0.41473284,0.0,4.8907704,1.7942715,0.41478536,0.23437248,0.16226791,0.104160085,inf,inf,inf,inf,1,1,1,1,2,0,2,2,1,1,0
2569252000,1684000,47.3977508,8.5456074,-0.1717206,-0.0043459595,-4.9513392,-0.022669492,-0.0033747193,0.0,0.029777547,0.02720493,-1.7682375,-1.7760633,-0.05914641,-0.009015089,0.12613459,0.043627083,-0.08946868,0.28172228,0.4148636,0.0,5.075882,1.7682375,0.42609075,0.23461732,0.1674357,0.104562595,inf,inf,inf,inf,1,1,1,1,2,0,2,2,1,1,0
2569348000,1684000,47.3977508,8.5456074,-0.17111523,-0.004276473,-5.119429,-0.022669492,-0.0033747193,0.0,0.028436113,0.026641175,-1.7426454,-1.7493393,-0.05914641,-0.009015089,0.12613459,0.045466788,0.011960714,0.2094237,0.41496372,0.0,5.243972,1.7426454,0.41307417,0.23450664,0.16466315,0.10418737,inf,inf,inf,inf,1,1,1,1,2,0,2,2,1,1,0
2569452000,1684000,47.3977508,8.5456074,-0.17038715,-0.0040462664,-5.29915,-0.022669492,-0.0033747193,0.0,0.027424227,0.029275626,-1.7203034,-1.7259655,-0.05914641,-0.009015089,0.12613459,0.013828386,0.050413992,0.17427838,0.41519022,0.0,5.4236927,1.7203034,0.42432392,0.23476735,0.17022955,0.10459852,inf,inf,inf,inf,1,1,1,1,2,0,2,2,1,1,0
2569548000,1684000,47.3977508,8.5456074,-0.16911146,-0.0037800686,-5.4636536,-0.022669492,-0.0033747193,0.0,0.027633574,0.030128844,-1.7047344,-1.7099698,-0.05914641,-0.009015089,0.12613459,-0.0024829858,-0.014695125,0.22114067,0.41559768,0.0,5.5881963,1.7047344,0.4115403,0.23465534,0.1676289,0.10422352,inf,inf,inf,inf,1,1,1,1,2,0,2,2,1,1,0
2569652000,1684000,47.3977508,8.5456074,-0.16719179,-0.003442613,-5.6406655,-0.022669492,-0.0033747193,0.0,0.026961448,0.028128149,-1.6856613,-1.6911219,-0.05914641,-0.009015089,0.12613459,-0.0213788,0.10446313,0.28945783,0.41592985,0.0,5.7652082,1.6856613,0.42280334,0.23490551,0.17351373,0.1046313,inf,inf,inf,inf,1,1,1,1,2,0,2,2,1,1,0
2569748000,1684000,47.3977508,8.5456074,-0.16590971,-0.00345777,-5.8019366,-0.022669492,-0.0033747193,0.0,0.027273461,0.026468866,-1.6676569,-1.6729394,-0.05914641,-0.009015089,0.12613459,0.022508034,-0.014528862,0.1866482,0.41614574,0.0,5.9264793,1.6676569,0.41022187,0.23478396,0.17094137,0.10425298,inf,inf,inf,inf,1,1,1,1,2,0,2,2,1,1,0
2569852000,1684000,47.3977508,8.5456074,-0.16457605,-0.0035868438,-5.9742103,-0.022669492,-0.0033747193,0.0,0.030184137,0.024991669,-1.6511348,-1.6556503,-0.05914641,-0.009015089,0.12613459,0.06093488,-0.10204326,0.11165719,0.4162923,0.0,6.098753,1.6511348,0.42156094,0.2350333,0.1770474,0.10466166,inf,inf,inf,inf,1,1,1,1,2,0,2,2,1,1,0
2569948000,1684000,47.3977508,8.5456074,-0.16335303,-0.0036219629,-6.131292,-0.022669492,-0.0033747193,0.0,0.029035287,0.024857422,-1.6387444,-1.6420693,-0.05914641,-0.009015089,0.12613459,-0.042776093,0.056014787,0.04405528,0.41657466,0.0,6.2558346,1.6387444,0.4091469,0.23490286,0.17434865,0.10428021,inf,inf,inf,inf,1,1,1,1,2,0,2,2,1,1,0
2570052000,1684000,47.3977508,8.5456074,-0.16218483,-0.0033172555,-6.2995057,-0.022669492,-0.0033747193,0.0,0.027570834,0.025014883,-1.6300443,-1.631343,-0.05914641,-0.009015089,0.12613459,0.022595135,-0.016444704,0.07004756,0.41669315,0.0,6.4240484,1.6300443,0.42061532,0.23515192,0.18063962,0.10469,inf,inf,inf,inf,1,1,1,1,2,0,2,2,1,1,0
2570148000,1684000,47.3977508,8.5456074,-0.16111329,-0.0030459154,-6.4541416,-0.022669492,-0.0033747193,0.0,0.023506586,0.023142455,-1.6245393,-1.6242336,-0.05914641,-0.009015089,0.12613459,0.0072546313,-0.03627567,0.17983,0.41666585,0.0,6.5786843,1.6245393,0.40833038,0.23342404,0.17775749,0.10389274,inf,inf,inf,inf,1,1,1,1,2,0,2,2,1,1,0
2570252000,1684000,47.3977508,8.5456074,-0.15997009,-0.002786174,-6.6207795,-0.022669492,-0.0033747193,0.0,0.024442315,0.022819316,-1.6149327,-1.6130338,-0.05914641,-0.009015089,0.12613459,0.023759842,-0.019370293,0.060882416,0.41659153,0.0,6.745322,1.6149327,0.41997313,0.2352788,0.18418577,0.10472372,inf,inf,inf,inf,1,1,1,1,2,0,2,2,1,1,0
2570348000,1684000,47.3977508,8.5456074,-0.15871187,-0.0028871654,-6.7734876,-0.022669492,-0.0033747193,0.0,0.02260044,0.020955317,-1.606309,-1.6028379,-0.05914641,-0.009015089,0.12613459,-0.032398723,0.018182486,0.009804963,0.41637704,0.0,6.8980303,1.606309,0.4077768,0.23353992,0.18101794,0.10392251,inf,inf,inf,inf,1,1,1,1,2,0,2,2,1,1,0
2570452000,1684000,47.3977508,8.5456074,-0.15717836,-0.0031472496,-6.9370794,-0.022669492,-0.0033747193,0.0,0.02058673,0.020177614,-1.6024925,-1.5963745,-0.05914641,-0.009015089,0.12613459,-0.13082017,-0.027860932,0.07880478,0.41610077,0.0,7.061622,1.6024925,0.41962764,0.23540628,0.18750374,0.10475902,inf,inf,inf,inf,1,1,1,1,2,0,2,2,1,1,0
2570548000,1684000,47.3977508,8.5456074,-0.15556666,-0.0034663312,-7.088395,-0.022669492,-0.0033747193,0.0,0.020873753,0.01906911,-1.5997158,-1.5920454,-0.05914641,-0.009015089,0.12613459,0.0341225,-0.046650246,0.0756923,0.41567546,0.0,7.212938,1.5997158,0.40747902,0.23367332,0.18399827,0.10396107,inf,inf,inf,inf,1,1,1,1,2,0,2,2,1,1,0
2570652000,1684000,47.3977508,8.5456074,-0.15378916,-0.0036188506,-7.2525096,-0.022669492,-0.0033747193,0.0,0.016733775,0.019263033,-1.5945393,-1.5859927,-0.05914641,-0.009015089,0.12613459,-0.10138537,-0.0322464,-0.013794749,0.41573253,0.0,7.3770523,1.5945393,0.41956007,0.23553337,0.1905287,0.10479491,inf,inf,inf,inf,1,1,1,1,2,0,2,2,1,1,0
2570748000,1684000,47.3977508,8.5456074,-0.1519598,-0.0037286018,-7.4043107,-0.022669492,-0.0033747193,0.0,0.016691118,0.018355263,-1.591121,-1.5825785,-0.05914641,-0.009015089,0.12613459,0.0107718,-0.011445201,-0.0026980413,0.41586423,0.0,7.5288534,1.591121,0.4074189,0.23379797,0.18666165,0.10399635,inf,inf,inf,inf,1,1,1,1,2,0,2,2,1,1,0
2570852000,1684000,47.3977508,8.5456074,-0.14960106,-0.003795603,-7.568089,-0.022669492,-0.0033747193,0.0,0.016541641,0.017570928,-1.581535,-1.5728701,-0.05914641,-0.009015089,0.12613459,-0.036310583,-0.039987665,0.09968783,0.4158181,0.0,7.6926317,1.581535,0.41974232,0.23405,0.19315983,0.104408674,inf,inf,inf,inf,1,1,1,1,2,0,2,2,1,1,0
2570948000,1684000,47.3977508,8.5456074,-0.14752945,-0.0030699077,-7.7188277,-0.022669492,-0.0033747193,0.0,0.017713178,0.020914484,-1.5765831,-1.5681231,-0.05914641,-0.009015089,0.12613459,-0.056014095,0.01991243,0.093698494,0.41570657,0.0,7.8433704,1.5765831,0.40757167,0.23393075,0.1889123,0.104035184,inf,inf,inf,inf,1,1,1,1,2,0,2,2,1,1,0
2571052000,1684000,47.3977508,8.5456074,-0.14544474,-0.0016114447,-7.8808403,-0.022669492,-0.0033747193,0.0,0.014473221,0.021475662,-1.5671282,-1.5583613,-0.05914641,-0.009015089,0.12613459,-0.05486479,0.011467465,0.107099295,0.41571105,0.0,8.0053835,1.5671282,0.42013818,0.23417406,0.19534995,0.104443744,inf,inf,inf,inf,1,1,1,1,2,0,2,2,1,1,0
2571148000,1684000,47.3977508,8.5456074,-0.1438353,-4.517845e-05,-8.028785,-0.022669492,-0.0033747193,0.0,0.011021241,0.022103181,-1.5665513,-1.5563972,-0.05914641,-0.009015089,0.12613459,-0.05362056,-0.055184968,-0.016259028,0.41577005,0.0,8.153328,1.5665513,0.40790522,0.23406401,0.19072132,0.1040742,inf,inf,inf,inf,1,1,1,1,2,0,2,2,1,1,0
2571252000,1684000,47.3977508,8.5456074,-0.1423894,0.0018556581,-8.188915,-0.022669492,-0.0033747193,0.0,0.008737098,0.021872308,-1.5644573,-1.5530033,-0.05914641,-0.009015089,0.12613459,0.0049914666,0.0005270449,-0.07270928,0.41580623,0.0,8.313458,1.5644573,0.42070723,0.23431599,0.1971051,0.10448669,inf,inf,inf,inf,1,1,1,1,2,0,2,2,1,1,0
2571348000,1684000,47.3977508,8.5456074,-0.14107753,0.0036259475,-8.336532,-0.022669492,-0.0033747193,0.0,0.0064908667,0.018755587,-1.5634204,-1.5508164,-0.05914641,-0.009015089,0.12613459,-0.031541754,-0.027870921,0.06919167,0.41543275,0.0,8.461075,1.5634204,0.40838513,0.2341969,0.19214883,0.10411274,inf,inf,inf,inf,1,1,1,1,2,0,2,2,1,1,0
2571452000,1684000,47.3977508,8.5456074,-0.13939822,0.005364582,-8.496316,-0.022669492,-0.0033747193,0.0,0.009157939,0.015158838,-1.5645335,-1.5507795,-0.05914641,-0.009015089,0.12613459,0.021211242,-0.004127476,0.026455147,0.41565603,0.0,8.620859,1.5645335,0.42141104,0.23444879,0.19847922,0.10452513,inf,inf,inf,inf,1,1,1,1,2,0,2,2,1,1,0
2571548000,1684000,47.3977508,8.5456074,-0.13805321,0.0071454407,-8.644349,-0.022669492,-0.0033747193,0.0,0.0065216045,0.01490624,-1.5624746,-1.5482625,-0.05914641,-0.009015089,0.12613459,-0.035593785,0.016919637,0.003607012,0.41561532,0.0,8.768892,1.5624746,0.4089784,0.23433812,0.19320129,0.1041544,inf,inf,inf,inf,1,1,1,1,2,0,2,2,1,1,0
2571652000,1684000,47.3977508,8.5456074,-0.13704482,0.009187053,-8.805024,-0.022669492,-0.0033747193,0.0,0.005305904,0.0122045595,-1.5578333,-1.5437908,-0.05914641,-0.009015089,0.12613459,0.051835902,-0.038527064,0.031477768,0.41582254,0.0,8.929567,1.5578333,0.4222101,0.23458943,0.19945084,0.104566276,inf,inf,inf,inf,1,1,1,1,2,0,2,2,1,1,0
2571748000,1684000,47.3977508,8.5456074,-0.13538432,0.011430938,-8.952589,-0.022669492,-0.0033747193,0.0,0.0048394143,0.01317791,-1.5563745,-1.5421249,-0.05914641,-0.009015089,0.12613459,-0.072558925,0.005349775,-0.0687316,0.41602194,0.0,9.077132,1.5563745,0.40965205,0.23446979,0.19387291,0.10419105,inf,inf,inf,inf,1,1,1,1,2,0,2,2,1,1,0
2571852000,1684000,47.3977508,8.5456074,-0.13316108,0.01407987,-9.112217,-0.022669492,-0.0033747193,0.0,0.0032556534,0.01103291,-1.551738,-1.5372354,-0.05914641,-0.009015089,0.12613459,0.00093811826,-0.032338254,0.045276243,0.4162252,0.0,9.23676,1.551738,0.42306638,0.23472132,0.19998302,0.104602836,inf,inf,inf,inf,1,1,1,1,2,0,2,2,1,1,0
2571948000,1684000,47.3977508,8.5456074,-0.13113765,0.016442545,-9.259274,-0.022669492,-0.0033747193,0.0,0.0020859693,0.011856566,-1.5477973,-1.5332026,-0.05914641,-0.009015089,0.12613459,-0.016240874,-0.069547035,0.13368483,0.41617322,0.0,9.383817,1.5477973,0.41037416,0.23461078,0.19417506,0.10423123,inf,inf,inf,inf,1,1,1,1,2,0,2,2,1,1,0
2572052000,1684000,47.3977508,8.5456074,-0.12891418,0.019003345,-9.417953,-0.022669492,-0.0033747193,0.0,0.0015748816,0.010767484,-1.547851,-1.5328286,-0.05914641,-0.009015089,0.12613459,0.032447297,-0.002626617,-0.000600703,0.4162576,0.0,9.542496,1.547851,0.42394608,0.23486201,0.20018518,0.10464275,inf,inf,inf,inf,1,1,1,1,2,0,2,2,1,1,0
2572148000,1684000,47.3977508,8.5456074,-0.1269704,0.021286111,-9.564213,-0.022669492,-0.0033747193,0.0,0.0019855027,0.008588244,-1.5467657,-1.5311468,-0.05914641,-0.009015089,0.12613459,0.026869383,-0.010661398,-0.025227664,0.41622716,0.0,9.688756,1.5467657,0.41111672,0.23475103,0.19415586,0.10427037,inf,inf,inf,inf,1,1,1,1,2,0,2,2,1,1,0
2572252000,1684000,47.3977508,8.5456074,-0.12499432,0.023485499,-9.721676,-0.022669492,-0.0033747193,0.0,0.0016802925,0.006294128,-1.5457984,-1.5286907,-0.05914641,-0.009015089,0.12613459,-0.06422699,-0.016811024,0.07438845,0.41621673,0.0,9.846219,1.5457984,0.4248208,0.23501046,0.20006987,0.10468516,inf,inf,inf,inf,1,1,1,1,2,0,2,2,1,1,0
2572348000,1684000,47.3977508,8.5456074,-0.12311783,0.025686612,-9.866688,-0.022669492,-0.0033747193,0.0,-0.00028802644,0.0072630523,-1.5476731,-1.5289589,-0.05914641,-0.009015089,0.12613459,-0.038861927,0.01775075,0.050410625,0.41622314,0.0,9.991231,1.5476731,0.4118559,0.23489854,0.19389132,0.10431166,inf,inf,inf,inf,1,1,1,1,2,0,2,2,1,1,0
2572452000,1684000,47.3977508,8.5456074,-0.12107618,0.028090922,-10.023167,-0.022669492,-0.0033747193,0.0,-0.0018602979,0.0043382235,-1.549597,-1.5286673,-0.05914641,-0.009015089,0.12613459,-0.010647614,0.0062615797,-0.029670073,0.4157517,0.0,10.14771,1.549597,0.42566773,0.23514856,0.19970067,0.10472194,inf,inf,inf,inf,1,1,1,1,2,0,2,2,1,1,0
2572548000,1684000,47.3977508,8.5456074,-0.11887517,0.030493848,-10.168303,-0.022669492,-0.0033747193,0.0,-0.0030440984,0.0050766305,-1.5487274,-1.526508,-0.05914641,-0.009015089,0.12613459,0.034724273,0.00029082183,0.07210019,0.41596425,0.0,10.292846,1.5487274,0.41257262,0.23343007,0.19340025,0.10392747,inf,inf,inf,inf,1,1,1,1,2,0,2,2,1,1,0
2572652000,1684000,47.3977508,8.5456074,-0.11635494,0.033369392,-10.323426,-0.022669492,-0.0033747193,0.0,-0.0053663193,0.0052166125,-1.5029148,-1.4794217,-0.05914641,-0.009015089,0.12613459,-0.016534075,-0.0496096,0.60204226,0.41613147,0.0,10.447969,1.5029148,0.4264682,0.2353035,0.19910634,0.10476539,inf,inf,inf,inf,1,1,1,1,2,0,2,2,1,1,0
2572748000,1684000,47.3977508,8.5456074,-0.113987625,0.035946105,-10.460326,-0.022669492,-0.0033747193,0.0,-0.008185256,0.002922666,-1.4473051,-1.4218858,-0.05914641,-0.009015089,0.12613459,-0.10982618,0.011700054,0.4761759,0.4160133,0.0,10.584869,1.4473051,0.41325173,0.23357221,0.19266833,0.10396483,inf,inf,inf,inf,1,1,1,1,2,0,2,2,1,1,0
2572852000,1684000,47.3977508,8.5456074,-0.11152355,0.03867549,-10.603351,-0.022669492,-0.0033747193,0.0,-0.009101376,0.002165731,-1.4081527,-1.3805445,-0.05914641,-0.009015089,0.12613459,-0.08246718,0.018657938,0.30617228,0.41595796,0.0,10.727894,1.4081527,0.42720062,0.23544785,0.19803515,0.10480227,inf,inf,inf,inf,1,1,1,1,2,0,2,2,1,1,0
2572948000,1684000,47.3977508,8.5456074,-0.108743936,0.041189577,-10.732449,-0.022669492,-0.0033747193,0.0,-0.008440585,0.0011628831,-1.3697016,-1.3409213,-0.05914641,-0.009015089,0.12613459,0.02368137,-0.021390207,0.35541597,0.4160497,0.0,10.856992,1.3697016,0.4138789,0.23372114,0.19143347,0.10400323,inf,inf,inf,inf,1,1,1,1,2,0,2,2,1,1,0
2573052000,1684000,47.3977508,8.5456074,-0.10550185,0.04375987,-10.867569,-0.022669492,-0.0033747193,0.0,-0.009104043,-0.00036256915,-1.3279917,-1.2977266,-0.05914641,-0.009015089,0.12613459,0.1001637,-0.068819076,0.2966346,0.41599363,0.0,10.992112,1.3279917,0.42784768,0.23559864,0.19677936,0.104840845,inf,inf,inf,inf,1,1,1,1,2,0,2,2,1,1,0
2573148000,1684000,47.3977508,8.5456074,-0.10365869,0.04545068,-10.988801,-0.022669492,-0.0033747193,0.0,-0.012141515,-0.001957603,-1.2907484,-1.2593814,-0.05914641,-0.009015089,0.12613459,0.03612484,-0.056509674,0.41734797,0.415913,0.0,11.113344,1.2907484,0.4414072,0.23519734,0.20172685,0.10503296,inf,inf,inf,inf,1,1,1,1,2,0,2,2,1,1,0
2573252000,1684000,47.3977508,8.5456074,-0.10086488,0.047035743,-11.115917,-0.022669492,-0.0033747193,0.0,-0.012178432,-0.0043245316,-1.2479408,-1.2154938,-0.05914641,-0.009015089,0.12613459,-0.08757218,-0.022234198,0.36378017,0.41597918,0.0,11.24046,1.2479408,0.42701414,0.23408903,0.19456,0.104397774,inf,inf,inf,inf,1,1,1,1,2,0,2,2,1,1,0
2573348000,1684000,47.3977508,8.5456074,-0.09803569,0.04828953,-11.229609,-0.022669492,-0.0033747193,0.0,-0.012817113,-0.00426341,-1.2159098,-1.1825548,-0.05914641,-0.009015089,0.12613459,-0.06586258,0.0030402387,0.3566248,0.41575158,0.0,11.354152,1.2159098,0.44046015,0.23532292,0.19941655,0.10502396,inf,inf,inf,inf,1,1,1,1,2,0,2,2,1,1,0
2573452000,1684000,47.3977508,8.5456074,-0.09520241,0.049712162,-11.349141,-0.022669492,-0.0033747193,0.0,-0.014959728,-0.0055443016,-1.1763768,-1.1421419,-0.05914641,-0.009015089,0.12613459,0.033352826,0.019001534,0.37299654,0.41590136,0.0,11.473684,1.1763768,0.4262255,0.23421949,0.19243228,0.104392126,inf,inf,inf,inf,1,1,1,1,2,0,2,2,1,1,0
2573548000,1684000,47.3977508,8.5456074,-0.09289423,0.05082016,-11.456292,-0.022669492,-0.0033747193,0.0,-0.0150712235,-0.0072071576,-1.1425909,-1.1080506,-0.05914641,-0.009015089,0.12613459,-0.024522878,-0.031287756,0.26157683,0.41572303,0.0,11.580835,1.1425909,0.43956032,0.23544413,0.19721428,0.10501454,inf,inf,inf,inf,1,1,1,1,2,0,2,2,1,1,0
2573652000,1684000,47.3977508,8.5456074,-0.08984305,0.051755626,-11.567682,-0.022669492,-0.0033747193,0.0,-0.015234229,-0.0070563043,-1.1075603,-1.071477,-0.05914641,-0.009015089,0.12613459,-0.07831947,0.025318794,0.2681054,0.4156408,0.0,11.692225,1.1075603,0.42547452,0.23434576,0.19042031,0.10438649,inf,inf,inf,inf,1,1,1,1,2,0,2,2,1,1,0
2573748000,1684000,47.3977508,8.5456074,-0.08706299,0.05232787,-11.666915,-0.022669492,-0.0033747193,0.0,-0.0140651595,-0.009581874,-1.0749742,-1.0373629,-0.05914641,-0.009015089,0.12613459,-0.08832641,0.052832104,0.2848748,0.4158014,0.0,11.791458,1.0749742,0.4387008,0.23557892,0.19512373,0.10501301,inf,inf,inf,inf,1,1,1,1,2,0,2,2,1,1,0
2573852000,1684000,47.3977508,8.5456074,-0.08395888,0.052793384,-11.771948,-0.022669492,-0.0033747193,0.0,-0.017416751,-0.011185741,-1.0467378,-1.0082238,-0.05914641,-0.009015089,0.12613459,-0.025776729,0.022318056,0.3250986,0.41578984,0.0,11.896491,1.0467378,0.42475584,0.23446763,0.18852234,0.104380734,inf,inf,inf,inf,1,1,1,1,2,0,2,2,1,1,0
2573948000,1684000,47.3977508,8.5456074,-0.08146785,0.05305906,-11.866392,-0.022669492,-0.0033747193,0.0,-0.01770852,-0.011419344,-1.0150393,-0.97623134,-0.05914641,-0.009015089,0.12613459,-0.08199762,-0.00856639,0.23675336,0.4158039,0.0,11.990935,1.0150393,0.43787667,0.23569196,0.19316049,0.10500401,inf,inf,inf,inf,1,1,1,1,2,0,2,2,1,1,0
2574052000,1684000,47.3977508,8.5456074,-0.07899427,0.053778563,-11.965172,-0.022669492,-0.0033747193,0.0,-0.019279206,-0.0092897825,-0.98394555,-0.94459635,-0.05914641,-0.009015089,0.12613459,0.038082547,0.043625973,0.26846024,0.41591245,0.0,12.089715,0.98394555,0.42406514,0.23458628,0.18674332,0.10437611,inf,inf,inf,inf,1,1,1,1,2,0,2,2,1,1,0
2574156000,1684000,47.3977508,8.5456074,-0.07717247,0.054653805,-12.060799,-0.022669492,-0.0033747193,0.0,-0.021533893,-0.009591669,-0.9550248,-0.91516906,-0.05914641,-0.009015089,0.12613459,-0.022540068,0.04549814,0.20496081,0.41588148,0.0,12.185342,0.9550248,0.4381947,0.23483191,0.1916845,0.10476666,inf,inf,inf,inf,1,1,1,1,2,0,2,2,1,1,0
2574252000,1684000,47.3977508,8.5456074,-0.07536646,0.055602726,-12.146128,-0.022669492,-0.0033747193,0.0,-0.02316436,-0.011813325,-0.9250008,-0.8844298,-0.05914641,-0.009015089,0.12613459,-0.0329086,0.049588636,0.3332505,0.41581136,0.0,12.270671,0.9250008,0.42339948,0.23470162,0.18505602,0.1043724,inf,inf,inf,inf,1,1,1,1,2,0,2,2,1,1,0
2574348000,1684000,47.3977508,8.5456074,-0.07409021,0.056385048,-12.22934,-0.022669492,-0.0033747193,0.0,-0.026199516,-0.013398428,-0.9017976,-0.8611531,-0.05914641,-0.009015089,0.12613459,-0.055558678,-0.06418276,0.21312664,0.41577864,0.0,12.353883,0.9017976,0.4363189,0.23431046,0.18957698,0.10457224,inf,inf,inf,inf,1,1,1,1,2,0,2,2,1,1,0
2574452000,1684000,47.3977508,8.5456074,-0.07271622,0.057200667,-12.316464,-0.022669492,-0.0033747193,0.0,-0.027948245,-0.013327129,-0.8726149,-0.83153605,-0.05914641,-0.009015089,0.12613459,-0.05600036,-0.04258379,0.29608232,0.415797,0.0,12.441008,0.8726149,0.42275566,0.23483157,0.18348382,0.10437764,inf,inf,inf,inf,1,1,1,1,2,0,2,2,1,1,0
2574548000,1684000,47.3977508,8.5456074,-0.07178742,0.05775902,-12.393296,-0.022669492,-0.0033747193,0.0,-0.030063994,-0.013363656,-0.84922963,-0.80677205,-0.05914641,-0.009015089,0.12613459,-0.060134374,0.042026956,0.22990069,0.41600448,0.0,12.517839,0.84922963,0.4355792,0.2344293,0.18795615,0.10457377,inf,inf,inf,inf,1,1,1,1,2,0,2,2,1,1,0
2574652000,1684000,47.3977508,8.5456074,-0.07076529,0.05843009,-12.4739685,-0.022669492,-0.0033747193,0.0,-0.027765775,-0.012134161,-0.8265407,-0.78264815,-0.05914641,-0.009015089,0.12613459,-0.013701348,0.0075887195,0.1888871,0.41586757,0.0,12.598512,0.8265407,0.42213142,0.23494121,0.18202643,0.10437635,inf,inf,inf,inf,1,1,1,1,2,0,2,2,1,1,0
2574748000,1684000,47.3977508,8.5456074,-0.06994331,0.05891513,-12.547103,-0.022669492,-0.0033747193,0.0,-0.02778014,-0.012929769,-0.80398786,-0.75972736,-0.05914641,-0.009015089,0.12613459,-0.028128425,-0.043206647,0.2096258,0.4156601,0.0,12.671646,0.80398786,0.43486273,0.23454636,0.18646207,0.10457721,inf,inf,inf,inf,1,1,1,1,2,0,2,2,1,1,0
2574852000,1684000,47.3977508,8.5456074,-0.06878747,0.05926841,-12.624509,-0.022669492,-0.0033747193,0.0,-0.027524889,-0.013554094,-0.780726,-0.73660314,-0.05914641,-0.009015089,0.12613459,-0.039714843,0.021516511,0.25207642,0.41563627,0.0,12.749052,0.780726,0.42152566,0.23506656,0.1806986,0.104384646,inf,inf,inf,inf,1,1,1,1,2,0,2,2,1,1,0
2574948000,1684000,47.3977508,8.5456074,-0.0679359,0.059510343,-12.693242,-0.022669492,-0.0033747193,0.0,-0.029145194,-0.011953263,-0.7552591,-0.71090394,-0.05914641,-0.009015089,0.12613459,-0.042648144,-0.003913529,0.2293596,0.41570818,0.0,12.817785,0.7552591,0.43416926,0.23466107,0.18509378,0.10458207,inf,inf,inf,inf,1,1,1,1,2,0,2,2,1,1,0
2575052000,1684000,47.3977508,8.5456074,-0.06735774,0.0599671,-12.764123,-0.022669492,-0.0033747193,0.0,-0.032085214,-0.010895979,-0.7351761,-0.68938786,-0.05914641,-0.009015089,0.12613459,0.020370796,0.074871905,0.13691838,0.41569793,0.0,12.888666,0.7351761,0.4209379,0.23357172,0.17945477,0.10396856,inf,inf,inf,inf,1,1,1,1,2,0,2,2,1,1,0
2575148000,1684000,47.3977508,8.5456074,-0.06728953,0.060359072,-12.827456,-0.022669492,-0.0033747193,0.0,-0.03437187,-0.011844275,-0.7172793,-0.67002517,-0.05914641,-0.009015089,0.12613459,-0.028426256,-0.050140824,0.15585868,0.4156817,0.0,12.952,0.7172793,0.4334969,0.23479149,0.18381926,0.10459632,inf,inf,inf,inf,1,1,1,1,2,0,2,2,1,1,0
2575252000,1684000,47.3977508,8.5456074,-0.067476444,0.06101799,-12.894366,-0.022669492,-0.0033747193,0.0,-0.034603387,-0.014287645,-0.6939987,-0.6457923,-0.05914641,-0.009015089,0.12613459,-0.023784595,0.03376853,0.19400473,0.4156329,0.0,13.018909,0.6939987,0.4203669,0.23369028,0.17833239,0.10397902,inf,inf,inf,inf,1,1,1,1,2,0,2,2,1,1,0
2575348000,1684000,47.3977508,8.5456074,-0.067900255,0.06150924,-12.954234,-0.022669492,-0.0033747193,0.0,-0.033845536,-0.017182264,-0.6771119,-0.62812823,-0.05914641,-0.009015089,0.12613459,0.0054915724,-0.03837685,0.1852652,0.41565272,0.0,13.078777,0.6771119,0.4328467,0.23490237,0.18269005,0.104604214,inf,inf,inf,inf,1,1,1,1,2,0,2,2,1,1,0
2575452000,1684000,47.3977508,8.5456074,-0.067820266,0.061631046,-13.016684,-0.022669492,-0.0033747193,0.0,-0.03416552,-0.018456692,-0.6559419,-0.60580283,-0.05914641,-0.009015089,0.12613459,-0.03383136,-0.05198069,0.16695446,0.4155513,0.0,13.141227,0.6559419,0.41981384,0.23380806,0.17731309,0.1039914,inf,inf,inf,inf,1,1,1,1,2,0,2,2,1,1,0
2575548000,1684000,47.3977508,8.5456074,-0.067835346,0.06142252,-13.072003,-0.022669492,-0.0033747193,0.0,-0.035149824,-0.019719925,-0.639592,-0.5880477,-0.05914641,-0.009015089,0.12613459,0.029205637,-0.016962996,0.13564153,0.4157399,0.0,13.196547,0.639592,0.4322184,0.23503011,0.18164995,0.1046217,inf,inf,inf,inf,1,1,1,1,2,0,2,2,1,1,0
2575652000,1684000,47.3977508,8.5456074,-0.067480035,0.06120481,-13.130044,-0.022669492,-0.0033747193,0.0,-0.034163225,-0.018323136,-0.6229758,-0.56983745,-0.05914641,-0.009015089,0.12613459,0.034718502,0.047773343,0.0147083765,0.41563168,0.0,13.254587,0.6229758,0.41927814,0.23392431,0.17639777,0.10400507,inf,inf,inf,inf,1,1,1,1,2,0,2,2,1,1,0
2575748000,1684000,47.3977508,8.5456074,-0.06711882,0.06118496,-13.182296,-0.022669492,-0.0033747193,0.0,-0.03360175,-0.014522729,-0.6086223,-0.5543395,-0.05914641,-0.009015089,0.12613459,-0.03393601,0.04192638,0.1500966,0.41560256,0.0,13.306839,0.6086223,0.43161228,0.23514768,0.18073814,0.10463664,inf,inf,inf,inf,1,1,1,1,2,0,2,2,1,1,0
2575852000,1684000,47.3977508,8.5456074,-0.06592819,0.06138872,-13.237526,-0.022669492,-0.0033747193,0.0,-0.03485073,-0.014422292,-0.5919535,-0.5367935,-0.05914641,-0.009015089,0.12613459,0.091365024,-0.0053647896,0.14702415,0.4157914,0.0,13.362069,0.5919535,0.41876075,0.2340567,0.17560253,0.104027756,inf,inf,inf,inf,1,1,1,1,2,0,2,2,1,1,0
2575948000,1684000,47.3977508,8.5456074,-0.06471329,0.061497808,-13.286924,-0.022669492,-0.0033747193,0.0,-0.03551937,-0.016466508,-0.5755772,-0.51972336,-0.05914641,-0.009015089,0.12613459,-0.020613696,-0.0074923495,0.09868107,0.41590002,0.0,13.411468,0.5755772,0.4310302,0.23527242,0.17993665,0.1046565,inf,inf,inf,inf,1,1,1,1,2,0,2,2,1,1,0
2576052000,1684000,47.3977508,8.5456074,-0.06357845,0.06108674,-13.338926,-0.022669492,-0.0033747193,0.0,-0.036103386,-0.016107857,-0.55988014,-0.50348604,-0.05914641,-0.009015089,0.12613459,-0.016759854,-0.011960564,0.19176489,0.41581568,0.0,13.4634695,0.55988014,0.41826275,0.23417033,0.1748957,0.10404383,inf,inf,inf,inf,1,1,1,1,2,0,2,2,1,1,0
2576148000,1684000,47.3977508,8.5456074,-0.06303836,0.060297444,-13.38613,-0.022669492,-0.0033747193,0.0,-0.036690466,-0.017282013,-0.5463177,-0.49002177,-0.05914641,-0.009015089,0.12613459,-0.041098703,0.02670581,0.20293052,0.4158135,0.0,13.5106735,0.5463177,0.4304718,0.23539673,0.17922084,0.10467791,inf,inf,inf,inf,1,1,1,1,2,0,2,2,1,1,0
2576252000,1684000,47.3977508,8.5456074,-0.06227435,0.05963763,-13.436461,-0.022669492,-0.0033747193,0.0,-0.037406515,-0.018687554,-0.52923584,-0.47390985,-0.05914641,-0.009015089,0.12613459,-0.023832768,-0.07805393,0.15423632,0.41589102,0.0,13.561005,0.52923584,0.4177844,0.23430058,0.1742816,0.104068875,inf,inf,inf,inf,1,1,1,1,2,0,2,2,1,1,0
2576348000,1684000,47.3977508,8.5456074,-0.06168727,0.059011303,-13.481331,-0.022669492,-0.0033747193,0.0,-0.037378855,-0.017705964,-0.51300305,-0.45835644,-0.05914641,-0.009015089,0.12613459,0.025043285,0.021262087,0.096986994,0.41586164,0.0,13.605874,0.51300305,0.42993826,0.2355197,0.1786013,0.104700126,inf,inf,inf,inf,1,1,1,1,2,0,2,2,1,1,0
2576452000,1684000,47.3977508,8.5456074,-0.060617223,0.058544546,-13.528161,-0.022669492,-0.0033747193,0.0,-0.03669275,-0.016260644,-0.49528885,-0.4413709,-0.05914641,-0.009015089,0.12613459,-0.05749334,-0.031223526,0.02314709,0.41578925,0.0,13.652704,0.49528885,0.41732675,0.23442118,0.17374627,0.10409093,inf,inf,inf,inf,1,1,1,1,2,0,2,2,1,1,0
2576556000,1684000,47.3977508,8.5456074,-0.059797183,0.05806376,-13.5741,-0.022669492,-0.0033747193,0.0,-0.03911025,-0.014733097,-0.48181006,-0.42904282,-0.05914641,-0.009015089,0.12613459,0.040729098,-0.044787996,0.2220897,0.41564512,0.0,13.698643,0.48181006,0.4304611,0.23467311,0.17842072,0.10449558,inf,inf,inf,inf,1,1,1,1,2,0,2,2,1,1,0
2576652000,1684000,47.3977508,8.5456074,-0.05904955,0.057998713,-13.615251,-0.022669492,-0.0033747193,0.0,-0.040559452,-0.014839798,-0.46542123,-0.41389084,-0.05914641,-0.009015089,0.12613459,-0.052068774,0.018225545,0.16567668,0.4156533,0.0,13.739794,0.46542123,0.41689017,0.2345492,0.17328617,0.104117185,inf,inf,inf,inf,1,1,1,1,2,0,2,2,1,1,0
2576748000,1684000,47.3977508,8.5456074,-0.058787905,0.05798632,-13.6552,-0.022669492,-0.0033747193,0.0,-0.040528372,-0.013573473,-0.4505383,-0.4004573,-0.05914641,-0.009015089,0.12613459,-0.031309478,-0.048761223,0.14022364,0.41558394,0.0,13.779743,0.4505383,0.4289477,0.23415019,0.17761739,0.10432374,inf,inf,inf,inf,1,1,1,1,2,0,2,2,1,1,0
2576852000,1684000,47.3977508,8.5456074,-0.058485053,0.05872366,-13.695952,-0.022669492,-0.0033747193,0.0,-0.04051866,-0.014647084,-0.43596935,-0.3861789,-0.05914641,-0.009015089,0.12613459,-0.014432989,-0.0063380385,0.15072523,0.41550228,0.0,13.820496,0.43596935,0.4164756,0.23467697,0.17290041,0.10414446,inf,inf,inf,inf,1,1,1,1,2,0,2,2,1,1,0
2576948000,1684000,47.3977508,8.5456074,-0.05855586,0.059732497,-13.731369,-0.022669492,-0.0033747193,0.0,-0.040987533,-0.013416942,-0.42443538,-0.37394208,-0.05914641,-0.009015089,0.12613459,-0.01290674,-0.0025107556,0.085988075,0.41565135,0.0,13.855912,0.42443538,0.4284918,0.23428583,0.1772405,0.10435514,inf,inf,inf,inf,1,1,1,1,2,0,2,2,1,1,0
2577052000,1684000,47.3977508,8.5456074,-0.057977792,0.060727768,-13.768585,-0.022669492,-0.0033747193,0.0,-0.04221976,-0.014131439,-0.41474533,-0.36355424,-0.05914641,-0.009015089,0.12613459,-0.18610024,-0.079884075,0.0212891,0.41567224,0.0,13.893128,0.41474533,0.4160833,0.23480383,0.17260826,0.10417204,inf,inf,inf,inf,1,1,1,1,2,0,2,2,1,1,0
2577148000,1684000,47.3977508,8.5456074,-0.057532124,0.061323836,-13.802561,-0.022669492,-0.0033747193,0.0,-0.042710986,-0.015167454,-0.4041785,-0.35297197,-0.05914641,-0.009015089,0.12613459,0.0008678325,-0.05997012,0.12956652,0.41562515,0.0,13.927104,0.4041785,0.4280644,0.23441191,0.17697342,0.104382895,inf,inf,inf,inf,1,1,1,1,2,0,2,2,1,1,0
2577252000,1684000,47.3977508,8.5456074,-0.0567867,0.061656743,-13.838024,-0.022669492,-0.0033747193,0.0,-0.041466746,-0.01534341,-0.39283824,-0.34151378,-0.05914641,-0.009015089,0.12613459,-0.0044774567,-0.06490953,0.0427952,0.41564572,0.0,13.962567,0.39283824,0.41571525,0.2333342,0.1724075,0.10378384,inf,inf,inf,inf,1,1,1,1,2,0,2,2,1,1,0
2577348000,1684000,47.3977508,8.5456074,-0.056135926,0.061545677,-13.869503,-0.022669492,-0.0033747193,0.0,-0.04104595,-0.01699374,-0.38395616,-0.3321837,-0.05914641,-0.009015089,0.12613459,0.004656824,0.062054127,0.098136246,0.4156207,0.0,13.994046,0.38395616,0.42766696,0.23454542,0.17677827,0.10441423,inf,inf,inf,inf,1,1,1,1,2,0,2,2,1,1,0
2577452000,1684000,47.3977508,8.5456074,-0.0554863,0.06118937,-13.903312,-0.022669492,-0.0033747193,0.0,-0.039994862,-0.01669962,-0.37506846,-0.32344165,-0.05914641,-0.009015089,0.12613459,0.036457464,-0.02072005,0.048108395,0.41575438,0.0,14.027855,0.37506846,0.41537273,0.23345652,0.17226717,0.10381067,inf,inf,inf,inf,1,1,1,1,2,0,2,2,1,1,0
2577548000,1684000,47.3977508,8.5456074,-0.055086143,0.060654324,-13.933664,-0.022669492,-0.0033747193,0.0,-0.039622106,-0.01593181,-0.36601913,-0.3145225,-0.05914641,-0.009015089,0.12613459,-0.022763276,0.010467421,0.0931099,0.4156454,0.0,14.0582075,0.36601913,0.4272997,0.23467869,0.17666277,0.10444608,inf,inf,inf,inf,1,1,1,1,2,0,2,2,1,1,0
2577652000,1684000,47.3977508,8.5456074,-0.054318845,0.060243133,-13.965936,-0.022669492,-0.0033747193,0.0,-0.04151199,-0.014232365,-0.3561149,-0.30520204,-0.05914641,-0.009015089,0.12613459,-0.062074747,-0.054254092,-0.033885237,0.41547185,0.0,14.090479,0.3561149,0.41505602,0.23359595,0.1721937,0.10384549,inf,inf,inf,inf,1,1,1,1,2,0,2,2,1,1,0
2577748000,1684000,47.3977508,8.5456074,-0.05392347,0.059814613,-13.995304,-0.022669492,-0.0033747193,0.0,-0.040370937,-0.014588465,-0.34636322,-0.29628742,-0.05914641,-0.009015089,0.12613459,0.004571091,-0.05032224,0.12524983,0.41559434,0.0,14.119847,0.34636322,0.42696312,0.23481108,0.17659487,0.10447776,inf,inf,inf,inf,1,1,1,1,2,0,2,2,1,1,0
2577852000,1684000,47.3977508,8.5456074,-0.053410687,0.059649557,-14.025167,-0.022669492,-0.0033747193,0.0,-0.041292794,-0.012689385,-0.3325001,-0.28257728,-0.05914641,-0.009015089,0.12613459,-0.054875154,0.04881251,0.078109086,0.41574818,0.0,14.149711,0.3325001,0.41476578,0.2337257,0.17216243,0.10387631,inf,inf,inf,inf,1,1,1,1,2,0,2,2,1,1,0
2577948000,1684000,47.3977508,8.5456074,-0.053477574,0.059538487,-14.051706,-0.022669492,-0.0033747193,0.0,-0.043762367,-0.012964822,-0.32707378,-0.2772046,-0.05914641,-0.009015089,0.12613459,0.07063372,-0.004634243,0.072926275,0.41588002,0.0,14.1762495,0.32707378,0.426657,0.23495129,0.17656858,0.10451307,inf,inf,inf,inf,1,1,1,1,2,0,2,2,1,1,0
2578052000,1684000,47.3977508,8.5456074,-0.053523265,0.0591563,-14.079609,-0.022669492,-0.0033747193,0.0,-0.043097693,-0.013979054,-0.31780866,-0.26784813,-0.05914641,-0.009015089,0.12613459,-0.009224546,0.002737181,0.10631326,0.41584632,0.0,14.204152,0.31780866,0.41450158,0.23386262,0.1721563,0.103910245,inf,inf,inf,inf,1,1,1,1,2,0,2,2,1,1,0
2578148000,1684000,47.3977508,8.5456074,-0.05374695,0.0586649,-14.104542,-0.022669492,-0.0033747193,0.0,-0.042769182,-0.011498736,-0.31066048,-0.26060447,-0.05914641,-0.009015089,0.12613459,-0.016785517,0.060608774,0.043855045,0.41600192,0.0,14.229085,0.31066048,0.42638078,0.23508129,0.17660142,0.10454388,inf,inf,inf,inf,1,1,1,1,2,0,2,2,1,1,0
2578252000,1684000,47.3977508,8.5456074,-0.055265874,0.05802389,-14.131138,-0.022669492,-0.0033747193,0.0,-0.042504508,-0.010449402,-0.30142146,-0.2517482,-0.05914641,-0.009015089,0.12613459,-0.062345736,-0.09213321,-0.015153549,0.4160305,0.0,14.255681,0.30142146,0.43982592,0.23532443,0.1814823,0.10492978,inf,inf,inf,inf,1,1,1,1,2,0,2,2,1,1,0
2578348000,1684000,47.3977508,8.5456074,-0.05585764,0.057024103,-14.15445,-0.022669492,-0.0033747193,0.0,-0.044719007,-0.0115475645,-0.2951618,-0.24524426,-0.05914641,-0.009015089,0.12613459,0.09918366,0.012286554,0.024093313,0.4158441,0.0,14.278994,0.2951618,0.42479277,0.23516949,0.17590417,0.104517095,inf,inf,inf,inf,1,1,1,1,2,0,2,2,1,1,0
2578452000,1684000,47.3977508,8.5456074,-0.055977337,0.055726435,-14.178587,-0.022669492,-0.0033747193,0.0,-0.044018164,-0.009714837,-0.28789058,-0.23738566,-0.05914641,-0.009015089,0.12613459,0.02112616,-0.017450323,0.110106535,0.41585407,0.0,14.30313,0.28789058,0.43813354,0.23539355,0.1807865,0.10489599,inf,inf,inf,inf,1,1,1,1,2,0,2,2,1,1,0
2578548000,1684000,47.3977508,8.5456074,-0.0555917,0.054304346,-14.199857,-0.022669492,-0.0033747193,0.0,-0.041885767,-0.010932484,-0.28052405,-0.22921914,-0.05914641,-0.009015089,0.12613459,0.056536537,0.015835756,-0.015071592,0.41587892,0.0,14.3244,0.28052405,0.42335692,0.23524015,0.17534904,0.10448605,inf,inf,inf,inf,1,1,1,1,2,0,2,2,1,1,0
2578652000,1684000,47.3977508,8.5456074,-0.05491249,0.052402742,-14.223353,-0.022669492,-0.0033747193,0.0,-0.041096598,-0.012010318,-0.27557537,-0.22451921,-0.05914641,-0.009015089,0.12613459,-0.04601869,0.005432786,0.07274839,0.41574222,0.0,14.347897,0.27557537,0.43661004,0.2354551,0.18024096,0.104862586,inf,inf,inf,inf,1,1,1,1,2,0,2,2,1,1,0
2578756000,1684000,47.3977508,8.5456074,-0.053974815,0.05069,-14.247352,-0.022669492,-0.0033747193,0.0,-0.04137898,-0.00955575,-0.2651084,-0.21549492,-0.05914641,-0.009015089,0.12613459,-0.024770414,0.06849187,0.148057,0.41586143,0.0,14.371895,0.2651084,0.4230538,0.23431367,0.17530525,0.10421923,inf,inf,inf,inf,1,1,1,1,2,0,2,2,1,1,0
2578852000,1684000,47.3977508,8.5456074,-0.05334657,0.04940909,-14.268197,-0.022669492,-0.0033747193,0.0,-0.039710864,-0.0078172805,-0.24724735,-0.19897063,-0.05914641,-0.009015089,0.12613459,0.041820154,0.026682988,0.19163172,0.41417056,0.0,14.39274,0.24724735,0.4352417,0.23549287,0.17982815,0.10482288,inf,inf,inf,inf,1,1,1,1,2,0,2,2,1,1,0
2578948000,1684000,47.3977508,8.5456074,-0.052090302,0.04826131,-14.288287,-0.022669492,-0.0033747193,0.0,-0.035634164,-0.013201919,-0.24100658,-0.19435571,-0.05914641,-0.009015089,0.12613459,0.017202444,-0.12063154,0.03213342,0.40161338,0.0,14.41283,0.24100658,0.42089516,0.23532748,0.17458238,0.10441238,inf,inf,inf,inf,1,1,1,1,2,0,2,2,1,1,0
2579052000,1684000,47.3977508,8.5456074,-0.05045765,0.045429382,-14.309959,-0.022669492,-0.0033747193,0.0,-0.037515208,-0.043500926,-0.23957528,-0.19476175,-0.05914641,-0.009015089,0.12613459,-0.12569377,-0.52539134,-0.057890076,0.37123427,0.0,14.434503,0.23957528,0.43401274,0.23553641,0.17944182,0.104790434,inf,inf,inf,inf,1,1,1,1,2,0,2,2,1,1,0
2579148000,1684000,47.3977508,8.5456074,-0.050970837,0.037590582,-14.32988,-0.022669492,-0.0033747193,0.0,-0.06758247,-0.11083078,-0.24204682,-0.19857365,-0.05914641,-0.009015089,0.12613459,-0.5023151,-0.91490287,-0.057748515,0.32863843,0.0,14.454423,0.24204682,0.4197354,0.23537464,0.17407575,0.1043835,inf,inf,inf,inf,1,1,1,1,2,0,2,2,1,1,0
2579252000,1684000,47.3977508,8.5456074,-0.057535388,0.01862026,-14.35247,-0.022669492,-0.0033747193,0.0,-0.13925761,-0.23655921,-0.24057783,-0.19917509,-0.05914641,-0.009015089,0.12613459,-0.8587782,-1.4173096,0.05080085,0.26927868,0.0,14.477014,0.24057783,0.4326264,0.23557645,0.17867832,0.10475787,inf,inf,inf,inf,1,1,1,1,2,0,2,2,1,1,0
2579348000,1684000,47.3977508,8.5456074,-0.071331784,-0.011569992,-14.373222,-0.022669492,-0.0033747193,0.0,-0.2371362,-0.4002073,-0.23350483,-0.19414856,-0.05914641,-0.009015089,0.12613459,-1.1283237,-1.8642282,0.06825849,0.20618358,0.0,14.497766,0.23350483,0.41855878,0.2354095,0.17345786,0.10434006,inf,inf,inf,inf,1,1,1,1,2,0,2,2,1,1,0
2579452000,1684000,47.3977508,8.5456074,-0.09791073,-0.06297514,-14.394425,-0.022669492,-0.0033747193,0.0,-0.36576316,-0.6124857,-0.21639284,-0.17887372,-0.05914641,-0.009015089,0.12613459,-1.3128322,-2.1849368,0.25303566,0.1334058,0.0,14.518969,0.21639284,0.43138,0.2356207,0.17805316,0.10468949,inf,inf,inf,inf,1,1,1,1,2,0,2,2,1,1,0
2579548000,1684000,47.3977508,8.5456074,-0.13318641,-0.12865391,-14.411879,-0.022669492,-0.0033747193,0.0,-0.49103963,-0.82601494,-0.20446287,-0.16784735,-0.05914641,-0.009015089,0.12613459,-1.3700111,-2.3210945,0.16891117,0.06447864,0.0,14.536422,0.20446287,0.41749913,0.23546329,0.17292821,0.10423411,inf,inf,inf,inf,1,1,1,1,2,0,2,2,1,1,0
2579652000,1684000,47.3977508,8.5456074,-0.18434137,-0.22121961,-14.429913,-0.022669492,-0.0033747193,0.0,-0.62994003,-1.0583742,-0.19091728,-0.15565783,-0.05914641,-0.009015089,0.12613459,-1.2792963,-2.371987,0.1267055,-0.011285901,0.0,14.554456,0.19091728,0.43025362,0.23566854,0.17754297,0.10453279,inf,inf,inf,inf,1,1,1,1,2,0,2,2,1,1,0
2579748000,1684000,47.3977508,8.5456074,-0.24263844,-0.32592055,-14.446292,-0.022669492,-0.0033747193,0.0,-0.7514479,-1.2667928,-0.181253,-0.1478579,-0.05914641,-0.009015089,0.12613459,-1.3240831,-2.209381,0.1650173,-0.082678005,0.0,14.570835,0.181253,0.4165394,0.23389179,0.17258762,0.103623495,inf,inf,inf,inf,1,1,1,1,2,0,2,2,1,1,0
2579852000,1684000,47.3977508,8.5456074,-0.31803563,-0.46049225,-14.463346,-0.022669492,-0.0033747193,0.0,-0.87834233,-1.4838469,-0.16857281,-0.13745444,-0.05914641,-0.009015089,0.12613459,-1.1810846,-2.0754704,0.10930932,-0.16123676,0.0,14.587889,0.16857281,0.42923313,0.23571014,0.17732456,0.104323305,inf,inf,inf,inf,1,1,1,1,2,0,2,2,1,1,0
2579948000,1684000,47.3977508,8.5456074,-0.39818192,-0.60440105,-14.478708,-0.022669492,-0.0033747193,0.0,-0.9895569,-1.6802038,-0.15831304,-0.12973943,-0.05914641,-0.009015089,0.12613459,-1.1294538,-2.0290327,0.10674446,-0.23450443,0.0,14.603251,0.15831304,0.4156676,0.23391828,0.17251961,0.10340231,inf,inf,inf,inf,1,1,1,1,2,0,2,2,1,1,0
2580052000,1684000,47.3977508,8.5456074,-0.4964956,-0.7809084,-14.494368,-0.022669492,-0.0033747193,0.0,-1.1017313,-1.8784387,-0.147497,-0.12153907,-0.05914641,-0.009015089,0.12613459,-1.1037513,-1.9149418,0.08809938,-0.31460172,0.0,14.618911,0.147497,0.4283102,0.23571551,0.1773278,0.10408774,inf,inf,inf,inf,1,1,1,1,2,0,2,2,1,1,0
2580148000,1684000,47.3977508,8.5456074,-0.5967156,-0.96218365,-14.507435,-0.022669492,-0.0033747193,0.0,-1.2029284,-2.053038,-0.13689557,-0.11270543,-0.05914641,-0.009015089,0.12613459,-1.1130966,-1.8098116,0.10393932,-0.38924024,0.0,14.631978,0.13689557,0.41487756,0.23392677,0.17260866,0.10317135,inf,inf,inf,inf,1,1,1,1,2,0,2,2,1,1,0
2580252000,1684000,47.3977508,8.5456074,-0.71611387,-1.1777678,-14.521144,-0.022669492,-0.0033747193,0.0,-1.3077083,-2.234791,-0.12940085,-0.1073179,-0.05914641,-0.009015089,0.12613459,-1.0025907,-1.8135979,0.11829845,-0.47011238,0.0,14.645687,0.12940085,0.4274778,0.23571976,0.17747292,0.103855774,inf,inf,inf,inf,1,1,1,1,2,0,2,2,1,1,0
2580348000,1684000,47.3977508,8.5456074,-0.83557796,-1.3945689,-14.533033,-0.022669492,-0.0033747193,0.0,-1.4008496,-2.3962831,-0.1221411,-0.10178499,-0.05914641,-0.009015089,0.12613459,-1.023036,-1.7371137,0.1837546,-0.5449601,0.0,14.657577,0.1221411,0.41416353,0.23392588,0.17284907,0.10294553,inf,inf,inf,inf,1,1,1,1,2,0,2,2,1,1,0
2580452000,1684000,47.3977508,8.5456074,-0.97521746,-1.6479015,-14.545353,-0.022669492,-0.0033747193,0.0,-1.497067,-2.5665882,-0.11480178,-0.09624653,-0.05914641,-0.009015089,0.12613459,-0.9341128,-1.664901,0.09929854,-0.62642044,0.0,14.669896,0.11480178,0.42673057,0.23408651,0.17778392,0.10320913,inf,inf,inf,inf,1,1,1,1,2,0,2,2,1,1,0
2580548000,1684000,47.3977508,8.5456074,-1.1143535,-1.8991396,-14.556789,-0.022669492,-0.0033747193,0.0,-1.5864822,-2.7194877,-0.113064624,-0.096511565,-0.05914641,-0.009015089,0.12613459,-0.9416921,-1.5215675,0.07399264,-0.7019074,0.0,14.681333,0.113064624,0.4135212,0.23391704,0.17323306,0.10273357,inf,inf,inf,inf,1,1,1,1,2,0,2,2,1,1,0
2580652000,1684000,47.3977508,8.5456074,-1.2759498,-2.1890101,-14.568577,-0.022669492,-0.0033747193,0.0,-1.6793572,-2.881025,-0.10378406,-0.089137055,-0.05914641,-0.009015089,0.12613459,-0.92811805,-1.6437318,0.016532836,-0.7836567,0.0,14.69312,0.10378406,0.42606363,0.23405798,0.17826535,0.10299913,inf,inf,inf,inf,1,1,1,1,2,0,2,2,1,1,0
2580748000,1684000,47.3977508,8.5456074,-1.4343047,-2.472814,-14.578311,-0.022669492,-0.0033747193,0.0,-1.763524,-3.021154,-0.09229473,-0.0789815,-0.05914641,-0.009015089,0.12613459,-0.84368044,-1.4326248,0.15958677,-0.8609009,0.0,14.702854,0.09229473,0.41292614,0.23387687,0.1737362,0.10253091,inf,inf,inf,inf,1,1,1,1,2,0,2,2,1,1,0
2580852000,1684000,47.3977508,8.5456074,-1.6157036,-2.795575,-14.587401,-0.022669492,-0.0033747193,0.0,-1.856395,-3.1513274,-0.08098622,-0.0688164,-0.05914641,-0.009015089,0.12613459,-0.9045066,-1.1055822,0.16816425,-0.9463512,0.0,14.711945,0.08098622,0.42547312,0.23401701,0.17892343,0.10280948,inf,inf,inf,inf,1,1,1,1,2,0,2,2,1,1,0
2580948000,1684000,47.3977508,8.5456074,-1.792075,-3.105213,-14.594566,-0.022669492,-0.0033747193,0.0,-1.937095,-3.243531,-0.07039945,-0.058996297,-0.05914641,-0.009015089,0.12613459,-0.88439447,-0.73309565,0.12913159,-1.0259876,0.0,14.71911,0.07039945,0.4124176,0.23382549,0.17441788,0.10235224,inf,inf,inf,inf,1,1,1,1,2,0,2,2,1,1,0
2581052000,1684000,47.3977508,8.5456074,-1.9923453,-3.4496348,-14.601384,-0.022669492,-0.0033747193,0.0,-2.015482,-3.3141277,-0.060142417,-0.049668256,-0.05914641,-0.009015089,0.12613459,-0.65099674,-0.5116253,0.13361311,-1.1121213,0.0,14.725927,0.060142417,0.42495364,0.23394156,0.17967601,0.102644496,inf,inf,inf,inf,1,1,1,1,2,0,2,2,1,1,0
2581148000,1684000,47.3977508,8.5456074,-2.183458,-3.774601,-14.606472,-0.022669492,-0.0033747193,0.0,-2.068295,-3.3502834,-0.050940055,-0.041080818,-0.05914641,-0.009015089,0.12613459,-0.5379531,-0.23961252,-0.015206634,-1.1910963,0.0,14.731015,0.050940055,0.41196948,0.23375121,0.17517687,0.1022171,inf,inf,inf,inf,1,1,1,1,2,0,2,2,1,1,0
2581252000,1684000,47.3977508,8.5456074,-2.3955445,-4.1304417,-14.611399,-0.022669492,-0.0033747193,0.0,-2.1025832,-3.3623195,-0.053227343,-0.043650847,-0.05914641,-0.009015089,0.12613459,-0.21457765,-0.032969516,0.006059184,-1.2752476,0.0,14.735942,0.053227343,0.42450076,0.23385634,0.18047217,0.10253623,inf,inf,inf,inf,1,1,1,1,2,0,2,2,1,1,0
2581348000,1684000,47.3977508,8.5456074,-2.594908,-4.4621,-14.617117,-0.022669492,-0.0033747193,0.0,-2.1147273,-3.3606944,-0.060514126,-0.051885795,-0.05914641,-0.009015089,0.12613459,-0.059286594,0.050285596,-0.08811335,-1.3507807,0.0,14.74166,0.060514126,0.41157866,0.23367067,0.17600557,0.102137394,inf,inf,inf,inf,1,1,1,1,2,0,2,2,1,1,0
2581452000,1684000,47.3977508,8.5456074,-2.813045,-4.822521,-14.624071,-0.022669492,-0.0033747193,0.0,-2.1214209,-3.3529267,-0.065797016,-0.058145963,-0.05914641,-0.009015089,0.12613459,-0.027446773,0.12830155,-0.018842516,-1.4314243,0.0,14.748614,0.065797016,0.42408967,0.23380356,0.18138649,0.10248875,inf,inf,inf,inf,1,1,1,1,2,0,2,2,1,1,0
2581548000,1684000,47.3977508,8.5456074,-3.0159786,-5.1570687,-14.629776,-0.022669492,-0.0033747193,0.0,-2.1228547,-3.3524742,-0.06345217,-0.055874333,-0.05914641,-0.009015089,0.12613459,0.07831468,0.00029150394,-0.06827991,-1.5057164,0.0,14.754319,0.06345217,0.41124386,0.23363325,0.1770903,0.10210704,inf,inf,inf,inf,1,1,1,1,2,0,2,2,1,1,0
