timestamp,ref_timestamp,ref_lat,ref_lon,x,y,z,delta_xy[0],delta_xy[1],delta_z,vx,vy,vz,z_deriv,delta_vxy[0],delta_vxy[1],delta_vz,ax,ay,az,yaw,ref_alt,dist_bottom,dist_bottom_rate,eph,epv,evh,evv,vxy_max,vz_max,hagl_min,hagl_max,xy_valid,z_valid,v_xy_valid,v_z_valid,xy_reset_counter,z_reset_counter,vxy_reset_counter,vz_reset_counter,xy_global,z_global,dist_bottom_valid
2564256000,0,47.3977508,8.5456074,-0.07783645,0.0,0.72598267,0.0,0.0,0.0,0.0,0.0,0.0,0.0,0.0,0.0,0.0,0.0,0.0,0.0,0.42557696,488.83002,0.0,0.0,0.0,0.0,0.0,0.0,inf,inf,inf,inf,1,1,1,1,0,0,0,0,1,1,0
2564356000,0,47.3977508,8.5456074,-0.07783645,0.0,0.72598267,0.0,0.0,0.0,0.0,0.0,0.0,0.0,0.0,0.0,0.0,0.0,0.0,0.0,0.42557713,488.83002,0.0,0.0,0.0,0.0,0.0,0.0,inf,inf,inf,inf,1,1,1,1,0,0,0,0,1,1,0
2564452000,0,47.3977508,8.5456074,-0.07783645,0.0,0.72598267,0.0,0.0,0.0,0.0,0.0,0.0,0.0,0.0,0.0,0.0,0.0,0.0,0.0,0.42557693,488.83002,0.0,0.0,0.0,0.0,0.0,0.0,inf,inf,inf,inf,1,1,1,1,0,0,0,0,1,1,0
2564556000,0,47.3977508,8.5456074,-0.07783645,0.0,0.72598267,0.0,0.0,0.0,0.0,0.0,0.0,0.0,0.0,0.0,0.0,0.0,0.0,0.0,0.425577,488.83002,0.0,0.0,0.0,0.0,0.0,0.0,inf,inf,inf,inf,1,1,1,1,0,0,0,0,1,1,0
2564652000,0,47.3977508,8.5456074,-0.07783645,0.0,0.72598267,0.0,0.0,0.0,0.0,0.0,0.0,0.0,0.0,0.0,0.0,0.0,0.0,0.0,0.4255771,488.83002,0.0,0.0,0.0,0.0,0.0,0.0,inf,inf,inf,inf,1,1,1,1,0,0,0,0,1,1,0
2564756000,0,47.3977508,8.5456074,-0.07783645,0.0,0.72598267,0.0,0.0,0.0,0.0,0.0,0.0,0.0,0.0,0.0,0.0,0.0,0.0,0.0,0.4255769,488.83002,0.0,0.0,0.0,0.0,0.0,0.0,inf,inf,inf,inf,1,1,1,1,0,0,0,0,1,1,0
2564856000,0,47.3977508,8.5456074,-0.07783645,0.0,0.72598267,0.0,0.0,0.0,0.0,0.0,0.0,0.0,0.0,0.0,0.0,0.0,0.0,0.0,0.42557698,488.83002,0.0,0.0,0.0,0.0,0.0,0.0,inf,inf,inf,inf,1,1,1,1,0,0,0,0,1,1,0
2564956000,0,47.3977508,8.5456074,-0.07783645,0.0,0.72598267,0.0,0.0,0.0,0.0,0.0,0.0,0.0,0.0,0.0,0.0,0.0,0.0,0.0,0.4255771,488.83002,0.0,0.0,0.0,0.0,0.0,0.0,inf,inf,inf,inf,1,1,1,1,0,0,0,0,1,1,0
2565052000,0,47.3977508,8.5456074,-0.07783645,0.0,0.72598267,0.0,0.0,0.0,0.0,0.0,0.0,0.0,0.0,0.0,0.0,0.0,0.0,0.0,0.4255767,488.83002,0.0,0.0,0.0,0.0,0.0,0.0,inf,inf,inf,inf,1,1,1,1,0,0,0,0,1,1,0
2565156000,0,47.3977508,8.5456074,-0.07783645,0.0,0.72598267,0.0,0.0,0.0,0.0,0.0,0.0,0.0,0.0,0.0,0.0,0.0,0.0,0.0,0.42557684,488.83002,0.0,0.0,0.0,0.0,0.0,0.0,inf,inf,inf,inf,1,1,1,1,0,0,0,0,1,1,0
2565256000,0,47.3977508,8.5456074,-0.07783645,0.0,0.72598267,0.0,0.0,0.0,0.0,0.0,0.0,0.0,0.0,0.0,0.0,0.0,0.0,0.0,0.425577,488.83002,0.0,0.0,0.0,0.0,0.0,0.0,inf,inf,inf,inf,1,1,1,1,0,0,0,0,1,1,0
2565356000,0,47.3977508,8.5456074,-0.07783645,0.0,0.72598267,0.0,0.0,0.0,0.0,0.0,0.0,0.0,0.0,0.0,0.0,0.0,0.0,0.0,0.4255771,488.83002,0.0,0.0,0.0,0.0,0.0,0.0,inf,inf,inf,inf,1,1,1,1,0,0,0,0,1,1,0
2565456000,0,47.3977508,8.5456074,-0.07783645,0.0,0.72598267,0.0,0.0,0.0,0.0,0.0,0.0,0.0,0.0,0.0,0.0,0.0,0.0,0.0,0.4255771,488.83002,0.0,0.0,0.0,0.0,0.0,0.0,inf,inf,inf,inf,1,1,1,1,0,0,0,0,1,1,0
2565556000,0,47.3977508,8.5456074,-0.07783645,0.0,0.72598267,0.0,0.0,0.0,0.0,0.0,0.0,0.0,0.0,0.0,0.0,0.0,0.0,0.0,0.425577,488.83002,0.0,0.0,0.0,0.0,0.0,0.0,inf,inf,inf,inf,1,1,1,1,0,0,0,0,1,1,0
2565656000,0,47.3977508,8.5456074,-0.07783645,0.0,0.72598267,0.0,0.0,0.0,0.0,0.0,0.0,0.0,0.0,0.0,0.0,0.0,0.0,0.0,0.4255771,488.83002,0.0,0.0,0.0,0.0,0.0,0.0,inf,inf,inf,inf,1,1,1,1,0,0,0,0,1,1,0
2565756000,0,47.3977508,8.5456074,-0.07783645,0.0,0.72598267,0.0,0.0,0.0,0.0,0.0,0.0,0.0,0.0,0.0,0.0,0.0,0.0,0.0,0.42557704,488.83002,0.0,0.0,0.0,0.0,0.0,0.0,inf,inf,inf,inf,1,1,1,1,0,0,0,0,1,1,0
2565856000,0,47.3977508,8.5456074,-0.07783645,0.0,0.72598267,0.0,0.0,0.0,0.0,0.0,0.0,0.0,0.0,0.0,0.0,0.0,0.0,0.0,0.4255771,488.83002,0.0,0.0,0.0,0.0,0.0,0.0,inf,inf,inf,inf,1,1,1,1,0,0,0,0,1,1,0
2565956000,0,47.3977508,8.5456074,-0.07783645,0.0,0.72598267,0.0,0.0,0.0,0.0,0.0,0.0,0.0,0.0,0.0,0.0,0.0,0.0,0.0,0.4255771,488.83002,0.0,0.0,0.0,0.0,0.0,0.0,inf,inf,inf,inf,1,1,1,1,0,0,0,0,1,1,0
2566056000,0,47.3977508,8.5456074,-0.07783645,0.0,0.72598267,0.0,0.0,0.0,0.0,0.0,0.0,0.0,0.0,0.0,0.0,0.0,0.0,0.0,0.42557773,488.83002,0.0,0.0,0.0,0.0,0.0,0.0,inf,inf,inf,inf,1,1,1,1,0,0,0,0,1,1,0
2566152000,0,47.3977508,8.5456074,-0.07783645,0.0,0.72198486,0.0,0.0,0.0,-0.01,0.0,-0.089999996,0.0,0.0,0.0,0.0,0.0,0.0,0.0,0.42572388,488.83002,0.0,0.0,0.0,0.0,0.0,0.0,inf,inf,inf,inf,1,1,1,1,0,0,0,0,1,1,0
2566256000,0,47.3977508,8.5456074,-0.08895594,0.0,0.7039795,0.0,0.0,0.0,-0.04,-0.01,-0.22,0.0,0.0,0.0,0.0,0.0,0.0,0.0,0.4257302,488.83002,0.0,0.0,0.0,0.0,0.0,0.0,inf,inf,inf,inf,1,1,1,1,0,0,0,0,1,1,0
2566356000,0,47.3977508,8.5456074,-0.08895594,0.0,0.6749878,0.0,0.0,0.0,-0.08,-0.03,-0.35,0.0,0.0,0.0,0.0,0.0,0.0,0.0,0.4254697,488.83002,0.0,0.0,0.0,0.0,0.0,0.0,inf,inf,inf,inf,1,1,1,1,0,0,0,0,1,1,0
2566456000,0,47.3977508,8.5456074,-0.10007543,-0.0075268387,0.6329956,0.0,0.0,0.0,-0.099999994,-0.03,-0.48,0.0,0.0,0.0,0.0,0.0,0.0,0.0,0.425283,488.83002,0.0,0.0,0.0,0.0,0.0,0.0,inf,inf,inf,inf,1,1,1,1,0,0,0,0,1,1,0
2566556000,0,47.3977508,8.5456074,-0.11119492,-0.0075268387,0.5799866,0.0,0.0,0.0,-0.11,-0.04,-0.61,0.0,0.0,0.0,0.0,0.0,0.0,0.0,0.42507026,488.83002,0.0,0.0,0.0,0.0,0.0,0.0,inf,inf,inf,inf,1,1,1,1,0,0,0,0,1,1,0
2566656000,0,47.3977508,8.5456074,-0.122314416,-0.015053677,0.5090027,0.0,0.0,0.0,-0.11,-0.04,-0.74,0.0,0.0,0.0,0.0,0.0,0.0,0.0,0.42484587,488.83002,0.0,0.0,0.0,0.0,0.0,0.0,inf,inf,inf,inf,1,1,1,1,0,0,0,0,1,1,0
2566752000,0,47.3977508,8.5456074,-0.13343391,-0.015053677,0.43099976,0.0,0.0,0.0,-0.099999994,-0.03,-0.85999995,0.0,0.0,0.0,0.0,0.0,0.0,0.0,0.42465433,488.83002,0.0,0.0,0.0,0.0,0.0,0.0,inf,inf,inf,inf,1,1,1,1,0,0,0,0,1,1,0
2566856000,0,47.3977508,8.5456074,-0.14455341,-0.022580517,0.3330078,0.0,0.0,0.0,-0.089999996,-0.03,-1.0,0.0,0.0,0.0,0.0,0.0,0.0,0.0,0.42453352,488.83002,0.0,0.0,0.0,0.0,0.0,0.0,inf,inf,inf,inf,1,1,1,1,0,0,0,0,1,1,0
2566956000,0,47.3977508,8.5456074,-0.1556729,-0.022580517,0.22598267,0.0,0.0,0.0,-0.08,-0.03,-1.13,0.0,0.0,0.0,0.0,0.0,0.0,0.0,0.42456353,488.83002,0.0,0.0,0.0,0.0,0.0,0.0,inf,inf,inf,inf,1,1,1,1,0,0,0,0,1,1,0
2567056000,0,47.3977508,8.5456074,-0.1556729,-0.030107355,0.10598755,0.0,0.0,0.0,-0.07,-0.03,-1.26,0.0,0.0,0.0,0.0,0.0,0.0,0.0,0.42442983,488.83002,0.0,0.0,0.0,0.0,0.0,0.0,inf,inf,inf,inf,1,1,1,1,0,0,0,0,1,1,0
2567156000,0,47.3977508,8.5456074,-0.1667924,-0.030107355,-0.028015137,0.0,0.0,0.0,-0.07,-0.02,-1.39,0.0,0.0,0.0,0.0,0.0,0.0,0.0,0.42432922,488.83002,0.0,0.0,0.0,0.0,0.0,0.0,inf,inf,inf,inf,1,1,1,1,0,0,0,0,1,1,0
2567256000,0,47.3977508,8.5456074,-0.17791188,-0.030107355,-0.17501831,0.0,0.0,0.0,-0.06,-0.02,-1.52,0.0,0.0,0.0,0.0,0.0,0.0,0.0,0.42422828,488.83002,0.0,0.0,0.0,0.0,0.0,0.0,inf,inf,inf,inf,1,1,1,1,0,0,0,0,1,1,0
2567356000,0,47.3977508,8.5456074,-0.17791188,-0.037634194,-0.3340149,0.0,0.0,0.0,-0.049999997,-0.02,-1.65,0.0,0.0,0.0,0.0,0.0,0.0,0.0,0.42419755,488.83002,0.0,0.0,0.0,0.0,0.0,0.0,inf,inf,inf,inf,1,1,1,1,0,0,0,0,1,1,0
2567456000,0,47.3977508,8.5456074,-0.18903138,-0.037634194,-0.50701904,0.0,0.0,0.0,-0.04,-0.01,-1.78,0.0,0.0,0.0,0.0,0.0,0.0,0.0,0.42424005,488.83002,0.0,0.0,0.0,0.0,0.0,0.0,inf,inf,inf,inf,1,1,1,1,0,0,0,0,1,1,0
2567552000,0,47.3977508,8.5456074,-0.18903138,-0.037634194,-0.684021,0.0,0.0,0.0,-0.04,-0.01,-1.9,0.0,0.0,0.0,0.0,0.0,0.0,0.0,0.42428902,488.83002,0.0,0.0,0.0,0.0,0.0,0.0,inf,inf,inf,inf,1,1,1,1,0,0,0,0,1,1,0
2567652000,0,47.3977508,8.5456074,-0.18903138,-0.037634194,-0.88201904,0.0,0.0,0.0,-0.03,-0.01,-2.03,0.0,0.0,0.0,0.0,0.0,0.0,0.0,0.42430028,488.83002,0.0,0.0,0.0,0.0,0.0,0.0,inf,inf,inf,inf,1,1,1,1,0,0,0,0,1,1,0
2567756000,0,47.3977508,8.5456074,-0.20015086,-0.045161035,-1.1010132,0.0,0.0,0.0,-0.03,0.0,-2.1699998,0.0,0.0,0.0,0.0,0.0,0.0,0.0,0.4242833,488.83002,0.0,0.0,0.0,0.0,0.0,0.0,inf,inf,inf,inf,1,1,1,1,0,0,0,0,1,1,0
2567856000,0,47.3977508,8.5456074,-0.20015086,-0.045161035,-1.3250122,0.0,0.0,0.0,-0.02,0.0,-2.3,0.0,0.0,0.0,0.0,0.0,0.0,0.0,0.4242088,488.83002,0.0,0.0,0.0,0.0,0.0,0.0,inf,inf,inf,inf,1,1,1,1,0,0,0,0,1,1,0
2567956000,0,47.3977508,8.5456074,-0.20015086,-0.045161035,-1.5620117,0.0,0.0,0.0,-0.02,0.0,-2.4299998,0.0,0.0,0.0,0.0,0.0,0.0,0.0,0.42406213,488.83002,0.0,0.0,0.0,0.0,0.0,0.0,inf,inf,inf,inf,1,1,1,1,0,0,0,0,1,1,0
2568056000,0,47.3977508,8.5456074,-0.20015086,-0.045161035,-1.809021,0.0,0.0,0.0,-0.01,0.0,-2.46,0.0,0.0,0.0,0.0,0.0,0.0,0.0,0.42389885,488.83002,0.0,0.0,0.0,0.0,0.0,0.0,inf,inf,inf,inf,1,1,1,1,0,0,0,0,1,1,0
2568156000,0,47.3977508,8.5456074,-0.21127036,-0.045161035,-2.0480042,0.0,0.0,0.0,-0.01,0.0,-2.31,0.0,0.0,0.0,0.0,0.0,0.0,0.0,0.42373744,488.83002,0.0,0.0,0.0,0.0,0.0,0.0,inf,inf,inf,inf,1,1,1,1,0,0,0,0,1,1,0
2568252000,0,47.3977508,8.5456074,-0.21127036,-0.045161035,-2.2659912,0.0,0.0,0.0,-0.01,0.0,-2.23,0.0,0.0,0.0,0.0,0.0,0.0,0.0,0.4236017,488.83002,0.0,0.0,0.0,0.0,0.0,0.0,inf,inf,inf,inf,1,1,1,1,0,0,0,0,1,1,0
2568356000,0,47.3977508,8.5456074,-0.21127036,-0.045161035,-2.4869995,0.0,0.0,0.0,0.0,0.0,-2.1699998,0.0,0.0,0.0,0.0,0.0,0.0,0.0,0.42326927,488.83002,0.0,0.0,0.0,0.0,0.0,0.0,inf,inf,inf,inf,1,1,1,1,0,0,0,0,1,1,0
2568456000,0,47.3977508,8.5456074,-0.21127036,-0.045161035,-2.709015,0.0,0.0,0.0,0.0,0.0,-2.09,0.0,0.0,0.0,0.0,0.0,0.0,0.0,0.42302436,488.83002,0.0,0.0,0.0,0.0,0.0,0.0,inf,inf,inf,inf,1,1,1,1,0,0,0,0,1,1,0
2568556000,0,47.3977508,8.5456074,-0.21127036,-0.045161035,-2.9150085,0.0,0.0,0.0,0.0,0.0,-2.03,0.0,0.0,0.0,0.0,0.0,0.0,0.0,0.42289048,488.83002,0.0,0.0,0.0,0.0,0.0,0.0,inf,inf,inf,inf,1,1,1,1,0,0,0,0,1,1,0
2568656000,0,47.3977508,8.5456074,-0.21127036,-0.045161035,-3.1159973,0.0,0.0,0.0,0.0,0.0,-1.9799999,0.0,0.0,0.0,0.0,0.0,0.0,0.0,0.4228391,488.83002,0.0,0.0,0.0,0.0,0.0,0.0,inf,inf,inf,inf,1,1,1,1,0,0,0,0,1,1,0
2568756000,0,47.3977508,8.5456074,-0.21127036,-0.045161035,-3.3120117,0.0,0.0,0.0,0.0,0.0,-1.93,0.0,0.0,0.0,0.0,0.0,0.0,0.0,0.4227418,488.83002,0.0,0.0,0.0,0.0,0.0,0.0,inf,inf,inf,inf,1,1,1,1,0,0,0,0,1,1,0
2568856000,0,47.3977508,8.5456074,-0.21127036,-0.045161035,-3.5030212,0.0,0.0,0.0,0.0,0.0,-1.88,0.0,0.0,0.0,0.0,0.0,0.0,0.0,0.4226527,488.83002,0.0,0.0,0.0,0.0,0.0,0.0,inf,inf,inf,inf,1,1,1,1,0,0,0,0,1,1,0
2568952000,0,47.3977508,8.5456074,-0.21127036,-0.045161035,-3.6820068,0.0,0.0,0.0,0.01,0.0,-1.8399999,0.0,0.0,0.0,0.0,0.0,0.0,0.0,0.42262894,488.83002,0.0,0.0,0.0,0.0,0.0,0.0,inf,inf,inf,inf,1,1,1,1,0,0,0,0,1,1,0
2569052000,0,47.3977508,8.5456074,-0.21127036,-0.037634194,-3.8650208,0.0,0.0,0.0,0.01,0.0,-1.81,0.0,0.0,0.0,0.0,0.0,0.0,0.0,0.4227316,488.83002,0.0,0.0,0.0,0.0,0.0,0.0,inf,inf,inf,inf,1,1,1,1,0,0,0,0,1,1,0
2569152000,0,47.3977508,8.5456074,-0.20015086,-0.037634194,-4.0440063,0.0,0.0,0.0,0.01,0.0,-1.77,0.0,0.0,0.0,0.0,0.0,0.0,0.0,0.42303714,488.83002,0.0,0.0,0.0,0.0,0.0,0.0,inf,inf,inf,inf,1,1,1,1,0,0,0,0,1,1,0
2569256000,0,47.3977508,8.5456074,-0.20015086,-0.037634194,-4.220001,0.0,0.0,0.0,0.01,0.0,-1.74,0.0,0.0,0.0,0.0,0.0,0.0,0.0,0.42327327,488.83002,0.0,0.0,0.0,0.0,0.0,0.0,inf,inf,inf,inf,1,1,1,1,0,0,0,0,1,1,0
2569356000,0,47.3977508,8.5456074,-0.20015086,-0.037634194,-4.3940125,0.0,0.0,0.0,0.02,0.0,-1.7199999,0.0,0.0,0.0,0.0,0.0,0.0,0.0,0.42346522,488.83002,0.0,0.0,0.0,0.0,0.0,0.0,inf,inf,inf,inf,1,1,1,1,0,0,0,0,1,1,0
2569456000,0,47.3977508,8.5456074,-0.20015086,-0.037634194,-4.5720215,0.0,0.0,0.0,0.02,0.0,-1.6999999,0.0,0.0,0.0,0.0,0.0,0.0,0.0,0.4236903,488.83002,0.0,0.0,0.0,0.0,0.0,0.0,inf,inf,inf,inf,1,1,1,1,0,0,0,0,1,1,0
2569556000,0,47.3977508,8.5456074,-0.20015086,-0.037634194,-4.7409973,0.0,0.0,0.0,0.02,0.01,-1.68,0.0,0.0,0.0,0.0,0.0,0.0,0.0,0.4238435,488.83002,0.0,0.0,0.0,0.0,0.0,0.0,inf,inf,inf,inf,1,1,1,1,0,0,0,0,1,1,0
2569656000,0,47.3977508,8.5456074,-0.18903138,-0.037634194,-4.9089966,0.0,0.0,0.0,0.02,0.01,-1.66,0.0,0.0,0.0,0.0,0.0,0.0,0.0,0.42387447,488.83002,0.0,0.0,0.0,0.0,0.0,0.0,inf,inf,inf,inf,1,1,1,1,0,0,0,0,1,1,0
2569756000,0,47.3977508,8.5456074,-0.18903138,-0.037634194,-5.074005,0.0,0.0,0.0,0.02,0.01,-1.64,0.0,0.0,0.0,0.0,0.0,0.0,0.0,0.42383528,488.83002,0.0,0.0,0.0,0.0,0.0,0.0,inf,inf,inf,inf,1,1,1,1,0,0,0,0,1,1,0
2569856000,0,47.3977508,8.5456074,-0.18903138,-0.037634194,-5.2369995,0.0,0.0,0.0,0.02,0.01,-1.62,0.0,0.0,0.0,0.0,0.0,0.0,0.0,0.42383915,488.83002,0.0,0.0,0.0,0.0,0.0,0.0,inf,inf,inf,inf,1,1,1,1,0,0,0,0,1,1,0
2569956000,0,47.3977508,8.5456074,-0.18903138,-0.030107355,-5.3990173,0.0,0.0,0.0,0.02,0.01,-1.61,0.0,0.0,0.0,0.0,0.0,0.0,0.0,0.42378315,488.83002,0.0,0.0,0.0,0.0,0.0,0.0,inf,inf,inf,inf,1,1,1,1,0,0,0,0,1,1,0
2570056000,0,47.3977508,8.5456074,-0.17791188,-0.030107355,-5.5599976,0.0,0.0,0.0,0.02,0.01,-1.5999999,0.0,0.0,0.0,0.0,0.0,0.0,0.0,0.42357266,488.83002,0.0,0.0,0.0,0.0,0.0,0.0,inf,inf,inf,inf,1,1,1,1,0,0,0,0,1,1,0
2570156000,0,47.3977508,8.5456074,-0.17791188,-0.030107355,-5.71402,0.0,0.0,0.0,0.02,0.01,-1.5899999,0.0,0.0,0.0,0.0,0.0,0.0,0.0,0.42329103,488.83002,0.0,0.0,0.0,0.0,0.0,0.0,inf,inf,inf,inf,1,1,1,1,0,0,0,0,1,1,0
2570256000,0,47.3977508,8.5456074,-0.17791188,-0.030107355,-5.8730164,0.0,0.0,0.0,0.02,0.01,-1.5799999,0.0,0.0,0.0,0.0,0.0,0.0,0.0,0.42293435,488.83002,0.0,0.0,0.0,0.0,0.0,0.0,inf,inf,inf,inf,1,1,1,1,0,0,0,0,1,1,0
2570356000,0,47.3977508,8.5456074,-0.17791188,-0.022580517,-6.037018,0.0,0.0,0.0,0.03,0.02,-1.5699999,0.0,0.0,0.0,0.0,0.0,0.0,0.0,0.42266685,488.83002,0.0,0.0,0.0,0.0,0.0,0.0,inf,inf,inf,inf,1,1,1,1,0,0,0,0,1,1,0
2570456000,0,47.3977508,8.5456074,-0.1667924,-0.022580517,-6.1950073,0.0,0.0,0.0,0.03,0.02,-1.5699999,0.0,0.0,0.0,0.0,0.0,0.0,0.0,0.42242846,488.83002,0.0,0.0,0.0,0.0,0.0,0.0,inf,inf,inf,inf,1,1,1,1,0,0,0,0,1,1,0
2570556000,0,47.3977508,8.5456074,-0.1667924,-0.022580517,-6.3520203,0.0,0.0,0.0,0.03,0.02,-1.56,0.0,0.0,0.0,0.0,0.0,0.0,0.0,0.42233875,488.83002,0.0,0.0,0.0,0.0,0.0,0.0,inf,inf,inf,inf,1,1,1,1,0,0,0,0,1,1,0
2570656000,0,47.3977508,8.5456074,-0.1667924,-0.022580517,-6.5079956,0.0,0.0,0.0,0.03,0.02,-1.56,0.0,0.0,0.0,0.0,0.0,0.0,0.0,0.4223405,488.83002,0.0,0.0,0.0,0.0,0.0,0.0,inf,inf,inf,inf,1,1,1,1,0,0,0,0,1,1,0
2570756000,0,47.3977508,8.5456074,-0.1556729,-0.015053677,-6.6640015,0.0,0.0,0.0,0.03,0.02,-1.55,0.0,0.0,0.0,0.0,0.0,0.0,0.0,0.42235154,488.83002,0.0,0.0,0.0,0.0,0.0,0.0,inf,inf,inf,inf,1,1,1,1,0,0,0,0,1,1,0
2570856000,0,47.3977508,8.5456074,-0.1556729,-0.015053677,-6.813019,0.0,0.0,0.0,0.03,0.03,-1.54,0.0,0.0,0.0,0.0,0.0,0.0,0.0,0.42224565,488.83002,0.0,0.0,0.0,0.0,0.0,0.0,inf,inf,inf,inf,1,1,1,1,0,0,0,0,1,1,0
2570956000,0,47.3977508,8.5456074,-0.1556729,-0.0075268387,-6.9670105,0.0,0.0,0.0,0.03,0.03,-1.53,0.0,0.0,0.0,0.0,0.0,0.0,0.0,0.4221816,488.83002,0.0,0.0,0.0,0.0,0.0,0.0,inf,inf,inf,inf,1,1,1,1,0,0,0,0,1,1,0
2571056000,0,47.3977508,8.5456074,-0.14455341,-0.0075268387,-7.126007,0.0,0.0,0.0,0.03,0.03,-1.52,0.0,0.0,0.0,0.0,0.0,0.0,0.0,0.42220885,488.83002,0.0,0.0,0.0,0.0,0.0,0.0,inf,inf,inf,inf,1,1,1,1,0,0,0,0,1,1,0
2571156000,0,47.3977508,8.5456074,-0.14455341,0.0,-7.2789917,0.0,0.0,0.0,0.03,0.03,-1.52,0.0,0.0,0.0,0.0,0.0,0.0,0.0,0.42222482,488.83002,0.0,0.0,0.0,0.0,0.0,0.0,inf,inf,inf,inf,1,1,1,1,0,0,0,0,1,1,0
2571256000,0,47.3977508,8.5456074,-0.14455341,0.0,-7.432007,0.0,0.0,0.0,0.03,0.03,-1.52,0.0,0.0,0.0,0.0,0.0,0.0,0.0,0.422114,488.83002,0.0,0.0,0.0,0.0,0.0,0.0,inf,inf,inf,inf,1,1,1,1,0,0,0,0,1,1,0
2571356000,0,47.3977508,8.5456074,-0.14455341,0.0,-7.584015,0.0,0.0,0.0,0.03,0.03,-1.52,0.0,0.0,0.0,0.0,0.0,0.0,0.0,0.42206568,488.83002,0.0,0.0,0.0,0.0,0.0,0.0,inf,inf,inf,inf,1,1,1,1,0,0,0,0,1,1,0
2571456000,0,47.3977508,8.5456074,-0.13343391,0.0075268387,-7.731018,0.0,0.0,0.0,0.03,0.03,-1.52,0.0,0.0,0.0,0.0,0.0,0.0,0.0,0.42216477,488.83002,0.0,0.0,0.0,0.0,0.0,0.0,inf,inf,inf,inf,1,1,1,1,0,0,0,0,1,1,0
2571552000,0,47.3977508,8.5456074,-0.13343391,0.0075268387,-7.8829956,0.0,0.0,0.0,0.03,0.03,-1.52,0.0,0.0,0.0,0.0,0.0,0.0,0.0,0.42224893,488.83002,0.0,0.0,0.0,0.0,0.0,0.0,inf,inf,inf,inf,1,1,1,1,0,0,0,0,1,1,0
2571656000,0,47.3977508,8.5456074,-0.13343391,0.015053677,-8.041016,0.0,0.0,0.0,0.03,0.03,-1.51,0.0,0.0,0.0,0.0,0.0,0.0,0.0,0.4223301,488.83002,0.0,0.0,0.0,0.0,0.0,0.0,inf,inf,inf,inf,1,1,1,1,0,0,0,0,1,1,0
2571756000,0,47.3977508,8.5456074,-0.122314416,0.015053677,-8.192017,0.0,0.0,0.0,0.03,0.03,-1.5,0.0,0.0,0.0,0.0,0.0,0.0,0.0,0.42240956,488.83002,0.0,0.0,0.0,0.0,0.0,0.0,inf,inf,inf,inf,1,1,1,1,0,0,0,0,1,1,0
2571856000,0,47.3977508,8.5456074,-0.122314416,0.022580516,-8.343018,0.0,0.0,0.0,0.03,0.03,-1.5,0.0,0.0,0.0,0.0,0.0,0.0,0.0,0.42240024,488.83002,0.0,0.0,0.0,0.0,0.0,0.0,inf,inf,inf,inf,1,1,1,1,0,0,0,0,1,1,0
2571956000,0,47.3977508,8.5456074,-0.11119492,0.022580516,-8.4869995,0.0,0.0,0.0,0.03,0.03,-1.49,0.0,0.0,0.0,0.0,0.0,0.0,0.0,0.42228976,488.83002,0.0,0.0,0.0,0.0,0.0,0.0,inf,inf,inf,inf,1,1,1,1,0,0,0,0,1,1,0
2572056000,0,47.3977508,8.5456074,-0.11119492,0.030107355,-8.641998,0.0,0.0,0.0,0.04,0.03,-1.49,0.0,0.0,0.0,0.0,0.0,0.0,0.0,0.4222225,488.83002,0.0,0.0,0.0,0.0,0.0,0.0,inf,inf,inf,inf,1,1,1,1,0,0,0,0,1,1,0
2572156000,0,47.3977508,8.5456074,-0.11119492,0.030107355,-8.791992,0.0,0.0,0.0,0.04,0.03,-1.49,0.0,0.0,0.0,0.0,0.0,0.0,0.0,0.42210054,488.83002,0.0,0.0,0.0,0.0,0.0,0.0,inf,inf,inf,inf,1,1,1,1,0,0,0,0,1,1,0
2572256000,0,47.3977508,8.5456074,-0.10007543,0.037634194,-8.934998,0.0,0.0,0.0,0.03,0.03,-1.49,0.0,0.0,0.0,0.0,0.0,0.0,0.0,0.42194125,488.83002,0.0,0.0,0.0,0.0,0.0,0.0,inf,inf,inf,inf,1,1,1,1,0,0,0,0,1,1,0
2572356000,0,47.3977508,8.5456074,-0.10007543,0.037634194,-9.091003,0.0,0.0,0.0,0.03,0.03,-1.49,0.0,0.0,0.0,0.0,0.0,0.0,0.0,0.42171216,488.83002,0.0,0.0,0.0,0.0,0.0,0.0,inf,inf,inf,inf,1,1,1,1,0,0,0,0,1,1,0
2572456000,0,47.3977508,8.5456074,-0.10007543,0.037634194,-9.240021,0.0,0.0,0.0,0.03,0.03,-1.49,0.0,0.0,0.0,0.0,0.0,0.0,0.0,0.42157045,488.83002,0.0,0.0,0.0,0.0,0.0,0.0,inf,inf,inf,inf,1,1,1,1,0,0,0,0,1,1,0
2572556000,0,47.3977508,8.5456074,-0.08895594,0.04516103,-9.389008,0.0,0.0,0.0,0.03,0.02,-1.49,0.0,0.0,0.0,0.0,0.0,0.0,0.0,0.42164573,488.83002,0.0,0.0,0.0,0.0,0.0,0.0,inf,inf,inf,inf,1,1,1,1,0,0,0,0,1,1,0
2572652000,0,47.3977508,8.5456074,-0.08895594,0.04516103,-9.529999,0.0,0.0,0.0,0.03,0.02,-1.4399999,0.0,0.0,0.0,0.0,0.0,0.0,0.0,0.42157787,488.83002,0.0,0.0,0.0,0.0,0.0,0.0,inf,inf,inf,inf,1,1,1,1,0,0,0,0,1,1,0
2572756000,0,47.3977508,8.5456074,-0.08895594,0.052687872,-9.6710205,0.0,0.0,0.0,0.03,0.02,-1.38,0.0,0.0,0.0,0.0,0.0,0.0,0.0,0.42148006,488.83002,0.0,0.0,0.0,0.0,0.0,0.0,inf,inf,inf,inf,1,1,1,1,0,0,0,0,1,1,0
2572852000,0,47.3977508,8.5456074,-0.07783645,0.052687872,-9.808014,0.0,0.0,0.0,0.03,0.02,-1.3399999,0.0,0.0,0.0,0.0,0.0,0.0,0.0,0.42141715,488.83002,0.0,0.0,0.0,0.0,0.0,0.0,inf,inf,inf,inf,1,1,1,1,0,0,0,0,1,1,0
2572956000,0,47.3977508,8.5456074,-0.07783645,0.052687872,-9.946014,0.0,0.0,0.0,0.03,0.02,-1.3,0.0,0.0,0.0,0.0,0.0,0.0,0.0,0.42135665,488.83002,0.0,0.0,0.0,0.0,0.0,0.0,inf,inf,inf,inf,1,1,1,1,0,0,0,0,1,1,0
2573056000,0,47.3977508,8.5456074,-0.07783645,0.052687872,-10.074005,0.0,0.0,0.0,0.03,0.02,-1.26,0.0,0.0,0.0,0.0,0.0,0.0,0.0,0.42127052,488.83002,0.0,0.0,0.0,0.0,0.0,0.0,inf,inf,inf,inf,1,1,1,1,0,0,0,0,1,1,0
2573152000,0,47.3977508,8.5456074,-0.066716954,0.06021471,-10.194,0.0,0.0,0.0,0.03,0.01,-1.22,0.0,0.0,0.0,0.0,0.0,0.0,0.0,0.42126152,488.83002,0.0,0.0,0.0,0.0,0.0,0.0,inf,inf,inf,inf,1,1,1,1,0,0,0,0,1,1,0
2573256000,0,47.3977508,8.5456074,-0.066716954,0.06021471,-10.313995,0.0,0.0,0.0,0.03,0.01,-1.18,0.0,0.0,0.0,0.0,0.0,0.0,0.0,0.42117873,488.83002,0.0,0.0,0.0,0.0,0.0,0.0,inf,inf,inf,inf,1,1,1,1,0,0,0,0,1,1,0
2573356000,0,47.3977508,8.5456074,-0.066716954,0.06021471,-10.434998,0.0,0.0,0.0,0.03,0.01,-1.14,0.0,0.0,0.0,0.0,0.0,0.0,0.0,0.4210487,488.83002,0.0,0.0,0.0,0.0,0.0,0.0,inf,inf,inf,inf,1,1,1,1,0,0,0,0,1,1,0
2573452000,0,47.3977508,8.5456074,-0.05559746,0.06021471,-10.542999,0.0,0.0,0.0,0.03,0.01,-1.11,0.0,0.0,0.0,0.0,0.0,0.0,0.0,0.4210562,488.83002,0.0,0.0,0.0,0.0,0.0,0.0,inf,inf,inf,inf,1,1,1,1,0,0,0,0,1,1,0
2573556000,0,47.3977508,8.5456074,-0.05559746,0.06774155,-10.653015,0.0,0.0,0.0,0.03,0.01,-1.0699999,0.0,0.0,0.0,0.0,0.0,0.0,0.0,0.42093953,488.83002,0.0,0.0,0.0,0.0,0.0,0.0,inf,inf,inf,inf,1,1,1,1,0,0,0,0,1,1,0
2573656000,0,47.3977508,8.5456074,-0.05559746,0.06774155,-10.757996,0.0,0.0,0.0,0.02,0.01,-1.03,0.0,0.0,0.0,0.0,0.0,0.0,0.0,0.42097533,488.83002,0.0,0.0,0.0,0.0,0.0,0.0,inf,inf,inf,inf,1,1,1,1,0,0,0,0,1,1,0
2573756000,0,47.3977508,8.5456074,-0.05559746,0.06774155,-10.865021,0.0,0.0,0.0,0.02,0.01,-1.0,0.0,0.0,0.0,0.0,0.0,0.0,0.0,0.42100486,488.83002,0.0,0.0,0.0,0.0,0.0,0.0,inf,inf,inf,inf,1,1,1,1,0,0,0,0,1,1,0
2573856000,0,47.3977508,8.5456074,-0.04447797,0.06774155,-10.959991,0.0,0.0,0.0,0.02,0.01,-0.96999997,0.0,0.0,0.0,0.0,0.0,0.0,0.0,0.42095506,488.83002,0.0,0.0,0.0,0.0,0.0,0.0,inf,inf,inf,inf,1,1,1,1,0,0,0,0,1,1,0
2573956000,0,47.3977508,8.5456074,-0.04447797,0.06774155,-11.056,0.0,0.0,0.0,0.02,0.01,-0.94,0.0,0.0,0.0,0.0,0.0,0.0,0.0,0.4209164,488.83002,0.0,0.0,0.0,0.0,0.0,0.0,inf,inf,inf,inf,1,1,1,1,0,0,0,0,1,1,0
2574056000,0,47.3977508,8.5456074,-0.04447797,0.06774155,-11.149994,0.0,0.0,0.0,0.01,0.01,-0.90999997,0.0,0.0,0.0,0.0,0.0,0.0,0.0,0.42080843,488.83002,0.0,0.0,0.0,0.0,0.0,0.0,inf,inf,inf,inf,1,1,1,1,0,0,0,0,1,1,0
2574156000,0,47.3977508,8.5456074,-0.04447797,0.06774155,-11.244019,0.0,0.0,0.0,0.01,0.0,-0.88,0.0,0.0,0.0,0.0,0.0,0.0,0.0,0.42065078,488.83002,0.0,0.0,0.0,0.0,0.0,0.0,inf,inf,inf,inf,1,1,1,1,0,0,0,0,1,1,0
2574256000,0,47.3977508,8.5456074,-0.04447797,0.07526839,-11.330994,0.0,0.0,0.0,0.01,0.0,-0.85999995,0.0,0.0,0.0,0.0,0.0,0.0,0.0,0.4205783,488.83002,0.0,0.0,0.0,0.0,0.0,0.0,inf,inf,inf,inf,1,1,1,1,0,0,0,0,1,1,0
2574356000,0,47.3977508,8.5456074,-0.04447797,0.07526839,-11.416016,0.0,0.0,0.0,0.01,0.0,-0.83,0.0,0.0,0.0,0.0,0.0,0.0,0.0,0.42053208,488.83002,0.0,0.0,0.0,0.0,0.0,0.0,inf,inf,inf,inf,1,1,1,1,0,0,0,0,1,1,0
2574456000,0,47.3977508,8.5456074,-0.04447797,0.07526839,-11.498016,0.0,0.0,0.0,0.01,0.0,-0.79999995,0.0,0.0,0.0,0.0,0.0,0.0,0.0,0.42053792,488.83002,0.0,0.0,0.0,0.0,0.0,0.0,inf,inf,inf,inf,1,1,1,1,0,0,0,0,1,1,0
2574552000,0,47.3977508,8.5456074,-0.033358477,0.07526839,-11.574005,0.0,0.0,0.0,0.0,0.0,-0.78,0.0,0.0,0.0,0.0,0.0,0.0,0.0,0.42052805,488.83002,0.0,0.0,0.0,0.0,0.0,0.0,inf,inf,inf,inf,1,1,1,1,0,0,0,0,1,1,0
2574652000,0,47.3977508,8.5456074,-0.033358477,0.07526839,-11.651001,0.0,0.0,0.0,0.0,0.0,-0.76,0.0,0.0,0.0,0.0,0.0,0.0,0.0,0.4203484,488.83002,0.0,0.0,0.0,0.0,0.0,0.0,inf,inf,inf,inf,1,1,1,1,0,0,0,0,1,1,0
2574756000,0,47.3977508,8.5456074,-0.033358477,0.07526839,-11.729004,0.0,0.0,0.0,0.0,0.0,-0.72999996,0.0,0.0,0.0,0.0,0.0,0.0,0.0,0.4202736,488.83002,0.0,0.0,0.0,0.0,0.0,0.0,inf,inf,inf,inf,1,1,1,1,0,0,0,0,1,1,0
2574856000,0,47.3977508,8.5456074,-0.033358477,0.07526839,-11.802002,0.0,0.0,0.0,0.0,0.0,-0.71,0.0,0.0,0.0,0.0,0.0,0.0,0.0,0.42024863,488.83002,0.0,0.0,0.0,0.0,0.0,0.0,inf,inf,inf,inf,1,1,1,1,0,0,0,0,1,1,0
2574952000,0,47.3977508,8.5456074,-0.033358477,0.07526839,-11.869019,0.0,0.0,0.0,0.0,0.0,-0.68,0.0,0.0,0.0,0.0,0.0,0.0,0.0,0.42024317,488.83002,0.0,0.0,0.0,0.0,0.0,0.0,inf,inf,inf,inf,1,1,1,1,0,0,0,0,1,1,0
2575056000,0,47.3977508,8.5456074,-0.033358477,0.07526839,-11.937012,0.0,0.0,0.0,0.0,0.0,-0.66999996,0.0,0.0,0.0,0.0,0.0,0.0,0.0,0.42019087,488.83002,0.0,0.0,0.0,0.0,0.0,0.0,inf,inf,inf,inf,1,1,1,1,0,0,0,0,1,1,0
2575156000,0,47.3977508,8.5456074,-0.033358477,0.07526839,-12.005005,0.0,0.0,0.0,0.0,0.0,-0.65,0.0,0.0,0.0,0.0,0.0,0.0,0.0,0.42018953,488.83002,0.0,0.0,0.0,0.0,0.0,0.0,inf,inf,inf,inf,1,1,1,1,0,0,0,0,1,1,0
2575256000,0,47.3977508,8.5456074,-0.033358477,0.07526839,-12.069,0.0,0.0,0.0,0.0,0.0,-0.63,0.0,0.0,0.0,0.0,0.0,0.0,0.0,0.42023355,488.83002,0.0,0.0,0.0,0.0,0.0,0.0,inf,inf,inf,inf,1,1,1,1,0,0,0,0,1,1,0
2575352000,0,47.3977508,8.5456074,-0.033358477,0.07526839,-12.128998,0.0,0.0,0.0,0.0,0.0,-0.61,0.0,0.0,0.0,0.0,0.0,0.0,0.0,0.4202237,488.83002,0.0,0.0,0.0,0.0,0.0,0.0,inf,inf,inf,inf,1,1,1,1,0,0,0,0,1,1,0
2575456000,0,47.3977508,8.5456074,-0.033358477,0.07526839,-12.192017,0.0,0.0,0.0,0.0,0.0,-0.59,0.0,0.0,0.0,0.0,0.0,0.0,0.0,0.4202574,488.83002,0.0,0.0,0.0,0.0,0.0,0.0,inf,inf,inf,inf,1,1,1,1,0,0,0,0,1,1,0
2575556000,0,47.3977508,8.5456074,-0.033358477,0.07526839,-12.251007,0.0,0.0,0.0,0.0,0.0,-0.58,0.0,0.0,0.0,0.0,0.0,0.0,0.0,0.42030367,488.83002,0.0,0.0,0.0,0.0,0.0,0.0,inf,inf,inf,inf,1,1,1,1,0,0,0,0,1,1,0
2575656000,0,47.3977508,8.5456074,-0.033358477,0.07526839,-12.308014,0.0,0.0,0.0,0.01,0.0,-0.56,0.0,0.0,0.0,0.0,0.0,0.0,0.0,0.42026392,488.83002,0.0,0.0,0.0,0.0,0.0,0.0,inf,inf,inf,inf,1,1,1,1,0,0,0,0,1,1,0
2575752000,0,47.3977508,8.5456074,-0.033358477,0.07526839,-12.360016,0.0,0.0,0.0,0.01,0.0,-0.55,0.0,0.0,0.0,0.0,0.0,0.0,0.0,0.42028126,488.83002,0.0,0.0,0.0,0.0,0.0,0.0,inf,inf,inf,inf,1,1,1,1,0,0,0,0,1,1,0
2575852000,0,47.3977508,8.5456074,-0.022238985,0.07526839,-12.416016,0.0,0.0,0.0,0.01,0.0,-0.53,0.0,0.0,0.0,0.0,0.0,0.0,0.0,0.42026353,488.83002,0.0,0.0,0.0,0.0,0.0,0.0,inf,inf,inf,inf,1,1,1,1,0,0,0,0,1,1,0
2575956000,0,47.3977508,8.5456074,-0.022238985,0.07526839,-12.471008,0.0,0.0,0.0,0.01,0.0,-0.52,0.0,0.0,0.0,0.0,0.0,0.0,0.0,0.4201632,488.83002,0.0,0.0,0.0,0.0,0.0,0.0,inf,inf,inf,inf,1,1,1,1,0,0,0,0,1,1,0
2576056000,0,47.3977508,8.5456074,-0.022238985,0.07526839,-12.52301,0.0,0.0,0.0,0.01,0.0,-0.5,0.0,0.0,0.0,0.0,0.0,0.0,0.0,0.42001748,488.83002,0.0,0.0,0.0,0.0,0.0,0.0,inf,inf,inf,inf,1,1,1,1,0,0,0,0,1,1,0
2576156000,0,47.3977508,8.5456074,-0.022238985,0.07526839,-12.572998,0.0,0.0,0.0,0.01,0.0,-0.48999998,0.0,0.0,0.0,0.0,0.0,0.0,0.0,0.4199153,488.83002,0.0,0.0,0.0,0.0,0.0,0.0,inf,inf,inf,inf,1,1,1,1,0,0,0,0,1,1,0
2576252000,0,47.3977508,8.5456074,-0.022238985,0.07526839,-12.619019,0.0,0.0,0.0,0.01,0.0,-0.47,0.0,0.0,0.0,0.0,0.0,0.0,0.0,0.41978687,488.83002,0.0,0.0,0.0,0.0,0.0,0.0,inf,inf,inf,inf,1,1,1,1,0,0,0,0,1,1,0
2576356000,0,47.3977508,8.5456074,-0.022238985,0.07526839,-12.666016,0.0,0.0,0.0,0.01,0.0,-0.45,0.0,0.0,0.0,0.0,0.0,0.0,0.0,0.41962013,488.83002,0.0,0.0,0.0,0.0,0.0,0.0,inf,inf,inf,inf,1,1,1,1,0,0,0,0,1,1,0
2576456000,0,47.3977508,8.5456074,-0.022238985,0.07526839,-12.713013,0.0,0.0,0.0,0.01,0.0,-0.44,0.0,0.0,0.0,0.0,0.0,0.0,0.0,0.41944373,488.83002,0.0,0.0,0.0,0.0,0.0,0.0,inf,inf,inf,inf,1,1,1,1,0,0,0,0,1,1,0
2576556000,0,47.3977508,8.5456074,-0.022238985,0.07526839,-12.756012,0.0,0.0,0.0,0.01,0.0,-0.42,0.0,0.0,0.0,0.0,0.0,0.0,0.0,0.41937566,488.83002,0.0,0.0,0.0,0.0,0.0,0.0,inf,inf,inf,inf,1,1,1,1,0,0,0,0,1,1,0
2576652000,0,47.3977508,8.5456074,-0.022238985,0.07526839,-12.7960205,0.0,0.0,0.0,0.01,0.0,-0.41,0.0,0.0,0.0,0.0,0.0,0.0,0.0,0.41940126,488.83002,0.0,0.0,0.0,0.0,0.0,0.0,inf,inf,inf,inf,1,1,1,1,0,0,0,0,1,1,0
2576752000,0,47.3977508,8.5456074,-0.011119492,0.07526839,-12.837006,0.0,0.0,0.0,0.01,0.0,-0.39,0.0,0.0,0.0,0.0,0.0,0.0,0.0,0.41948575,488.83002,0.0,0.0,0.0,0.0,0.0,0.0,inf,inf,inf,inf,1,1,1,1,0,0,0,0,1,1,0
2576856000,0,47.3977508,8.5456074,-0.011119492,0.07526839,-12.878021,0.0,0.0,0.0,0.01,0.0,-0.38,0.0,0.0,0.0,0.0,0.0,0.0,0.0,0.41963038,488.83002,0.0,0.0,0.0,0.0,0.0,0.0,inf,inf,inf,inf,1,1,1,1,0,0,0,0,1,1,0
2576956000,0,47.3977508,8.5456074,-0.011119492,0.07526839,-12.916016,0.0,0.0,0.0,0.01,0.0,-0.37,0.0,0.0,0.0,0.0,0.0,0.0,0.0,0.4198013,488.83002,0.0,0.0,0.0,0.0,0.0,0.0,inf,inf,inf,inf,1,1,1,1,0,0,0,0,1,1,0
2577052000,0,47.3977508,8.5456074,-0.011119492,0.07526839,-12.951019,0.0,0.0,0.0,0.01,0.0,-0.35999998,0.0,0.0,0.0,0.0,0.0,0.0,0.0,0.41981217,488.83002,0.0,0.0,0.0,0.0,0.0,0.0,inf,inf,inf,inf,1,1,1,1,0,0,0,0,1,1,0
2577156000,0,47.3977508,8.5456074,-0.011119492,0.07526839,-12.989014,0.0,0.0,0.0,0.01,0.0,-0.35999998,0.0,0.0,0.0,0.0,0.0,0.0,0.0,0.41981944,488.83002,0.0,0.0,0.0,0.0,0.0,0.0,inf,inf,inf,inf,1,1,1,1,0,0,0,0,1,1,0
2577252000,0,47.3977508,8.5456074,-0.011119492,0.07526839,-13.024017,0.0,0.0,0.0,0.01,0.0,-0.35,0.0,0.0,0.0,0.0,0.0,0.0,0.0,0.41982177,488.83002,0.0,0.0,0.0,0.0,0.0,0.0,inf,inf,inf,inf,1,1,1,1,0,0,0,0,1,1,0
2577356000,0,47.3977508,8.5456074,-0.011119492,0.07526839,-13.059998,0.0,0.0,0.0,0.01,0.0,-0.34,0.0,0.0,0.0,0.0,0.0,0.0,0.0,0.4198004,488.83002,0.0,0.0,0.0,0.0,0.0,0.0,inf,inf,inf,inf,1,1,1,1,0,0,0,0,1,1,0
2577456000,0,47.3977508,8.5456074,-0.011119492,0.06774155,-13.095001,0.0,0.0,0.0,0.01,0.0,-0.34,0.0,0.0,0.0,0.0,0.0,0.0,0.0,0.4197396,488.83002,0.0,0.0,0.0,0.0,0.0,0.0,inf,inf,inf,inf,1,1,1,1,0,0,0,0,1,1,0
2577556000,0,47.3977508,8.5456074,-0.011119492,0.06774155,-13.128021,0.0,0.0,0.0,0.01,0.0,-0.32999998,0.0,0.0,0.0,0.0,0.0,0.0,0.0,0.41963494,488.83002,0.0,0.0,0.0,0.0,0.0,0.0,inf,inf,inf,inf,1,1,1,1,0,0,0,0,1,1,0
2577652000,0,47.3977508,8.5456074,-0.011119492,0.06774155,-13.160004,0.0,0.0,0.0,0.0,0.0,-0.32,0.0,0.0,0.0,0.0,0.0,0.0,0.0,0.4196503,488.83002,0.0,0.0,0.0,0.0,0.0,0.0,inf,inf,inf,inf,1,1,1,1,0,0,0,0,1,1,0
2577756000,0,47.3977508,8.5456074,3.5366154e-10,0.06774155,-13.192993,0.0,0.0,0.0,0.0,-0.01,-0.31,0.0,0.0,0.0,0.0,0.0,0.0,0.0,0.4198118,488.83002,0.0,0.0,0.0,0.0,0.0,0.0,inf,inf,inf,inf,1,1,1,1,0,0,0,0,1,1,0
2577856000,0,47.3977508,8.5456074,3.5366154e-10,0.06774155,-13.222992,0.0,0.0,0.0,0.0,-0.01,-0.29999998,0.0,0.0,0.0,0.0,0.0,0.0,0.0,0.41991922,488.83002,0.0,0.0,0.0,0.0,0.0,0.0,inf,inf,inf,inf,1,1,1,1,0,0,0,0,1,1,0
2577952000,0,47.3977508,8.5456074,3.5366154e-10,0.06774155,-13.251007,0.0,0.0,0.0,0.0,-0.01,-0.29,0.0,0.0,0.0,0.0,0.0,0.0,0.0,0.41992697,488.83002,0.0,0.0,0.0,0.0,0.0,0.0,inf,inf,inf,inf,1,1,1,1,0,0,0,0,1,1,0
2578052000,0,47.3977508,8.5456074,3.5366154e-10,0.06774155,-13.281006,0.0,0.0,0.0,0.0,-0.01,-0.28,0.0,0.0,0.0,0.0,0.0,0.0,0.0,0.4199351,488.83002,0.0,0.0,0.0,0.0,0.0,0.0,inf,inf,inf,inf,1,1,1,1,0,0,0,0,1,1,0
2578156000,0,47.3977508,8.5456074,3.5366154e-10,0.06021471,-13.311005,0.0,0.0,0.0,0.0,-0.01,-0.28,0.0,0.0,0.0,0.0,0.0,0.0,0.0,0.41992214,488.83002,0.0,0.0,0.0,0.0,0.0,0.0,inf,inf,inf,inf,1,1,1,1,0,0,0,0,1,1,0
2578256000,0,47.3977508,8.5456074,3.5366154e-10,0.06021471,-13.33902,0.0,0.0,0.0,0.0,-0.01,-0.26999998,0.0,0.0,0.0,0.0,0.0,0.0,0.0,0.41979122,488.83002,0.0,0.0,0.0,0.0,0.0,0.0,inf,inf,inf,inf,1,1,1,1,0,0,0,0,1,1,0
2578356000,0,47.3977508,8.5456074,3.5366154e-10,0.06021471,-13.365997,0.0,0.0,0.0,0.0,-0.01,-0.26999998,0.0,0.0,0.0,0.0,0.0,0.0,0.0,0.4196637,488.83002,0.0,0.0,0.0,0.0,0.0,0.0,inf,inf,inf,inf,1,1,1,1,0,0,0,0,1,1,0
2578456000,0,47.3977508,8.5456074,3.5366154e-10,0.06021471,-13.391998,0.0,0.0,0.0,0.0,-0.01,-0.26,0.0,0.0,0.0,0.0,0.0,0.0,0.0,0.4196654,488.83002,0.0,0.0,0.0,0.0,0.0,0.0,inf,inf,inf,inf,1,1,1,1,0,0,0,0,1,1,0
2578556000,0,47.3977508,8.5456074,3.5366154e-10,0.06021471,-13.420013,0.0,0.0,0.0,0.0,-0.01,-0.26,0.0,0.0,0.0,0.0,0.0,0.0,0.0,0.41964775,488.83002,0.0,0.0,0.0,0.0,0.0,0.0,inf,inf,inf,inf,1,1,1,1,0,0,0,0,1,1,0
2578656000,0,47.3977508,8.5456074,3.5366154e-10,0.052687872,-13.4470215,0.0,0.0,0.0,0.0,-0.01,-0.26,0.0,0.0,0.0,0.0,0.0,0.0,0.0,0.41964844,488.83002,0.0,0.0,0.0,0.0,0.0,0.0,inf,inf,inf,inf,1,1,1,1,0,0,0,0,1,1,0
2578756000,0,47.3977508,8.5456074,3.5366154e-10,0.052687872,-13.472992,0.0,0.0,0.0,0.0,-0.01,-0.25,0.0,0.0,0.0,0.0,0.0,0.0,0.0,0.41968906,488.83002,0.0,0.0,0.0,0.0,0.0,0.0,inf,inf,inf,inf,1,1,1,1,0,0,0,0,1,1,0
2578856000,0,47.3977508,8.5456074,3.5366154e-10,0.052687872,-13.498016,0.0,0.0,0.0,0.0,-0.01,-0.24,0.0,0.0,0.0,0.0,0.0,0.0,0.0,0.41749272,488.83002,0.0,0.0,0.0,0.0,0.0,0.0,inf,inf,inf,inf,1,1,1,1,0,0,0,0,1,1,0
2578952000,0,47.3977508,8.5456074,3.5366154e-10,0.052687872,-13.520996,0.0,0.0,0.0,0.01,-0.02,-0.22999999,0.0,0.0,0.0,0.0,0.0,0.0,0.0,0.40406922,488.83002,0.0,0.0,0.0,0.0,0.0,0.0,inf,inf,inf,inf,1,1,1,1,0,0,0,0,1,1,0
2579052000,0,47.3977508,8.5456074,0.0,0.04516103,-13.544006,0.0,0.0,0.0,0.0,-0.06,-0.22999999,0.0,0.0,0.0,0.0,0.0,0.0,0.0,0.37435642,488.83002,0.0,0.0,0.0,0.0,0.0,0.0,inf,inf,inf,inf,1,1,1,1,0,0,0,0,1,1,0
2579156000,0,47.3977508,8.5456074,0.0,0.037634194,-13.570007,0.0,0.0,0.0,-0.03,-0.13,-0.24,0.0,0.0,0.0,0.0,0.0,0.0,0.0,0.3274389,488.83002,0.0,0.0,0.0,0.0,0.0,0.0,inf,inf,inf,inf,1,1,1,1,0,0,0,0,1,1,0
2579252000,0,47.3977508,8.5456074,0.0,0.015053677,-13.5920105,0.0,0.0,0.0,-0.099999994,-0.26,-0.24,0.0,0.0,0.0,0.0,0.0,0.0,0.0,0.2718293,488.83002,0.0,0.0,0.0,0.0,0.0,0.0,inf,inf,inf,inf,1,1,1,1,0,0,0,0,1,1,0
2579356000,0,47.3977508,8.5456074,-0.022238987,-0.022580516,-13.618011,0.0,0.0,0.0,-0.21,-0.44,-0.22999999,0.0,0.0,0.0,0.0,0.0,0.0,0.0,0.20285684,488.83002,0.0,0.0,0.0,0.0,0.0,0.0,inf,inf,inf,inf,1,1,1,1,0,0,0,0,1,1,0
2579456000,0,47.3977508,8.5456074,-0.04447797,-0.07526839,-13.641022,0.0,0.0,0.0,-0.32999998,-0.65999997,-0.22,0.0,0.0,0.0,0.0,0.0,0.0,0.0,0.13221687,488.83002,0.0,0.0,0.0,0.0,0.0,0.0,inf,inf,inf,inf,1,1,1,1,0,0,0,0,1,1,0
2579552000,0,47.3977508,8.5456074,-0.08895594,-0.15053678,-13.662018,0.0,0.0,0.0,-0.45999998,-0.87,-0.21,0.0,0.0,0.0,0.0,0.0,0.0,0.0,0.062948205,488.83002,0.0,0.0,0.0,0.0,0.0,0.0,inf,inf,inf,inf,1,1,1,1,0,0,0,0,1,1,0
2579652000,0,47.3977508,8.5456074,-0.1445534,-0.24838568,-13.682007,0.0,0.0,0.0,-0.59,-1.11,-0.19,0.0,0.0,0.0,0.0,0.0,0.0,0.0,-0.0101717925,488.83002,0.0,0.0,0.0,0.0,0.0,0.0,inf,inf,inf,inf,1,1,1,1,0,0,0,0,1,1,0
2579752000,0,47.3977508,8.5456074,-0.21127035,-0.37634194,-13.701996,0.0,0.0,0.0,-0.71999997,-1.3299999,-0.17999999,0.0,0.0,0.0,0.0,0.0,0.0,0.0,-0.08492682,488.83002,0.0,0.0,0.0,0.0,0.0,0.0,inf,inf,inf,inf,1,1,1,1,0,0,0,0,1,1,0
2579856000,0,47.3977508,8.5456074,-0.2891068,-0.5268787,-13.721008,0.0,0.0,0.0,-0.84999996,-1.56,-0.17,0.0,0.0,0.0,0.0,0.0,0.0,0.0,-0.1637033,488.83002,0.0,0.0,0.0,0.0,0.0,0.0,inf,inf,inf,inf,1,1,1,1,0,0,0,0,1,1,0
2579956000,0,47.3977508,8.5456074,-0.3780627,-0.6924692,-13.7369995,0.0,0.0,0.0,-0.96999997,-1.77,-0.16,0.0,0.0,0.0,0.0,0.0,0.0,0.0,-0.24009688,488.83002,0.0,0.0,0.0,0.0,0.0,0.0,inf,inf,inf,inf,1,1,1,1,0,0,0,0,1,1,0
2580056000,0,47.3977508,8.5456074,-0.47813812,-0.87311333,-13.752014,0.0,0.0,0.0,-1.0799999,-1.9699999,-0.14999999,0.0,0.0,0.0,0.0,0.0,0.0,0.0,-0.3172287,488.83002,0.0,0.0,0.0,0.0,0.0,0.0,inf,inf,inf,inf,1,1,1,1,0,0,0,0,1,1,0
2580156000,0,47.3977508,8.5456074,-0.6004525,-1.0913917,-13.766998,0.0,0.0,0.0,-1.1899999,-2.1699998,-0.13,0.0,0.0,0.0,0.0,0.0,0.0,0.0,-0.39509058,488.83002,0.0,0.0,0.0,0.0,0.0,0.0,inf,inf,inf,inf,1,1,1,1,0,0,0,0,1,1,0
2580256000,0,47.3977508,8.5456074,-0.7227669,-1.3096701,-13.779999,0.0,0.0,0.0,-1.29,-2.35,-0.12,0.0,0.0,0.0,0.0,0.0,0.0,0.0,-0.4727753,488.83002,0.0,0.0,0.0,0.0,0.0,0.0,inf,inf,inf,inf,1,1,1,1,0,0,0,0,1,1,0
2580352000,0,47.3977508,8.5456074,-0.85620075,-1.5580559,-13.792999,0.0,0.0,0.0,-1.39,-2.53,-0.12,0.0,0.0,0.0,0.0,0.0,0.0,0.0,-0.54748297,488.83002,0.0,0.0,0.0,0.0,0.0,0.0,inf,inf,inf,inf,1,1,1,1,0,0,0,0,1,1,0
2580456000,0,47.3977508,8.5456074,-1.000754,-1.8290222,-13.804993,0.0,0.0,0.0,-1.49,-2.71,-0.11,0.0,0.0,0.0,0.0,0.0,0.0,0.0,-0.6287168,488.83002,0.0,0.0,0.0,0.0,0.0,0.0,inf,inf,inf,inf,1,1,1,1,0,0,0,0,1,1,0
2580552000,0,47.3977508,8.5456074,-1.1564269,-2.0999885,-13.8160095,0.0,0.0,0.0,-1.5799999,-2.87,-0.11,0.0,0.0,0.0,0.0,0.0,0.0,0.0,-0.7038457,488.83002,0.0,0.0,0.0,0.0,0.0,0.0,inf,inf,inf,inf,1,1,1,1,0,0,0,0,1,1,0
2580656000,0,47.3977508,8.5456074,-1.3232192,-2.3935351,-13.826996,0.0,0.0,0.0,-1.68,-3.04,-0.089999996,0.0,0.0,0.0,0.0,0.0,0.0,0.0,-0.7855277,488.83002,0.0,0.0,0.0,0.0,0.0,0.0,inf,inf,inf,inf,1,1,1,1,0,0,0,0,1,1,0
2580756000,0,47.3977508,8.5456074,-1.5011309,-2.7171896,-13.835999,0.0,0.0,0.0,-1.78,-3.1899998,-0.08,0.0,0.0,0.0,0.0,0.0,0.0,0.0,-0.86569047,488.83002,0.0,0.0,0.0,0.0,0.0,0.0,inf,inf,inf,inf,1,1,1,1,0,0,0,0,1,1,0
2580856000,0,47.3977508,8.5456074,-1.6790426,-3.0333169,-13.843994,0.0,0.0,0.0,-1.87,-3.32,-0.07,0.0,0.0,0.0,0.0,0.0,0.0,0.0,-0.9477195,488.83002,0.0,0.0,0.0,0.0,0.0,0.0,inf,inf,inf,inf,1,1,1,1,0,0,0,0,1,1,0
2580952000,0,47.3977508,8.5456074,-1.8569543,-3.356971,-13.850006,0.0,0.0,0.0,-1.9599999,-3.4199998,-0.049999997,0.0,0.0,0.0,0.0,0.0,0.0,0.0,-1.027062,488.83002,0.0,0.0,0.0,0.0,0.0,0.0,inf,inf,inf,inf,1,1,1,1,0,0,0,0,1,1,0
2581056000,0,47.3977508,8.5456074,-2.079344,-3.7333133,-13.855011,0.0,0.0,0.0,-2.04,-3.5,-0.04,0.0,0.0,0.0,0.0,0.0,0.0,0.0,-1.1126862,488.83002,0.0,0.0,0.0,0.0,0.0,0.0,inf,inf,inf,inf,1,1,1,1,0,0,0,0,1,1,0
2581156000,0,47.3977508,8.5456074,-2.2906141,-4.087075,-13.858002,0.0,0.0,0.0,-2.1,-3.54,-0.03,0.0,0.0,0.0,0.0,0.0,0.0,0.0,-1.1946291,488.83002,0.0,0.0,0.0,0.0,0.0,0.0,inf,inf,inf,inf,1,1,1,1,0,0,0,0,1,1,0
2581256000,0,47.3977508,8.5456074,-2.5018842,-4.448364,-13.860992,0.0,0.0,0.0,-2.1399999,-3.56,-0.02,0.0,0.0,0.0,0.0,0.0,0.0,0.0,-1.2751992,488.83002,0.0,0.0,0.0,0.0,0.0,0.0,inf,inf,inf,inf,1,1,1,1,0,0,0,0,1,1,0
2581356000,0,47.3977508,8.5456074,-2.7131543,-4.8021255,-13.865021,0.0,0.0,0.0,-2.1599998,-3.56,-0.03,0.0,0.0,0.0,0.0,0.0,0.0,0.0,-1.3536594,488.83002,0.0,0.0,0.0,0.0,0.0,0.0,inf,inf,inf,inf,1,1,1,1,0,0,0,0,1,1,0
2581456000,0,47.3977508,8.5456074,-2.9355438,-5.163414,-13.868011,0.0,0.0,0.0,-2.1699998,-3.56,-0.03,0.0,0.0,0.0,0.0,0.0,0.0,0.0,-1.431125,488.83002,0.0,0.0,0.0,0.0,0.0,0.0,inf,inf,inf,inf,1,1,1,1,0,0,0,0,1,1,0
2581556000,0,47.3977508,8.5456074,-3.1468139,-5.5171757,-13.871002,0.0,0.0,0.0,-2.1699998,-3.56,-0.02,0.0,0.0,0.0,0.0,0.0,0.0,0.0,-1.5085031,488.83002,0.0,0.0,0.0,0.0,0.0,0.0,inf,inf,inf,inf,1,1,1,1,0,0,0,0,1,1,0
2581656000,0,47.3977508,8.5456074,-3.3692033,-5.878464,-13.873993,0.0,0.0,0.0,-2.18,-3.57,-0.02,0.0,0.0,0.0,0.0,0.0,0.0,0.0,-1.5871366,488.83002,0.0,0.0,0.0,0.0,0.0,0.0,inf,inf,inf,inf,1,1,1,1,0,0,0,0,1,1,0
2581756000,0,47.3977508,8.5456074,-3.5804734,-6.2171726,-13.876007,0.0,0.0,0.0,-2.19,-3.57,-0.01,0.0,0.0,0.0,0.0,0.0,0.0,0.0,-1.6663624,488.83002,0.0,0.0,0.0,0.0,0.0,0.0,inf,inf,inf,inf,1,1,1,1,0,0,0,0,1,1,0
2581852000,0,47.3977508,8.5456074,-3.802863,-6.578461,-13.877014,0.0,0.0,0.0,-2.2,-3.57,-0.01,0.0,0.0,0.0,0.0,0.0,0.0,0.0,-1.7426289,488.83002,0.0,0.0,0.0,0.0,0.0,0.0,inf,inf,inf,inf,1,1,1,1,0,0,0,0,1,1,0
2581952000,0,47.3977508,8.5456074,-4.0252523,-6.93975,-13.878998,0.0,0.0,0.0,-2.2,-3.57,-0.01,0.0,0.0,0.0,0.0,0.0,0.0,0.0,-1.8220619,488.83002,0.0,0.0,0.0,0.0,0.0,0.0,inf,inf,inf,inf,1,1,1,1,0,0,0,0,1,1,0
2582056000,0,47.3977508,8.5456074,-4.2476416,-7.3085656,-13.881012,0.0,0.0,0.0,-2.21,-3.57,-0.01,0.0,0.0,0.0,0.0,0.0,0.0,0.0,-1.9036266,488.83002,0.0,0.0,0.0,0.0,0.0,0.0,inf,inf,inf,inf,1,1,1,1,0,0,0,0,1,1,0
2582156000,0,47.3977508,8.5456074,-4.4700313,-7.654801,-13.882019,0.0,0.0,0.0,-2.22,-3.57,-0.01,0.0,0.0,0.0,0.0,0.0,0.0,0.0,-1.97253,488.83002,0.0,0.0,0.0,0.0,0.0,0.0,inf,inf,inf,inf,1,1,1,1,0,0,0,0,1,1,0
2582256000,0,47.3977508,8.5456074,-4.6924205,-8.016089,-13.884003,0.0,0.0,0.0,-2.22,-3.58,-0.01,0.0,0.0,0.0,0.0,0.0,0.0,0.0,-2.02466,488.83002,0.0,0.0,0.0,0.0,0.0,0.0,inf,inf,inf,inf,1,1,1,1,0,0,0,0,1,1,0
2582356000,0,47.3977508,8.5456074,-4.925929,-8.384906,-13.88501,0.0,0.0,0.0,-2.23,-3.58,-0.01,0.0,0.0,0.0,0.0,0.0,0.0,0.0,-2.0622888,488.83002,0.0,0.0,0.0,0.0,0.0,0.0,inf,inf,inf,inf,1,1,1,1,0,0,0,0,1,1,0
2582456000,0,47.3977508,8.5456074,-5.148319,-8.746194,-13.886993,0.0,0.0,0.0,-2.24,-3.58,0.0,0.0,0.0,0.0,0.0,0.0,0.0,0.0,-2.0897207,488.83002,0.0,0.0,0.0,0.0,0.0,0.0,inf,inf,inf,inf,1,1,1,1,0,0,0,0,1,1,0
2582556000,0,47.3977508,8.5456074,-5.370708,-9.107483,-13.8880005,0.0,0.0,0.0,-2.26,-3.58,0.0,0.0,0.0,0.0,0.0,0.0,0.0,0.0,-2.1098068,488.83002,0.0,0.0,0.0,0.0,0.0,0.0,inf,inf,inf,inf,1,1,1,1,0,0,0,0,1,1,0
2582656000,0,47.3977508,8.5456074,-5.593097,-9.446192,-13.8880005,0.0,0.0,0.0,-2.27,-3.58,0.0,0.0,0.0,0.0,0.0,0.0,0.0,0.0,-2.1242523,488.83002,0.0,0.0,0.0,0.0,0.0,0.0,inf,inf,inf,inf,1,1,1,1,0,0,0,0,1,1,0
2582752000,0,47.3977508,8.5456074,-5.8154864,-9.807481,-13.889008,0.0,0.0,0.0,-2.28,-3.58,0.0,0.0,0.0,0.0,0.0,0.0,0.0,0.0,-2.1336577,488.83002,0.0,0.0,0.0,0.0,0.0,0.0,inf,inf,inf,inf,1,1,1,1,0,0,0,0,1,1,0
2582856000,0,47.3977508,8.5456074,-6.048995,-10.16877,-13.890015,0.0,0.0,0.0,-2.28,-3.58,0.0,0.0,0.0,0.0,0.0,0.0,0.0,0.0,-2.1404347,488.83002,0.0,0.0,0.0,0.0,0.0,0.0,inf,inf,inf,inf,1,1,1,1,0,0,0,0,1,1,0
2582952000,0,47.3977508,8.5456074,-6.282504,-10.530059,-13.891022,0.0,0.0,0.0,-2.29,-3.58,0.0,0.0,0.0,0.0,0.0,0.0,0.0,0.0,-2.144518,488.83002,0.0,0.0,0.0,0.0,0.0,0.0,inf,inf,inf,inf,1,1,1,1,0,0,0,0,1,1,0
2583056000,0,47.3977508,8.5456074,-6.5160127,-10.898874,-13.891022,0.0,0.0,0.0,-2.29,-3.58,0.0,0.0,0.0,0.0,0.0,0.0,0.0,0.0,-2.1471763,488.83002,0.0,0.0,0.0,0.0,0.0,0.0,inf,inf,inf,inf,1,1,1,1,0,0,0,0,1,1,0
2583156000,0,47.3977508,8.5456074,-6.7495213,-11.260163,-13.891998,0.0,0.0,0.0,-2.3,-3.59,0.0,0.0,0.0,0.0,0.0,0.0,0.0,0.0,-2.1485758,488.83002,0.0,0.0,0.0,0.0,0.0,0.0,inf,inf,inf,inf,1,1,1,1,0,0,0,0,1,1,0
2583256000,0,47.3977508,8.5456074,-6.98303,-11.621452,-13.893005,0.0,0.0,0.0,-2.3,-3.59,0.0,0.0,0.0,0.0,0.0,0.0,0.0,0.0,-2.149297,488.83002,0.0,0.0,0.0,0.0,0.0,0.0,inf,inf,inf,inf,1,1,1,1,0,0,0,0,1,1,0
2583356000,0,47.3977508,8.5456074,-7.2165384,-11.982742,-13.894012,0.0,0.0,0.0,-2.31,-3.59,0.0,0.0,0.0,0.0,0.0,0.0,0.0,0.0,-2.1494212,488.83002,0.0,0.0,0.0,0.0,0.0,0.0,inf,inf,inf,inf,1,1,1,1,0,0,0,0,1,1,0
2583456000,0,47.3977508,8.5456074,-7.4389277,-12.328978,-13.89502,0.0,0.0,0.0,-2.31,-3.59,-0.01,0.0,0.0,0.0,0.0,0.0,0.0,0.0,-2.148869,488.83002,0.0,0.0,0.0,0.0,0.0,0.0,inf,inf,inf,inf,1,1,1,1,0,0,0,0,1,1,0
2583556000,0,47.3977508,8.5456074,-7.672436,-12.70532,-13.895996,0.0,0.0,0.0,-2.31,-3.6,0.0,0.0,0.0,0.0,0.0,0.0,0.0,0.0,-2.1479232,488.83002,0.0,0.0,0.0,0.0,0.0,0.0,inf,inf,inf,inf,1,1,1,1,0,0,0,0,1,1,0
2583656000,0,47.3977508,8.5456074,-7.8948255,-13.051556,-13.897003,0.0,0.0,0.0,-2.32,-3.61,0.0,0.0,0.0,0.0,0.0,0.0,0.0,0.0,-2.146801,488.83002,0.0,0.0,0.0,0.0,0.0,0.0,inf,inf,inf,inf,1,1,1,1,0,0,0,0,1,1,0
2583756000,0,47.3977508,8.5456074,-8.139453,-13.427898,-13.89801,0.0,0.0,0.0,-2.33,-3.62,0.0,0.0,0.0,0.0,0.0,0.0,0.0,0.0,-2.1458967,488.83002,0.0,0.0,0.0,0.0,0.0,0.0,inf,inf,inf,inf,1,1,1,1,0,0,0,0,1,1,0
2583856000,0,47.3977508,8.5456074,-8.372962,-13.796715,-13.89801,0.0,0.0,0.0,-2.33,-3.6299999,0.0,0.0,0.0,0.0,0.0,0.0,0.0,0.0,-2.1449277,488.83002,0.0,0.0,0.0,0.0,0.0,0.0,inf,inf,inf,inf,1,1,1,1,0,0,0,0,1,1,0
2583952000,0,47.3977508,8.5456074,-8.595351,-14.127897,-13.899017,0.0,0.0,0.0,-2.34,-3.6399999,-0.01,0.0,0.0,0.0,0.0,0.0,0.0,0.0,-2.143926,488.83002,0.0,0.0,0.0,0.0,0.0,0.0,inf,inf,inf,inf,1,1,1,1,0,0,0,0,1,1,0
2584056000,0,47.3977508,8.5456074,-8.851098,-14.52682,-13.901001,0.0,0.0,0.0,-2.34,-3.6499999,-0.01,0.0,0.0,0.0,0.0,0.0,0.0,0.0,-2.1428244,488.83002,0.0,0.0,0.0,0.0,0.0,0.0,inf,inf,inf,inf,1,1,1,1,0,0,0,0,1,1,0
2584156000,0,47.3977508,8.5456074,-9.084606,-14.88811,-13.902008,0.0,0.0,0.0,-2.35,-3.6599998,-0.01,0.0,0.0,0.0,0.0,0.0,0.0,0.0,-2.1416066,488.83002,0.0,0.0,0.0,0.0,0.0,0.0,inf,inf,inf,inf,1,1,1,1,0,0,0,0,1,1,0
2584252000,0,47.3977508,8.5456074,-9.2958765,-15.226819,-13.903015,0.0,0.0,0.0,-2.35,-3.6699998,-0.01,0.0,0.0,0.0,0.0,0.0,0.0,0.0,-2.1404133,488.83002,0.0,0.0,0.0,0.0,0.0,0.0,inf,inf,inf,inf,1,1,1,1,0,0,0,0,1,1,0
2584356000,0,47.3977508,8.5456074,-9.551623,-15.625743,-13.904999,0.0,0.0,0.0,-2.35,-3.6699998,-0.01,0.0,0.0,0.0,0.0,0.0,0.0,0.0,-2.139235,488.83002,0.0,0.0,0.0,0.0,0.0,0.0,inf,inf,inf,inf,1,1,1,1,0,0,0,0,1,1,0
2584452000,0,47.3977508,8.5456074,-9.785131,-15.979506,-13.906006,0.0,0.0,0.0,-2.35,-3.6799998,-0.01,0.0,0.0,0.0,0.0,0.0,0.0,0.0,-2.1380386,488.83002,0.0,0.0,0.0,0.0,0.0,0.0,inf,inf,inf,inf,1,1,1,1,0,0,0,0,1,1,0
2584556000,0,47.3977508,8.5456074,-10.0186405,-16.348322,-13.907013,0.0,0.0,0.0,-2.35,-3.6799998,-0.01,0.0,0.0,0.0,0.0,0.0,0.0,0.0,-2.1369581,488.83002,0.0,0.0,0.0,0.0,0.0,0.0,inf,inf,inf,inf,1,1,1,1,0,0,0,0,1,1,0
2584656000,0,47.3977508,8.5456074,-10.2632675,-16.732191,-13.908997,0.0,0.0,0.0,-2.36,-3.6899998,-0.01,0.0,0.0,0.0,0.0,0.0,0.0,0.0,-2.1359866,488.83002,0.0,0.0,0.0,0.0,0.0,0.0,inf,inf,inf,inf,1,1,1,1,0,0,0,0,1,1,0
2584752000,0,47.3977508,8.5456074,-10.496777,-17.093481,-13.911011,0.0,0.0,0.0,-2.36,-3.6899998,-0.01,0.0,0.0,0.0,0.0,0.0,0.0,0.0,-2.135178,488.83002,0.0,0.0,0.0,0.0,0.0,0.0,inf,inf,inf,inf,1,1,1,1,0,0,0,0,1,1,0
2584856000,0,47.3977508,8.5456074,-10.730285,-17.462297,-13.912994,0.0,0.0,0.0,-2.36,-3.6899998,-0.02,0.0,0.0,0.0,0.0,0.0,0.0,0.0,-2.134244,488.83002,0.0,0.0,0.0,0.0,0.0,0.0,inf,inf,inf,inf,1,1,1,1,0,0,0,0,1,1,0
2584956000,0,47.3977508,8.5456074,-10.974912,-17.846169,-13.915009,0.0,0.0,0.0,-2.36,-3.6999998,-0.02,0.0,0.0,0.0,0.0,0.0,0.0,0.0,-2.1332788,488.83002,0.0,0.0,0.0,0.0,0.0,0.0,inf,inf,inf,inf,1,1,1,1,0,0,0,0,1,1,0
2585056000,0,47.3977508,8.5456074,-11.197301,-18.207458,-13.916992,0.0,0.0,0.0,-2.36,-3.6999998,-0.02,0.0,0.0,0.0,0.0,0.0,0.0,0.0,-2.1325464,488.83002,0.0,0.0,0.0,0.0,0.0,0.0,inf,inf,inf,inf,1,1,1,1,0,0,0,0,1,1,0
2585156000,0,47.3977508,8.5456074,-11.453048,-18.591328,-13.920013,0.0,0.0,0.0,-2.36,-3.6999998,-0.02,0.0,0.0,0.0,0.0,0.0,0.0,0.0,-2.131964,488.83002,0.0,0.0,0.0,0.0,0.0,0.0,inf,inf,inf,inf,1,1,1,1,0,0,0,0,1,1,0
2585256000,0,47.3977508,8.5456074,-11.686556,-18.960144,-13.923004,0.0,0.0,0.0,-2.35,-3.7099998,-0.03,0.0,0.0,0.0,0.0,0.0,0.0,0.0,-2.1312187,488.83002,0.0,0.0,0.0,0.0,0.0,0.0,inf,inf,inf,inf,1,1,1,1,0,0,0,0,1,1,0
2585356000,0,47.3977508,8.5456074,-11.920064,-19.336489,-13.925995,0.0,0.0,0.0,-2.35,-3.7099998,-0.02,0.0,0.0,0.0,0.0,0.0,0.0,0.0,-2.1303687,488.83002,0.0,0.0,0.0,0.0,0.0,0.0,inf,inf,inf,inf,1,1,1,1,0,0,0,0,1,1,0
2585456000,0,47.3977508,8.5456074,-12.153572,-19.705305,-13.929016,0.0,0.0,0.0,-2.35,-3.7099998,-0.03,0.0,0.0,0.0,0.0,0.0,0.0,0.0,-2.129606,488.83002,0.0,0.0,0.0,0.0,0.0,0.0,inf,inf,inf,inf,1,1,1,1,0,0,0,0,1,1,0
2585556000,0,47.3977508,8.5456074,-12.3982,-20.081648,-13.932007,0.0,0.0,0.0,-2.35,-3.72,-0.02,0.0,0.0,0.0,0.0,0.0,0.0,0.0,-2.1288862,488.83002,0.0,0.0,0.0,0.0,0.0,0.0,inf,inf,inf,inf,1,1,1,1,0,0,0,0,1,1,0
2585656000,0,47.3977508,8.5456074,-12.631708,-20.457993,-13.934998,0.0,0.0,0.0,-2.35,-3.72,-0.03,0.0,0.0,0.0,0.0,0.0,0.0,0.0,-2.1281378,488.83002,0.0,0.0,0.0,0.0,0.0,0.0,inf,inf,inf,inf,1,1,1,1,0,0,0,0,1,1,0
2585756000,0,47.3977508,8.5456074,-12.865216,-20.826809,-13.938019,0.0,0.0,0.0,-2.35,-3.72,-0.03,0.0,0.0,0.0,0.0,0.0,0.0,0.0,-2.12744,488.83002,0.0,0.0,0.0,0.0,0.0,0.0,inf,inf,inf,inf,1,1,1,1,0,0,0,0,1,1,0
2585852000,0,47.3977508,8.5456074,-13.0876045,-21.188099,-13.942017,0.0,0.0,0.0,-2.34,-3.72,-0.03,0.0,0.0,0.0,0.0,0.0,0.0,0.0,-2.126885,488.83002,0.0,0.0,0.0,0.0,0.0,0.0,inf,inf,inf,inf,1,1,1,1,0,0,0,0,1,1,0
2585956000,0,47.3977508,8.5456074,-13.3322315,-21.579496,-13.945007,0.0,0.0,0.0,-2.34,-3.72,-0.03,0.0,0.0,0.0,0.0,0.0,0.0,0.0,-2.126668,488.83002,0.0,0.0,0.0,0.0,0.0,0.0,inf,inf,inf,inf,1,1,1,1,0,0,0,0,1,1,0
2586056000,0,47.3977508,8.5456074,-13.56574,-21.933258,-13.949005,0.0,0.0,0.0,-2.34,-3.73,-0.03,0.0,0.0,0.0,0.0,0.0,0.0,0.0,-2.126378,488.83002,0.0,0.0,0.0,0.0,0.0,0.0,inf,inf,inf,inf,1,1,1,1,0,0,0,0,1,1,0
2586156000,0,47.3977508,8.5456074,-13.799248,-22.309603,-13.953003,0.0,0.0,0.0,-2.34,-3.73,-0.03,0.0,0.0,0.0,0.0,0.0,0.0,0.0,-2.1257033,488.83002,0.0,0.0,0.0,0.0,0.0,0.0,inf,inf,inf,inf,1,1,1,1,0,0,0,0,1,1,0
2586256000,0,47.3977508,8.5456074,-14.043876,-22.701,-13.955994,0.0,0.0,0.0,-2.34,-3.74,-0.03,0.0,0.0,0.0,0.0,0.0,0.0,0.0,-2.1251798,488.83002,0.0,0.0,0.0,0.0,0.0,0.0,inf,inf,inf,inf,1,1,1,1,0,0,0,0,1,1,0
2586356000,0,47.3977508,8.5456074,-14.277383,-23.077343,-13.960022,0.0,0.0,0.0,-2.34,-3.74,-0.03,0.0,0.0,0.0,0.0,0.0,0.0,0.0,-2.1248364,488.83002,0.0,0.0,0.0,0.0,0.0,0.0,inf,inf,inf,inf,1,1,1,1,0,0,0,0,1,1,0
2586456000,0,47.3977508,8.5456074,-14.499771,-23.438633,-13.963013,0.0,0.0,0.0,-2.34,-3.74,-0.03,0.0,0.0,0.0,0.0,0.0,0.0,0.0,-2.124576,488.83002,0.0,0.0,0.0,0.0,0.0,0.0,inf,inf,inf,inf,1,1,1,1,0,0,0,0,1,1,0
2586556000,0,47.3977508,8.5456074,-14.744399,-23.83003,-13.9670105,0.0,0.0,0.0,-2.34,-3.75,-0.03,0.0,0.0,0.0,0.0,0.0,0.0,0.0,-2.1242619,488.83002,0.0,0.0,0.0,0.0,0.0,0.0,inf,inf,inf,inf,1,1,1,1,0,0,0,0,1,1,0
2586656000,0,47.3977508,8.5456074,-14.977906,-24.191322,-13.970001,0.0,0.0,0.0,-2.33,-3.75,-0.03,0.0,0.0,0.0,0.0,0.0,0.0,0.0,-2.1236165,488.83002,0.0,0.0,0.0,0.0,0.0,0.0,inf,inf,inf,inf,1,1,1,1,0,0,0,0,1,1,0
2586752000,0,47.3977508,8.5456074,-15.211414,-24.567665,-13.972992,0.0,0.0,0.0,-2.33,-3.75,-0.03,0.0,0.0,0.0,0.0,0.0,0.0,0.0,-2.123245,488.83002,0.0,0.0,0.0,0.0,0.0,0.0,inf,inf,inf,inf,1,1,1,1,0,0,0,0,1,1,0
2586856000,0,47.3977508,8.5456074,-15.444922,-24.94401,-13.97702,0.0,0.0,0.0,-2.33,-3.75,-0.04,0.0,0.0,0.0,0.0,0.0,0.0,0.0,-2.122795,488.83002,0.0,0.0,0.0,0.0,0.0,0.0,inf,inf,inf,inf,1,1,1,1,0,0,0,0,1,1,0
2586956000,0,47.3977508,8.5456074,-15.689549,-25.335407,-13.981995,0.0,0.0,0.0,-2.33,-3.75,-0.04,0.0,0.0,0.0,0.0,0.0,0.0,0.0,-2.1223197,488.83002,0.0,0.0,0.0,0.0,0.0,0.0,inf,inf,inf,inf,1,1,1,1,0,0,0,0,1,1,0
2587052000,0,47.3977508,8.5456074,-15.911938,-25.696697,-13.985992,0.0,0.0,0.0,-2.33,-3.75,-0.04,0.0,0.0,0.0,0.0,0.0,0.0,0.0,-2.1218133,488.83002,0.0,0.0,0.0,0.0,0.0,0.0,inf,inf,inf,inf,1,1,1,1,0,0,0,0,1,1,0
2587152000,0,47.3977508,8.5456074,-16.145445,-26.073042,-13.990021,0.0,0.0,0.0,-2.33,-3.75,-0.04,0.0,0.0,0.0,0.0,0.0,0.0,0.0,-2.121551,488.83002,0.0,0.0,0.0,0.0,0.0,0.0,inf,inf,inf,inf,1,1,1,1,0,0,0,0,1,1,0
2587256000,0,47.3977508,8.5456074,-16.390072,-26.46444,-13.994019,0.0,0.0,0.0,-2.33,-3.76,-0.03,0.0,0.0,0.0,0.0,0.0,0.0,0.0,-2.1213489,488.83002,0.0,0.0,0.0,0.0,0.0,0.0,inf,inf,inf,inf,1,1,1,1,0,0,0,0,1,1,0
2587356000,0,47.3977508,8.5456074,-16.612461,-26.82573,-13.998016,0.0,0.0,0.0,-2.33,-3.76,-0.03,0.0,0.0,0.0,0.0,0.0,0.0,0.0,-2.121069,488.83002,0.0,0.0,0.0,0.0,0.0,0.0,inf,inf,inf,inf,1,1,1,1,0,0,0,0,1,1,0
2587456000,0,47.3977508,8.5456074,-16.857088,-27.217127,-14.001007,0.0,0.0,0.0,-2.33,-3.76,-0.03,0.0,0.0,0.0,0.0,0.0,0.0,0.0,-2.1207008,488.83002,0.0,0.0,0.0,0.0,0.0,0.0,inf,inf,inf,inf,1,1,1,1,0,0,0,0,1,1,0
2587552000,0,47.3977508,8.5456074,-17.079475,-27.578417,-14.005005,0.0,0.0,0.0,-2.33,-3.76,-0.03,0.0,0.0,0.0,0.0,0.0,0.0,0.0,-2.1204562,488.83002,0.0,0.0,0.0,0.0,0.0,0.0,inf,inf,inf,inf,1,1,1,1,0,0,0,0,1,1,0
2587656000,0,47.3977508,8.5456074,-17.324102,-27.977343,-14.009003,0.0,0.0,0.0,-2.33,-3.76,-0.03,0.0,0.0,0.0,0.0,0.0,0.0,0.0,-2.1200676,488.83002,0.0,0.0,0.0,0.0,0.0,0.0,inf,inf,inf,inf,1,1,1,1,0,0,0,0,1,1,0
2587752000,0,47.3977508,8.5456074,-17.55761,-28.338633,-14.011993,0.0,0.0,0.0,-2.34,-3.77,-0.03,0.0,0.0,0.0,0.0,0.0,0.0,0.0,-2.119867,488.83002,0.0,0.0,0.0,0.0,0.0,0.0,inf,inf,inf,inf,1,1,1,1,0,0,0,0,1,1,0
2587856000,0,47.3977508,8.5456074,-17.802237,-28.73003,-14.015015,0.0,0.0,0.0,-2.34,-3.77,-0.03,0.0,0.0,0.0,0.0,0.0,0.0,0.0,-2.1198869,488.83002,0.0,0.0,0.0,0.0,0.0,0.0,inf,inf,inf,inf,1,1,1,1,0,0,0,0,1,1,0
2587956000,0,47.3977508,8.5456074,-18.035746,-29.106375,-14.018005,0.0,0.0,0.0,-2.34,-3.77,-0.03,0.0,0.0,0.0,0.0,0.0,0.0,0.0,-2.1200013,488.83002,0.0,0.0,0.0,0.0,0.0,0.0,inf,inf,inf,inf,1,1,1,1,0,0,0,0,1,1,0
2588056000,0,47.3977508,8.5456074,-18.269253,-29.490246,-14.022003,0.0,0.0,0.0,-2.34,-3.78,-0.03,0.0,0.0,0.0,0.0,0.0,0.0,0.0,-2.1198897,488.83002,0.0,0.0,0.0,0.0,0.0,0.0,inf,inf,inf,inf,1,1,1,1,0,0,0,0,1,1,0
2588156000,0,47.3977508,8.5456074,-18.50276,-29.86659,-14.024994,0.0,0.0,0.0,-2.34,-3.78,-0.02,0.0,0.0,0.0,0.0,0.0,0.0,0.0,-2.1198573,488.83002,0.0,0.0,0.0,0.0,0.0,0.0,inf,inf,inf,inf,1,1,1,1,0,0,0,0,1,1,0
2588256000,0,47.3977508,8.5456074,-18.736267,-30.250462,-14.027008,0.0,0.0,0.0,-2.34,-3.78,-0.02,0.0,0.0,0.0,0.0,0.0,0.0,0.0,-2.1197674,488.83002,0.0,0.0,0.0,0.0,0.0,0.0,inf,inf,inf,inf,1,1,1,1,0,0,0,0,1,1,0
2588356000,0,47.3977508,8.5456074,-18.958654,-30.611752,-14.029999,0.0,0.0,0.0,-2.34,-3.78,-0.02,0.0,0.0,0.0,0.0,0.0,0.0,0.0,-2.11967,488.83002,0.0,0.0,0.0,0.0,0.0,0.0,inf,inf,inf,inf,1,1,1,1,0,0,0,0,1,1,0
2588456000,0,47.3977508,8.5456074,-19.203281,-31.00315,-14.03302,0.0,0.0,0.0,-2.34,-3.78,-0.02,0.0,0.0,0.0,0.0,0.0,0.0,0.0,-2.119567,488.83002,0.0,0.0,0.0,0.0,0.0,0.0,inf,inf,inf,inf,1,1,1,1,0,0,0,0,1,1,0
2588556000,0,47.3977508,8.5456074,-19.436789,-31.387022,-14.035004,0.0,0.0,0.0,-2.34,-3.79,-0.02,0.0,0.0,0.0,0.0,0.0,0.0,0.0,-2.1195345,488.83002,0.0,0.0,0.0,0.0,0.0,0.0,inf,inf,inf,inf,1,1,1,1,0,0,0,0,1,1,0
2588656000,0,47.3977508,8.5456074,-19.670296,-31.748312,-14.037018,0.0,0.0,0.0,-2.34,-3.79,-0.02,0.0,0.0,0.0,0.0,0.0,0.0,0.0,-2.1193852,488.83002,0.0,0.0,0.0,0.0,0.0,0.0,inf,inf,inf,inf,1,1,1,1,0,0,0,0,1,1,0
2588756000,0,47.3977508,8.5456074,-19.914923,-32.147236,-14.039001,0.0,0.0,0.0,-2.34,-3.79,-0.01,0.0,0.0,0.0,0.0,0.0,0.0,0.0,-2.1190858,488.83002,0.0,0.0,0.0,0.0,0.0,0.0,inf,inf,inf,inf,1,1,1,1,0,0,0,0,1,1,0
2588856000,0,47.3977508,8.5456074,-20.14843,-32.53111,-14.041016,0.0,0.0,0.0,-2.34,-3.8,-0.02,0.0,0.0,0.0,0.0,0.0,0.0,0.0,-2.1188664,488.83002,0.0,0.0,0.0,0.0,0.0,0.0,inf,inf,inf,inf,1,1,1,1,0,0,0,0,1,1,0
2588956000,0,47.3977508,8.5456074,-20.381937,-32.90745,-14.044006,0.0,0.0,0.0,-2.35,-3.8,-0.02,0.0,0.0,0.0,0.0,0.0,0.0,0.0,-2.118902,488.83002,0.0,0.0,0.0,0.0,0.0,0.0,inf,inf,inf,inf,1,1,1,1,0,0,0,0,1,1,0
2589052000,0,47.3977508,8.5456074,-20.604326,-33.27627,-14.0460205,0.0,0.0,0.0,-2.35,-3.81,-0.02,0.0,0.0,0.0,0.0,0.0,0.0,0.0,-2.118929,488.83002,0.0,0.0,0.0,0.0,0.0,0.0,inf,inf,inf,inf,1,1,1,1,0,0,0,0,1,1,0
2589156000,0,47.3977508,8.5456074,-20.860071,-33.675198,-14.048004,0.0,0.0,0.0,-2.35,-3.82,-0.01,0.0,0.0,0.0,0.0,0.0,0.0,0.0,-2.118917,488.83002,0.0,0.0,0.0,0.0,0.0,0.0,inf,inf,inf,inf,1,1,1,1,0,0,0,0,1,1,0
2589256000,0,47.3977508,8.5456074,-21.082458,-34.044014,-14.050018,0.0,0.0,0.0,-2.36,-3.83,-0.01,0.0,0.0,0.0,0.0,0.0,0.0,0.0,-2.1188264,488.83002,0.0,0.0,0.0,0.0,0.0,0.0,inf,inf,inf,inf,1,1,1,1,0,0,0,0,1,1,0
2589356000,0,47.3977508,8.5456074,-21.327085,-34.44294,-14.052002,0.0,0.0,0.0,-2.36,-3.84,-0.01,0.0,0.0,0.0,0.0,0.0,0.0,0.0,-2.1187248,488.83002,0.0,0.0,0.0,0.0,0.0,0.0,inf,inf,inf,inf,1,1,1,1,0,0,0,0,1,1,0
2589456000,0,47.3977508,8.5456074,-21.560593,-34.83434,-14.053009,0.0,0.0,0.0,-2.36,-3.85,-0.01,0.0,0.0,0.0,0.0,0.0,0.0,0.0,-2.1183982,488.83002,0.0,0.0,0.0,0.0,0.0,0.0,inf,inf,inf,inf,1,1,1,1,0,0,0,0,1,1,0
2589556000,0,47.3977508,8.5456074,-21.80522,-35.21821,-14.054993,0.0,0.0,0.0,-2.36,-3.86,-0.01,0.0,0.0,0.0,0.0,0.0,0.0,0.0,-2.1183536,488.83002,0.0,0.0,0.0,0.0,0.0,0.0,inf,inf,inf,inf,1,1,1,1,0,0,0,0,1,1,0
2589656000,0,47.3977508,8.5456074,-22.027607,-35.594555,-14.057007,0.0,0.0,0.0,-2.37,-3.86,-0.01,0.0,0.0,0.0,0.0,0.0,0.0,0.0,-2.1181104,488.83002,0.0,0.0,0.0,0.0,0.0,0.0,inf,inf,inf,inf,1,1,1,1,0,0,0,0,1,1,0
2589752000,0,47.3977508,8.5456074,-22.272234,-35.978424,-14.059021,0.0,0.0,0.0,-2.37,-3.87,-0.01,0.0,0.0,0.0,0.0,0.0,0.0,0.0,-2.118011,488.83002,0.0,0.0,0.0,0.0,0.0,0.0,inf,inf,inf,inf,1,1,1,1,0,0,0,0,1,1,0
2589856000,0,47.3977508,8.5456074,-22.51686,-36.384876,-14.061005,0.0,0.0,0.0,-2.37,-3.8799999,-0.01,0.0,0.0,0.0,0.0,0.0,0.0,0.0,-2.1178865,488.83002,0.0,0.0,0.0,0.0,0.0,0.0,inf,inf,inf,inf,1,1,1,1,0,0,0,0,1,1,0
2589956000,0,47.3977508,8.5456074,-22.750366,-36.776276,-14.063019,0.0,0.0,0.0,-2.37,-3.8799999,-0.02,0.0,0.0,0.0,0.0,0.0,0.0,0.0,-2.1178398,488.83002,0.0,0.0,0.0,0.0,0.0,0.0,inf,inf,inf,inf,1,1,1,1,0,0,0,0,1,1,0
2590056000,0,47.3977508,8.5456074,-22.994993,-37.16015,-14.065002,0.0,0.0,0.0,-2.37,-3.8799999,-0.02,0.0,0.0,0.0,0.0,0.0,0.0,0.0,-2.1178465,488.83002,0.0,0.0,0.0,0.0,0.0,0.0,inf,inf,inf,inf,1,1,1,1,0,0,0,0,1,1,0
2590156000,0,47.3977508,8.5456074,-23.2285,-37.551548,-14.067017,0.0,0.0,0.0,-2.3799999,-3.8899999,-0.02,0.0,0.0,0.0,0.0,0.0,0.0,0.0,-2.1177828,488.83002,0.0,0.0,0.0,0.0,0.0,0.0,inf,inf,inf,inf,1,1,1,1,0,0,0,0,1,1,0
2590256000,0,47.3977508,8.5456074,-23.473125,-37.942947,-14.069,0.0,0.0,0.0,-2.3799999,-3.8899999,-0.01,0.0,0.0,0.0,0.0,0.0,0.0,0.0,-2.1176724,488.83002,0.0,0.0,0.0,0.0,0.0,0.0,inf,inf,inf,inf,1,1,1,1,0,0,0,0,1,1,0
2590356000,0,47.3977508,8.5456074,-23.706633,-38.334343,-14.070007,0.0,0.0,0.0,-2.3799999,-3.8999999,-0.01,0.0,0.0,0.0,0.0,0.0,0.0,0.0,-2.1176434,488.83002,0.0,0.0,0.0,0.0,0.0,0.0,inf,inf,inf,inf,1,1,1,1,0,0,0,0,1,1,0
2590456000,0,47.3977508,8.5456074,-23.95126,-38.725742,-14.0720215,0.0,0.0,0.0,-2.3799999,-3.8999999,-0.01,0.0,0.0,0.0,0.0,0.0,0.0,0.0,-2.1176767,488.83002,0.0,0.0,0.0,0.0,0.0,0.0,inf,inf,inf,inf,1,1,1,1,0,0,0,0,1,1,0
2590556000,0,47.3977508,8.5456074,-24.184767,-39.11714,-14.074005,0.0,0.0,0.0,-2.3799999,-3.8999999,-0.02,0.0,0.0,0.0,0.0,0.0,0.0,0.0,-2.1177063,488.83002,0.0,0.0,0.0,0.0,0.0,0.0,inf,inf,inf,inf,1,1,1,1,0,0,0,0,1,1,0
2590652000,0,47.3977508,8.5456074,-24.418272,-39.49349,-14.076019,0.0,0.0,0.0,-2.3799999,-3.8999999,-0.02,0.0,0.0,0.0,0.0,0.0,0.0,0.0,-2.1175942,488.83002,0.0,0.0,0.0,0.0,0.0,0.0,inf,inf,inf,inf,1,1,1,1,0,0,0,0,1,1,0
2590756000,0,47.3977508,8.5456074,-24.662899,-39.89994,-14.07901,0.0,0.0,0.0,-2.3899999,-3.9099998,-0.02,0.0,0.0,0.0,0.0,0.0,0.0,0.0,-2.117674,488.83002,0.0,0.0,0.0,0.0,0.0,0.0,inf,inf,inf,inf,1,1,1,1,0,0,0,0,1,1,0
2590856000,0,47.3977508,8.5456074,-24.907524,-40.298866,-14.080994,0.0,0.0,0.0,-2.3899999,-3.9099998,-0.02,0.0,0.0,0.0,0.0,0.0,0.0,0.0,-2.117651,488.83002,0.0,0.0,0.0,0.0,0.0,0.0,inf,inf,inf,inf,1,1,1,1,0,0,0,0,1,1,0
2590952000,0,47.3977508,8.5456074,-25.141031,-40.67521,-14.083008,0.0,0.0,0.0,-2.3899999,-3.9099998,-0.02,0.0,0.0,0.0,0.0,0.0,0.0,0.0,-2.1177728,488.83002,0.0,0.0,0.0,0.0,0.0,0.0,inf,inf,inf,inf,1,1,1,1,0,0,0,0,1,1,0
2591056000,0,47.3977508,8.5456074,-25.385658,-41.081665,-14.085022,0.0,0.0,0.0,-2.3899999,-3.9099998,-0.01,0.0,0.0,0.0,0.0,0.0,0.0,0.0,-2.117711,488.83002,0.0,0.0,0.0,0.0,0.0,0.0,inf,inf,inf,inf,1,1,1,1,0,0,0,0,1,1,0
2591156000,0,47.3977508,8.5456074,-25.630283,-41.473064,-14.087006,0.0,0.0,0.0,-2.3999999,-3.9199998,-0.01,0.0,0.0,0.0,0.0,0.0,0.0,0.0,-2.1177764,488.83002,0.0,0.0,0.0,0.0,0.0,0.0,inf,inf,inf,inf,1,1,1,1,0,0,0,0,1,1,0
2591256000,0,47.3977508,8.5456074,-25.87491,-41.86446,-14.08902,0.0,0.0,0.0,-2.3999999,-3.9199998,-0.01,0.0,0.0,0.0,0.0,0.0,0.0,0.0,-2.117912,488.83002,0.0,0.0,0.0,0.0,0.0,0.0,inf,inf,inf,inf,1,1,1,1,0,0,0,0,1,1,0
2591352000,0,47.3977508,8.5456074,-26.097298,-42.248333,-14.091003,0.0,0.0,0.0,-2.3999999,-3.9199998,-0.02,0.0,0.0,0.0,0.0,0.0,0.0,0.0,-2.11791,488.83002,0.0,0.0,0.0,0.0,0.0,0.0,inf,inf,inf,inf,1,1,1,1,0,0,0,0,1,1,0
2591456000,0,47.3977508,8.5456074,-26.341923,-42.639732,-14.093018,0.0,0.0,0.0,-2.3999999,-3.9199998,-0.02,0.0,0.0,0.0,0.0,0.0,0.0,0.0,-2.1180234,488.83002,0.0,0.0,0.0,0.0,0.0,0.0,inf,inf,inf,inf,1,1,1,1,0,0,0,0,1,1,0
2591556000,0,47.3977508,8.5456074,-26.597668,-43.046185,-14.095001,0.0,0.0,0.0,-2.3999999,-3.9299998,-0.02,0.0,0.0,0.0,0.0,0.0,0.0,0.0,-2.1180751,488.83002,0.0,0.0,0.0,0.0,0.0,0.0,inf,inf,inf,inf,1,1,1,1,0,0,0,0,1,1,0
2591656000,0,47.3977508,8.5456074,-26.831175,-43.44511,-14.097015,0.0,0.0,0.0,-2.3999999,-3.9299998,-0.01,0.0,0.0,0.0,0.0,0.0,0.0,0.0,-2.1180844,488.83002,0.0,0.0,0.0,0.0,0.0,0.0,inf,inf,inf,inf,1,1,1,1,0,0,0,0,1,1,0
2591756000,0,47.3977508,8.5456074,-27.0758,-43.83651,-14.098999,0.0,0.0,0.0,-2.3999999,-3.9299998,-0.01,0.0,0.0,0.0,0.0,0.0,0.0,0.0,-2.1180727,488.83002,0.0,0.0,0.0,0.0,0.0,0.0,inf,inf,inf,inf,1,1,1,1,0,0,0,0,1,1,0
2591856000,0,47.3977508,8.5456074,-27.320427,-44.235435,-14.100006,0.0,0.0,0.0,-2.3999999,-3.9399998,-0.01,0.0,0.0,0.0,0.0,0.0,0.0,0.0,-2.1179957,488.83002,0.0,0.0,0.0,0.0,0.0,0.0,inf,inf,inf,inf,1,1,1,1,0,0,0,0,1,1,0
2591956000,0,47.3977508,8.5456074,-27.565052,-44.626835,-14.10202,0.0,0.0,0.0,-2.3999999,-3.9399998,-0.01,0.0,0.0,0.0,0.0,0.0,0.0,0.0,-2.117856,488.83002,0.0,0.0,0.0,0.0,0.0,0.0,inf,inf,inf,inf,1,1,1,1,0,0,0,0,1,1,0
2592056000,0,47.3977508,8.5456074,-27.79856,-45.025764,-14.102997,0.0,0.0,0.0,-2.3999999,-3.9399998,-0.01,0.0,0.0,0.0,0.0,0.0,0.0,0.0,-2.1177754,488.83002,0.0,0.0,0.0,0.0,0.0,0.0,inf,inf,inf,inf,1,1,1,1,0,0,0,0,1,1,0
2592152000,0,47.3977508,8.5456074,-28.020947,-45.387054,-14.105011,0.0,0.0,0.0,-2.3999999,-3.9399998,-0.01,0.0,0.0,0.0,0.0,0.0,0.0,0.0,-2.1177044,488.83002,0.0,0.0,0.0,0.0,0.0,0.0,inf,inf,inf,inf,1,1,1,1,0,0,0,0,1,1,0
2592256000,0,47.3977508,8.5456074,-28.28781,-45.81609,-14.106995,0.0,0.0,0.0,-2.3999999,-3.9399998,-0.01,0.0,0.0,0.0,0.0,0.0,0.0,0.0,-2.1176138,488.83002,0.0,0.0,0.0,0.0,0.0,0.0,inf,inf,inf,inf,1,1,1,1,0,0,0,0,1,1,0
2592352000,0,47.3977508,8.5456074,-28.510197,-46.192432,-14.109009,0.0,0.0,0.0,-2.3999999,-3.9399998,-0.01,0.0,0.0,0.0,0.0,0.0,0.0,0.0,-2.1175938,488.83002,0.0,0.0,0.0,0.0,0.0,0.0,inf,inf,inf,inf,1,1,1,1,0,0,0,0,1,1,0
2592456000,0,47.3977508,8.5456074,-28.765942,-46.606415,-14.110016,0.0,0.0,0.0,-2.3999999,-3.9399998,-0.01,0.0,0.0,0.0,0.0,0.0,0.0,0.0,-2.11765,488.83002,0.0,0.0,0.0,0.0,0.0,0.0,inf,inf,inf,inf,1,1,1,1,0,0,0,0,1,1,0
2592556000,0,47.3977508,8.5456074,-29.010569,-47.00534,-14.1119995,0.0,0.0,0.0,-2.3999999,-3.9499998,-0.01,0.0,0.0,0.0,0.0,0.0,0.0,0.0,-2.117569,488.83002,0.0,0.0,0.0,0.0,0.0,0.0,inf,inf,inf,inf,1,1,1,1,0,0,0,0,1,1,0
2592656000,0,47.3977508,8.5456074,-29.244074,-47.39674,-14.114014,0.0,0.0,0.0,-2.3999999,-3.9499998,-0.01,0.0,0.0,0.0,0.0,0.0,0.0,0.0,-2.117568,488.83002,0.0,0.0,0.0,0.0,0.0,0.0,inf,inf,inf,inf,1,1,1,1,0,0,0,0,1,1,0
